% program   : RTKLIB ver.2.4.3
% inp file  : _by_type/_obs/tuati/20181113.18o
% inp file  : _by_type/_obs/base/20181112.18o
% inp file  : _by_type/_sp3+clk/igs20272.clk
% inp file  : _by_type/_sp3+clk/igs20272.sp3
% inp file  : _by_type/_nav/tuati/20181113.18n
% obs start : 2018/11/13 00:00:00.0 GPST (week2027 172800.0s)
% obs end   : 2018/11/13 23:59:30.0 GPST (week2027 259170.0s)
% pos mode  : dgps
% freqs     : L1+L2
% solution  : combined
% elev mask : 15.0 deg
% dynamics  : off
% tidecorr  : off
% ionos opt : iono-free
% tropo opt : est ztd+grad
% ephemeris : precise
% navi sys  : gps glonass
% antenna1  :                       ( 0.0000  0.0000  0.0000)
% antenna2  :                       ( 0.0000  0.0000  0.0000)
% ref pos   : 90.000000000   0.000000000-6335367.6285
%
% (lat/lon/height=WGS84/ellipsoidal,Q=1:fix,2:float,3:sbas,4:dgps,5:single,6:ppp,ns=# of satellites)
%  GPST                  latitude(deg) longitude(deg)  height(m)   Q  ns   sdn(m)   sde(m)   sdu(m)  sdne(m)  sdeu(m)  sdun(m) age(s)  ratio
2018/11/13 00:00:00.000  -74.425556999  163.418435677    64.5676   5  10   0.6643   0.6327   2.4125  -0.3118   0.8393  -0.7992  15.00    0.0
2018/11/13 00:00:30.000  -74.425557753  163.418431095    63.7934   5  10   0.6654   0.6342   2.4267  -0.3144   0.8467  -0.8052  45.00    0.0
2018/11/13 00:01:00.000  -74.425558795  163.418436982    63.6937   5  10   0.6668   0.6360   2.4420  -0.3173   0.8546  -0.8116  75.00    0.0
2018/11/13 00:01:30.000  -74.425558370  163.418435020    63.4010   5  11   0.6557   0.6382   2.3630  -0.3191   0.8652  -0.8708 105.00    0.0
2018/11/13 00:02:00.000  -74.425559269  163.418442212    63.2894   5  11   0.6575   0.6408   2.3811  -0.3225   0.8738  -0.8779 135.00    0.0
2018/11/13 00:02:30.000  -74.425560633  163.418440354    63.4267   5  11   0.6597   0.6437   2.4003  -0.3261   0.8828  -0.8854 165.00    0.0
2018/11/13 00:03:00.000  -74.425560890  163.418440584    63.6390   5  11   0.6593   0.6432   2.4086  -0.3276   0.8866  -0.8892 195.00    0.0
2018/11/13 00:03:30.000  -74.425556602  163.418440103    63.9611   5  11   0.6593   0.6432   2.4177  -0.3292   0.8908  -0.8933 225.00    0.0
2018/11/13 00:04:00.000  -74.425559524  163.418446081    64.0111   5  11   0.6595   0.6434   2.4278  -0.3310   0.8954  -0.8977 255.00    0.0
2018/11/13 00:04:30.000  -74.425557510  163.418439025    62.7982   5  11   0.6600   0.6440   2.4388  -0.3330   0.9004  -0.9025 285.00    0.0
2018/11/13 00:05:00.000  -74.425558135  163.418438362    63.5591   5  11   0.6608   0.6449   2.4507  -0.3352   0.9058  -0.9076 315.00    0.0
2018/11/13 00:05:30.000  -74.425558480  163.418435935    63.6366   5  11   0.6620   0.6463   2.4640  -0.3377   0.9119  -0.9132 345.00    0.0
2018/11/13 00:06:00.000  -74.425559670  163.418443744    63.4342   5  11   0.6634   0.6480   2.4782  -0.3404   0.9184  -0.9192 375.00    0.0
2018/11/13 00:06:30.000  -74.425555770  163.418437582    63.4729   5  11   0.6651   0.6500   2.4932  -0.3433   0.9252  -0.9254 405.00    0.0
2018/11/13 00:07:00.000  -74.425558243  163.418431117    62.9092   5  11   0.6671   0.6524   2.5091  -0.3463   0.9324  -0.9320 435.00    0.0
2018/11/13 00:07:30.000  -74.425559777  163.418449436    64.1027   5  11   0.6693   0.6550   2.5257  -0.3495   0.9399  -0.9388 465.00    0.0
2018/11/13 00:08:00.000  -74.425560324  163.418450876    64.1548   5  11   0.6690   0.6543   2.5308  -0.3504   0.9419  -0.9417 495.00    0.0
2018/11/13 00:08:30.000  -74.425557829  163.418447871    63.2730   5  11   0.6690   0.6539   2.5368  -0.3516   0.9444  -0.9449 525.00    0.0
2018/11/13 00:09:00.000  -74.425557788  163.418440237    63.7789   5  11   0.6693   0.6539   2.5434  -0.3529   0.9472  -0.9484 555.00    0.0
2018/11/13 00:09:30.000  -74.425555304  163.418444475    63.0145   5  11   0.6698   0.6541   2.5508  -0.3543   0.9503  -0.9521 585.00    0.0
2018/11/13 00:10:00.000  -74.425557414  163.418444090    63.3713   5  11   0.6706   0.6546   2.5589  -0.3559   0.9537  -0.9560 615.00    0.0
2018/11/13 00:10:30.000  -74.425555332  163.418444658    62.8901   5  11   0.6717   0.6556   2.5680  -0.3577   0.9576  -0.9604 645.00    0.0
2018/11/13 00:11:00.000  -74.425555934  163.418435402    62.8131   5  11   0.6731   0.6568   2.5778  -0.3596   0.9617  -0.9649 675.00    0.0
2018/11/13 00:11:30.000  -74.425556962  163.418435371    62.9598   5  11   0.6747   0.6583   2.5881  -0.3617   0.9661  -0.9697 705.00    0.0
2018/11/13 00:12:00.000  -74.425557860  163.418440798    63.4039   5  11   0.6765   0.6601   2.5990  -0.3638   0.9707  -0.9746 735.00    0.0
2018/11/13 00:12:30.000  -74.425556818  163.418438421    62.6043   5  11   0.6786   0.6621   2.6104  -0.3661   0.9754  -0.9797 765.00    0.0
2018/11/13 00:13:00.000  -74.425555552  163.418432462    61.8919   5  11   0.6782   0.6608   2.6103  -0.3662   0.9749  -0.9809 795.00    0.0
2018/11/13 00:13:30.000  -74.425556589  163.418439166    63.5208   5  11   0.6781   0.6599   2.6108  -0.3664   0.9747  -0.9822 825.00    0.0
2018/11/13 00:14:00.000  -74.425557692  163.418425946    62.0468   5  11   0.6781   0.6592   2.6118  -0.3668   0.9747  -0.9838 855.00    0.0
2018/11/13 00:14:30.000  -74.425557673  163.418437243    62.6053   5  11   0.6784   0.6587   2.6132  -0.3672   0.9749  -0.9855 885.00    0.0
2018/11/13 00:15:00.000  -74.425556074  163.418425990    62.0742   5  11   0.6790   0.6586   2.6152  -0.3678   0.9752  -0.9874 915.00    0.0
2018/11/13 00:15:30.000  -74.425559341  163.418443755    63.3467   5  11   0.6798   0.6588   2.6180  -0.3685   0.9759  -0.9895 945.00    0.0
2018/11/13 00:16:00.000  -74.425556791  163.418435386    62.2397   5  11   0.6809   0.6592   2.6212  -0.3692   0.9768  -0.9917 975.00    0.0
2018/11/13 00:16:30.000  -74.425556397  163.418433028    62.5881   5  11   0.6821   0.6599   2.6248  -0.3701   0.9777  -0.9941 1005.00    0.0
2018/11/13 00:17:00.000  -74.425559055  163.418442821    62.8012   5  11   0.6836   0.6608   2.6288  -0.3709   0.9788  -0.9965 1035.00    0.0
2018/11/13 00:17:30.000  -74.425555189  163.418432504    61.4802   5  11   0.6853   0.6620   2.6332  -0.3719   0.9799  -0.9991 1065.00    0.0
2018/11/13 00:18:00.000  -74.425555756  163.418432654    61.8807   5  11   0.6846   0.6600   2.6265  -0.3709   0.9763  -0.9979 1095.00    0.0
2018/11/13 00:18:30.000  -74.425554673  163.418435280    61.9284   5  11   0.6841   0.6583   2.6202  -0.3699   0.9728  -0.9969 1125.00    0.0
2018/11/13 00:19:00.000  -74.425557169  163.418433510    61.8404   5  11   0.6838   0.6568   2.6142  -0.3691   0.9694  -0.9959 1155.00    0.0
2018/11/13 00:19:30.000  -74.425554536  163.418434747    62.0473   5  11   0.6837   0.6556   2.6087  -0.3683   0.9662  -0.9951 1185.00    0.0
2018/11/13 00:20:00.000  -74.425556801  163.418428443    62.1686   5  11   0.6839   0.6546   2.6037  -0.3675   0.9631  -0.9944 1215.00    0.0
2018/11/13 00:20:30.000  -74.425556116  163.418426980    61.9737   5  11   0.6843   0.6540   2.5995  -0.3669   0.9602  -0.9939 1245.00    0.0
2018/11/13 00:21:00.000  -74.425555985  163.418436682    61.9438   5  11   0.6849   0.6536   2.5957  -0.3663   0.9575  -0.9935 1275.00    0.0
2018/11/13 00:21:30.000  -74.425557142  163.418428777    62.4582   5  11   0.6857   0.6535   2.5923  -0.3658   0.9549  -0.9932 1305.00    0.0
2018/11/13 00:22:00.000  -74.425557067  163.418427571    61.9046   5  11   0.6868   0.6536   2.5894  -0.3653   0.9524  -0.9930 1335.00    0.0
2018/11/13 00:22:30.000  -74.425555949  163.418432270    62.2286   5  11   0.6880   0.6539   2.5870  -0.3649   0.9500  -0.9929 1365.00    0.0
2018/11/13 00:23:00.000  -74.425555414  163.418428942    61.8568   5  11   0.6869   0.6513   2.5738  -0.3627   0.9433  -0.9893 1395.00    0.0
2018/11/13 00:23:30.000  -74.425556768  163.418424809    61.8077   5  11   0.6860   0.6489   2.5612  -0.3606   0.9366  -0.9860 1425.00    0.0
2018/11/13 00:24:00.000  -74.425556551  163.418431196    62.2304   5  11   0.6854   0.6468   2.5492  -0.3585   0.9302  -0.9827 1455.00    0.0
2018/11/13 00:24:30.000  -74.425558670  163.418435708    63.1236   5  11   0.6849   0.6449   2.5378  -0.3566   0.9240  -0.9796 1485.00    0.0
2018/11/13 00:25:00.000  -74.425555115  163.418433074    61.6090   5  11   0.6847   0.6433   2.5269  -0.3546   0.9179  -0.9766 1515.00    0.0
2018/11/13 00:25:30.000  -74.425553670  163.418435684    61.9635   5  11   0.6848   0.6421   2.5170  -0.3528   0.9121  -0.9739 1545.00    0.0
2018/11/13 00:26:00.000  -74.425553478  163.418429627    61.1994   5  10   0.9380   0.6741   3.5816  -0.5067   1.1637  -1.6069 1575.00    0.0
2018/11/13 00:26:30.000  -74.425555934  163.418430034    61.0603   5  10   0.9379   0.6727   3.5703  -0.5039   1.1563  -1.6033 1605.00    0.0
2018/11/13 00:27:00.000  -74.425550918  163.418426044    58.9998   5  10   0.9379   0.6716   3.5593  -0.5012   1.1489  -1.6000 1635.00    0.0
2018/11/13 00:27:30.000  -74.425550113  163.418433741    59.6460   5  10   0.9382   0.6707   3.5489  -0.4984   1.1415  -1.5967 1665.00    0.0
2018/11/13 00:28:00.000  -74.425551049  163.418429183    59.0148   5  10   0.9340   0.6666   3.5186  -0.4926   1.1275  -1.5847 1695.00    0.0
2018/11/13 00:28:30.000  -74.425556662  163.418431110    61.0656   5  10   0.9299   0.6627   3.4888  -0.4869   1.1138  -1.5728 1725.00    0.0
2018/11/13 00:29:00.000  -74.425552585  163.418432600    59.4617   5  10   0.9262   0.6592   3.4599  -0.4812   1.1002  -1.5613 1755.00    0.0
2018/11/13 00:29:30.000  -74.425552760  163.418425895    59.5181   5  10   0.9228   0.6559   3.4319  -0.4756   1.0868  -1.5501 1785.00    0.0
2018/11/13 00:30:00.000  -74.425555908  163.418437058    60.6003   5   9   0.9238   0.6531   3.6582  -0.4691   1.0674  -1.5771 1815.00    0.0
2018/11/13 00:30:30.000  -74.425553867  163.418431523    59.6904   5   9   0.9213   0.6505   3.6367  -0.4637   1.0545  -1.5682 1845.00    0.0
2018/11/13 00:31:00.000  -74.425553938  163.418433747    60.4867   5   9   0.9191   0.6483   3.6164  -0.4584   1.0418  -1.5597 1875.00    0.0
2018/11/13 00:31:30.000  -74.425554413  163.418431639    60.0320   5   9   0.9172   0.6463   3.5974  -0.4532   1.0292  -1.5517 1905.00    0.0
2018/11/13 00:32:00.000  -74.425555522  163.418431931    60.0920   5   9   0.9157   0.6447   3.5796  -0.4481   1.0167  -1.5441 1935.00    0.0
2018/11/13 00:32:30.000  -74.425556172  163.418434776    61.3546   5  10   0.7511   0.6391   2.6938  -0.3975   0.9153  -1.0705 1965.00    0.0
2018/11/13 00:33:00.000  -74.425556156  163.418434293    61.5155   5  10   0.7491   0.6356   2.6780  -0.3939   0.9056  -1.0650 1995.00    0.0
2018/11/13 00:33:30.000  -74.425555461  163.418433753    61.5019   5  10   0.7474   0.6324   2.6630  -0.3904   0.8961  -1.0597 2025.00    0.0
2018/11/13 00:34:00.000  -74.425557964  163.418441076    62.1516   5  10   0.7460   0.6295   2.6490  -0.3871   0.8868  -1.0546 2055.00    0.0
2018/11/13 00:34:30.000  -74.425555622  163.418432340    61.5281   5  10   0.7448   0.6269   2.6358  -0.3839   0.8778  -1.0498 2085.00    0.0
2018/11/13 00:35:00.000  -74.425556158  163.418442336    61.9028   5  10   0.7438   0.6246   2.6236  -0.3808   0.8690  -1.0452 2115.00    0.0
2018/11/13 00:35:30.000  -74.425555976  163.418437537    61.7740   5  10   0.7432   0.6226   2.6128  -0.3779   0.8605  -1.0411 2145.00    0.0
2018/11/13 00:36:00.000  -74.425558103  163.418441178    61.4609   5  10   0.7429   0.6210   2.6031  -0.3751   0.8523  -1.0373 2175.00    0.0
2018/11/13 00:36:30.000  -74.425556301  163.418433463    60.9629   5  10   0.7429   0.6196   2.5945  -0.3724   0.8443  -1.0337 2205.00    0.0
2018/11/13 00:37:00.000  -74.425559850  163.418445364    62.4360   5  10   0.7431   0.6185   2.5871  -0.3699   0.8365  -1.0305 2235.00    0.0
2018/11/13 00:37:30.000  -74.425561576  163.418440575    63.0014   5  10   0.7436   0.6177   2.5807  -0.3675   0.8289  -1.0276 2265.00    0.0
2018/11/13 00:38:00.000  -74.425561063  163.418446924    63.3828   5  10   0.7414   0.6143   2.5613  -0.3633   0.8174  -1.0206 2295.00    0.0
2018/11/13 00:38:30.000  -74.425557758  163.418429658    62.3296   5  10   0.7396   0.6112   2.5429  -0.3592   0.8062  -1.0139 2325.00    0.0
2018/11/13 00:39:00.000  -74.425559273  163.418436315    62.5986   5  10   0.7380   0.6084   2.5258  -0.3553   0.7953  -1.0075 2355.00    0.0
2018/11/13 00:39:30.000  -74.425559243  163.418436740    63.3131   5  10   0.7367   0.6059   2.5099  -0.3516   0.7846  -1.0016 2385.00    0.0
2018/11/13 00:40:00.000  -74.425559926  163.418437702    62.6691   5  10   0.7356   0.6037   2.4952  -0.3480   0.7743  -0.9960 2415.00    0.0
2018/11/13 00:40:30.000  -74.425558438  163.418429823    61.5557   5  10   0.7350   0.6019   2.4823  -0.3446   0.7644  -0.9908 2445.00    0.0
2018/11/13 00:41:00.000  -74.425558498  163.418436869    62.0650   5  10   0.7346   0.6005   2.4707  -0.3413   0.7547  -0.9861 2475.00    0.0
2018/11/13 00:41:30.000  -74.425560399  163.418441330    63.1576   5  10   0.7345   0.5993   2.4605  -0.3382   0.7453  -0.9818 2505.00    0.0
2018/11/13 00:42:00.000  -74.425557954  163.418434466    62.8646   5  10   0.7347   0.5984   2.4517  -0.3352   0.7361  -0.9778 2535.00    0.0
2018/11/13 00:42:30.000  -74.425558410  163.418437874    62.3459   5  10   0.7352   0.5978   2.4443  -0.3324   0.7271  -0.9743 2565.00    0.0
2018/11/13 00:43:00.000  -74.425558116  163.418432941    62.0197   5  10   0.7331   0.5948   2.4238  -0.3279   0.7148  -0.9668 2595.00    0.0
2018/11/13 00:43:30.000  -74.425557529  163.418436842    63.1091   5  10   0.7313   0.5920   2.4045  -0.3237   0.7028  -0.9597 2625.00    0.0
2018/11/13 00:44:00.000  -74.425556531  163.418435686    62.2852   5  10   0.7297   0.5896   2.3867  -0.3196   0.6910  -0.9530 2655.00    0.0
2018/11/13 00:44:30.000  -74.425556969  163.418435745    62.7812   5  10   0.7285   0.5875   2.3703  -0.3157   0.6796  -0.9468 2685.00    0.0
2018/11/13 00:45:00.000  -74.425559572  163.418437502    62.1345   5  10   0.7276   0.5858   2.3554  -0.3119   0.6685  -0.9410 2715.00    0.0
2018/11/13 00:45:30.000  -74.425557214  163.418440132    62.6134   5  10   0.7271   0.5844   2.3425  -0.3083   0.6577  -0.9357 2745.00    0.0
2018/11/13 00:46:00.000  -74.425556990  163.418444036    62.4373   5  10   0.7268   0.5833   2.3311  -0.3048   0.6472  -0.9309 2775.00    0.0
2018/11/13 00:46:30.000  -74.425558979  163.418440989    62.7708   5  10   0.7268   0.5825   2.3212  -0.3015   0.6369  -0.9265 2805.00    0.0
2018/11/13 00:47:00.000  -74.425558340  163.418438075    62.8242   5  10   0.7271   0.5820   2.3128  -0.2983   0.6268  -0.9225 2835.00    0.0
2018/11/13 00:47:30.000  -74.425559096  163.418438886    62.2185   5  10   0.7277   0.5819   2.3058  -0.2952   0.6169  -0.9190 2865.00    0.0
2018/11/13 00:48:00.000  -74.425557051  163.418437122    61.9408   5  10   0.7259   0.5794   2.2859  -0.2908   0.6042  -0.9117 2895.00    0.0
2018/11/13 00:48:30.000  -74.425558633  163.418443521    62.5034   5  10   0.7243   0.5772   2.2675  -0.2866   0.5917  -0.9049 2925.00    0.0
2018/11/13 00:49:00.000  -74.425556983  163.418449473    61.4381   5  10   0.7230   0.5753   2.2507  -0.2825   0.5796  -0.8985 2955.00    0.0
2018/11/13 00:49:30.000  -74.425559820  163.418442334    62.3202   5  10   0.7220   0.5737   2.2354  -0.2785   0.5677  -0.8927 2985.00    0.0
2018/11/13 00:50:00.000  -74.425559173  163.418443293    63.2450   5  10   0.7213   0.5724   2.2217  -0.2747   0.5560  -0.8872 3015.00    0.0
2018/11/13 00:50:30.000  -74.425560691  163.418445099    62.5660   5  10   0.7210   0.5715   2.2100  -0.2711   0.5445  -0.8823 3045.00    0.0
2018/11/13 00:51:00.000  -74.425560332  163.418443996    62.4227   5  10   0.7209   0.5709   2.1999  -0.2675   0.5331  -0.8779 3075.00    0.0
2018/11/13 00:51:30.000  -74.425558387  163.418434380    62.3266   5  10   0.7212   0.5707   2.1913  -0.2641   0.5219  -0.8739 3105.00    0.0
2018/11/13 00:52:00.000  -74.425558543  163.418444862    62.3135   5  10   0.7217   0.5707   2.1843  -0.2608   0.5107  -0.8702 3135.00    0.0
2018/11/13 00:52:30.000  -74.425559394  163.418436866    63.3585   5  10   0.7225   0.5710   2.1787  -0.2576   0.4996  -0.8670 3165.00    0.0
2018/11/13 00:53:00.000  -74.425558512  163.418441462    62.6046   5  10   0.7209   0.5690   2.1607  -0.2533   0.4864  -0.8605 3195.00    0.0
2018/11/13 00:53:30.000  -74.425561976  163.418445928    63.1277   5  11   0.6203   0.5502   1.7993  -0.1070   0.2497  -0.5517 3225.00    0.0
2018/11/13 00:54:00.000  -74.425558565  163.418449897    62.6982   5  11   0.6198   0.5494   1.7925  -0.1025   0.2355  -0.5499 3255.00    0.0
2018/11/13 00:54:30.000  -74.425559720  163.418448391    63.1122   5  11   0.6196   0.5489   1.7868  -0.0978   0.2204  -0.5482 3285.00    0.0
2018/11/13 00:55:00.000  -74.425559157  163.418449033    62.7143   5  11   0.6196   0.5487   1.7823  -0.0929   0.2042  -0.5466 3315.00    0.0
2018/11/13 00:55:30.000  -74.425560183  163.418442391    63.4860   5  11   0.6198   0.5488   1.7793  -0.0878   0.1865  -0.5452 3345.00    0.0
2018/11/13 00:56:00.000  -74.425561973  163.418442259    63.6012   5  11   0.6203   0.5491   1.7776  -0.0823   0.1668  -0.5440 3375.00    0.0
2018/11/13 00:56:30.000  -74.425561569  163.418446989    63.2417   5  11   0.6209   0.5498   1.7770  -0.0766   0.1442  -0.5429 3405.00    0.0
2018/11/13 00:57:00.000  -74.425559824  163.418450406    63.3487   5  11   0.6218   0.5507   1.7776  -0.0703   0.1169  -0.5420 3435.00    0.0
2018/11/13 00:57:30.000  -74.425562785  163.418445608    63.1986   5  12   0.6153   0.5289   1.7126  -0.1390  -0.2639  -0.5831 3465.00    0.0
2018/11/13 00:58:00.000  -74.425560549  163.418439801    63.0149   5  12   0.6143   0.5280   1.7071  -0.1363  -0.2726  -0.5812 3495.00    0.0
2018/11/13 00:58:30.000  -74.425563924  163.418446528    63.4970   5  12   0.6136   0.5273   1.7026  -0.1336  -0.2812  -0.5796 3525.00    0.0
2018/11/13 00:59:00.000  -74.425562077  163.418449516    63.3423   5  12   0.6130   0.5268   1.6991  -0.1309  -0.2899  -0.5781 3555.00    0.0
2018/11/13 00:59:30.000  -74.425562983  163.418441832    63.5057   5  12   0.6127   0.5266   1.6968  -0.1282  -0.2986  -0.5769 3585.00    0.0
2018/11/13 01:00:00.000  -74.425562564  163.418442331    63.9205   5  12   0.6126   0.5267   1.6956  -0.1256  -0.3074  -0.5758 3615.00    0.0
2018/11/13 01:00:30.000  -74.425561139  163.418439131    63.2921   5  12   0.6127   0.5270   1.6958  -0.1230  -0.3163  -0.5749 3645.00    0.0
2018/11/13 01:01:00.000  -74.425563394  163.418440236    63.6541   5  12   0.6130   0.5276   1.6972  -0.1204  -0.3254  -0.5742 3675.00    0.0
2018/11/13 01:01:30.000  -74.425560616  163.418442041    62.8178   5  12   0.6135   0.5284   1.6997  -0.1179  -0.3345  -0.5737 3705.00    0.0
2018/11/13 01:02:00.000  -74.425561348  163.418438784    63.0062   5  12   0.6142   0.5295   1.7034  -0.1153  -0.3437  -0.5733 3735.00    0.0
2018/11/13 01:02:30.000  -74.425562640  163.418439497    63.6936   5  12   0.6152   0.5309   1.7082  -0.1128  -0.3531  -0.5732 3765.00    0.0
2018/11/13 01:03:00.000  -74.425562645  163.418446097    63.3040   5  12   0.6143   0.5301   1.7032  -0.1095  -0.3592  -0.5716 3795.00    0.0
2018/11/13 01:03:30.000  -74.425562135  163.418439809    62.5566   5  12   0.6137   0.5297   1.6995  -0.1062  -0.3656  -0.5703 3825.00    0.0
2018/11/13 01:04:00.000  -74.425561738  163.418437539    63.6166   5  12   0.6133   0.5294   1.6968  -0.1030  -0.3721  -0.5691 3855.00    0.0
2018/11/13 01:04:30.000  -74.425563994  163.418442880    63.3833   5  12   0.6131   0.5294   1.6953  -0.0997  -0.3787  -0.5682 3885.00    0.0
2018/11/13 01:05:00.000  -74.425564517  163.418438980    63.6131   5  12   0.6130   0.5297   1.6949  -0.0963  -0.3856  -0.5674 3915.00    0.0
2018/11/13 01:05:30.000  -74.425562107  163.418445218    63.2371   5  12   0.6133   0.5303   1.6960  -0.0930  -0.3928  -0.5668 3945.00    0.0
2018/11/13 01:06:00.000  -74.425559541  163.418449833    63.2908   5  12   0.6137   0.5311   1.6983  -0.0896  -0.4001  -0.5664 3975.00    0.0
2018/11/13 01:06:30.000  -74.425561309  163.418443079    63.8381   5  12   0.6143   0.5321   1.7017  -0.0861  -0.4077  -0.5662 4005.00    0.0
2018/11/13 01:07:00.000  -74.425562971  163.418440018    64.0094   5  12   0.6152   0.5334   1.7062  -0.0826  -0.4154  -0.5662 4035.00    0.0
2018/11/13 01:07:30.000  -74.425561479  163.418442733    64.0546   5  12   0.6162   0.5349   1.7119  -0.0790  -0.4234  -0.5664 4065.00    0.0
2018/11/13 01:08:00.000  -74.425562214  163.418441986    63.2307   5  12   0.6155   0.5344   1.7079  -0.0744  -0.4283  -0.5652 4095.00    0.0
2018/11/13 01:08:30.000  -74.425560880  163.418445995    62.8664   5  12   0.6150   0.5341   1.7049  -0.0697  -0.4334  -0.5642 4125.00    0.0
2018/11/13 01:09:00.000  -74.425560543  163.418444644    63.1515   5  12   0.6146   0.5341   1.7030  -0.0647  -0.4388  -0.5633 4155.00    0.0
2018/11/13 01:09:30.000  -74.425562255  163.418437593    62.9214   5  12   0.6145   0.5343   1.7023  -0.0594  -0.4443  -0.5627 4185.00    0.0
2018/11/13 01:10:00.000  -74.425564557  163.418442982    64.1135   5  12   0.6146   0.5348   1.7028  -0.0536  -0.4501  -0.5623 4215.00    0.0
2018/11/13 01:10:30.000  -74.425561318  163.418435840    63.3411   5  12   0.6150   0.5355   1.7047  -0.0474  -0.4563  -0.5620 4245.00    0.0
2018/11/13 01:11:00.000  -74.425561224  163.418444618    62.8705   5  12   0.6155   0.5365   1.7078  -0.0403  -0.4627  -0.5620 4275.00    0.0
2018/11/13 01:11:30.000  -74.425563249  163.418444196    63.7984   5  12   0.6162   0.5377   1.7120  -0.0318  -0.4693  -0.5621 4305.00    0.0
2018/11/13 01:12:00.000  -74.425564107  163.418446284    63.1986   5  12   0.6172   0.5392   1.7174  -0.0201  -0.4762  -0.5624 4335.00    0.0
2018/11/13 01:12:30.000  -74.425560613  163.418440846    63.3474   5  12   0.6183   0.5409   1.7239   0.0139  -0.4833  -0.5629 4365.00    0.0
2018/11/13 01:13:00.000  -74.425561587  163.418446656    62.6376   5  12   0.6177   0.5406   1.7205   0.0297  -0.4874  -0.5621 4395.00    0.0
2018/11/13 01:13:30.000  -74.425560997  163.418448468    63.5371   5  12   0.6173   0.5405   1.7183   0.0394  -0.4917  -0.5614 4425.00    0.0
2018/11/13 01:14:00.000  -74.425564463  163.418440595    63.8548   5  12   0.6171   0.5406   1.7173   0.0471  -0.4963  -0.5610 4455.00    0.0
2018/11/13 01:14:30.000  -74.425560918  163.418441881    64.0076   5  12   0.6171   0.5410   1.7174   0.0536  -0.5011  -0.5607 4485.00    0.0
2018/11/13 01:15:00.000  -74.425563881  163.418445253    63.2421   5  12   0.6173   0.5416   1.7186   0.0594  -0.5062  -0.5606 4515.00    0.0
2018/11/13 01:15:30.000  -74.425561213  163.418452562    63.4403   5  12   0.6178   0.5425   1.7212   0.0645  -0.5117  -0.5607 4545.00    0.0
2018/11/13 01:16:00.000  -74.425561796  163.418437662    63.5323   5  12   0.6184   0.5436   1.7250   0.0692  -0.5174  -0.5610 4575.00    0.0
2018/11/13 01:16:30.000  -74.425563294  163.418441281    63.4545   5  12   0.6193   0.5450   1.7299   0.0736  -0.5233  -0.5615 4605.00    0.0
2018/11/13 01:17:00.000  -74.425563070  163.418450124    63.3106   5  12   0.6203   0.5466   1.7359   0.0777  -0.5295  -0.5621 4635.00    0.0
2018/11/13 01:17:30.000  -74.425561735  163.418448973    63.1072   5  12   0.6216   0.5484   1.7429   0.0815  -0.5360  -0.5629 4665.00    0.0
2018/11/13 01:18:00.000  -74.425565072  163.418440263    63.8800   5  12   0.6211   0.5482   1.7404   0.0856  -0.5394  -0.5625 4695.00    0.0
2018/11/13 01:18:30.000  -74.425565170  163.418445576    64.2724   5  12   0.6208   0.5482   1.7389   0.0894  -0.5432  -0.5622 4725.00    0.0
2018/11/13 01:19:00.000  -74.425563334  163.418452394    64.0382   5  12   0.6207   0.5485   1.7386   0.0931  -0.5472  -0.5621 4755.00    0.0
2018/11/13 01:19:30.000  -74.425563450  163.418437395    63.7700   5  12   0.6208   0.5490   1.7394   0.0966  -0.5514  -0.5622 4785.00    0.0
2018/11/13 01:20:00.000  -74.425562661  163.418442956    63.8083   5  12   0.6211   0.5497   1.7412   0.0999  -0.5559  -0.5625 4815.00    0.0
2018/11/13 01:20:30.000  -74.425563714  163.418449081    63.2614   5  12   0.6217   0.5507   1.7444   0.1031  -0.5608  -0.5629 4845.00    0.0
2018/11/13 01:21:00.000  -74.425562704  163.418441233    64.0234   5  12   0.6224   0.5519   1.7487   0.1062  -0.5659  -0.5635 4875.00    0.0
2018/11/13 01:21:30.000  -74.425562743  163.418445004    63.3970   5  12   0.6234   0.5534   1.7540   0.1091  -0.5712  -0.5643 4905.00    0.0
2018/11/13 01:22:00.000  -74.425560722  163.418450914    62.8626   5  12   0.6246   0.5551   1.7603   0.1120  -0.5768  -0.5653 4935.00    0.0
2018/11/13 01:22:30.000  -74.425564686  163.418441343    63.6911   5  12   0.6260   0.5570   1.7676   0.1147  -0.5826  -0.5664 4965.00    0.0
2018/11/13 01:23:00.000  -74.425560852  163.418448979    63.2330   5  12   0.6256   0.5569   1.7658   0.1177  -0.5856  -0.5663 4995.00    0.0
2018/11/13 01:23:30.000  -74.425562837  163.418439588    63.5290   5  12   0.6254   0.5570   1.7649   0.1205  -0.5888  -0.5665 5025.00    0.0
2018/11/13 01:24:00.000  -74.425561979  163.418445652    63.1868   5  12   0.6254   0.5573   1.7652   0.1233  -0.5923  -0.5667 5055.00    0.0
2018/11/13 01:24:30.000  -74.425561787  163.418451507    62.9745   5  12   0.6257   0.5578   1.7664   0.1260  -0.5959  -0.5672 5085.00    0.0
2018/11/13 01:25:00.000  -74.425561815  163.418444467    63.2602   5  12   0.6261   0.5586   1.7687   0.1286  -0.5999  -0.5678 5115.00    0.0
2018/11/13 01:25:30.000  -74.425558598  163.418451030    62.4985   5  12   0.6268   0.5596   1.7722   0.1311  -0.6041  -0.5686 5145.00    0.0
2018/11/13 01:26:00.000  -74.425560206  163.418444931    63.2178   5  12   0.6277   0.5609   1.7767   0.1336  -0.6086  -0.5695 5175.00    0.0
2018/11/13 01:26:30.000  -74.425560579  163.418451565    63.0622   5  12   0.6288   0.5624   1.7821   0.1360  -0.6133  -0.5706 5205.00    0.0
2018/11/13 01:27:00.000  -74.425561221  163.418441913    63.4072   5  12   0.6301   0.5641   1.7885   0.1383  -0.6182  -0.5718 5235.00    0.0
2018/11/13 01:27:30.000  -74.425561960  163.418444419    63.4054   5  11   0.6630   0.5697   1.8327   0.1814  -0.6038  -0.5047 5265.00    0.0
2018/11/13 01:28:00.000  -74.425562686  163.418443952    62.8429   5  11   0.6623   0.5696   1.8318   0.1827  -0.6064  -0.5052 5295.00    0.0
2018/11/13 01:28:30.000  -74.425559770  163.418448302    63.0483   5  11   0.6618   0.5696   1.8319   0.1841  -0.6092  -0.5058 5325.00    0.0
2018/11/13 01:29:00.000  -74.425563122  163.418454865    62.3176   5  10   0.6729   0.6281   2.0825   0.0431  -0.7973  -0.3671 5355.00    0.0
2018/11/13 01:29:30.000  -74.425561654  163.418442455    63.2437   5  10   0.6726   0.6290   2.0890   0.0517  -0.8021  -0.3688 5385.00    0.0
2018/11/13 01:30:00.000  -74.425563585  163.418448886    62.8348   5  10   0.6725   0.6302   2.0967   0.0587  -0.8073  -0.3705 5415.00    0.0
2018/11/13 01:30:30.000  -74.425561318  163.418448731    62.5054   5   9   0.7732   0.6850   2.6381   0.3242  -1.0401  -0.8624 5445.00    0.0
2018/11/13 01:31:00.000  -74.425562443  163.418450125    61.9595   5   9   0.7742   0.6888   2.6629   0.3289  -1.0525  -0.8700 5475.00    0.0
2018/11/13 01:31:30.000  -74.425562162  163.418452495    61.3181   5   9   0.7756   0.6930   2.6896   0.3338  -1.0656  -0.8781 5505.00    0.0
2018/11/13 01:32:00.000  -74.425561383  163.418449938    61.8020   5   9   0.7772   0.6976   2.7182   0.3388  -1.0795  -0.8866 5535.00    0.0
2018/11/13 01:32:30.000  -74.425562479  163.418458877    62.1480   5   9   0.7793   0.7025   2.7486   0.3438  -1.0939  -0.8955 5565.00    0.0
2018/11/13 01:33:00.000  -74.425562588  163.418449292    62.6537   5   9   0.7787   0.7041   2.7629   0.3478  -1.1018  -0.9017 5595.00    0.0
2018/11/13 01:33:30.000  -74.425561110  163.418456678    61.2239   5   9   0.7784   0.7061   2.7790   0.3519  -1.1103  -0.9082 5625.00    0.0
2018/11/13 01:34:00.000  -74.425560540  163.418458044    61.1473   5   9   0.7785   0.7084   2.7967   0.3561  -1.1194  -0.9151 5655.00    0.0
2018/11/13 01:34:30.000  -74.425562308  163.418462482    61.4661   5   9   0.7788   0.7110   2.8162   0.3603  -1.1290  -0.9224 5685.00    0.0
2018/11/13 01:35:00.000  -74.425564399  163.418457369    62.8249   5   9   0.7795   0.7140   2.8374   0.3647  -1.1393  -0.9300 5715.00    0.0
2018/11/13 01:35:30.000  -74.425560794  163.418453458    62.2508   5   9   0.7806   0.7173   2.8608   0.3692  -1.1504  -0.9381 5745.00    0.0
2018/11/13 01:36:00.000  -74.425563032  163.418458971    62.2620   5   9   0.7820   0.7211   2.8859   0.3737  -1.1621  -0.9465 5775.00    0.0
2018/11/13 01:36:30.000  -74.425561235  163.418466951    61.0922   5   9   0.7837   0.7251   2.9125   0.3784  -1.1743  -0.9552 5805.00    0.0
2018/11/13 01:37:00.000  -74.425560522  163.418466492    61.2174   5   9   0.7858   0.7295   2.9407   0.3831  -1.1870  -0.9643 5835.00    0.0
2018/11/13 01:37:30.000  -74.425559276  163.418462444    60.7426   5   9   0.7882   0.7342   2.9702   0.3879  -1.2003  -0.9737 5865.00    0.0
2018/11/13 01:38:00.000  -74.425561334  163.418466031    61.3174   5   9   0.7879   0.7354   2.9834   0.3915  -1.2066  -0.9801 5895.00    0.0
2018/11/13 01:38:30.000  -74.425558859  163.418462840    60.0550   5   9   0.7879   0.7368   2.9979   0.3951  -1.2134  -0.9868 5925.00    0.0
2018/11/13 01:39:00.000  -74.425559603  163.418461403    60.7387   5   9   0.7883   0.7386   3.0138   0.3987  -1.2206  -0.9938 5955.00    0.0
2018/11/13 01:39:30.000  -74.425562235  163.418459088    61.1087   5   9   0.7889   0.7406   3.0309   0.4024  -1.2283  -1.0010 5985.00    0.0
2018/11/13 01:40:00.000  -74.425559180  163.418467862    60.6189   5   9   0.7899   0.7429   3.0494   0.4062  -1.2363  -1.0084 6015.00    0.0
2018/11/13 01:40:30.000  -74.425562066  163.418457952    60.5324   5   9   0.7912   0.7455   3.0695   0.4100  -1.2450  -1.0162 6045.00    0.0
2018/11/13 01:41:00.000  -74.425559992  163.418470178    60.7459   5   9   0.7929   0.7484   3.0907   0.4139  -1.2540  -1.0241 6075.00    0.0
2018/11/13 01:41:30.000  -74.425564040  163.418450203    62.6121   5   9   0.7949   0.7516   3.1129   0.4178  -1.2633  -1.0323 6105.00    0.0
2018/11/13 01:42:00.000  -74.425562510  163.418457774    62.9783   5   9   0.7972   0.7550   3.1360   0.4218  -1.2729  -1.0405 6135.00    0.0
2018/11/13 01:42:30.000  -74.425563575  163.418447185    63.7091   5   8   0.9775   0.7773   4.1203   0.5259  -1.4469  -1.6083 6165.00    0.0
2018/11/13 01:43:00.000  -74.425566727  163.418458242    63.1827   5   9   0.7332   0.7337   2.9115   0.3371  -1.1634  -0.8412 6195.00    0.0
2018/11/13 01:43:30.000  -74.425566738  163.418457535    63.2241   5   9   0.7331   0.7342   2.9303   0.3420  -1.1701  -0.8506 6225.00    0.0
2018/11/13 01:44:00.000  -74.425565503  163.418454938    62.8460   5   9   0.7332   0.7349   2.9503   0.3468  -1.1771  -0.8602 6255.00    0.0
2018/11/13 01:44:30.000  -74.425568182  163.418445637    65.1441   5   9   0.7337   0.7360   2.9715   0.3517  -1.1845  -0.8699 6285.00    0.0
2018/11/13 01:45:00.000  -74.425567507  163.418448593    64.1798   5   9   0.7344   0.7373   2.9939   0.3565  -1.1922  -0.8797 6315.00    0.0
2018/11/13 01:45:30.000  -74.425565920  163.418441581    64.6205   5   9   0.7356   0.7389   3.0177   0.3614  -1.2005  -0.8897 6345.00    0.0
2018/11/13 01:46:00.000  -74.425566108  163.418440327    65.8275   5   9   0.7370   0.7408   3.0426   0.3662  -1.2090  -0.8999 6375.00    0.0
2018/11/13 01:46:30.000  -74.425567049  163.418437877    65.1242   5   9   0.7388   0.7430   3.0684   0.3711  -1.2179  -0.9103 6405.00    0.0
2018/11/13 01:47:00.000  -74.425567644  163.418451211    64.8953   5   9   0.7408   0.7454   3.0951   0.3760  -1.2270  -0.9208 6435.00    0.0
2018/11/13 01:47:30.000  -74.425567179  163.418439583    66.0795   5   9   0.7432   0.7481   3.1227   0.3809  -1.2363  -0.9315 6465.00    0.0
2018/11/13 01:48:00.000  -74.425565247  163.418442833    64.7263   5   9   0.7432   0.7474   3.1365   0.3848  -1.2397  -0.9404 6495.00    0.0
2018/11/13 01:48:30.000  -74.425564170  163.418445553    63.3928   5   9   0.7434   0.7469   3.1511   0.3888  -1.2434  -0.9494 6525.00    0.0
2018/11/13 01:49:00.000  -74.425568117  163.418430006    66.7359   5   9   0.7440   0.7467   3.1664   0.3926  -1.2472  -0.9584 6555.00    0.0
2018/11/13 01:49:30.000  -74.425569204  163.418450473    64.6783   5   9   0.7448   0.7466   3.1823   0.3965  -1.2511  -0.9674 6585.00    0.0
2018/11/13 01:50:00.000  -74.425566522  163.418449847    64.2002   5   9   0.7459   0.7468   3.1988   0.4003  -1.2552  -0.9765 6615.00    0.0
2018/11/13 01:50:30.000  -74.425568112  163.418446670    63.6047   5   9   0.7474   0.7472   3.2163   0.4042  -1.2596  -0.9856 6645.00    0.0
2018/11/13 01:51:00.000  -74.425567898  163.418453014    62.9859   5   9   0.7492   0.7479   3.2342   0.4080  -1.2641  -0.9947 6675.00    0.0
2018/11/13 01:51:30.000  -74.425566957  163.418447274    63.8250   5   9   0.7513   0.7488   3.2525   0.4117  -1.2686  -1.0039 6705.00    0.0
2018/11/13 01:52:00.000  -74.425567273  163.418444382    64.3291   5   9   0.7537   0.7498   3.2712   0.4155  -1.2733  -1.0132 6735.00    0.0
2018/11/13 01:52:30.000  -74.425566726  163.418457964    63.6508   5   9   0.7564   0.7511   3.2902   0.4193  -1.2779  -1.0224 6765.00    0.0
2018/11/13 01:53:00.000  -74.425565543  163.418466741    62.4548   5   9   0.7566   0.7489   3.2952   0.4217  -1.2765  -1.0292 6795.00    0.0
2018/11/13 01:53:30.000  -74.425567066  163.418440811    65.2095   5   9   0.7570   0.7469   3.3006   0.4241  -1.2752  -1.0359 6825.00    0.0
2018/11/13 01:54:00.000  -74.425565945  163.418443928    64.8258   5   9   0.7577   0.7451   3.3062   0.4265  -1.2739  -1.0425 6855.00    0.0
2018/11/13 01:54:30.000  -74.425567818  163.418456956    62.8866   5   9   0.7586   0.7435   3.3119   0.4288  -1.2725  -1.0490 6885.00    0.0
2018/11/13 01:55:00.000  -74.425567921  163.418440439    64.0160   5   9   0.7599   0.7421   3.3179   0.4311  -1.2712  -1.0555 6915.00    0.0
2018/11/13 01:55:30.000  -74.425565748  163.418444474    64.0165   5   9   0.7614   0.7410   3.3243   0.4333  -1.2701  -1.0619 6945.00    0.0
2018/11/13 01:56:00.000  -74.425567222  163.418438658    65.0645   5   9   0.7633   0.7401   3.3308   0.4355  -1.2689  -1.0682 6975.00    0.0
2018/11/13 01:56:30.000  -74.425567674  163.418429055    64.7140   5   9   0.7654   0.7393   3.3374   0.4377  -1.2677  -1.0745 7005.00    0.0
2018/11/13 01:57:00.000  -74.425566364  163.418449140    64.3292   5   9   0.7679   0.7388   3.3441   0.4399  -1.2666  -1.0808 7035.00    0.0
2018/11/13 01:57:30.000  -74.425569633  163.418427447    65.3441   5   9   0.7706   0.7385   3.3508   0.4421  -1.2654  -1.0870 7065.00    0.0
2018/11/13 01:58:00.000  -74.425569370  163.418442919    64.7653   5   9   0.7705   0.7348   3.3439   0.4427  -1.2583  -1.0902 7095.00    0.0
2018/11/13 01:58:30.000  -74.425568754  163.418423863    66.4383   5   9   0.7708   0.7313   3.3372   0.4433  -1.2511  -1.0932 7125.00    0.0
2018/11/13 01:59:00.000  -74.425569177  163.418438173    65.6013   5   9   0.7713   0.7280   3.3306   0.4438  -1.2441  -1.0961 7155.00    0.0
2018/11/13 01:59:30.000  -74.425567415  163.418429790    66.0245   5   9   0.7720   0.7249   3.3242   0.4443  -1.2370  -1.0990 7185.00    0.0
2018/11/13 02:00:00.000  -74.425568093  163.418447012    64.7471   5   9   0.7731   0.7222   3.3179   0.4448  -1.2301  -1.1017 7215.00    0.0
2018/11/13 02:00:30.000  -74.425571991  163.418432867    67.3877   5   9   0.7744   0.7197   3.3121   0.4454  -1.2234  -1.1045 7245.00    0.0
2018/11/13 02:01:00.000  -74.425566046  163.418426589    65.7238   5   9   0.7761   0.7175   3.3065   0.4459  -1.2167  -1.1072 7275.00    0.0
2018/11/13 02:01:30.000  -74.425566270  163.418447904    64.9025   5   9   0.7780   0.7156   3.3011   0.4465  -1.2102  -1.1100 7305.00    0.0
2018/11/13 02:02:00.000  -74.425571265  163.418434279    66.6038   5   9   0.7802   0.7140   3.2959   0.4472  -1.2039  -1.1128 7335.00    0.0
2018/11/13 02:02:30.000  -74.425568764  163.418449788    64.9001   5   9   0.7828   0.7126   3.2911   0.4479  -1.1977  -1.1156 7365.00    0.0
2018/11/13 02:03:00.000  -74.425566913  163.418439300    65.6716   5   9   0.7824   0.7080   3.2734   0.4468  -1.1857  -1.1149 7395.00    0.0
2018/11/13 02:03:30.000  -74.425569242  163.418441931    65.4279   5   9   0.7822   0.7036   3.2560   0.4458  -1.1739  -1.1142 7425.00    0.0
2018/11/13 02:04:00.000  -74.425567958  163.418446176    65.0464   5   9   0.7824   0.6995   3.2392   0.4447  -1.1623  -1.1135 7455.00    0.0
2018/11/13 02:04:30.000  -74.425571817  163.418440315    65.9550   5   9   0.7828   0.6958   3.2228   0.4438  -1.1510  -1.1128 7485.00    0.0
2018/11/13 02:05:00.000  -74.425567344  163.418438458    65.8730   5   9   0.7835   0.6924   3.2070   0.4429  -1.1400  -1.1123 7515.00    0.0
2018/11/13 02:05:30.000  -74.425564706  163.418447823    63.9274   5   9   0.7846   0.6895   3.1920   0.4422  -1.1294  -1.1119 7545.00    0.0
2018/11/13 02:06:00.000  -74.425565828  163.418440378    65.0669   5   9   0.7860   0.6869   3.1777   0.4416  -1.1191  -1.1116 7575.00    0.0
2018/11/13 02:06:30.000  -74.425564897  163.418431211    65.4076   5   9   0.7877   0.6846   3.1641   0.4411  -1.1092  -1.1115 7605.00    0.0
2018/11/13 02:07:00.000  -74.425566930  163.418442840    64.1531   5   9   0.7897   0.6827   3.1511   0.4408  -1.0997  -1.1116 7635.00    0.0
2018/11/13 02:07:30.000  -74.425568496  163.418435559    65.0714   5   9   0.7921   0.6812   3.1389   0.4406  -1.0905  -1.1120 7665.00    0.0
2018/11/13 02:08:00.000  -74.425565533  163.418444597    64.0511   5   9   0.7913   0.6765   3.1147   0.4384  -1.0759  -1.1085 7695.00    0.0
2018/11/13 02:08:30.000  -74.425568038  163.418431509    64.7153   5   9   0.7909   0.6722   3.0912   0.4363  -1.0615  -1.1051 7725.00    0.0
2018/11/13 02:09:00.000  -74.425569584  163.418442972    65.0679   5   9   0.7908   0.6682   3.0687   0.4344  -1.0477  -1.1020 7755.00    0.0
2018/11/13 02:09:30.000  -74.425567602  163.418426975    65.7205   5   9   0.7910   0.6647   3.0472   0.4327  -1.0344  -1.0991 7785.00    0.0
2018/11/13 02:10:00.000  -74.425569436  163.418431235    65.3554   5   9   0.7915   0.6615   3.0267   0.4311  -1.0215  -1.0965 7815.00    0.0
2018/11/13 02:10:30.000  -74.425569956  163.418441894    65.1341   5   9   0.7924   0.6589   3.0075   0.4298  -1.0093  -1.0942 7845.00    0.0
2018/11/13 02:11:00.000  -74.425568952  163.418433127    64.3905   5   9   0.7937   0.6566   2.9893   0.4287  -0.9976  -1.0923 7875.00    0.0
2018/11/13 02:11:30.000  -74.425568333  163.418443749    65.1495   5   9   0.7953   0.6548   2.9722   0.4278  -0.9865  -1.0907 7905.00    0.0
2018/11/13 02:12:00.000  -74.425568584  163.418434909    65.4179   5   9   0.7972   0.6534   2.9562   0.4271  -0.9759  -1.0894 7935.00    0.0
2018/11/13 02:12:30.000  -74.425569638  163.418438205    64.7687   5   9   0.7995   0.6524   2.9413   0.4266  -0.9659  -1.0886 7965.00    0.0
2018/11/13 02:13:00.000  -74.425567676  163.418444362    64.8063   5   9   0.7986   0.6483   2.9150   0.4240  -0.9505  -1.0836 7995.00    0.0
2018/11/13 02:13:30.000  -74.425567711  163.418441292    65.7324   5   8   0.8322   0.6543   3.4595   0.3889  -0.8135  -1.2701 8025.00    0.0
2018/11/13 02:14:00.000  -74.425570610  163.418441161    66.8524   5   8   0.8328   0.6514   3.4406   0.3858  -0.7952  -1.2686 8055.00    0.0
2018/11/13 02:14:30.000  -74.425569212  163.418437966    65.0102   5   8   0.8336   0.6489   3.4228   0.3828  -0.7772  -1.2675 8085.00    0.0
2018/11/13 02:15:00.000  -74.425566064  163.418443099    65.1013   5   8   0.8348   0.6469   3.4061   0.3800  -0.7595  -1.2667 8115.00    0.0
2018/11/13 02:15:30.000  -74.425567535  163.418432022    65.3266   5   8   0.8365   0.6454   3.3909   0.3774  -0.7424  -1.2664 8145.00    0.0
2018/11/13 02:16:00.000  -74.425570323  163.418440184    65.9797   5   8   0.8385   0.6444   3.3768   0.3751  -0.7256  -1.2665 8175.00    0.0
2018/11/13 02:16:30.000  -74.425572270  163.418434931    66.3046   5   8   0.8410   0.6438   3.3640   0.3729  -0.7092  -1.2671 8205.00    0.0
2018/11/13 02:17:00.000  -74.425568825  163.418437410    64.9194   5   8   0.8438   0.6436   3.3524   0.3710  -0.6932  -1.2682 8235.00    0.0
2018/11/13 02:17:30.000  -74.425572131  163.418429254    65.8926   5   8   0.8470   0.6439   3.3421   0.3693  -0.6775  -1.2697 8265.00    0.0
2018/11/13 02:18:00.000  -74.425570538  163.418427444    65.3019   5   8   0.8466   0.6412   3.3180   0.3656  -0.6569  -1.2659 8295.00    0.0
2018/11/13 02:18:30.000  -74.425570703  163.418428097    66.3693   5   8   0.8466   0.6389   3.2951   0.3621  -0.6366  -1.2624 8325.00    0.0
2018/11/13 02:19:00.000  -74.425571575  163.418433202    66.9444   5   8   0.8469   0.6370   3.2736   0.3589  -0.6166  -1.2595 8355.00    0.0
2018/11/13 02:19:30.000  -74.425569533  163.418437638    65.5359   5   8   0.8476   0.6356   3.2535   0.3558  -0.5971  -1.2570 8385.00    0.0
2018/11/13 02:20:00.000  -74.425570139  163.418437421    65.3930   5   8   0.8488   0.6346   3.2347   0.3530  -0.5778  -1.2550 8415.00    0.0
2018/11/13 02:20:30.000  -74.425569253  163.418433215    64.8657   5   9   0.8463   0.6340   2.9679   0.3487  -0.5766  -1.2942 8445.00    0.0
2018/11/13 02:21:00.000  -74.425568155  163.418427909    65.0342   5   9   0.8479   0.6338   2.9621   0.3458  -0.5627  -1.2949 8475.00    0.0
2018/11/13 02:21:30.000  -74.425572849  163.418425698    66.2641   5   9   0.8498   0.6340   2.9573   0.3431  -0.5492  -1.2961 8505.00    0.0
2018/11/13 02:22:00.000  -74.425567862  163.418435290    65.2063   5   9   0.8521   0.6347   2.9537   0.3406  -0.5358  -1.2979 8535.00    0.0
2018/11/13 02:22:30.000  -74.425569451  163.418437789    65.1026   5   9   0.8548   0.6357   2.9514   0.3382  -0.5227  -1.3002 8565.00    0.0
2018/11/13 02:23:00.000  -74.425568780  163.418431399    64.0469   5   9   0.8537   0.6337   2.9362   0.3339  -0.5049  -1.2964 8595.00    0.0
2018/11/13 02:23:30.000  -74.425571424  163.418430897    65.9488   5   8   0.8576   0.6623   3.1751   0.3552   0.0876  -1.2501 8625.00    0.0
2018/11/13 02:24:00.000  -74.425566405  163.418445520    64.4486   5   8   0.8569   0.6617   3.1658   0.3508   0.1670  -1.2490 8655.00    0.0
2018/11/13 02:24:30.000  -74.425569298  163.418436571    65.3042   5   8   0.8566   0.6615   3.1576   0.3465   0.2181  -1.2483 8685.00    0.0
2018/11/13 02:25:00.000  -74.425566658  163.418442662    63.6492   5   8   0.8567   0.6618   3.1508   0.3425   0.2585  -1.2482 8715.00    0.0
2018/11/13 02:25:30.000  -74.425569722  163.418428575    65.8172   5   8   0.8573   0.6626   3.1455   0.3388   0.2927  -1.2488 8745.00    0.0
2018/11/13 02:26:00.000  -74.425570228  163.418441247    65.3634   5   8   0.8584   0.6638   3.1417   0.3352   0.3229  -1.2499 8775.00    0.0
2018/11/13 02:26:30.000  -74.425567269  163.418445548    65.1216   5   8   0.8599   0.6655   3.1392   0.3318   0.3501  -1.2516 8805.00    0.0
2018/11/13 02:27:00.000  -74.425567646  163.418432015    65.2516   5   8   0.8618   0.6675   3.1381   0.3286   0.3752  -1.2539 8835.00    0.0
2018/11/13 02:27:30.000  -74.425572874  163.418432391    66.2845   5   8   0.8641   0.6700   3.1385   0.3255   0.3986  -1.2568 8865.00    0.0
2018/11/13 02:28:00.000  -74.425570722  163.418435288    66.3927   5   9   0.8154   0.6554   2.6183   0.2543   0.6382  -1.0451 8895.00    0.0
2018/11/13 02:28:30.000  -74.425568756  163.418444172    66.3489   5   9   0.8151   0.6555   2.6170   0.2502   0.6465  -1.0472 8925.00    0.0
2018/11/13 02:29:00.000  -74.425569328  163.418434226    65.9908   5   9   0.8152   0.6559   2.6167   0.2463   0.6548  -1.0497 8955.00    0.0
2018/11/13 02:29:30.000  -74.425570924  163.418438012    66.8090   5   9   0.8158   0.6567   2.6174   0.2424   0.6631  -1.0526 8985.00    0.0
2018/11/13 02:30:00.000  -74.425572603  163.418444599    67.2370   5   9   0.8167   0.6578   2.6191   0.2386   0.6716  -1.0559 9015.00    0.0
2018/11/13 02:30:30.000  -74.425572018  163.418438042    66.8600   5   9   0.8180   0.6594   2.6222   0.2348   0.6803  -1.0598 9045.00    0.0
2018/11/13 02:31:00.000  -74.425570075  163.418433161    66.3836   5   9   0.8198   0.6614   2.6263   0.2311   0.6892  -1.0641 9075.00    0.0
2018/11/13 02:31:30.000  -74.425569724  163.418437034    66.2789   5   9   0.8220   0.6637   2.6317   0.2274   0.6983  -1.0689 9105.00    0.0
2018/11/13 02:32:00.000  -74.425571243  163.418444176    66.9971   5   9   0.8245   0.6664   2.6382   0.2237   0.7076  -1.0742 9135.00    0.0
2018/11/13 02:32:30.000  -74.425568166  163.418439963    65.7802   5   9   0.8275   0.6694   2.6459   0.2200   0.7172  -1.0799 9165.00    0.0
2018/11/13 02:33:00.000  -74.425571057  163.418440844    66.5166   5   9   0.8270   0.6693   2.6415   0.2156   0.7227  -1.0810 9195.00    0.0
2018/11/13 02:33:30.000  -74.425573372  163.418443793    66.4473   5   9   0.8269   0.6695   2.6379   0.2113   0.7283  -1.0825 9225.00    0.0
2018/11/13 02:34:00.000  -74.425570045  163.418432356    65.2960   5   9   0.8271   0.6701   2.6355   0.2070   0.7341  -1.0844 9255.00    0.0
2018/11/13 02:34:30.000  -74.425573111  163.418435648    66.0485   5   9   0.8278   0.6710   2.6341   0.2028   0.7400  -1.0867 9285.00    0.0
2018/11/13 02:35:00.000  -74.425569833  163.418441116    66.2435   5   9   0.8288   0.6723   2.6339   0.1986   0.7462  -1.0895 9315.00    0.0
2018/11/13 02:35:30.000  -74.425568810  163.418433248    65.9416   5   9   0.8304   0.6740   2.6352   0.1944   0.7528  -1.0929 9345.00    0.0
2018/11/13 02:36:00.000  -74.425572014  163.418443663    66.0318   5   9   0.8323   0.6761   2.6378   0.1902   0.7596  -1.0968 9375.00    0.0
2018/11/13 02:36:30.000  -74.425571700  163.418439512    66.0076   5   9   0.8346   0.6786   2.6415   0.1860   0.7667  -1.1012 9405.00    0.0
2018/11/13 02:37:00.000  -74.425570558  163.418443006    65.3415   5   9   0.8372   0.6814   2.6466   0.1816   0.7741  -1.1061 9435.00    0.0
2018/11/13 02:37:30.000  -74.425570465  163.418435077    66.0573   5   9   0.8403   0.6846   2.6529   0.1772   0.7819  -1.1115 9465.00    0.0
2018/11/13 02:38:00.000  -74.425570920  163.418438585    66.4896   5   9   0.8399   0.6844   2.6458   0.1727   0.7849  -1.1118 9495.00    0.0
2018/11/13 02:38:30.000  -74.425569025  163.418435212    65.1454   5   9   0.8399   0.6846   2.6399   0.1684   0.7880  -1.1125 9525.00    0.0
2018/11/13 02:39:00.000  -74.425568609  163.418442119    65.8657   5   9   0.8402   0.6851   2.6352   0.1640   0.7914  -1.1137 9555.00    0.0
2018/11/13 02:39:30.000  -74.425569910  163.418432063    65.9178   5   9   0.8409   0.6860   2.6318   0.1597   0.7951  -1.1154 9585.00    0.0
2018/11/13 02:40:00.000  -74.425570558  163.418431219    66.1312   5   9   0.8421   0.6872   2.6295   0.1553   0.7991  -1.1175 9615.00    0.0
2018/11/13 02:40:30.000  -74.425569281  163.418435827    66.1882   5   9   0.8437   0.6889   2.6289   0.1508   0.8035  -1.1203 9645.00    0.0
2018/11/13 02:41:00.000  -74.425568586  163.418429327    65.5628   5   9   0.8456   0.6910   2.6295   0.1462   0.8084  -1.1236 9675.00    0.0
2018/11/13 02:41:30.000  -74.425569892  163.418434700    65.0349   5   9   0.8480   0.6934   2.6315   0.1414   0.8136  -1.1274 9705.00    0.0
2018/11/13 02:42:00.000  -74.425570538  163.418436562    66.0400   5   9   0.8507   0.6961   2.6348   0.1365   0.8192  -1.1317 9735.00    0.0
2018/11/13 02:42:30.000  -74.425570115  163.418432634    65.3128   5   9   0.8538   0.6992   2.6393   0.1312   0.8252  -1.1365 9765.00    0.0
2018/11/13 02:43:00.000  -74.425568544  163.418439349    64.9067   5   9   0.8534   0.6989   2.6299   0.1273   0.8256  -1.1360 9795.00    0.0
2018/11/13 02:43:30.000  -74.425570133  163.418427912    65.0437   5   9   0.8534   0.6988   2.6218   0.1233   0.8264  -1.1359 9825.00    0.0
2018/11/13 02:44:00.000  -74.425572427  163.418436011    66.0409   5   9   0.8538   0.6992   2.6150   0.1194   0.8276  -1.1363 9855.00    0.0
2018/11/13 02:44:30.000  -74.425569733  163.418437714    65.4915   5   9   0.8545   0.6998   2.6094   0.1153   0.8291  -1.1373 9885.00    0.0
2018/11/13 02:45:00.000  -74.425569665  163.418436716    65.7172   5   9   0.8557   0.7009   2.6052   0.1111   0.8310  -1.1387 9915.00    0.0
2018/11/13 02:45:30.000  -74.425566590  163.418431592    64.6574   5   9   0.8572   0.7024   2.6026   0.1066   0.8334  -1.1408 9945.00    0.0
2018/11/13 02:46:00.000  -74.425570229  163.418439431    65.6383   5   9   0.8592   0.7042   2.6014   0.1019   0.8363  -1.1433 9975.00    0.0
2018/11/13 02:46:30.000  -74.425573330  163.418427014    66.3195   5   9   0.8616   0.7064   2.6014   0.0969   0.8397  -1.1464 10005.00    0.0
2018/11/13 02:47:00.000  -74.425568681  163.418438398    65.3744   5  10   0.8496   0.5851   2.1574   0.2681   0.3582  -1.0447 10035.00    0.0
2018/11/13 02:47:30.000  -74.425568384  163.418427179    65.5590   5  10   0.8526   0.5863   2.1613   0.2674   0.3619  -1.0490 10065.00    0.0
2018/11/13 02:48:00.000  -74.425570551  163.418436657    66.0923   5  10   0.8524   0.5853   2.1557   0.2659   0.3640  -1.0492 10095.00    0.0
2018/11/13 02:48:30.000  -74.425568002  163.418435866    65.5614   5  10   0.8526   0.5846   2.1511   0.2645   0.3660  -1.0499 10125.00    0.0
2018/11/13 02:49:00.000  -74.425571607  163.418437284    66.0534   5  10   0.8531   0.5841   2.1475   0.2632   0.3680  -1.0509 10155.00    0.0
2018/11/13 02:49:30.000  -74.425571341  163.418437484    66.1209   5  10   0.8540   0.5838   2.1448   0.2620   0.3700  -1.0524 10185.00    0.0
2018/11/13 02:50:00.000  -74.425572482  163.418445040    66.7669   5  10   0.8552   0.5838   2.1433   0.2610   0.3721  -1.0543 10215.00    0.0
2018/11/13 02:50:30.000  -74.425569957  163.418435187    65.6556   5  10   0.8569   0.5841   2.1429   0.2600   0.3743  -1.0567 10245.00    0.0
2018/11/13 02:51:00.000  -74.425571264  163.418435808    65.8539   5  10   0.8589   0.5847   2.1435   0.2591   0.3767  -1.0596 10275.00    0.0
2018/11/13 02:51:30.000  -74.425569620  163.418437032    65.5482   5  10   0.8613   0.5855   2.1452   0.2583   0.3792  -1.0628 10305.00    0.0
2018/11/13 02:52:00.000  -74.425572164  163.418430588    65.8363   5  10   0.8640   0.5866   2.1479   0.2576   0.3818  -1.0665 10335.00    0.0
2018/11/13 02:52:30.000  -74.425574282  163.418436677    66.6351   5  10   0.8671   0.5879   2.1516   0.2569   0.3847  -1.0705 10365.00    0.0
2018/11/13 02:53:00.000  -74.425569200  163.418446235    65.7881   5  10   0.8670   0.5869   2.1458   0.2558   0.3851  -1.0706 10395.00    0.0
2018/11/13 02:53:30.000  -74.425572513  163.418431924    66.2836   5  10   0.8672   0.5862   2.1409   0.2547   0.3856  -1.0710 10425.00    0.0
2018/11/13 02:54:00.000  -74.425570897  163.418441741    65.5669   5  10   0.8677   0.5857   2.1370   0.2538   0.3862  -1.0718 10455.00    0.0
2018/11/13 02:54:30.000  -74.425571594  163.418444401    65.9349   5  10   0.8686   0.5854   2.1342   0.2529   0.3869  -1.0731 10485.00    0.0
2018/11/13 02:55:00.000  -74.425569725  163.418434897    66.1385   5  10   0.8699   0.5855   2.1324   0.2521   0.3878  -1.0747 10515.00    0.0
2018/11/13 02:55:30.000  -74.425567673  163.418435542    65.2421   5  10   0.8716   0.5858   2.1318   0.2514   0.3890  -1.0769 10545.00    0.0
2018/11/13 02:56:00.000  -74.425570829  163.418433679    65.7089   5  10   0.8736   0.5864   2.1322   0.2507   0.3904  -1.0794 10575.00    0.0
2018/11/13 02:56:30.000  -74.425568880  163.418441199    65.4801   5  10   0.8759   0.5872   2.1336   0.2501   0.3920  -1.0824 10605.00    0.0
2018/11/13 02:57:00.000  -74.425571344  163.418428758    66.0189   5  10   0.8786   0.5883   2.1359   0.2495   0.3939  -1.0857 10635.00    0.0
2018/11/13 02:57:30.000  -74.425568105  163.418432530    65.2934   5  10   0.8816   0.5896   2.1393   0.2490   0.3961  -1.0893 10665.00    0.0
2018/11/13 02:58:00.000  -74.425567837  163.418438905    65.7734   5  10   0.8815   0.5886   2.1332   0.2482   0.3951  -1.0891 10695.00    0.0
2018/11/13 02:58:30.000  -74.425571600  163.418441127    66.2699   5  10   0.8817   0.5879   2.1281   0.2476   0.3943  -1.0893 10725.00    0.0
2018/11/13 02:59:00.000  -74.425568201  163.418439275    64.6087   5  10   0.8822   0.5874   2.1241   0.2470   0.3937  -1.0899 10755.00    0.0
2018/11/13 02:59:30.000  -74.425565729  163.418439636    64.3235   5  10   0.8831   0.5872   2.1210   0.2464   0.3934  -1.0908 10785.00    0.0
2018/11/13 03:00:00.000  -74.425564160  163.418433086    64.4504   5  11   0.8389   0.5714   1.9410   0.1504   0.5194  -0.9773 10815.00    0.0
2018/11/13 03:00:30.000  -74.425566544  163.418439700    64.4901   5  11   0.8408   0.5715   1.9422   0.1489   0.5198  -0.9802 10845.00    0.0
2018/11/13 03:01:00.000  -74.425564174  163.418437982    64.1147   5  11   0.8430   0.5718   1.9443   0.1474   0.5205  -0.9835 10875.00    0.0
2018/11/13 03:01:30.000  -74.425564952  163.418432544    64.1081   5  11   0.8455   0.5724   1.9473   0.1458   0.5215  -0.9871 10905.00    0.0
2018/11/13 03:02:00.000  -74.425566478  163.418431759    64.9426   5  11   0.8483   0.5732   1.9512   0.1442   0.5228  -0.9910 10935.00    0.0
2018/11/13 03:02:30.000  -74.425566320  163.418436473    64.5910   5  11   0.8514   0.5743   1.9559   0.1424   0.5245  -0.9952 10965.00    0.0
2018/11/13 03:03:00.000  -74.425565374  163.418440695    64.1418   5  12   0.8262   0.5703   1.9412   0.0917   0.5111  -1.0177 10995.00    0.0
2018/11/13 03:03:30.000  -74.425563926  163.418435128    64.7056   5  12   0.8262   0.5693   1.9391   0.0903   0.5098  -1.0185 11025.00    0.0
2018/11/13 03:04:00.000  -74.425566704  163.418435296    64.6612   5  12   0.8266   0.5686   1.9380   0.0887   0.5088  -1.0197 11055.00    0.0
2018/11/13 03:04:30.000  -74.425566454  163.418447669    65.0374   5  12   0.8272   0.5681   1.9377   0.0869   0.5081  -1.0211 11085.00    0.0
2018/11/13 03:05:00.000  -74.425564637  163.418437699    64.2855   5  12   0.8281   0.5678   1.9382   0.0849   0.5077  -1.0229 11115.00    0.0
2018/11/13 03:05:30.000  -74.425566454  163.418437568    64.4753   5  12   0.8294   0.5679   1.9398   0.0826   0.5078  -1.0251 11145.00    0.0
2018/11/13 03:06:00.000  -74.425568897  163.418440299    64.7602   5  12   0.8309   0.5682   1.9422   0.0800   0.5082  -1.0276 11175.00    0.0
2018/11/13 03:06:30.000  -74.425562685  163.418443708    63.8156   5  12   0.8327   0.5687   1.9455   0.0770   0.5089  -1.0304 11205.00    0.0
2018/11/13 03:07:00.000  -74.425565921  163.418444702    64.5229   5  12   0.8347   0.5695   1.9496   0.0736   0.5100  -1.0334 11235.00    0.0
2018/11/13 03:07:30.000  -74.425565666  163.418437020    64.5755   5  12   0.8371   0.5705   1.9545   0.0698   0.5115  -1.0368 11265.00    0.0
2018/11/13 03:08:00.000  -74.425564833  163.418439375    64.4406   5  12   0.8367   0.5693   1.9512   0.0697   0.5090  -1.0369 11295.00    0.0
2018/11/13 03:08:30.000  -74.425564614  163.418438189    64.4168   5  12   0.8367   0.5682   1.9487   0.0695   0.5069  -1.0373 11325.00    0.0
2018/11/13 03:09:00.000  -74.425560078  163.418433684    63.3257   5  12   0.8369   0.5675   1.9471   0.0691   0.5052  -1.0380 11355.00    0.0
2018/11/13 03:09:30.000  -74.425566115  163.418442432    65.0161   5  12   0.8374   0.5669   1.9463   0.0684   0.5037  -1.0390 11385.00    0.0
2018/11/13 03:10:00.000  -74.425567100  163.418442544    64.9459   5  12   0.8382   0.5666   1.9464   0.0674   0.5026  -1.0403 11415.00    0.0
2018/11/13 03:10:30.000  -74.425568377  163.418434211    64.4378   5  12   0.8392   0.5666   1.9474   0.0659   0.5020  -1.0420 11445.00    0.0
2018/11/13 03:11:00.000  -74.425561830  163.418439551    64.0105   5  12   0.8406   0.5669   1.9493   0.0641   0.5018  -1.0440 11475.00    0.0
2018/11/13 03:11:30.000  -74.425564643  163.418433405    63.9750   5  12   0.8422   0.5674   1.9520   0.0618   0.5019  -1.0462 11505.00    0.0
2018/11/13 03:12:00.000  -74.425563769  163.418435942    64.0509   5  12   0.8440   0.5682   1.9555   0.0590   0.5025  -1.0487 11535.00    0.0
2018/11/13 03:12:30.000  -74.425566643  163.418435849    64.3651   5  12   0.8461   0.5692   1.9597   0.0557   0.5034  -1.0514 11565.00    0.0
2018/11/13 03:13:00.000  -74.425566401  163.418445865    64.6864   5  12   0.8457   0.5679   1.9559   0.0578   0.5001  -1.0511 11595.00    0.0
2018/11/13 03:13:30.000  -74.425563329  163.418433604    64.6134   5  11   0.8520   0.5681   1.9716  -0.0217   0.4868  -1.0375 11625.00    0.0
2018/11/13 03:14:00.000  -74.425564170  163.418430854    65.0084   5  11   0.8517   0.5672   1.9704  -0.0125   0.4842  -1.0379 11655.00    0.0
2018/11/13 03:14:30.000  -74.425562604  163.418428852    64.3862   5  11   0.8517   0.5666   1.9701   0.0104   0.4819  -1.0385 11685.00    0.0
2018/11/13 03:15:00.000  -74.425560906  163.418445191    64.3283   5  11   0.8519   0.5663   1.9706   0.0178   0.4801  -1.0394 11715.00    0.0
2018/11/13 03:15:30.000  -74.425562221  163.418436242    64.1573   5  11   0.8525   0.5663   1.9721   0.0212   0.4787  -1.0406 11745.00    0.0
2018/11/13 03:16:00.000  -74.425563177  163.418435991    63.9808   5  11   0.8533   0.5665   1.9744   0.0230   0.4777  -1.0421 11775.00    0.0
2018/11/13 03:16:30.000  -74.425563198  163.418432584    64.3483   5  10   0.8544   0.5758   2.0340   0.0249   0.4241  -1.0440 11805.00    0.0
2018/11/13 03:17:00.000  -74.425563320  163.418442147    64.2010   5   9   1.2523   0.6026   3.0368   0.4020  -0.4652  -1.7754 11835.00    0.0
2018/11/13 03:17:30.000  -74.425566719  163.418437219    64.6431   5   9   1.2604   0.6035   3.0647   0.4046  -0.4722  -1.7913 11865.00    0.0
2018/11/13 03:18:00.000  -74.425559338  163.418437927    63.4785   5  10   0.7562   0.5951   1.8635   0.2694  -0.0763  -0.8710 11895.00    0.0
2018/11/13 03:18:30.000  -74.425557657  163.418438104    62.7584   5  10   0.7549   0.5938   1.8660   0.2691  -0.0907  -0.8722 11925.00    0.0
2018/11/13 03:19:00.000  -74.425560741  163.418438866    63.1634   5  10   0.7538   0.5927   1.8693   0.2688  -0.1023  -0.8735 11955.00    0.0
2018/11/13 03:19:30.000  -74.425558735  163.418441690    61.9041   5  10   0.7529   0.5919   1.8733   0.2685  -0.1119  -0.8750 11985.00    0.0
2018/11/13 03:20:00.000  -74.425559521  163.418439165    63.2346   5  10   0.7523   0.5913   1.8781   0.2682  -0.1200  -0.8766 12015.00    0.0
2018/11/13 03:20:30.000  -74.425561873  163.418437602    64.7586   5  10   0.7519   0.5911   1.8839   0.2680  -0.1269  -0.8784 12045.00    0.0
2018/11/13 03:21:00.000  -74.425555575  163.418446049    62.2337   5  10   0.7517   0.5911   1.8905   0.2678  -0.1329  -0.8803 12075.00    0.0
2018/11/13 03:21:30.000  -74.425557023  163.418437820    62.9517   5  10   0.7517   0.5914   1.8980   0.2676  -0.1380  -0.8825 12105.00    0.0
2018/11/13 03:22:00.000  -74.425558960  163.418430316    63.3050   5  10   0.7520   0.5919   1.9063   0.2675  -0.1423  -0.8848 12135.00    0.0
2018/11/13 03:22:30.000  -74.425558851  163.418438517    62.5202   5  10   0.7525   0.5927   1.9155   0.2674  -0.1460  -0.8873 12165.00    0.0
2018/11/13 03:23:00.000  -74.425558282  163.418441482    62.4114   5  10   0.7510   0.5912   1.9173   0.2670  -0.1547  -0.8882 12195.00    0.0
2018/11/13 03:23:30.000  -74.425559377  163.418434439    63.0502   5  10   0.7498   0.5899   1.9198   0.2667  -0.1624  -0.8893 12225.00    0.0
2018/11/13 03:24:00.000  -74.425558398  163.418432391    62.3719   5  10   0.7487   0.5889   1.9231   0.2663  -0.1692  -0.8905 12255.00    0.0
2018/11/13 03:24:30.000  -74.425557887  163.418431169    62.5748   5  10   0.7479   0.5881   1.9272   0.2660  -0.1754  -0.8919 12285.00    0.0
2018/11/13 03:25:00.000  -74.425558802  163.418441067    63.0767   5  10   0.7473   0.5876   1.9322   0.2658  -0.1808  -0.8935 12315.00    0.0
2018/11/13 03:25:30.000  -74.425557068  163.418442383    62.6354   5  10   0.7469   0.5874   1.9382   0.2655  -0.1856  -0.8952 12345.00    0.0
2018/11/13 03:26:00.000  -74.425555703  163.418436983    62.1273   5  10   0.7468   0.5875   1.9451   0.2653  -0.1899  -0.8972 12375.00    0.0
2018/11/13 03:26:30.000  -74.425556699  163.418441538    62.3060   5  10   0.7469   0.5879   1.9528   0.2652  -0.1937  -0.8993 12405.00    0.0
