% program   : RTKLIB ver.2.4.3
% inp file  : _by_type/_obs/blake/20181112.18o
% inp file  : _by_type/_obs/base/20181112.18o
% inp file  : _by_type/_sp3+clk/igs20271.clk
% inp file  : _by_type/_sp3+clk/igs20271.sp3
% inp file  : _by_type/_nav/blake/20181112.18n
% obs start : 2018/11/12 00:00:00.0 GPST (week2027  86400.0s)
% obs end   : 2018/11/12 23:59:45.0 GPST (week2027 172785.0s)
% pos mode  : dgps
% freqs     : L1+L2
% solution  : combined
% elev mask : 15.0 deg
% dynamics  : off
% tidecorr  : off
% ionos opt : iono-free
% tropo opt : est ztd+grad
% ephemeris : precise
% navi sys  : gps glonass
% antenna1  :                       ( 0.0000  0.0000  0.0000)
% antenna2  :                       ( 0.0000  0.0000  0.0000)
% ref pos   : 90.000000000   0.000000000-6335367.6285
%
% (lat/lon/height=WGS84/ellipsoidal,Q=1:fix,2:float,3:sbas,4:dgps,5:single,6:ppp,ns=# of satellites)
%  GPST                  latitude(deg) longitude(deg)  height(m)   Q  ns   sdn(m)   sde(m)   sdu(m)  sdne(m)  sdeu(m)  sdun(m) age(s)  ratio
2018/11/12 00:00:00.000  -74.407216220  163.437624106    78.0244   5  10   0.6582   0.6232   2.2991  -0.2926   0.7800  -0.7543   0.00    0.0
2018/11/12 00:00:15.000  -74.407215852  163.437622794    77.7803   5  10   0.6585   0.6238   2.3062  -0.2938   0.7838  -0.7571   0.00    0.0
2018/11/12 00:00:30.000  -74.407215843  163.437616003    77.2207   5  10   0.6590   0.6245   2.3136  -0.2951   0.7877  -0.7600   0.00    0.0
2018/11/12 00:00:45.000  -74.407215878  163.437622141    78.0831   5  10   0.6595   0.6253   2.3213  -0.2964   0.7917  -0.7630   0.00    0.0
2018/11/12 00:01:00.000  -74.407217824  163.437617976    77.9747   5  10   0.6601   0.6262   2.3294  -0.2978   0.7959  -0.7661   0.00    0.0
2018/11/12 00:01:15.000  -74.407218981  163.437629195    78.3214   5  10   0.6608   0.6272   2.3377  -0.2993   0.8002  -0.7692   0.00    0.0
2018/11/12 00:01:30.000  -74.407217000  163.437626225    78.3816   5  10   0.6616   0.6283   2.3463  -0.3008   0.8047  -0.7725   0.00    0.0
2018/11/12 00:01:45.000  -74.407217849  163.437619552    78.9370   5  10   0.6625   0.6295   2.3552  -0.3024   0.8092  -0.7759   0.00    0.0
2018/11/12 00:02:00.000  -74.407217904  163.437619500    79.3638   5  10   0.6634   0.6308   2.3644  -0.3040   0.8139  -0.7794   0.00    0.0
2018/11/12 00:02:15.000  -74.407216019  163.437622703    78.2808   5  10   0.6644   0.6322   2.3738  -0.3058   0.8187  -0.7830   0.00    0.0
2018/11/12 00:02:30.000  -74.407218346  163.437624521    78.2429   5  10   0.6655   0.6336   2.3836  -0.3075   0.8237  -0.7866   0.00    0.0
2018/11/12 00:02:45.000  -74.407216191  163.437620576    78.2515   5  10   0.6652   0.6334   2.3875  -0.3081   0.8259  -0.7885   0.00    0.0
2018/11/12 00:03:00.000  -74.407217505  163.437628330    78.2942   5  10   0.6650   0.6332   2.3917  -0.3089   0.8283  -0.7906   0.00    0.0
2018/11/12 00:03:15.000  -74.407217639  163.437626612    79.4646   5  10   0.6649   0.6331   2.3963  -0.3096   0.8308  -0.7928   0.00    0.0
2018/11/12 00:03:30.000  -74.407216726  163.437622710    78.5224   5  10   0.6649   0.6331   2.4011  -0.3105   0.8335  -0.7951   0.00    0.0
2018/11/12 00:03:45.000  -74.407216400  163.437625590    79.5584   5  10   0.6649   0.6332   2.4062  -0.3114   0.8362  -0.7975   0.00    0.0
2018/11/12 00:04:00.000  -74.407217209  163.437626435    78.4370   5  10   0.6650   0.6334   2.4115  -0.3123   0.8391  -0.7999   0.00    0.0
2018/11/12 00:04:15.000  -74.407217538  163.437625212    78.5281   5  10   0.6652   0.6337   2.4171  -0.3133   0.8421  -0.8025   0.00    0.0
2018/11/12 00:04:30.000  -74.407215713  163.437621258    77.8695   5  10   0.6655   0.6341   2.4230  -0.3144   0.8452  -0.8051   0.00    0.0
2018/11/12 00:04:45.000  -74.407213823  163.437618980    78.4465   5  10   0.6659   0.6346   2.4292  -0.3155   0.8485  -0.8079   0.00    0.0
2018/11/12 00:05:00.000  -74.407217035  163.437614451    78.3460   5  10   0.6663   0.6351   2.4356  -0.3167   0.8518  -0.8107   0.00    0.0
2018/11/12 00:05:15.000  -74.407216082  163.437622056    78.4074   5  11   0.6542   0.6358   2.3469  -0.3167   0.8579  -0.8658   0.00    0.0
2018/11/12 00:05:30.000  -74.407216333  163.437615071    77.2553   5  11   0.6547   0.6365   2.3543  -0.3180   0.8615  -0.8688   0.00    0.0
2018/11/12 00:05:45.000  -74.407217356  163.437622718    78.0937   5  11   0.6553   0.6374   2.3621  -0.3195   0.8651  -0.8719   0.00    0.0
2018/11/12 00:06:00.000  -74.407217940  163.437624741    79.0125   5  11   0.6560   0.6384   2.3701  -0.3210   0.8689  -0.8750   0.00    0.0
2018/11/12 00:06:15.000  -74.407218260  163.437609577    77.8831   5  11   0.6568   0.6394   2.3784  -0.3225   0.8728  -0.8783   0.00    0.0
2018/11/12 00:06:30.000  -74.407217342  163.437617387    78.8150   5  11   0.6576   0.6405   2.3869  -0.3241   0.8768  -0.8817   0.00    0.0
2018/11/12 00:06:45.000  -74.407216734  163.437618837    78.7768   5  11   0.6585   0.6417   2.3957  -0.3257   0.8809  -0.8852   0.00    0.0
2018/11/12 00:07:00.000  -74.407219386  163.437622248    78.7262   5  11   0.6595   0.6431   2.4047  -0.3274   0.8851  -0.8888   0.00    0.0
2018/11/12 00:07:15.000  -74.407213628  163.437607001    77.8286   5  11   0.6605   0.6444   2.4140  -0.3292   0.8894  -0.8924   0.00    0.0
2018/11/12 00:07:30.000  -74.407216957  163.437620293    79.2151   5  11   0.6616   0.6459   2.4235  -0.3310   0.8939  -0.8962   0.00    0.0
2018/11/12 00:07:45.000  -74.407216850  163.437618133    78.3893   5  11   0.6615   0.6458   2.4279  -0.3318   0.8960  -0.8982   0.00    0.0
2018/11/12 00:08:00.000  -74.407218633  163.437610353    78.8838   5  11   0.6614   0.6456   2.4319  -0.3325   0.8978  -0.9001   0.00    0.0
2018/11/12 00:08:15.000  -74.407214899  163.437617746    78.2425   5  11   0.6614   0.6455   2.4361  -0.3333   0.8997  -0.9020   0.00    0.0
2018/11/12 00:08:30.000  -74.407216703  163.437618165    78.2046   5  11   0.6614   0.6455   2.4406  -0.3341   0.9017  -0.9041   0.00    0.0
2018/11/12 00:08:45.000  -74.407218563  163.437631942    79.7546   5  11   0.6615   0.6455   2.4452  -0.3349   0.9038  -0.9062   0.00    0.0
2018/11/12 00:09:00.000  -74.407215811  163.437617331    78.0695   5  11   0.6616   0.6457   2.4502  -0.3358   0.9060  -0.9084   0.00    0.0
2018/11/12 00:09:15.000  -74.407217151  163.437622208    78.1034   5  11   0.6618   0.6459   2.4553  -0.3368   0.9083  -0.9107   0.00    0.0
2018/11/12 00:09:30.000  -74.407216102  163.437620060    78.0023   5  11   0.6621   0.6462   2.4607  -0.3377   0.9108  -0.9130   0.00    0.0
2018/11/12 00:09:45.000  -74.407215307  163.437622620    78.7907   5  11   0.6625   0.6466   2.4662  -0.3388   0.9133  -0.9155   0.00    0.0
2018/11/12 00:10:00.000  -74.407216976  163.437618772    79.3920   5  11   0.6629   0.6471   2.4720  -0.3399   0.9159  -0.9180   0.00    0.0
2018/11/12 00:10:15.000  -74.407218530  163.437618993    78.4044   5  11   0.6635   0.6477   2.4783  -0.3411   0.9187  -0.9207   0.00    0.0
2018/11/12 00:10:30.000  -74.407215670  163.437622357    77.4054   5  11   0.6641   0.6484   2.4847  -0.3423   0.9216  -0.9234   0.00    0.0
2018/11/12 00:10:45.000  -74.407216929  163.437621549    78.1635   5  11   0.6648   0.6492   2.4914  -0.3436   0.9247  -0.9263   0.00    0.0
2018/11/12 00:11:00.000  -74.407215108  163.437613710    77.9992   5  11   0.6656   0.6501   2.4983  -0.3449   0.9278  -0.9292   0.00    0.0
2018/11/12 00:11:15.000  -74.407217040  163.437617371    78.0872   5  11   0.6664   0.6510   2.5054  -0.3462   0.9310  -0.9322   0.00    0.0
2018/11/12 00:11:30.000  -74.407216256  163.437618776    78.5626   5  11   0.6673   0.6520   2.5127  -0.3476   0.9342  -0.9353   0.00    0.0
2018/11/12 00:11:45.000  -74.407214460  163.437617392    77.7891   5  11   0.6682   0.6531   2.5201  -0.3491   0.9376  -0.9384   0.00    0.0
2018/11/12 00:12:00.000  -74.407216449  163.437620553    78.2671   5  11   0.6692   0.6543   2.5278  -0.3505   0.9410  -0.9416   0.00    0.0
2018/11/12 00:12:15.000  -74.407216430  163.437623540    77.8344   5  11   0.6703   0.6556   2.5357  -0.3521   0.9445  -0.9449   0.00    0.0
2018/11/12 00:12:30.000  -74.407215953  163.437621542    78.1308   5  11   0.6715   0.6569   2.5437  -0.3536   0.9481  -0.9483   0.00    0.0
2018/11/12 00:12:45.000  -74.407218041  163.437616153    78.4894   5  11   0.6713   0.6564   2.5458  -0.3540   0.9489  -0.9495   0.00    0.0
2018/11/12 00:13:00.000  -74.407216760  163.437619401    78.1625   5  11   0.6712   0.6561   2.5480  -0.3544   0.9498  -0.9509   0.00    0.0
2018/11/12 00:13:15.000  -74.407216442  163.437605464    77.9589   5  11   0.6712   0.6558   2.5505  -0.3549   0.9508  -0.9523   0.00    0.0
2018/11/12 00:13:30.000  -74.407215720  163.437612272    78.1381   5  11   0.6712   0.6556   2.5531  -0.3554   0.9519  -0.9538   0.00    0.0
2018/11/12 00:13:45.000  -74.407217912  163.437616689    77.9469   5  11   0.6713   0.6555   2.5559  -0.3560   0.9530  -0.9553   0.00    0.0
2018/11/12 00:14:00.000  -74.407215788  163.437613666    77.6522   5  11   0.6714   0.6554   2.5588  -0.3566   0.9542  -0.9569   0.00    0.0
2018/11/12 00:14:15.000  -74.407217672  163.437621803    78.6137   5  11   0.6716   0.6554   2.5619  -0.3572   0.9555  -0.9586   0.00    0.0
2018/11/12 00:14:30.000  -74.407216148  163.437616432    77.9048   5  11   0.6719   0.6555   2.5652  -0.3579   0.9568  -0.9603   0.00    0.0
2018/11/12 00:14:45.000  -74.407215373  163.437617275    77.9199   5  11   0.6723   0.6557   2.5687  -0.3585   0.9582  -0.9621   0.00    0.0
2018/11/12 00:15:00.000  -74.407214544  163.437621102    77.6928   5  11   0.6727   0.6560   2.5723  -0.3593   0.9597  -0.9639   0.00    0.0
2018/11/12 00:15:15.000  -74.407215463  163.437613700    77.1143   5  11   0.6732   0.6563   2.5763  -0.3601   0.9613  -0.9659   0.00    0.0
2018/11/12 00:15:30.000  -74.407215145  163.437619444    77.7144   5  11   0.6738   0.6568   2.5804  -0.3609   0.9630  -0.9679   0.00    0.0
2018/11/12 00:15:45.000  -74.407213957  163.437621876    77.1842   5  11   0.6744   0.6573   2.5847  -0.3618   0.9648  -0.9700   0.00    0.0
2018/11/12 00:16:00.000  -74.407216129  163.437621346    77.3284   5  11   0.6751   0.6579   2.5891  -0.3627   0.9666  -0.9721   0.00    0.0
2018/11/12 00:16:15.000  -74.407219362  163.437623962    78.6530   5  11   0.6758   0.6585   2.5936  -0.3636   0.9685  -0.9743   0.00    0.0
2018/11/12 00:16:30.000  -74.407216306  163.437613753    76.8347   5  11   0.6767   0.6593   2.5983  -0.3645   0.9705  -0.9765   0.00    0.0
2018/11/12 00:16:45.000  -74.407219451  163.437628448    78.6878   5  11   0.6775   0.6601   2.6032  -0.3655   0.9724  -0.9788   0.00    0.0
2018/11/12 00:17:00.000  -74.407216122  163.437616873    77.6056   5  11   0.6785   0.6609   2.6081  -0.3665   0.9744  -0.9811   0.00    0.0
2018/11/12 00:17:15.000  -74.407215921  163.437622806    77.9467   5  11   0.6795   0.6618   2.6132  -0.3675   0.9765  -0.9834   0.00    0.0
2018/11/12 00:17:30.000  -74.407216959  163.437614910    77.8325   5  11   0.6805   0.6628   2.6184  -0.3685   0.9786  -0.9857   0.00    0.0
2018/11/12 00:17:45.000  -74.407215400  163.437619113    76.8372   5  11   0.6802   0.6621   2.6176  -0.3685   0.9781  -0.9861   0.00    0.0
2018/11/12 00:18:00.000  -74.407217123  163.437613685    78.1024   5  11   0.6800   0.6614   2.6170  -0.3684   0.9776  -0.9865   0.00    0.0
2018/11/12 00:18:15.000  -74.407218899  163.437616865    78.3512   5  11   0.6799   0.6608   2.6166  -0.3684   0.9771  -0.9869   0.00    0.0
2018/11/12 00:18:30.000  -74.407217240  163.437618957    77.9367   5  11   0.6798   0.6603   2.6163  -0.3685   0.9767  -0.9874   0.00    0.0
2018/11/12 00:18:45.000  -74.407217083  163.437620529    78.1386   5  11   0.6798   0.6598   2.6161  -0.3685   0.9764  -0.9879   0.00    0.0
2018/11/12 00:19:00.000  -74.407219078  163.437621096    78.7981   5  11   0.6798   0.6595   2.6160  -0.3686   0.9761  -0.9885   0.00    0.0
2018/11/12 00:19:15.000  -74.407216840  163.437619981    77.6126   5  11   0.6799   0.6591   2.6160  -0.3687   0.9758  -0.9891   0.00    0.0
2018/11/12 00:19:30.000  -74.407216062  163.437614593    78.1732   5  11   0.6800   0.6589   2.6162  -0.3688   0.9756  -0.9897   0.00    0.0
2018/11/12 00:19:45.000  -74.407217932  163.437621250    77.8421   5  11   0.6803   0.6587   2.6164  -0.3689   0.9755  -0.9904   0.00    0.0
2018/11/12 00:20:00.000  -74.407215284  163.437624303    77.3990   5  11   0.6805   0.6585   2.6168  -0.3691   0.9753  -0.9911   0.00    0.0
2018/11/12 00:20:15.000  -74.407217542  163.437610928    77.3490   5  11   0.6809   0.6585   2.6175  -0.3693   0.9754  -0.9919   0.00    0.0
2018/11/12 00:20:30.000  -74.407218296  163.437615984    76.8248   5  11   0.6813   0.6586   2.6183  -0.3696   0.9754  -0.9928   0.00    0.0
2018/11/12 00:20:45.000  -74.407218583  163.437626672    77.8185   5  11   0.6817   0.6587   2.6192  -0.3698   0.9755  -0.9937   0.00    0.0
2018/11/12 00:21:00.000  -74.407217363  163.437615644    78.3989   5  11   0.6823   0.6589   2.6203  -0.3701   0.9756  -0.9946   0.00    0.0
2018/11/12 00:21:15.000  -74.407218252  163.437628171    78.8051   5  11   0.6828   0.6591   2.6214  -0.3704   0.9758  -0.9955   0.00    0.0
2018/11/12 00:21:30.000  -74.407215812  163.437623245    77.9729   5  11   0.6835   0.6594   2.6226  -0.3707   0.9759  -0.9964   0.00    0.0
2018/11/12 00:21:45.000  -74.407217381  163.437611447    77.6507   5  11   0.6841   0.6598   2.6239  -0.3710   0.9761  -0.9974   0.00    0.0
2018/11/12 00:22:00.000  -74.407214938  163.437626314    78.3339   5  11   0.6849   0.6602   2.6253  -0.3713   0.9763  -0.9984   0.00    0.0
2018/11/12 00:22:15.000  -74.407218485  163.437615903    77.1035   5  11   0.6857   0.6607   2.6268  -0.3717   0.9766  -0.9994   0.00    0.0
2018/11/12 00:22:30.000  -74.407219075  163.437617418    78.1609   5  11   0.6865   0.6612   2.6284  -0.3720   0.9768  -1.0005   0.00    0.0
2018/11/12 00:22:45.000  -74.407217640  163.437614752    77.8559   5  11   0.6861   0.6602   2.6244  -0.3714   0.9747  -0.9996   0.00    0.0
2018/11/12 00:23:00.000  -74.407218300  163.437616858    77.8615   5  11   0.6857   0.6591   2.6204  -0.3708   0.9726  -0.9988   0.00    0.0
2018/11/12 00:23:15.000  -74.407220219  163.437611459    77.5516   5  11   0.6854   0.6581   2.6165  -0.3702   0.9705  -0.9980   0.00    0.0
2018/11/12 00:23:30.000  -74.407217559  163.437617762    77.6638   5  11   0.6851   0.6572   2.6128  -0.3696   0.9684  -0.9973   0.00    0.0
2018/11/12 00:23:45.000  -74.407215909  163.437617537    76.4876   5  11   0.6849   0.6564   2.6091  -0.3690   0.9664  -0.9965   0.00    0.0
2018/11/12 00:24:00.000  -74.407218115  163.437626739    78.0830   5  11   0.6847   0.6556   2.6056  -0.3685   0.9644  -0.9958   0.00    0.0
2018/11/12 00:24:15.000  -74.407218793  163.437626073    78.0701   5  11   0.6846   0.6549   2.6022  -0.3680   0.9625  -0.9952   0.00    0.0
2018/11/12 00:24:30.000  -74.407217296  163.437624990    77.6367   5  11   0.6846   0.6542   2.5989  -0.3675   0.9605  -0.9945   0.00    0.0
2018/11/12 00:24:45.000  -74.407216156  163.437611490    77.4973   5  11   0.6846   0.6536   2.5957  -0.3670   0.9587  -0.9939   0.00    0.0
2018/11/12 00:25:00.000  -74.407217611  163.437611217    77.1191   5  11   0.6846   0.6531   2.5926  -0.3665   0.9568  -0.9934   0.00    0.0
2018/11/12 00:25:15.000  -74.407217286  163.437622126    77.2704   5  11   0.6848   0.6527   2.5899  -0.3660   0.9551  -0.9929   0.00    0.0
2018/11/12 00:25:30.000  -74.407217950  163.437619243    76.7429   5  11   0.6850   0.6524   2.5872  -0.3656   0.9534  -0.9924   0.00    0.0
2018/11/12 00:25:45.000  -74.407216590  163.437617409    76.6498   5  11   0.6852   0.6521   2.5847  -0.3652   0.9518  -0.9920   0.00    0.0
2018/11/12 00:26:00.000  -74.407219543  163.437624846    77.4816   5  11   0.6855   0.6519   2.5823  -0.3648   0.9501  -0.9916   0.00    0.0
2018/11/12 00:26:15.000  -74.407216876  163.437621356    77.7761   5  11   0.6859   0.6517   2.5800  -0.3644   0.9485  -0.9912   0.00    0.0
2018/11/12 00:26:30.000  -74.407218407  163.437622568    77.9332   5  11   0.6863   0.6516   2.5778  -0.3641   0.9470  -0.9908   0.00    0.0
2018/11/12 00:26:45.000  -74.407215893  163.437618958    77.3651   5  11   0.6867   0.6516   2.5757  -0.3637   0.9454  -0.9905   0.00    0.0
2018/11/12 00:27:00.000  -74.407216056  163.437616266    77.0692   5  11   0.6872   0.6516   2.5738  -0.3634   0.9439  -0.9902   0.00    0.0
2018/11/12 00:27:15.000  -74.407216855  163.437615827    77.5324   5  11   0.6878   0.6517   2.5720  -0.3630   0.9424  -0.9899   0.00    0.0
2018/11/12 00:27:30.000  -74.407216359  163.437619814    77.0804   5  11   0.6884   0.6518   2.5703  -0.3627   0.9409  -0.9896   0.00    0.0
2018/11/12 00:27:45.000  -74.407216180  163.437612928    77.0194   5  11   0.6878   0.6504   2.5631  -0.3615   0.9373  -0.9877   0.00    0.0
2018/11/12 00:28:00.000  -74.407216438  163.437623230    77.7576   5  11   0.6873   0.6491   2.5561  -0.3603   0.9337  -0.9857   0.00    0.0
2018/11/12 00:28:15.000  -74.407214856  163.437625206    77.6450   5  11   0.6868   0.6478   2.5493  -0.3591   0.9301  -0.9838   0.00    0.0
2018/11/12 00:28:30.000  -74.407219457  163.437621512    78.1226   5  11   0.6863   0.6466   2.5426  -0.3580   0.9266  -0.9820   0.00    0.0
2018/11/12 00:28:45.000  -74.407215552  163.437620299    77.3674   5  11   0.6859   0.6455   2.5361  -0.3569   0.9231  -0.9801   0.00    0.0
2018/11/12 00:29:00.000  -74.407216427  163.437616830    76.4524   5  11   0.6856   0.6444   2.5297  -0.3558   0.9196  -0.9783   0.00    0.0
2018/11/12 00:29:15.000  -74.407216680  163.437625069    78.3531   5  11   0.6853   0.6434   2.5235  -0.3547   0.9162  -0.9766   0.00    0.0
2018/11/12 00:29:30.000  -74.407217029  163.437625147    78.2446   5  11   0.6851   0.6424   2.5174  -0.3536   0.9129  -0.9748   0.00    0.0
2018/11/12 00:29:45.000  -74.407215900  163.437618296    77.9156   5  11   0.6849   0.6416   2.5115  -0.3525   0.9096  -0.9732   0.00    0.0
2018/11/12 00:30:00.000  -74.407216504  163.437624031    76.5403   5  10   0.9377   0.6737   3.5767  -0.5069   1.1631  -1.6059   0.00    0.0
2018/11/12 00:30:15.000  -74.407211765  163.437614973    75.0460   5  10   0.9372   0.6727   3.5692  -0.5052   1.1588  -1.6033   0.00    0.0
2018/11/12 00:30:30.000  -74.407214985  163.437623198    76.3058   5  10   0.9367   0.6717   3.5617  -0.5036   1.1546  -1.6007   0.00    0.0
2018/11/12 00:30:45.000  -74.407212739  163.437621404    75.7366   5  10   0.9362   0.6708   3.5543  -0.5020   1.1503  -1.5982   0.00    0.0
2018/11/12 00:31:00.000  -74.407216938  163.437624573    76.8663   5  10   0.9359   0.6700   3.5471  -0.5003   1.1460  -1.5957   0.00    0.0
2018/11/12 00:31:15.000  -74.407214079  163.437623022    76.3341   5  10   0.9355   0.6692   3.5399  -0.4987   1.1418  -1.5933   0.00    0.0
2018/11/12 00:31:30.000  -74.407214076  163.437619251    75.7594   5  10   0.9353   0.6684   3.5330  -0.4971   1.1376  -1.5909   0.00    0.0
2018/11/12 00:31:45.000  -74.407212812  163.437615107    75.0576   5  10   0.9351   0.6677   3.5261  -0.4954   1.1333  -1.5885   0.00    0.0
2018/11/12 00:32:00.000  -74.407212162  163.437617168    75.5103   5  10   0.9349   0.6671   3.5194  -0.4938   1.1291  -1.5863   0.00    0.0
2018/11/12 00:32:15.000  -74.407215084  163.437624236    75.9420   5  10   0.9348   0.6666   3.5129  -0.4921   1.1249  -1.5840   0.00    0.0
2018/11/12 00:32:30.000  -74.407214948  163.437626229    75.9994   5  10   0.9348   0.6661   3.5065  -0.4905   1.1207  -1.5818   0.00    0.0
2018/11/12 00:32:45.000  -74.407216375  163.437616132    76.2369   5  10   0.9324   0.6639   3.4901  -0.4873   1.1132  -1.5752   0.00    0.0
2018/11/12 00:33:00.000  -74.407213905  163.437615204    75.8350   5  10   0.9301   0.6618   3.4740  -0.4842   1.1059  -1.5686   0.00    0.0
2018/11/12 00:33:15.000  -74.407212857  163.437612312    75.2688   5  10   0.9279   0.6598   3.4580  -0.4811   1.0986  -1.5622   0.00    0.0
2018/11/12 00:33:30.000  -74.407216931  163.437625952    76.9792   5  10   0.9258   0.6579   3.4423  -0.4781   1.0913  -1.5558   0.00    0.0
2018/11/12 00:33:45.000  -74.407214243  163.437622219    76.0612   5   9   0.9278   0.6562   3.6780  -0.4741   1.0779  -1.5867   0.00    0.0
2018/11/12 00:34:00.000  -74.407215541  163.437625395    75.5079   5   9   0.9259   0.6544   3.6644  -0.4711   1.0707  -1.5811   0.00    0.0
2018/11/12 00:34:15.000  -74.407213787  163.437621496    75.1757   5   9   0.9241   0.6527   3.6511  -0.4681   1.0636  -1.5756   0.00    0.0
2018/11/12 00:34:30.000  -74.407213848  163.437624184    74.7169   5   9   0.9224   0.6511   3.6380  -0.4651   1.0565  -1.5702   0.00    0.0
2018/11/12 00:34:45.000  -74.407213042  163.437614803    74.7469   5   9   0.9207   0.6496   3.6252  -0.4621   1.0494  -1.5649   0.00    0.0
2018/11/12 00:35:00.000  -74.407216441  163.437629781    77.1950   5   9   0.9192   0.6481   3.6126  -0.4592   1.0424  -1.5597   0.00    0.0
2018/11/12 00:35:15.000  -74.407211120  163.437613668    74.1288   5   9   0.9177   0.6468   3.6007  -0.4563   1.0356  -1.5547   0.00    0.0
2018/11/12 00:35:30.000  -74.407213318  163.437614978    75.4904   5   9   0.9164   0.6456   3.5891  -0.4535   1.0288  -1.5498   0.00    0.0
2018/11/12 00:35:45.000  -74.407215519  163.437624511    75.4461   5   9   0.9151   0.6444   3.5778  -0.4507   1.0220  -1.5451   0.00    0.0
2018/11/12 00:36:00.000  -74.407214773  163.437616988    75.3531   5   9   0.9139   0.6433   3.5669  -0.4479   1.0153  -1.5405   0.00    0.0
2018/11/12 00:36:15.000  -74.407214467  163.437622116    75.5396   5   9   0.9128   0.6423   3.5562  -0.4451   1.0087  -1.5360   0.00    0.0
2018/11/12 00:36:30.000  -74.407217604  163.437624672    76.3615   5   9   0.9118   0.6414   3.5460  -0.4423   1.0021  -1.5316   0.00    0.0
2018/11/12 00:36:45.000  -74.407216315  163.437623138    77.2850   5  10   0.7494   0.6366   2.6804  -0.3957   0.9098  -1.0671   0.00    0.0
2018/11/12 00:37:00.000  -74.407216573  163.437616010    76.4285   5  10   0.7496   0.6361   2.6782  -0.3948   0.9068  -1.0661   0.00    0.0
2018/11/12 00:37:15.000  -74.407219065  163.437627992    77.8475   5  10   0.7499   0.6357   2.6762  -0.3939   0.9039  -1.0652   0.00    0.0
2018/11/12 00:37:30.000  -74.407216986  163.437628531    77.9256   5  10   0.7503   0.6354   2.6745  -0.3930   0.9010  -1.0644   0.00    0.0
2018/11/12 00:37:45.000  -74.407218723  163.437623802    77.5942   5  10   0.7492   0.6336   2.6661  -0.3911   0.8959  -1.0614   0.00    0.0
2018/11/12 00:38:00.000  -74.407218124  163.437626364    77.8297   5  10   0.7483   0.6319   2.6580  -0.3892   0.8909  -1.0585   0.00    0.0
2018/11/12 00:38:15.000  -74.407216968  163.437622382    77.2808   5  10   0.7473   0.6302   2.6500  -0.3874   0.8859  -1.0557   0.00    0.0
2018/11/12 00:38:30.000  -74.407217395  163.437619296    76.7634   5  10   0.7465   0.6287   2.6422  -0.3856   0.8810  -1.0529   0.00    0.0
2018/11/12 00:38:45.000  -74.407216977  163.437620849    76.4285   5  10   0.7457   0.6272   2.6347  -0.3839   0.8761  -1.0502   0.00    0.0
2018/11/12 00:39:00.000  -74.407214973  163.437618360    76.4748   5  10   0.7450   0.6257   2.6274  -0.3822   0.8713  -1.0475   0.00    0.0
2018/11/12 00:39:15.000  -74.407219189  163.437622264    78.1488   5  10   0.7443   0.6244   2.6204  -0.3805   0.8666  -1.0449   0.00    0.0
2018/11/12 00:39:30.000  -74.407215241  163.437619389    77.0861   5  10   0.7438   0.6231   2.6136  -0.3788   0.8619  -1.0424   0.00    0.0
2018/11/12 00:39:45.000  -74.407214188  163.437619166    76.4369   5  10   0.7432   0.6219   2.6071  -0.3772   0.8573  -1.0400   0.00    0.0
2018/11/12 00:40:00.000  -74.407215100  163.437623699    76.1895   5  10   0.7428   0.6208   2.6008  -0.3756   0.8528  -1.0376   0.00    0.0
2018/11/12 00:40:15.000  -74.407217248  163.437624765    76.5659   5  10   0.7424   0.6198   2.5950  -0.3741   0.8483  -1.0354   0.00    0.0
2018/11/12 00:40:30.000  -74.407217831  163.437622781    77.3664   5  10   0.7422   0.6189   2.5895  -0.3726   0.8440  -1.0332   0.00    0.0
2018/11/12 00:40:45.000  -74.407214476  163.437621602    76.5978   5  10   0.7420   0.6180   2.5842  -0.3711   0.8397  -1.0311   0.00    0.0
2018/11/12 00:41:00.000  -74.407217243  163.437625798    76.5728   5  10   0.7418   0.6172   2.5793  -0.3697   0.8354  -1.0292   0.00    0.0
2018/11/12 00:41:15.000  -74.407216148  163.437624060    77.2716   5  10   0.7418   0.6165   2.5746  -0.3683   0.8312  -1.0272   0.00    0.0
2018/11/12 00:41:30.000  -74.407217985  163.437620011    75.5216   5  10   0.7417   0.6159   2.5702  -0.3669   0.8271  -1.0254   0.00    0.0
2018/11/12 00:41:45.000  -74.407214559  163.437611715    75.2010   5  10   0.7418   0.6153   2.5661  -0.3656   0.8230  -1.0237   0.00    0.0
2018/11/12 00:42:00.000  -74.407216962  163.437629174    77.5694   5  10   0.7420   0.6148   2.5624  -0.3643   0.8190  -1.0220   0.00    0.0
2018/11/12 00:42:15.000  -74.407215354  163.437617137    75.5528   5  10   0.7422   0.6144   2.5589  -0.3630   0.8151  -1.0204   0.00    0.0
2018/11/12 00:42:30.000  -74.407219393  163.437623347    76.2506   5  10   0.7424   0.6140   2.5557  -0.3617   0.8112  -1.0189   0.00    0.0
2018/11/12 00:42:45.000  -74.407219680  163.437630265    77.9802   5  10   0.7413   0.6123   2.5455  -0.3596   0.8053  -1.0152   0.00    0.0
2018/11/12 00:43:00.000  -74.407216763  163.437626709    76.9514   5  10   0.7403   0.6106   2.5358  -0.3575   0.7994  -1.0117   0.00    0.0
2018/11/12 00:43:15.000  -74.407217337  163.437629807    76.9314   5  10   0.7393   0.6091   2.5263  -0.3554   0.7937  -1.0082   0.00    0.0
2018/11/12 00:43:30.000  -74.407216463  163.437618429    76.5327   5  10   0.7384   0.6076   2.5171  -0.3534   0.7880  -1.0049   0.00    0.0
2018/11/12 00:43:45.000  -74.407217857  163.437631215    76.9416   5  10   0.7375   0.6062   2.5083  -0.3514   0.7824  -1.0016   0.00    0.0
2018/11/12 00:44:00.000  -74.407218269  163.437625267    77.8668   5  10   0.7368   0.6048   2.4998  -0.3494   0.7769  -0.9984   0.00    0.0
2018/11/12 00:44:15.000  -74.407216307  163.437630089    76.0409   5  10   0.7361   0.6036   2.4916  -0.3475   0.7715  -0.9953   0.00    0.0
2018/11/12 00:44:30.000  -74.407218958  163.437624875    77.7745   5  10   0.7355   0.6024   2.4837  -0.3456   0.7661  -0.9923   0.00    0.0
2018/11/12 00:44:45.000  -74.407219894  163.437627879    78.3673   5  10   0.7349   0.6013   2.4761  -0.3438   0.7608  -0.9894   0.00    0.0
2018/11/12 00:45:00.000  -74.407217937  163.437614230    77.2761   5  10   0.7345   0.6003   2.4689  -0.3420   0.7556  -0.9866   0.00    0.0
2018/11/12 00:45:15.000  -74.407215286  163.437617036    76.5175   5  10   0.7341   0.5994   2.4622  -0.3403   0.7505  -0.9840   0.00    0.0
2018/11/12 00:45:30.000  -74.407218501  163.437626020    77.6095   5  10   0.7338   0.5986   2.4559  -0.3385   0.7455  -0.9815   0.00    0.0
2018/11/12 00:45:45.000  -74.407215814  163.437623459    78.6913   5  10   0.7336   0.5978   2.4499  -0.3369   0.7405  -0.9790   0.00    0.0
2018/11/12 00:46:00.000  -74.407217003  163.437625702    77.8014   5  10   0.7334   0.5971   2.4442  -0.3352   0.7356  -0.9767   0.00    0.0
2018/11/12 00:46:15.000  -74.407218116  163.437620631    77.9681   5  10   0.7333   0.5965   2.4389  -0.3336   0.7308  -0.9744   0.00    0.0
2018/11/12 00:46:30.000  -74.407216213  163.437619013    76.7897   5  10   0.7333   0.5960   2.4339  -0.3321   0.7260  -0.9723   0.00    0.0
2018/11/12 00:46:45.000  -74.407221367  163.437623641    78.0730   5  10   0.7334   0.5956   2.4293  -0.3305   0.7213  -0.9702   0.00    0.0
2018/11/12 00:47:00.000  -74.407220431  163.437623721    77.7568   5  10   0.7335   0.5952   2.4250  -0.3290   0.7167  -0.9683   0.00    0.0
2018/11/12 00:47:15.000  -74.407218460  163.437617694    77.5397   5  10   0.7337   0.5949   2.4211  -0.3275   0.7121  -0.9664   0.00    0.0
2018/11/12 00:47:30.000  -74.407216451  163.437619340    77.4748   5  10   0.7340   0.5947   2.4176  -0.3261   0.7075  -0.9647   0.00    0.0
2018/11/12 00:47:45.000  -74.407214790  163.437623019    76.5445   5  10   0.7329   0.5932   2.4071  -0.3239   0.7013  -0.9609   0.00    0.0
2018/11/12 00:48:00.000  -74.407216816  163.437624085    76.5561   5  10   0.7319   0.5917   2.3970  -0.3217   0.6951  -0.9572   0.00    0.0
2018/11/12 00:48:15.000  -74.407216794  163.437628151    77.1202   5  10   0.7310   0.5904   2.3873  -0.3195   0.6890  -0.9536   0.00    0.0
2018/11/12 00:48:30.000  -74.407217164  163.437626309    77.2690   5  10   0.7302   0.5891   2.3779  -0.3174   0.6830  -0.9501   0.00    0.0
2018/11/12 00:48:45.000  -74.407218835  163.437625197    76.2423   5  10   0.7294   0.5879   2.3689  -0.3153   0.6771  -0.9467   0.00    0.0
2018/11/12 00:49:00.000  -74.407219644  163.437625497    78.1749   5  10   0.7287   0.5868   2.3602  -0.3133   0.6712  -0.9434   0.00    0.0
2018/11/12 00:49:15.000  -74.407214393  163.437630953    76.4825   5  10   0.7281   0.5857   2.3519  -0.3113   0.6654  -0.9403   0.00    0.0
2018/11/12 00:49:30.000  -74.407217199  163.437631289    76.6873   5  10   0.7275   0.5848   2.3441  -0.3094   0.6597  -0.9372   0.00    0.0
2018/11/12 00:49:45.000  -74.407218359  163.437629388    77.2409   5  10   0.7270   0.5839   2.3365  -0.3074   0.6541  -0.9343   0.00    0.0
2018/11/12 00:50:00.000  -74.407218507  163.437623604    76.6220   5  10   0.7266   0.5831   2.3294  -0.3056   0.6485  -0.9315   0.00    0.0
2018/11/12 00:50:15.000  -74.407218815  163.437627821    77.2293   5  10   0.7263   0.5824   2.3228  -0.3037   0.6430  -0.9288   0.00    0.0
2018/11/12 00:50:30.000  -74.407217431  163.437629034    77.8425   5  10   0.7261   0.5818   2.3166  -0.3020   0.6376  -0.9263   0.00    0.0
2018/11/12 00:50:45.000  -74.407215349  163.437626686    76.9360   5  10   0.7259   0.5812   2.3107  -0.3002   0.6322  -0.9238   0.00    0.0
2018/11/12 00:51:00.000  -74.407217628  163.437624159    76.9709   5  10   0.7259   0.5808   2.3053  -0.2985   0.6269  -0.9215   0.00    0.0
2018/11/12 00:51:15.000  -74.407217156  163.437630808    77.2142   5  10   0.7259   0.5804   2.3002  -0.2968   0.6217  -0.9192   0.00    0.0
2018/11/12 00:51:30.000  -74.407220654  163.437631261    78.3937   5  10   0.7259   0.5801   2.2955  -0.2951   0.6165  -0.9171   0.00    0.0
2018/11/12 00:51:45.000  -74.407218048  163.437635529    77.1312   5  10   0.7261   0.5799   2.2912  -0.2935   0.6114  -0.9151   0.00    0.0
2018/11/12 00:52:00.000  -74.407218473  163.437627841    78.3241   5  10   0.7263   0.5797   2.2872  -0.2919   0.6062  -0.9132   0.00    0.0
2018/11/12 00:52:15.000  -74.407218118  163.437628571    77.8220   5  10   0.7265   0.5796   2.2837  -0.2904   0.6012  -0.9113   0.00    0.0
2018/11/12 00:52:30.000  -74.407218832  163.437629345    76.9472   5  10   0.7269   0.5796   2.2804  -0.2888   0.5961  -0.9096   0.00    0.0
2018/11/12 00:52:45.000  -74.407217358  163.437632767    76.4331   5  10   0.7259   0.5784   2.2705  -0.2866   0.5897  -0.9060   0.00    0.0
2018/11/12 00:53:00.000  -74.407218861  163.437626448    77.9469   5  10   0.7251   0.5772   2.2609  -0.2844   0.5834  -0.9025   0.00    0.0
2018/11/12 00:53:15.000  -74.407218029  163.437621547    78.1270   5  10   0.7243   0.5761   2.2517  -0.2823   0.5771  -0.8991   0.00    0.0
2018/11/12 00:53:30.000  -74.407219972  163.437631309    78.0148   5  10   0.7235   0.5751   2.2429  -0.2802   0.5709  -0.8958   0.00    0.0
2018/11/12 00:53:45.000  -74.407218952  163.437622363    77.9800   5  10   0.7229   0.5742   2.2345  -0.2781   0.5647  -0.8926   0.00    0.0
2018/11/12 00:54:00.000  -74.407220025  163.437634448    78.5850   5  10   0.7223   0.5733   2.2265  -0.2761   0.5586  -0.8896   0.00    0.0
2018/11/12 00:54:15.000  -74.407219067  163.437623448    77.8912   5  10   0.7218   0.5725   2.2188  -0.2741   0.5526  -0.8866   0.00    0.0
2018/11/12 00:54:30.000  -74.407218064  163.437626230    77.2495   5  10   0.7214   0.5718   2.2116  -0.2722   0.5466  -0.8838   0.00    0.0
2018/11/12 00:54:45.000  -74.407218966  163.437622240    77.6228   5  10   0.7210   0.5712   2.2047  -0.2702   0.5407  -0.8811   0.00    0.0
2018/11/12 00:55:00.000  -74.407221750  163.437622350    79.0680   5  10   0.7207   0.5707   2.1983  -0.2683   0.5348  -0.8785   0.00    0.0
2018/11/12 00:55:15.000  -74.407218236  163.437624392    78.2288   5  10   0.7205   0.5702   2.1924  -0.2665   0.5289  -0.8760   0.00    0.0
2018/11/12 00:55:30.000  -74.407221002  163.437630318    77.9260   5  10   0.7204   0.5699   2.1869  -0.2647   0.5231  -0.8737   0.00    0.0
2018/11/12 00:55:45.000  -74.407219544  163.437625312    78.2224   5  10   0.7204   0.5696   2.1817  -0.2629   0.5173  -0.8714   0.00    0.0
2018/11/12 00:56:00.000  -74.407220000  163.437626433    77.5042   5  10   0.7204   0.5694   2.1770  -0.2611   0.5116  -0.8693   0.00    0.0
2018/11/12 00:56:15.000  -74.407216675  163.437630664    78.2208   5  10   0.7205   0.5692   2.1726  -0.2594   0.5058  -0.8673   0.00    0.0
2018/11/12 00:56:30.000  -74.407217187  163.437629765    77.5112   5  10   0.7207   0.5692   2.1687  -0.2577   0.5001  -0.8654   0.00    0.0
2018/11/12 00:56:45.000  -74.407216379  163.437626345    77.0008   5  10   0.7209   0.5692   2.1651  -0.2560   0.4944  -0.8635   0.00    0.0
2018/11/12 00:57:00.000  -74.407219325  163.437627996    78.0673   5  10   0.7212   0.5693   2.1618  -0.2544   0.4887  -0.8618   0.00    0.0
2018/11/12 00:57:15.000  -74.407219550  163.437632188    77.8392   5  10   0.7216   0.5694   2.1590  -0.2528   0.4830  -0.8602   0.00    0.0
2018/11/12 00:57:30.000  -74.407219509  163.437629197    77.7966   5  11   0.6220   0.5522   1.8079  -0.1084   0.2514  -0.5533   0.00    0.0
2018/11/12 00:57:45.000  -74.407218237  163.437624087    78.6580   5  11   0.6215   0.5515   1.8034  -0.1062   0.2444  -0.5523   0.00    0.0
2018/11/12 00:58:00.000  -74.407216990  163.437628998    77.2231   5  11   0.6211   0.5509   1.7991  -0.1039   0.2373  -0.5513   0.00    0.0
2018/11/12 00:58:15.000  -74.407218876  163.437632558    78.4145   5  11   0.6208   0.5504   1.7951  -0.1015   0.2300  -0.5503   0.00    0.0
2018/11/12 00:58:30.000  -74.407218457  163.437636010    77.8613   5  11   0.6205   0.5500   1.7914  -0.0992   0.2224  -0.5493   0.00    0.0
2018/11/12 00:58:45.000  -74.407219721  163.437624342    77.7582   5  11   0.6203   0.5496   1.7879  -0.0967   0.2146  -0.5484   0.00    0.0
2018/11/12 00:59:00.000  -74.407218864  163.437624147    78.2129   5  11   0.6201   0.5493   1.7848  -0.0943   0.2066  -0.5476   0.00    0.0
2018/11/12 00:59:15.000  -74.407218332  163.437629825    78.0891   5  11   0.6200   0.5490   1.7819  -0.0917   0.1982  -0.5467   0.00    0.0
2018/11/12 00:59:30.000  -74.407221347  163.437621256    79.0108   5  11   0.6199   0.5488   1.7794  -0.0892   0.1894  -0.5459   0.00    0.0
2018/11/12 00:59:45.000  -74.407218746  163.437622284    78.8727   5  11   0.6199   0.5487   1.7771  -0.0865   0.1802  -0.5452   0.00    0.0
2018/11/12 01:00:00.000  -74.407219691  163.437629035    77.6632   5  11   0.6199   0.5486   1.7751  -0.0837   0.1704  -0.5445   0.00    0.0
2018/11/12 01:00:15.000  -74.407222204  163.437628949    78.5530   5  11   0.6200   0.5487   1.7736  -0.0809   0.1600  -0.5438   0.00    0.0
2018/11/12 01:00:30.000  -74.407216617  163.437633721    77.8680   5  11   0.6202   0.5488   1.7723  -0.0780   0.1489  -0.5432   0.00    0.0
2018/11/12 01:00:45.000  -74.407218092  163.437626996    78.1742   5  11   0.6204   0.5490   1.7713  -0.0750   0.1368  -0.5426   0.00    0.0
2018/11/12 01:01:00.000  -74.407219396  163.437625434    78.6515   5  11   0.6207   0.5492   1.7707  -0.0718   0.1234  -0.5421   0.00    0.0
2018/11/12 01:01:15.000  -74.407218757  163.437624976    77.3655   5  11   0.6210   0.5495   1.7703  -0.0685   0.1083  -0.5416   0.00    0.0
2018/11/12 01:01:30.000  -74.407221776  163.437636868    77.5911   5  12   0.6138   0.5272   1.7036  -0.1390  -0.2592  -0.5824   0.00    0.0
2018/11/12 01:01:45.000  -74.407218074  163.437629552    77.7893   5  12   0.6141   0.5276   1.7048  -0.1379  -0.2650  -0.5821   0.00    0.0
2018/11/12 01:02:00.000  -74.407219202  163.437621320    76.7794   5  12   0.6145   0.5280   1.7064  -0.1368  -0.2708  -0.5818   0.00    0.0
2018/11/12 01:02:15.000  -74.407218314  163.437630810    77.4488   5  12   0.6149   0.5286   1.7082  -0.1357  -0.2766  -0.5816   0.00    0.0
2018/11/12 01:02:30.000  -74.407223118  163.437631430    78.1389   5  12   0.6153   0.5292   1.7103  -0.1346  -0.2823  -0.5814   0.00    0.0
2018/11/12 01:02:45.000  -74.407219900  163.437629217    78.1595   5  12   0.6148   0.5287   1.7076  -0.1332  -0.2864  -0.5806   0.00    0.0
2018/11/12 01:03:00.000  -74.407218679  163.437637562    77.1367   5  12   0.6144   0.5283   1.7050  -0.1318  -0.2904  -0.5797   0.00    0.0
2018/11/12 01:03:15.000  -74.407220128  163.437636466    77.8707   5  12   0.6140   0.5279   1.7027  -0.1304  -0.2945  -0.5789   0.00    0.0
2018/11/12 01:03:30.000  -74.407220418  163.437626380    78.4062   5  12   0.6137   0.5276   1.7007  -0.1291  -0.2985  -0.5781   0.00    0.0
2018/11/12 01:03:45.000  -74.407219014  163.437631065    77.3605   5  12   0.6134   0.5274   1.6989  -0.1277  -0.3026  -0.5774   0.00    0.0
2018/11/12 01:04:00.000  -74.407219716  163.437623197    78.2420   5  12   0.6131   0.5272   1.6974  -0.1263  -0.3067  -0.5767   0.00    0.0
2018/11/12 01:04:15.000  -74.407219286  163.437628206    77.3677   5  12   0.6130   0.5271   1.6962  -0.1249  -0.3108  -0.5761   0.00    0.0
2018/11/12 01:04:30.000  -74.407221443  163.437620611    78.3684   5  12   0.6128   0.5271   1.6953  -0.1236  -0.3149  -0.5755   0.00    0.0
2018/11/12 01:04:45.000  -74.407222784  163.437627475    78.2541   5  12   0.6128   0.5271   1.6947  -0.1222  -0.3190  -0.5749   0.00    0.0
2018/11/12 01:05:00.000  -74.407220887  163.437626552    78.4307   5  12   0.6127   0.5272   1.6943  -0.1209  -0.3232  -0.5744   0.00    0.0
2018/11/12 01:05:15.000  -74.407222125  163.437634412    78.3879   5  12   0.6128   0.5273   1.6943  -0.1195  -0.3274  -0.5740   0.00    0.0
2018/11/12 01:05:30.000  -74.407220760  163.437625879    78.7066   5  12   0.6129   0.5275   1.6946  -0.1181  -0.3317  -0.5736   0.00    0.0
2018/11/12 01:05:45.000  -74.407222762  163.437625734    78.1286   5  12   0.6130   0.5278   1.6953  -0.1168  -0.3360  -0.5733   0.00    0.0
2018/11/12 01:06:00.000  -74.407221352  163.437633927    77.9466   5  12   0.6132   0.5282   1.6961  -0.1155  -0.3403  -0.5730   0.00    0.0
2018/11/12 01:06:15.000  -74.407223357  163.437626059    78.2013   5  12   0.6134   0.5286   1.6973  -0.1141  -0.3447  -0.5727   0.00    0.0
2018/11/12 01:06:30.000  -74.407223313  163.437629519    78.1423   5  12   0.6137   0.5290   1.6988  -0.1128  -0.3491  -0.5725   0.00    0.0
2018/11/12 01:06:45.000  -74.407221668  163.437629848    78.2322   5  12   0.6141   0.5296   1.7005  -0.1114  -0.3535  -0.5723   0.00    0.0
2018/11/12 01:07:00.000  -74.407221256  163.437621818    78.6467   5  12   0.6145   0.5302   1.7026  -0.1101  -0.3580  -0.5722   0.00    0.0
2018/11/12 01:07:15.000  -74.407221787  163.437619273    78.1458   5  12   0.6149   0.5308   1.7049  -0.1087  -0.3625  -0.5722   0.00    0.0
2018/11/12 01:07:30.000  -74.407220524  163.437619683    78.4390   5  12   0.6154   0.5315   1.7075  -0.1073  -0.3670  -0.5722   0.00    0.0
2018/11/12 01:07:45.000  -74.407222396  163.437631385    78.0658   5  12   0.6150   0.5312   1.7050  -0.1057  -0.3699  -0.5714   0.00    0.0
2018/11/12 01:08:00.000  -74.407221592  163.437624811    77.6468   5  12   0.6146   0.5309   1.7028  -0.1040  -0.3729  -0.5707   0.00    0.0
2018/11/12 01:08:15.000  -74.407221849  163.437628150    78.4476   5  12   0.6143   0.5306   1.7009  -0.1023  -0.3759  -0.5700   0.00    0.0
2018/11/12 01:08:30.000  -74.407220704  163.437623792    77.4643   5  12   0.6140   0.5304   1.6992  -0.1006  -0.3790  -0.5694   0.00    0.0
2018/11/12 01:08:45.000  -74.407220500  163.437623272    77.5819   5  12   0.6138   0.5303   1.6979  -0.0989  -0.3821  -0.5688   0.00    0.0
2018/11/12 01:09:00.000  -74.407221945  163.437627283    77.2387   5  12   0.6136   0.5302   1.6968  -0.0971  -0.3852  -0.5683   0.00    0.0
2018/11/12 01:09:15.000  -74.407221789  163.437620778    77.8354   5  12   0.6135   0.5302   1.6960  -0.0954  -0.3884  -0.5678   0.00    0.0
2018/11/12 01:09:30.000  -74.407223161  163.437630606    77.6453   5  12   0.6134   0.5303   1.6954  -0.0936  -0.3916  -0.5674   0.00    0.0
2018/11/12 01:09:45.000  -74.407223585  163.437625850    78.4610   5  12   0.6134   0.5304   1.6952  -0.0919  -0.3949  -0.5670   0.00    0.0
2018/11/12 01:10:00.000  -74.407221953  163.437628203    78.0522   5  12   0.6134   0.5306   1.6953  -0.0901  -0.3983  -0.5666   0.00    0.0
2018/11/12 01:10:15.000  -74.407219610  163.437626057    78.2651   5  12   0.6135   0.5308   1.6957  -0.0883  -0.4017  -0.5664   0.00    0.0
2018/11/12 01:10:30.000  -74.407221145  163.437627809    77.7127   5  12   0.6136   0.5312   1.6965  -0.0865  -0.4052  -0.5661   0.00    0.0
2018/11/12 01:10:45.000  -74.407223225  163.437624260    78.1691   5  12   0.6138   0.5316   1.6975  -0.0847  -0.4088  -0.5660   0.00    0.0
2018/11/12 01:11:00.000  -74.407220920  163.437624167    78.5540   5  12   0.6141   0.5320   1.6989  -0.0828  -0.4124  -0.5658   0.00    0.0
2018/11/12 01:11:15.000  -74.407220068  163.437620474    78.0475   5  12   0.6144   0.5325   1.7005  -0.0809  -0.4160  -0.5657   0.00    0.0
2018/11/12 01:11:30.000  -74.407220329  163.437634889    77.7013   5  12   0.6147   0.5331   1.7024  -0.0790  -0.4197  -0.5657   0.00    0.0
2018/11/12 01:11:45.000  -74.407223393  163.437622754    77.7650   5  12   0.6151   0.5337   1.7046  -0.0771  -0.4234  -0.5657   0.00    0.0
2018/11/12 01:12:00.000  -74.407222204  163.437620991    78.0234   5  12   0.6156   0.5344   1.7071  -0.0751  -0.4273  -0.5657   0.00    0.0
2018/11/12 01:12:15.000  -74.407224883  163.437621998    78.1962   5  12   0.6161   0.5352   1.7098  -0.0731  -0.4311  -0.5658   0.00    0.0
2018/11/12 01:12:30.000  -74.407225456  163.437627751    78.4112   5  12   0.6166   0.5360   1.7129  -0.0710  -0.4350  -0.5660   0.00    0.0
2018/11/12 01:12:45.000  -74.407224234  163.437614663    78.7747   5  12   0.6162   0.5357   1.7107  -0.0685  -0.4373  -0.5654   0.00    0.0
2018/11/12 01:13:00.000  -74.407223534  163.437625354    78.6968   5  12   0.6159   0.5355   1.7089  -0.0660  -0.4397  -0.5648   0.00    0.0
2018/11/12 01:13:15.000  -74.407223047  163.437625702    77.9855   5  12   0.6157   0.5354   1.7074  -0.0633  -0.4422  -0.5643   0.00    0.0
2018/11/12 01:13:30.000  -74.407221623  163.437627250    78.5172   5  12   0.6154   0.5353   1.7061  -0.0606  -0.4447  -0.5639   0.00    0.0
2018/11/12 01:13:45.000  -74.407221838  163.437630199    78.1305   5  12   0.6153   0.5352   1.7052  -0.0578  -0.4473  -0.5635   0.00    0.0
2018/11/12 01:14:00.000  -74.407222808  163.437624867    78.8040   5  12   0.6151   0.5353   1.7045  -0.0548  -0.4499  -0.5631   0.00    0.0
2018/11/12 01:14:15.000  -74.407221387  163.437624450    79.0262   5  12   0.6151   0.5354   1.7041  -0.0517  -0.4526  -0.5628   0.00    0.0
2018/11/12 01:14:30.000  -74.407221174  163.437623746    78.5707   5  12   0.6151   0.5355   1.7040  -0.0484  -0.4554  -0.5626   0.00    0.0
2018/11/12 01:14:45.000  -74.407222815  163.437627537    78.7123   5  12   0.6151   0.5357   1.7042  -0.0450  -0.4582  -0.5623   0.00    0.0
2018/11/12 01:15:00.000  -74.407221782  163.437623185    78.7766   5  12   0.6152   0.5360   1.7047  -0.0412  -0.4610  -0.5622   0.00    0.0
2018/11/12 01:15:15.000  -74.407221111  163.437616076    79.0366   5  12   0.6153   0.5363   1.7056  -0.0371  -0.4640  -0.5621   0.00    0.0
2018/11/12 01:15:30.000  -74.407223068  163.437629566    78.1818   5  12   0.6155   0.5368   1.7067  -0.0326  -0.4670  -0.5620   0.00    0.0
2018/11/12 01:15:45.000  -74.407221349  163.437624716    79.6744   5  12   0.6158   0.5372   1.7081  -0.0273  -0.4701  -0.5620   0.00    0.0
2018/11/12 01:16:00.000  -74.407222841  163.437624698    78.6187   5  12   0.6161   0.5378   1.7099  -0.0209  -0.4733  -0.5620   0.00    0.0
2018/11/12 01:16:15.000  -74.407222923  163.437632273    78.0032   5  12   0.6164   0.5384   1.7119  -0.0112  -0.4765  -0.5621   0.00    0.0
2018/11/12 01:16:30.000  -74.407222437  163.437626755    77.9239   5  12   0.6168   0.5390   1.7142   0.0136  -0.4797  -0.5622   0.00    0.0
2018/11/12 01:16:45.000  -74.407223290  163.437623912    78.3109   5  12   0.6173   0.5398   1.7168   0.0222  -0.4831  -0.5624   0.00    0.0
2018/11/12 01:17:00.000  -74.407222954  163.437624029    78.3807   5  12   0.6178   0.5405   1.7196   0.0282  -0.4865  -0.5626   0.00    0.0
2018/11/12 01:17:15.000  -74.407221383  163.437621018    78.1971   5  12   0.6183   0.5414   1.7227   0.0331  -0.4899  -0.5629   0.00    0.0
2018/11/12 01:17:30.000  -74.407223142  163.437624225    78.1326   5  12   0.6189   0.5423   1.7261   0.0374  -0.4934  -0.5632   0.00    0.0
2018/11/12 01:17:45.000  -74.407221535  163.437635663    77.9946   5  12   0.6186   0.5421   1.7244   0.0418  -0.4954  -0.5628   0.00    0.0
2018/11/12 01:18:00.000  -74.407221827  163.437621169    78.1595   5  12   0.6184   0.5420   1.7230   0.0457  -0.4974  -0.5624   0.00    0.0
2018/11/12 01:18:15.000  -74.407222132  163.437626843    78.1847   5  12   0.6182   0.5419   1.7219   0.0492  -0.4995  -0.5621   0.00    0.0
2018/11/12 01:18:30.000  -74.407220546  163.437630055    78.1030   5  12   0.6180   0.5419   1.7211   0.0525  -0.5017  -0.5618   0.00    0.0
2018/11/12 01:18:45.000  -74.407221436  163.437629539    78.8101   5  12   0.6179   0.5419   1.7205   0.0556  -0.5039  -0.5616   0.00    0.0
2018/11/12 01:19:00.000  -74.407222478  163.437625067    78.7872   5  12   0.6178   0.5420   1.7202   0.0585  -0.5061  -0.5614   0.00    0.0
2018/11/12 01:19:15.000  -74.407221714  163.437624139    78.7155   5  12   0.6178   0.5422   1.7202   0.0613  -0.5085  -0.5613   0.00    0.0
2018/11/12 01:19:30.000  -74.407224458  163.437633031    78.5183   5  12   0.6178   0.5424   1.7205   0.0639  -0.5109  -0.5612   0.00    0.0
2018/11/12 01:19:45.000  -74.407222844  163.437623936    77.8964   5  12   0.6179   0.5427   1.7211   0.0664  -0.5134  -0.5612   0.00    0.0
2018/11/12 01:20:00.000  -74.407223435  163.437622133    78.5457   5  12   0.6181   0.5431   1.7219   0.0688  -0.5159  -0.5612   0.00    0.0
2018/11/12 01:20:15.000  -74.407220447  163.437621996    78.0143   5  12   0.6183   0.5435   1.7232   0.0711  -0.5185  -0.5613   0.00    0.0
2018/11/12 01:20:30.000  -74.407224683  163.437628038    78.3751   5  12   0.6185   0.5440   1.7247   0.0733  -0.5212  -0.5614   0.00    0.0
2018/11/12 01:20:45.000  -74.407222334  163.437621033    78.3900   5  12   0.6188   0.5445   1.7264   0.0755  -0.5240  -0.5615   0.00    0.0
2018/11/12 01:21:00.000  -74.407221256  163.437617786    79.0555   5  12   0.6192   0.5451   1.7285   0.0775  -0.5268  -0.5617   0.00    0.0
2018/11/12 01:21:15.000  -74.407220179  163.437626383    78.1566   5  12   0.6196   0.5458   1.7308   0.0795  -0.5297  -0.5620   0.00    0.0
2018/11/12 01:21:30.000  -74.407222381  163.437633800    78.3025   5  12   0.6201   0.5465   1.7334   0.0815  -0.5326  -0.5623   0.00    0.0
2018/11/12 01:21:45.000  -74.407221464  163.437619980    77.8622   5  12   0.6206   0.5473   1.7363   0.0834  -0.5356  -0.5626   0.00    0.0
2018/11/12 01:22:00.000  -74.407221451  163.437632127    78.0357   5  12   0.6211   0.5482   1.7394   0.0852  -0.5387  -0.5630   0.00    0.0
2018/11/12 01:22:15.000  -74.407221577  163.437623701    78.4949   5  12   0.6217   0.5490   1.7428   0.0870  -0.5418  -0.5634   0.00    0.0
2018/11/12 01:22:30.000  -74.407221097  163.437623038    78.7070   5  12   0.6224   0.5500   1.7464   0.0888  -0.5450  -0.5639   0.00    0.0
2018/11/12 01:22:45.000  -74.407220966  163.437632334    78.1325   5  12   0.6221   0.5499   1.7452   0.0907  -0.5467  -0.5636   0.00    0.0
2018/11/12 01:23:00.000  -74.407224028  163.437621387    78.6986   5  12   0.6219   0.5498   1.7442   0.0925  -0.5484  -0.5635   0.00    0.0
2018/11/12 01:23:15.000  -74.407222217  163.437633042    78.6566   5  12   0.6218   0.5498   1.7434   0.0943  -0.5502  -0.5634   0.00    0.0
2018/11/12 01:23:30.000  -74.407223897  163.437625253    78.2359   5  12   0.6217   0.5498   1.7429   0.0961  -0.5521  -0.5633   0.00    0.0
2018/11/12 01:23:45.000  -74.407223625  163.437624406    79.0073   5  12   0.6216   0.5500   1.7427   0.0979  -0.5540  -0.5632   0.00    0.0
2018/11/12 01:24:00.000  -74.407224869  163.437632511    77.6987   5  12   0.6216   0.5501   1.7427   0.0995  -0.5560  -0.5633   0.00    0.0
2018/11/12 01:24:15.000  -74.407223287  163.437633789    78.5336   5  12   0.6216   0.5503   1.7431   0.1012  -0.5580  -0.5633   0.00    0.0
2018/11/12 01:24:30.000  -74.407223302  163.437627816    78.9279   5  12   0.6217   0.5506   1.7437   0.1028  -0.5601  -0.5634   0.00    0.0
2018/11/12 01:24:45.000  -74.407223496  163.437630628    78.2133   5  12   0.6219   0.5510   1.7445   0.1044  -0.5623  -0.5636   0.00    0.0
2018/11/12 01:25:00.000  -74.407223001  163.437633480    77.9569   5  12   0.6221   0.5514   1.7457   0.1060  -0.5646  -0.5638   0.00    0.0
2018/11/12 01:25:15.000  -74.407222765  163.437637527    77.2234   5  12   0.6223   0.5518   1.7472   0.1075  -0.5669  -0.5640   0.00    0.0
2018/11/12 01:25:30.000  -74.407223030  163.437633198    77.9630   5  12   0.6227   0.5524   1.7489   0.1090  -0.5693  -0.5643   0.00    0.0
2018/11/12 01:25:45.000  -74.407225062  163.437631822    78.5529   5  12   0.6230   0.5530   1.7510   0.1105  -0.5718  -0.5646   0.00    0.0
2018/11/12 01:26:00.000  -74.407225591  163.437629820    78.1369   5  12   0.6234   0.5536   1.7532   0.1119  -0.5743  -0.5650   0.00    0.0
2018/11/12 01:26:15.000  -74.407224621  163.437629674    77.5052   5  12   0.6239   0.5543   1.7558   0.1134  -0.5769  -0.5654   0.00    0.0
2018/11/12 01:26:30.000  -74.407227215  163.437627206    78.4072   5  12   0.6244   0.5551   1.7586   0.1148  -0.5795  -0.5658   0.00    0.0
2018/11/12 01:26:45.000  -74.407222469  163.437628013    78.1944   5  12   0.6250   0.5559   1.7616   0.1161  -0.5822  -0.5663   0.00    0.0
2018/11/12 01:27:00.000  -74.407225034  163.437630572    77.7524   5  12   0.6256   0.5568   1.7649   0.1175  -0.5849  -0.5668   0.00    0.0
2018/11/12 01:27:15.000  -74.407224685  163.437630437    78.4076   5  12   0.6263   0.5577   1.7684   0.1188  -0.5877  -0.5674   0.00    0.0
2018/11/12 01:27:30.000  -74.407225563  163.437635134    77.7736   5  12   0.6270   0.5587   1.7721   0.1201  -0.5906  -0.5680   0.00    0.0
2018/11/12 01:27:45.000  -74.407224279  163.437641941    77.0816   5  12   0.6268   0.5586   1.7711   0.1216  -0.5920  -0.5680   0.00    0.0
2018/11/12 01:28:00.000  -74.407223395  163.437636428    77.5326   5  12   0.6267   0.5586   1.7704   0.1230  -0.5935  -0.5680   0.00    0.0
2018/11/12 01:28:15.000  -74.407226062  163.437636041    78.3205   5  12   0.6266   0.5586   1.7699   0.1244  -0.5950  -0.5681   0.00    0.0
2018/11/12 01:28:30.000  -74.407225708  163.437630911    78.1321   5  12   0.6265   0.5587   1.7697   0.1257  -0.5966  -0.5682   0.00    0.0
2018/11/12 01:28:45.000  -74.407227203  163.437639953    77.5242   5  12   0.6265   0.5588   1.7698   0.1271  -0.5983  -0.5684   0.00    0.0
2018/11/12 01:29:00.000  -74.407224744  163.437640976    78.2375   5  12   0.6266   0.5590   1.7701   0.1284  -0.6000  -0.5686   0.00    0.0
2018/11/12 01:29:15.000  -74.407225865  163.437627497    78.3727   5  12   0.6267   0.5593   1.7707   0.1297  -0.6018  -0.5688   0.00    0.0
2018/11/12 01:29:30.000  -74.407224049  163.437632125    78.5847   5  12   0.6268   0.5596   1.7715   0.1310  -0.6036  -0.5691   0.00    0.0
2018/11/12 01:29:45.000  -74.407225520  163.437628421    78.0520   5  12   0.6270   0.5599   1.7726   0.1323  -0.6055  -0.5694   0.00    0.0
2018/11/12 01:30:00.000  -74.407226193  163.437629431    79.0569   5  12   0.6273   0.5603   1.7739   0.1335  -0.6075  -0.5697   0.00    0.0
2018/11/12 01:30:15.000  -74.407225966  163.437627284    78.9235   5  12   0.6276   0.5608   1.7755   0.1347  -0.6095  -0.5702   0.00    0.0
2018/11/12 01:30:30.000  -74.407224178  163.437625136    78.5659   5  12   0.6280   0.5614   1.7774   0.1360  -0.6116  -0.5706   0.00    0.0
2018/11/12 01:30:45.000  -74.407227575  163.437634475    78.0481   5  12   0.6284   0.5620   1.7795   0.1372  -0.6137  -0.5711   0.00    0.0
2018/11/12 01:31:00.000  -74.407225851  163.437634187    78.0682   5  12   0.6289   0.5627   1.7819   0.1384  -0.6159  -0.5716   0.00    0.0
2018/11/12 01:31:15.000  -74.407225463  163.437632803    78.5130   5  12   0.6294   0.5634   1.7844   0.1395  -0.6182  -0.5721   0.00    0.0
2018/11/12 01:31:30.000  -74.407227088  163.437631467    78.2697   5  11   0.6613   0.5679   1.8237   0.1812  -0.6012  -0.5051   0.00    0.0
2018/11/12 01:31:45.000  -74.407225783  163.437630362    78.7775   5  11   0.6618   0.5687   1.8271   0.1820  -0.6035  -0.5055   0.00    0.0
2018/11/12 01:32:00.000  -74.407224446  163.437628077    78.1687   5  11   0.6623   0.5695   1.8308   0.1827  -0.6059  -0.5059   0.00    0.0
2018/11/12 01:32:15.000  -74.407225905  163.437634780    77.9329   5  11   0.6630   0.5704   1.8346   0.1834  -0.6084  -0.5063   0.00    0.0
2018/11/12 01:32:30.000  -74.407225784  163.437626562    78.8345   5  11   0.6636   0.5714   1.8387   0.1841  -0.6109  -0.5067   0.00    0.0
2018/11/12 01:32:45.000  -74.407226797  163.437631273    78.6372   5  11   0.6633   0.5712   1.8382   0.1848  -0.6121  -0.5070   0.00    0.0
2018/11/12 01:33:00.000  -74.407227420  163.437633931    77.3743   5  11   0.6630   0.5712   1.8379   0.1854  -0.6134  -0.5073   0.00    0.0
2018/11/12 01:33:15.000  -74.407227182  163.437636816    78.6316   5  10   0.6740   0.6299   2.0901   0.0445  -0.8013  -0.3679   0.00    0.0
2018/11/12 01:33:30.000  -74.407225162  163.437634980    77.3426   5  10   0.6736   0.6301   2.0923   0.0494  -0.8033  -0.3690   0.00    0.0
2018/11/12 01:33:45.000  -74.407226000  163.437627439    77.9616   5  10   0.6733   0.6304   2.0948   0.0537  -0.8054  -0.3701   0.00    0.0
2018/11/12 01:34:00.000  -74.407226639  163.437641456    78.2027   5  10   0.6731   0.6307   2.0977   0.0576  -0.8076  -0.3711   0.00    0.0
2018/11/12 01:34:15.000  -74.407225980  163.437645716    76.6648   5   9   0.7734   0.6832   2.6243   0.3217  -1.0332  -0.8591   0.00    0.0
2018/11/12 01:34:30.000  -74.407223196  163.437645942    75.7693   5   9   0.7735   0.6846   2.6341   0.3239  -1.0384  -0.8625   0.00    0.0
2018/11/12 01:34:45.000  -74.407224568  163.437642197    76.8642   5   9   0.7736   0.6861   2.6443   0.3261  -1.0437  -0.8659   0.00    0.0
2018/11/12 01:35:00.000  -74.407224141  163.437642326    76.4076   5   9   0.7739   0.6876   2.6550   0.3284  -1.0493  -0.8695   0.00    0.0
2018/11/12 01:35:15.000  -74.407225991  163.437638544    77.0943   5   9   0.7742   0.6893   2.6663   0.3307  -1.0550  -0.8732   0.00    0.0
2018/11/12 01:35:30.000  -74.407223220  163.437645805    75.5889   5   9   0.7747   0.6911   2.6781   0.3331  -1.0610  -0.8770   0.00    0.0
2018/11/12 01:35:45.000  -74.407221906  163.437647601    75.7441   5   9   0.7752   0.6930   2.6904   0.3354  -1.0671  -0.8809   0.00    0.0
2018/11/12 01:36:00.000  -74.407221724  163.437658265    74.0215   5   9   0.7758   0.6949   2.7031   0.3378  -1.0733  -0.8849   0.00    0.0
2018/11/12 01:36:15.000  -74.407226534  163.437643611    76.0379   5   9   0.7765   0.6970   2.7163   0.3402  -1.0798  -0.8890   0.00    0.0
2018/11/12 01:36:30.000  -74.407222671  163.437643377    74.8356   5   9   0.7772   0.6991   2.7300   0.3427  -1.0864  -0.8932   0.00    0.0
2018/11/12 01:36:45.000  -74.407223963  163.437645000    75.6359   5   9   0.7780   0.7014   2.7441   0.3452  -1.0932  -0.8975   0.00    0.0
2018/11/12 01:37:00.000  -74.407222024  163.437638591    76.3084   5   9   0.7790   0.7037   2.7587   0.3477  -1.1001  -0.9019   0.00    0.0
2018/11/12 01:37:15.000  -74.407224507  163.437644834    76.0631   5   9   0.7800   0.7061   2.7737   0.3502  -1.1072  -0.9064   0.00    0.0
2018/11/12 01:37:30.000  -74.407226030  163.437640334    75.2997   5   9   0.7810   0.7086   2.7892   0.3528  -1.1145  -0.9110   0.00    0.0
2018/11/12 01:37:45.000  -74.407222962  163.437643849    75.3384   5   9   0.7808   0.7094   2.7963   0.3548  -1.1183  -0.9141   0.00    0.0
2018/11/12 01:38:00.000  -74.407225553  163.437643286    75.1005   5   9   0.7806   0.7103   2.8038   0.3567  -1.1223  -0.9173   0.00    0.0
2018/11/12 01:38:15.000  -74.407222560  163.437631250    77.0573   5   9   0.7804   0.7112   2.8117   0.3588  -1.1264  -0.9206   0.00    0.0
2018/11/12 01:38:30.000  -74.407224633  163.437637280    76.9516   5   9   0.7804   0.7122   2.8200   0.3608  -1.1307  -0.9240   0.00    0.0
2018/11/12 01:38:45.000  -74.407223047  163.437643468    76.0788   5   9   0.7804   0.7133   2.8287   0.3628  -1.1351  -0.9275   0.00    0.0
2018/11/12 01:39:00.000  -74.407225671  163.437636833    75.7758   5   9   0.7805   0.7145   2.8379   0.3649  -1.1396  -0.9310   0.00    0.0
2018/11/12 01:39:15.000  -74.407223685  163.437641974    76.1802   5   9   0.7807   0.7157   2.8474   0.3670  -1.1443  -0.9347   0.00    0.0
2018/11/12 01:39:30.000  -74.407221586  163.437641868    75.3019   5   9   0.7809   0.7171   2.8574   0.3691  -1.1491  -0.9384   0.00    0.0
2018/11/12 01:39:45.000  -74.407223401  163.437649685    75.5133   5   9   0.7813   0.7185   2.8678   0.3712  -1.1541  -0.9422   0.00    0.0
2018/11/12 01:40:00.000  -74.407223327  163.437644197    76.7783   5   9   0.7817   0.7200   2.8786   0.3734  -1.1592  -0.9461   0.00    0.0
2018/11/12 01:40:15.000  -74.407224624  163.437645213    76.6112   5   9   0.7822   0.7216   2.8899   0.3756  -1.1645  -0.9502   0.00    0.0
2018/11/12 01:40:30.000  -74.407224398  163.437642882    77.1548   5   9   0.7829   0.7233   2.9017   0.3778  -1.1700  -0.9543   0.00    0.0
2018/11/12 01:40:45.000  -74.407224976  163.437643178    76.4033   5   9   0.7835   0.7251   2.9138   0.3800  -1.1756  -0.9585   0.00    0.0
2018/11/12 01:41:00.000  -74.407225046  163.437640043    76.6737   5   9   0.7843   0.7269   2.9264   0.3823  -1.1813  -0.9627   0.00    0.0
2018/11/12 01:41:15.000  -74.407223946  163.437644862    74.8746   5   9   0.7852   0.7289   2.9393   0.3846  -1.1872  -0.9671   0.00    0.0
2018/11/12 01:41:30.000  -74.407224043  163.437644795    75.9877   5   9   0.7861   0.7309   2.9525   0.3869  -1.1932  -0.9715   0.00    0.0
2018/11/12 01:41:45.000  -74.407226482  163.437638384    75.9804   5   9   0.7871   0.7330   2.9662   0.3892  -1.1993  -0.9760   0.00    0.0
2018/11/12 01:42:00.000  -74.407225350  163.437634167    77.3202   5   9   0.7882   0.7351   2.9801   0.3916  -1.2055  -0.9806   0.00    0.0
2018/11/12 01:42:15.000  -74.407221614  163.437645289    75.4133   5   9   0.7894   0.7374   2.9944   0.3939  -1.2119  -0.9853   0.00    0.0
2018/11/12 01:42:30.000  -74.407225351  163.437640755    76.2443   5   9   0.7907   0.7397   3.0090   0.3963  -1.2183  -0.9900   0.00    0.0
2018/11/12 01:42:45.000  -74.407224121  163.437641017    75.8042   5   9   0.7905   0.7401   3.0152   0.3980  -1.2212  -0.9931   0.00    0.0
2018/11/12 01:43:00.000  -74.407224642  163.437632935    77.7945   5   9   0.7904   0.7407   3.0217   0.3997  -1.2242  -0.9963   0.00    0.0
2018/11/12 01:43:15.000  -74.407225529  163.437637642    76.8729   5   9   0.7904   0.7413   3.0285   0.4015  -1.2274  -0.9996   0.00    0.0
2018/11/12 01:43:30.000  -74.407222923  163.437648126    75.3961   5   9   0.7905   0.7420   3.0357   0.4032  -1.2306  -1.0030   0.00    0.0
2018/11/12 01:43:45.000  -74.407225006  163.437639212    76.9853   5   9   0.7907   0.7428   3.0431   0.4049  -1.2339  -1.0064   0.00    0.0
2018/11/12 01:44:00.000  -74.407226791  163.437633163    76.6198   5   9   0.7909   0.7436   3.0509   0.4067  -1.2374  -1.0098   0.00    0.0
2018/11/12 01:44:15.000  -74.407226135  163.437639813    76.1569   5   9   0.7912   0.7445   3.0590   0.4085  -1.2409  -1.0133   0.00    0.0
