% program   : RTKLIB ver.2.4.3
% inp file  : _by_type/_obs/blake/20181114.18o
% inp file  : _by_type/_obs/base/20181114.18o
% inp file  : _by_type/_sp3+clk/igs20273.clk
% inp file  : _by_type/_sp3+clk/igs20273.sp3
% inp file  : _by_type/_nav/blake/20181114.18n
% obs start : 2018/11/14 00:00:00.0 GPST (week2027 259200.0s)
% obs end   : 2018/11/14 23:59:45.0 GPST (week2027 345585.0s)
% pos mode  : dgps
% freqs     : L1+L2
% solution  : combined
% elev mask : 15.0 deg
% dynamics  : off
% tidecorr  : off
% ionos opt : iono-free
% tropo opt : est ztd+grad
% ephemeris : precise
% navi sys  : gps glonass
% antenna1  :                       ( 0.0000  0.0000  0.0000)
% antenna2  :                       ( 0.0000  0.0000  0.0000)
% ref pos   : 90.000000000   0.000000000-6335367.6285
%
% (lat/lon/height=WGS84/ellipsoidal,Q=1:fix,2:float,3:sbas,4:dgps,5:single,6:ppp,ns=# of satellites)
%  GPST                  latitude(deg) longitude(deg)  height(m)   Q  ns   sdn(m)   sde(m)   sdu(m)  sdne(m)  sdeu(m)  sdun(m) age(s)  ratio
2018/11/14 00:00:00.000  -74.407223379  163.437622588    77.6529   5  11   0.6593   0.6426   2.4275  -0.3310   0.8950  -0.8982   0.00    0.0
2018/11/14 00:00:15.000  -74.407222352  163.437607800    76.8682   5  11   0.6599   0.6432   2.4343  -0.3322   0.8981  -0.9011   0.00    0.0
2018/11/14 00:00:30.000  -74.407220316  163.437608516    76.4593   5  11   0.6605   0.6440   2.4413  -0.3335   0.9013  -0.9040   0.00    0.0
2018/11/14 00:00:45.000  -74.407219426  163.437615493    77.0270   5  11   0.6612   0.6448   2.4485  -0.3349   0.9046  -0.9070   0.00    0.0
2018/11/14 00:01:00.000  -74.407219902  163.437614430    76.4828   5  11   0.6619   0.6457   2.4560  -0.3363   0.9080  -0.9101   0.00    0.0
2018/11/14 00:01:15.000  -74.407218918  163.437606261    76.0058   5  11   0.6627   0.6467   2.4637  -0.3377   0.9115  -0.9133   0.00    0.0
2018/11/14 00:01:30.000  -74.407220012  163.437607353    77.1795   5  11   0.6636   0.6478   2.4716  -0.3392   0.9151  -0.9165   0.00    0.0
2018/11/14 00:01:45.000  -74.407222985  163.437611492    77.3917   5  11   0.6646   0.6490   2.4797  -0.3408   0.9188  -0.9199   0.00    0.0
2018/11/14 00:02:00.000  -74.407219885  163.437613419    75.9877   5  11   0.6656   0.6502   2.4881  -0.3424   0.9226  -0.9233   0.00    0.0
2018/11/14 00:02:15.000  -74.407221152  163.437627411    78.0289   5  11   0.6667   0.6515   2.4966  -0.3440   0.9265  -0.9268   0.00    0.0
2018/11/14 00:02:30.000  -74.407219397  163.437611324    75.8338   5  11   0.6678   0.6529   2.5054  -0.3457   0.9305  -0.9304   0.00    0.0
2018/11/14 00:02:45.000  -74.407222745  163.437614079    78.4941   5  11   0.6677   0.6526   2.5083  -0.3462   0.9317  -0.9319   0.00    0.0
2018/11/14 00:03:00.000  -74.407221584  163.437615120    77.4557   5  11   0.6676   0.6523   2.5113  -0.3468   0.9330  -0.9335   0.00    0.0
2018/11/14 00:03:15.000  -74.407219709  163.437613382    76.3329   5  11   0.6675   0.6521   2.5146  -0.3474   0.9344  -0.9352   0.00    0.0
2018/11/14 00:03:30.000  -74.407220782  163.437617650    76.8736   5  11   0.6676   0.6520   2.5180  -0.3480   0.9359  -0.9369   0.00    0.0
2018/11/14 00:03:45.000  -74.407220447  163.437614607    76.5740   5  11   0.6677   0.6520   2.5217  -0.3487   0.9375  -0.9387   0.00    0.0
2018/11/14 00:04:00.000  -74.407222518  163.437616810    77.3020   5  11   0.6679   0.6520   2.5255  -0.3495   0.9391  -0.9406   0.00    0.0
2018/11/14 00:04:15.000  -74.407220084  163.437616854    76.5489   5  11   0.6681   0.6521   2.5295  -0.3502   0.9409  -0.9426   0.00    0.0
2018/11/14 00:04:30.000  -74.407220249  163.437626507    76.5571   5  11   0.6684   0.6524   2.5337  -0.3510   0.9427  -0.9446   0.00    0.0
2018/11/14 00:04:45.000  -74.407221589  163.437621114    77.1550   5  11   0.6688   0.6526   2.5381  -0.3519   0.9446  -0.9467   0.00    0.0
2018/11/14 00:05:00.000  -74.407221781  163.437620809    76.2041   5  11   0.6692   0.6530   2.5427  -0.3528   0.9465  -0.9488   0.00    0.0
2018/11/14 00:05:15.000  -74.407221617  163.437613781    76.8729   5  11   0.6697   0.6535   2.5476  -0.3537   0.9487  -0.9511   0.00    0.0
2018/11/14 00:05:30.000  -74.407221530  163.437618567    76.9888   5  11   0.6703   0.6540   2.5527  -0.3547   0.9509  -0.9535   0.00    0.0
2018/11/14 00:05:45.000  -74.407222175  163.437618058    76.8422   5  11   0.6710   0.6546   2.5580  -0.3558   0.9532  -0.9559   0.00    0.0
2018/11/14 00:06:00.000  -74.407221301  163.437618786    76.8644   5  11   0.6717   0.6554   2.5635  -0.3569   0.9555  -0.9584   0.00    0.0
2018/11/14 00:06:15.000  -74.407223900  163.437610546    77.2817   5  11   0.6725   0.6561   2.5691  -0.3580   0.9579  -0.9609   0.00    0.0
2018/11/14 00:06:30.000  -74.407221422  163.437618496    76.9063   5  11   0.6734   0.6570   2.5749  -0.3591   0.9604  -0.9635   0.00    0.0
2018/11/14 00:06:45.000  -74.407223139  163.437625575    77.6789   5  11   0.6743   0.6579   2.5809  -0.3602   0.9629  -0.9662   0.00    0.0
2018/11/14 00:07:00.000  -74.407219726  163.437623673    77.5358   5  11   0.6753   0.6589   2.5869  -0.3614   0.9655  -0.9689   0.00    0.0
2018/11/14 00:07:15.000  -74.407219975  163.437610375    77.3120   5  11   0.6764   0.6599   2.5932  -0.3626   0.9682  -0.9716   0.00    0.0
2018/11/14 00:07:30.000  -74.407221787  163.437625009    77.9289   5  11   0.6775   0.6610   2.5995  -0.3639   0.9709  -0.9744   0.00    0.0
2018/11/14 00:07:45.000  -74.407222964  163.437615000    78.1581   5  11   0.6772   0.6604   2.5998  -0.3640   0.9708  -0.9751   0.00    0.0
2018/11/14 00:08:00.000  -74.407221237  163.437619803    78.6024   5  11   0.6771   0.6599   2.6004  -0.3642   0.9709  -0.9759   0.00    0.0
2018/11/14 00:08:15.000  -74.407218250  163.437608366    75.8454   5  11   0.6770   0.6594   2.6012  -0.3644   0.9710  -0.9768   0.00    0.0
2018/11/14 00:08:30.000  -74.407220220  163.437618557    77.4848   5  11   0.6770   0.6591   2.6020  -0.3646   0.9712  -0.9777   0.00    0.0
2018/11/14 00:08:45.000  -74.407220263  163.437614532    76.7596   5  11   0.6770   0.6587   2.6030  -0.3649   0.9715  -0.9786   0.00    0.0
2018/11/14 00:09:00.000  -74.407220863  163.437626657    77.2972   5  11   0.6771   0.6585   2.6042  -0.3652   0.9718  -0.9796   0.00    0.0
2018/11/14 00:09:15.000  -74.407221436  163.437615925    77.1914   5  11   0.6772   0.6583   2.6054  -0.3655   0.9722  -0.9806   0.00    0.0
2018/11/14 00:09:30.000  -74.407221430  163.437618183    76.9315   5  11   0.6774   0.6582   2.6068  -0.3658   0.9726  -0.9817   0.00    0.0
2018/11/14 00:09:45.000  -74.407219020  163.437615561    76.9586   5  11   0.6777   0.6582   2.6084  -0.3662   0.9730  -0.9828   0.00    0.0
2018/11/14 00:10:00.000  -74.407220478  163.437616347    77.3806   5  11   0.6780   0.6582   2.6100  -0.3666   0.9735  -0.9840   0.00    0.0
2018/11/14 00:10:15.000  -74.407219797  163.437614680    76.5190   5  11   0.6785   0.6583   2.6120  -0.3670   0.9742  -0.9853   0.00    0.0
2018/11/14 00:10:30.000  -74.407218984  163.437611126    75.0457   5  11   0.6789   0.6585   2.6141  -0.3675   0.9749  -0.9866   0.00    0.0
2018/11/14 00:10:45.000  -74.407222467  163.437619418    78.1415   5  11   0.6795   0.6588   2.6163  -0.3680   0.9756  -0.9879   0.00    0.0
2018/11/14 00:11:00.000  -74.407221745  163.437613504    77.2588   5  11   0.6801   0.6591   2.6186  -0.3685   0.9763  -0.9893   0.00    0.0
2018/11/14 00:11:15.000  -74.407223091  163.437622572    77.5445   5  11   0.6807   0.6595   2.6210  -0.3690   0.9771  -0.9907   0.00    0.0
2018/11/14 00:11:30.000  -74.407220661  163.437619813    75.9655   5  11   0.6814   0.6600   2.6235  -0.3696   0.9779  -0.9922   0.00    0.0
2018/11/14 00:11:45.000  -74.407221070  163.437615869    76.7207   5  11   0.6822   0.6605   2.6261  -0.3701   0.9788  -0.9936   0.00    0.0
2018/11/14 00:12:00.000  -74.407224056  163.437607718    77.7784   5  11   0.6830   0.6611   2.6289  -0.3707   0.9797  -0.9951   0.00    0.0
2018/11/14 00:12:15.000  -74.407220060  163.437609291    77.0458   5  11   0.6839   0.6617   2.6317  -0.3713   0.9806  -0.9967   0.00    0.0
2018/11/14 00:12:30.000  -74.407221266  163.437619152    77.5516   5  11   0.6848   0.6624   2.6346  -0.3719   0.9815  -0.9982   0.00    0.0
2018/11/14 00:12:45.000  -74.407221713  163.437618542    78.0958   5  11   0.6844   0.6614   2.6317  -0.3715   0.9800  -0.9978   0.00    0.0
2018/11/14 00:13:00.000  -74.407217805  163.437611282    76.9527   5  11   0.6841   0.6606   2.6290  -0.3711   0.9784  -0.9974   0.00    0.0
2018/11/14 00:13:15.000  -74.407219236  163.437618606    76.7517   5  11   0.6839   0.6597   2.6264  -0.3707   0.9770  -0.9971   0.00    0.0
2018/11/14 00:13:30.000  -74.407221413  163.437618449    76.6086   5  11   0.6837   0.6590   2.6239  -0.3704   0.9755  -0.9968   0.00    0.0
2018/11/14 00:13:45.000  -74.407221597  163.437611649    77.3491   5  11   0.6835   0.6583   2.6215  -0.3700   0.9741  -0.9966   0.00    0.0
2018/11/14 00:14:00.000  -74.407223034  163.437625219    77.4807   5  11   0.6835   0.6576   2.6192  -0.3697   0.9728  -0.9963   0.00    0.0
2018/11/14 00:14:15.000  -74.407222090  163.437619588    78.1045   5  11   0.6834   0.6571   2.6171  -0.3694   0.9714  -0.9961   0.00    0.0
2018/11/14 00:14:30.000  -74.407223041  163.437617892    77.7333   5  11   0.6834   0.6566   2.6150  -0.3692   0.9702  -0.9960   0.00    0.0
2018/11/14 00:14:45.000  -74.407220979  163.437623326    77.9555   5  11   0.6835   0.6561   2.6131  -0.3689   0.9689  -0.9958   0.00    0.0
2018/11/14 00:15:00.000  -74.407222926  163.437608379    76.9209   5  11   0.6837   0.6557   2.6112  -0.3687   0.9677  -0.9957   0.00    0.0
2018/11/14 00:15:15.000  -74.407219925  163.437613887    77.3002   5  11   0.6839   0.6554   2.6097  -0.3685   0.9666  -0.9957   0.00    0.0
2018/11/14 00:15:30.000  -74.407223275  163.437617740    77.5244   5  11   0.6842   0.6552   2.6082  -0.3683   0.9655  -0.9957   0.00    0.0
2018/11/14 00:15:45.000  -74.407222524  163.437633197    77.5731   5  11   0.6845   0.6551   2.6068  -0.3681   0.9644  -0.9957   0.00    0.0
2018/11/14 00:16:00.000  -74.407221639  163.437620849    77.6143   5  11   0.6849   0.6550   2.6056  -0.3679   0.9634  -0.9958   0.00    0.0
2018/11/14 00:16:15.000  -74.407220300  163.437618914    76.9899   5  11   0.6853   0.6550   2.6044  -0.3678   0.9624  -0.9959   0.00    0.0
2018/11/14 00:16:30.000  -74.407220975  163.437609688    77.2806   5  11   0.6858   0.6550   2.6034  -0.3676   0.9614  -0.9960   0.00    0.0
2018/11/14 00:16:45.000  -74.407218916  163.437621509    76.5173   5  11   0.6863   0.6551   2.6024  -0.3675   0.9604  -0.9961   0.00    0.0
2018/11/14 00:17:00.000  -74.407220924  163.437614778    76.7889   5  11   0.6869   0.6552   2.6016  -0.3674   0.9595  -0.9962   0.00    0.0
2018/11/14 00:17:15.000  -74.407223199  163.437608265    77.1701   5  11   0.6876   0.6554   2.6008  -0.3673   0.9586  -0.9964   0.00    0.0
2018/11/14 00:17:30.000  -74.407218787  163.437606257    75.9330   5  11   0.6883   0.6557   2.6002  -0.3672   0.9577  -0.9965   0.00    0.0
2018/11/14 00:17:45.000  -74.407220639  163.437611466    76.9754   5  11   0.6877   0.6544   2.5941  -0.3662   0.9545  -0.9950   0.00    0.0
2018/11/14 00:18:00.000  -74.407221845  163.437609504    76.6062   5  11   0.6872   0.6532   2.5882  -0.3652   0.9514  -0.9934   0.00    0.0
2018/11/14 00:18:15.000  -74.407218520  163.437603873    75.6108   5  11   0.6868   0.6520   2.5823  -0.3642   0.9484  -0.9919   0.00    0.0
2018/11/14 00:18:30.000  -74.407220533  163.437612233    76.9449   5  11   0.6864   0.6509   2.5766  -0.3633   0.9453  -0.9904   0.00    0.0
2018/11/14 00:18:45.000  -74.407222568  163.437620039    77.0070   5  11   0.6861   0.6498   2.5710  -0.3623   0.9423  -0.9889   0.00    0.0
2018/11/14 00:19:00.000  -74.407222441  163.437615770    77.4856   5  11   0.6858   0.6489   2.5655  -0.3614   0.9394  -0.9875   0.00    0.0
2018/11/14 00:19:15.000  -74.407217406  163.437607822    76.1651   5  11   0.6855   0.6479   2.5602  -0.3605   0.9365  -0.9861   0.00    0.0
2018/11/14 00:19:30.000  -74.407221698  163.437614767    77.4570   5  11   0.6854   0.6471   2.5550  -0.3596   0.9336  -0.9848   0.00    0.0
2018/11/14 00:19:45.000  -74.407222818  163.437615374    76.7839   5  11   0.6853   0.6463   2.5500  -0.3588   0.9308  -0.9834   0.00    0.0
2018/11/14 00:20:00.000  -74.407222821  163.437614796    77.5104   5  11   0.6852   0.6456   2.5451  -0.3579   0.9280  -0.9821   0.00    0.0
2018/11/14 00:20:15.000  -74.407219790  163.437618935    77.5932   5  11   0.6852   0.6450   2.5405  -0.3571   0.9253  -0.9809   0.00    0.0
2018/11/14 00:20:30.000  -74.407220427  163.437620489    77.2993   5  11   0.6853   0.6444   2.5360  -0.3563   0.9227  -0.9798   0.00    0.0
2018/11/14 00:20:45.000  -74.407219438  163.437611569    76.7700   5  11   0.6854   0.6440   2.5317  -0.3555   0.9201  -0.9786   0.00    0.0
2018/11/14 00:21:00.000  -74.407220732  163.437614378    76.6464   5  11   0.6856   0.6436   2.5275  -0.3548   0.9175  -0.9775   0.00    0.0
2018/11/14 00:21:15.000  -74.407221608  163.437611834    76.6299   5  11   0.6859   0.6432   2.5234  -0.3540   0.9149  -0.9764   0.00    0.0
2018/11/14 00:21:30.000  -74.407219940  163.437612446    76.7187   5  11   0.6862   0.6429   2.5195  -0.3532   0.9124  -0.9754   0.00    0.0
2018/11/14 00:21:45.000  -74.407225429  163.437616180    78.8033   5  10   0.9416   0.6761   3.5973  -0.5095   1.1695  -1.6144   0.00    0.0
2018/11/14 00:22:00.000  -74.407217756  163.437611753    75.1491   5  10   0.9419   0.6757   3.5932  -0.5084   1.1664  -1.6134   0.00    0.0
2018/11/14 00:22:15.000  -74.407220279  163.437616231    76.8249   5  10   0.9422   0.6753   3.5892  -0.5072   1.1633  -1.6124   0.00    0.0
2018/11/14 00:22:30.000  -74.407217789  163.437613724    75.0803   5  10   0.9426   0.6749   3.5854  -0.5061   1.1601  -1.6114   0.00    0.0
2018/11/14 00:22:45.000  -74.407221068  163.437621376    77.2527   5  10   0.9406   0.6729   3.5714  -0.5034   1.1536  -1.6060   0.00    0.0
2018/11/14 00:23:00.000  -74.407218548  163.437606738    76.3001   5  10   0.9387   0.6709   3.5575  -0.5008   1.1471  -1.6005   0.00    0.0
2018/11/14 00:23:15.000  -74.407216206  163.437604920    74.8166   5  10   0.9369   0.6691   3.5438  -0.4981   1.1406  -1.5951   0.00    0.0
2018/11/14 00:23:30.000  -74.407216617  163.437610214    74.4738   5  10   0.9351   0.6672   3.5302  -0.4955   1.1342  -1.5898   0.00    0.0
2018/11/14 00:23:45.000  -74.407219037  163.437609581    75.9462   5  10   0.9334   0.6655   3.5168  -0.4928   1.1278  -1.5846   0.00    0.0
2018/11/14 00:24:00.000  -74.407216456  163.437608473    74.2719   5  10   0.9317   0.6638   3.5035  -0.4902   1.1215  -1.5794   0.00    0.0
2018/11/14 00:24:15.000  -74.407216708  163.437611450    74.3492   5  10   0.9301   0.6622   3.4905  -0.4876   1.1152  -1.5742   0.00    0.0
2018/11/14 00:24:30.000  -74.407217082  163.437615424    74.6079   5  10   0.9286   0.6607   3.4776  -0.4850   1.1090  -1.5692   0.00    0.0
2018/11/14 00:24:45.000  -74.407220075  163.437614661    76.0228   5  10   0.9272   0.6592   3.4650  -0.4824   1.1027  -1.5642   0.00    0.0
2018/11/14 00:25:00.000  -74.407218158  163.437612490    75.5728   5  10   0.9258   0.6578   3.4526  -0.4799   1.0966  -1.5593   0.00    0.0
2018/11/14 00:25:15.000  -74.407213904  163.437608943    74.0951   5  10   0.9245   0.6565   3.4406  -0.4774   1.0905  -1.5547   0.00    0.0
2018/11/14 00:25:30.000  -74.407217425  163.437603567    74.1603   5  10   0.9233   0.6553   3.4289  -0.4749   1.0845  -1.5501   0.00    0.0
2018/11/14 00:25:45.000  -74.407216725  163.437610836    73.5369   5   9   0.9264   0.6542   3.6698  -0.4715   1.0723  -1.5831   0.00    0.0
2018/11/14 00:26:00.000  -74.407217081  163.437614946    74.5790   5   9   0.9255   0.6531   3.6608  -0.4690   1.0663  -1.5794   0.00    0.0
2018/11/14 00:26:15.000  -74.407217807  163.437616094    75.2307   5   9   0.9246   0.6521   3.6520  -0.4665   1.0604  -1.5757   0.00    0.0
2018/11/14 00:26:30.000  -74.407216493  163.437611519    75.1038   5   9   0.9238   0.6512   3.6435  -0.4641   1.0545  -1.5722   0.00    0.0
2018/11/14 00:26:45.000  -74.407217345  163.437613751    75.2822   5   9   0.9231   0.6503   3.6353  -0.4616   1.0486  -1.5688   0.00    0.0
2018/11/14 00:27:00.000  -74.407218027  163.437613854    74.4628   5   9   0.9225   0.6495   3.6274  -0.4592   1.0428  -1.5654   0.00    0.0
2018/11/14 00:27:15.000  -74.407217857  163.437617420    74.6207   5   9   0.9220   0.6488   3.6197  -0.4568   1.0369  -1.5622   0.00    0.0
2018/11/14 00:27:30.000  -74.407217587  163.437616514    74.0246   5   9   0.9215   0.6482   3.6124  -0.4544   1.0311  -1.5590   0.00    0.0
2018/11/14 00:27:45.000  -74.407217529  163.437610984    74.2446   5   9   0.9187   0.6460   3.5936  -0.4507   1.0224  -1.5512   0.00    0.0
2018/11/14 00:28:00.000  -74.407216995  163.437614271    73.4498   5   9   0.9161   0.6439   3.5752  -0.4470   1.0137  -1.5436   0.00    0.0
2018/11/14 00:28:15.000  -74.407221463  163.437611520    76.0677   5   9   0.9135   0.6420   3.5572  -0.4434   1.0052  -1.5361   0.00    0.0
2018/11/14 00:28:30.000  -74.407221937  163.437606492    76.1557   5  10   0.7491   0.6360   2.6808  -0.3954   0.9100  -1.0671   0.00    0.0
2018/11/14 00:28:45.000  -74.407223390  163.437615273    77.1779   5  10   0.7483   0.6346   2.6742  -0.3938   0.9056  -1.0647   0.00    0.0
2018/11/14 00:29:00.000  -74.407217349  163.437616757    75.8245   5  10   0.7477   0.6332   2.6677  -0.3922   0.9012  -1.0624   0.00    0.0
2018/11/14 00:29:15.000  -74.407220085  163.437612308    75.0418   5  10   0.7471   0.6318   2.6614  -0.3906   0.8968  -1.0601   0.00    0.0
2018/11/14 00:29:30.000  -74.407219038  163.437619784    74.4709   5  10   0.7465   0.6306   2.6554  -0.3891   0.8925  -1.0579   0.00    0.0
2018/11/14 00:29:45.000  -74.407221271  163.437614938    75.4749   5  10   0.7460   0.6294   2.6496  -0.3876   0.8883  -1.0558   0.00    0.0
2018/11/14 00:30:00.000  -74.407222749  163.437624174    76.3517   5  10   0.7456   0.6283   2.6440  -0.3862   0.8841  -1.0537   0.00    0.0
2018/11/14 00:30:15.000  -74.407219445  163.437614725    75.4417   5  10   0.7453   0.6273   2.6388  -0.3848   0.8800  -1.0517   0.00    0.0
2018/11/14 00:30:30.000  -74.407220213  163.437615373    74.1637   5  10   0.7451   0.6263   2.6338  -0.3834   0.8760  -1.0498   0.00    0.0
2018/11/14 00:30:45.000  -74.407216912  163.437619863    75.0363   5  10   0.7449   0.6255   2.6290  -0.3820   0.8720  -1.0479   0.00    0.0
2018/11/14 00:31:00.000  -74.407218991  163.437616172    75.3596   5  10   0.7448   0.6247   2.6245  -0.3807   0.8681  -1.0462   0.00    0.0
2018/11/14 00:31:15.000  -74.407220255  163.437615009    74.8172   5  10   0.7448   0.6239   2.6203  -0.3794   0.8642  -1.0445   0.00    0.0
2018/11/14 00:31:30.000  -74.407219179  163.437624102    76.3318   5  10   0.7448   0.6233   2.6163  -0.3782   0.8604  -1.0428   0.00    0.0
2018/11/14 00:31:45.000  -74.407219269  163.437630593    76.1362   5  10   0.7449   0.6227   2.6127  -0.3769   0.8566  -1.0413   0.00    0.0
2018/11/14 00:32:00.000  -74.407224185  163.437622954    76.3641   5  10   0.7450   0.6222   2.6093  -0.3757   0.8529  -1.0398   0.00    0.0
2018/11/14 00:32:15.000  -74.407219571  163.437622028    76.7651   5  10   0.7453   0.6218   2.6061  -0.3745   0.8493  -1.0384   0.00    0.0
2018/11/14 00:32:30.000  -74.407222405  163.437624529    76.8603   5  10   0.7456   0.6214   2.6033  -0.3734   0.8457  -1.0371   0.00    0.0
2018/11/14 00:32:45.000  -74.407220492  163.437615868    74.7541   5  10   0.7445   0.6196   2.5937  -0.3713   0.8400  -1.0337   0.00    0.0
2018/11/14 00:33:00.000  -74.407219511  163.437623671    74.8734   5  10   0.7434   0.6179   2.5843  -0.3693   0.8344  -1.0303   0.00    0.0
2018/11/14 00:33:15.000  -74.407222025  163.437612959    76.4027   5  10   0.7424   0.6163   2.5753  -0.3673   0.8289  -1.0270   0.00    0.0
2018/11/14 00:33:30.000  -74.407222810  163.437620613    75.2349   5  10   0.7415   0.6148   2.5665  -0.3653   0.8235  -1.0238   0.00    0.0
2018/11/14 00:33:45.000  -74.407218583  163.437618950    74.8934   5  10   0.7407   0.6133   2.5580  -0.3634   0.8181  -1.0206   0.00    0.0
2018/11/14 00:34:00.000  -74.407220317  163.437626614    76.1152   5  10   0.7399   0.6120   2.5497  -0.3615   0.8128  -1.0176   0.00    0.0
2018/11/14 00:34:15.000  -74.407221097  163.437624936    77.9402   5  10   0.7393   0.6107   2.5418  -0.3596   0.8075  -1.0146   0.00    0.0
2018/11/14 00:34:30.000  -74.407220109  163.437619320    75.9094   5  10   0.7386   0.6094   2.5342  -0.3578   0.8024  -1.0117   0.00    0.0
2018/11/14 00:34:45.000  -74.407225719  163.437635526    77.6840   5  10   0.7381   0.6083   2.5269  -0.3560   0.7973  -1.0090   0.00    0.0
2018/11/14 00:35:00.000  -74.407222302  163.437624791    76.1406   5  10   0.7376   0.6072   2.5199  -0.3543   0.7923  -1.0063   0.00    0.0
2018/11/14 00:35:15.000  -74.407221194  163.437622471    77.6804   5  10   0.7372   0.6063   2.5133  -0.3526   0.7873  -1.0037   0.00    0.0
2018/11/14 00:35:30.000  -74.407224026  163.437627392    77.1267   5  10   0.7369   0.6054   2.5071  -0.3509   0.7825  -1.0012   0.00    0.0
2018/11/14 00:35:45.000  -74.407220759  163.437625438    76.5531   5  10   0.7367   0.6046   2.5012  -0.3493   0.7777  -0.9989   0.00    0.0
2018/11/14 00:36:00.000  -74.407223181  163.437623491    77.3045   5  10   0.7366   0.6038   2.4956  -0.3477   0.7730  -0.9966   0.00    0.0
2018/11/14 00:36:15.000  -74.407223221  163.437629495    77.9826   5  10   0.7365   0.6032   2.4903  -0.3462   0.7683  -0.9944   0.00    0.0
2018/11/14 00:36:30.000  -74.407223025  163.437619268    76.5448   5  10   0.7364   0.6026   2.4854  -0.3446   0.7637  -0.9923   0.00    0.0
2018/11/14 00:36:45.000  -74.407220785  163.437615750    76.4969   5  10   0.7365   0.6021   2.4808  -0.3432   0.7592  -0.9903   0.00    0.0
2018/11/14 00:37:00.000  -74.407219141  163.437622981    76.8065   5  10   0.7366   0.6016   2.4765  -0.3417   0.7548  -0.9884   0.00    0.0
2018/11/14 00:37:15.000  -74.407222552  163.437620230    77.2985   5  10   0.7368   0.6013   2.4726  -0.3403   0.7503  -0.9866   0.00    0.0
2018/11/14 00:37:30.000  -74.407220126  163.437619506    75.4128   5  10   0.7371   0.6010   2.4690  -0.3389   0.7460  -0.9849   0.00    0.0
2018/11/14 00:37:45.000  -74.407223858  163.437627769    77.2256   5  10   0.7360   0.5994   2.4586  -0.3367   0.7399  -0.9811   0.00    0.0
2018/11/14 00:38:00.000  -74.407221746  163.437626835    77.3160   5  10   0.7350   0.5979   2.4485  -0.3345   0.7338  -0.9774   0.00    0.0
2018/11/14 00:38:15.000  -74.407223765  163.437626521    77.4223   5  10   0.7340   0.5964   2.4387  -0.3324   0.7278  -0.9738   0.00    0.0
2018/11/14 00:38:30.000  -74.407222073  163.437624217    76.3179   5  10   0.7331   0.5951   2.4293  -0.3303   0.7219  -0.9703   0.00    0.0
2018/11/14 00:38:45.000  -74.407224954  163.437626370    77.6178   5  10   0.7323   0.5938   2.4203  -0.3282   0.7160  -0.9669   0.00    0.0
2018/11/14 00:39:00.000  -74.407226426  163.437622813    77.2529   5  10   0.7316   0.5926   2.4116  -0.3262   0.7103  -0.9637   0.00    0.0
2018/11/14 00:39:15.000  -74.407223714  163.437623117    77.3102   5  10   0.7309   0.5915   2.4032  -0.3242   0.7046  -0.9605   0.00    0.0
2018/11/14 00:39:30.000  -74.407222624  163.437622378    76.7542   5  10   0.7303   0.5904   2.3952  -0.3223   0.6990  -0.9574   0.00    0.0
2018/11/14 00:39:45.000  -74.407223578  163.437626937    77.3299   5  10   0.7298   0.5895   2.3876  -0.3203   0.6934  -0.9545   0.00    0.0
2018/11/14 00:40:00.000  -74.407224390  163.437623593    77.3985   5  10   0.7294   0.5886   2.3804  -0.3185   0.6879  -0.9516   0.00    0.0
2018/11/14 00:40:15.000  -74.407224321  163.437623819    77.7758   5  10   0.7290   0.5878   2.3736  -0.3167   0.6826  -0.9489   0.00    0.0
2018/11/14 00:40:30.000  -74.407221009  163.437616816    76.0046   5  10   0.7288   0.5871   2.3672  -0.3149   0.6773  -0.9463   0.00    0.0
2018/11/14 00:40:45.000  -74.407226495  163.437625241    77.0733   5  10   0.7286   0.5865   2.3612  -0.3132   0.6720  -0.9438   0.00    0.0
2018/11/14 00:41:00.000  -74.407220833  163.437619432    76.5580   5  10   0.7285   0.5859   2.3555  -0.3114   0.6669  -0.9414   0.00    0.0
2018/11/14 00:41:15.000  -74.407221490  163.437626088    76.7452   5  10   0.7285   0.5855   2.3502  -0.3098   0.6618  -0.9391   0.00    0.0
2018/11/14 00:41:30.000  -74.407221740  163.437624935    77.4302   5  10   0.7285   0.5851   2.3453  -0.3081   0.6567  -0.9370   0.00    0.0
2018/11/14 00:41:45.000  -74.407226090  163.437624692    78.5269   5  10   0.7286   0.5847   2.3407  -0.3065   0.6517  -0.9349   0.00    0.0
2018/11/14 00:42:00.000  -74.407221729  163.437622805    78.1171   5  10   0.7288   0.5845   2.3365  -0.3050   0.6467  -0.9329   0.00    0.0
2018/11/14 00:42:15.000  -74.407220878  163.437620355    76.8759   5  10   0.7290   0.5843   2.3327  -0.3034   0.6418  -0.9311   0.00    0.0
2018/11/14 00:42:30.000  -74.407221839  163.437622824    76.7334   5  10   0.7293   0.5842   2.3293  -0.3019   0.6370  -0.9293   0.00    0.0
2018/11/14 00:42:45.000  -74.407220643  163.437617341    77.6211   5  10   0.7283   0.5829   2.3191  -0.2997   0.6306  -0.9256   0.00    0.0
2018/11/14 00:43:00.000  -74.407222020  163.437627689    76.3479   5  10   0.7274   0.5816   2.3093  -0.2975   0.6243  -0.9220   0.00    0.0
2018/11/14 00:43:15.000  -74.407222776  163.437628582    77.0621   5  10   0.7265   0.5805   2.2998  -0.2953   0.6181  -0.9185   0.00    0.0
2018/11/14 00:43:30.000  -74.407228265  163.437625699    78.8422   5  10   0.7258   0.5793   2.2908  -0.2932   0.6120  -0.9151   0.00    0.0
2018/11/14 00:43:45.000  -74.407222829  163.437630441    77.9480   5  10   0.7251   0.5783   2.2821  -0.2911   0.6059  -0.9118   0.00    0.0
2018/11/14 00:44:00.000  -74.407224521  163.437627577    77.6932   5  10   0.7244   0.5774   2.2738  -0.2891   0.5999  -0.9087   0.00    0.0
2018/11/14 00:44:15.000  -74.407226197  163.437629781    78.0767   5  10   0.7239   0.5765   2.2659  -0.2871   0.5940  -0.9056   0.00    0.0
2018/11/14 00:44:30.000  -74.407222692  163.437619279    77.6669   5  10   0.7234   0.5757   2.2584  -0.2851   0.5881  -0.9027   0.00    0.0
2018/11/14 00:44:45.000  -74.407225293  163.437618813    78.2811   5  10   0.7230   0.5750   2.2512  -0.2832   0.5823  -0.8999   0.00    0.0
2018/11/14 00:45:00.000  -74.407221770  163.437620406    76.3710   5  10   0.7226   0.5743   2.2445  -0.2813   0.5765  -0.8972   0.00    0.0
2018/11/14 00:45:15.000  -74.407222324  163.437618572    76.8264   5  10   0.7224   0.5738   2.2383  -0.2795   0.5708  -0.8946   0.00    0.0
2018/11/14 00:45:30.000  -74.407223578  163.437623556    77.1311   5  10   0.7223   0.5734   2.2324  -0.2777   0.5652  -0.8922   0.00    0.0
2018/11/14 00:45:45.000  -74.407220830  163.437622625    76.8912   5  10   0.7222   0.5730   2.2269  -0.2759   0.5595  -0.8898   0.00    0.0
2018/11/14 00:46:00.000  -74.407224835  163.437628991    78.8117   5  10   0.7222   0.5727   2.2218  -0.2741   0.5540  -0.8876   0.00    0.0
2018/11/14 00:46:15.000  -74.407224123  163.437624033    78.0035   5  10   0.7222   0.5724   2.2171  -0.2724   0.5484  -0.8855   0.00    0.0
2018/11/14 00:46:30.000  -74.407222630  163.437620261    77.7438   5  10   0.7224   0.5723   2.2128  -0.2707   0.5429  -0.8835   0.00    0.0
2018/11/14 00:46:45.000  -74.407224476  163.437629172    77.9981   5  10   0.7226   0.5722   2.2089  -0.2691   0.5375  -0.8815   0.00    0.0
2018/11/14 00:47:00.000  -74.407221561  163.437614326    77.1085   5  10   0.7228   0.5722   2.2053  -0.2674   0.5320  -0.8797   0.00    0.0
2018/11/14 00:47:15.000  -74.407221392  163.437618378    76.8756   5  10   0.7232   0.5723   2.2021  -0.2658   0.5266  -0.8780   0.00    0.0
2018/11/14 00:47:30.000  -74.407221495  163.437621784    77.3696   5  10   0.7236   0.5724   2.1993  -0.2642   0.5211  -0.8764   0.00    0.0
2018/11/14 00:47:45.000  -74.407224989  163.437618305    77.9661   5  10   0.7228   0.5714   2.1900  -0.2620   0.5146  -0.8731   0.00    0.0
2018/11/14 00:48:00.000  -74.407223534  163.437616790    77.3234   5  10   0.7220   0.5704   2.1810  -0.2599   0.5081  -0.8698   0.00    0.0
2018/11/14 00:48:15.000  -74.407222933  163.437616779    78.3233   5  10   0.7213   0.5695   2.1725  -0.2578   0.5016  -0.8666   0.00    0.0
2018/11/14 00:48:30.000  -74.407225445  163.437614725    78.0918   5  10   0.7206   0.5686   2.1643  -0.2557   0.4952  -0.8635   0.00    0.0
2018/11/14 00:48:45.000  -74.407222420  163.437630687    77.1206   5  10   0.7200   0.5679   2.1565  -0.2536   0.4888  -0.8605   0.00    0.0
2018/11/14 00:49:00.000  -74.407220427  163.437627533    77.7636   5  10   0.7196   0.5672   2.1491  -0.2516   0.4825  -0.8577   0.00    0.0
2018/11/14 00:49:15.000  -74.407223007  163.437621671    77.5595   5  11   0.6197   0.5493   1.7961  -0.1076   0.2539  -0.5524   0.00    0.0
2018/11/14 00:49:30.000  -74.407224619  163.437624214    78.2137   5  11   0.6196   0.5490   1.7934  -0.1054   0.2470  -0.5515   0.00    0.0
2018/11/14 00:49:45.000  -74.407222594  163.437623062    78.1330   5  11   0.6196   0.5489   1.7910  -0.1031   0.2398  -0.5506   0.00    0.0
2018/11/14 00:50:00.000  -74.407224839  163.437620917    77.1391   5  11   0.6196   0.5488   1.7888  -0.1008   0.2325  -0.5498   0.00    0.0
2018/11/14 00:50:15.000  -74.407224061  163.437628345    77.8188   5  11   0.6196   0.5487   1.7870  -0.0985   0.2249  -0.5491   0.00    0.0
2018/11/14 00:50:30.000  -74.407224209  163.437622211    77.6130   5  11   0.6198   0.5488   1.7856  -0.0961   0.2170  -0.5483   0.00    0.0
2018/11/14 00:50:45.000  -74.407223227  163.437623462    77.3068   5  11   0.6200   0.5489   1.7844  -0.0937   0.2089  -0.5477   0.00    0.0
2018/11/14 00:51:00.000  -74.407226066  163.437620300    77.7211   5  11   0.6202   0.5491   1.7835  -0.0912   0.2003  -0.5470   0.00    0.0
2018/11/14 00:51:15.000  -74.407224372  163.437621456    77.3901   5  11   0.6205   0.5494   1.7829  -0.0886   0.1914  -0.5464   0.00    0.0
2018/11/14 00:51:30.000  -74.407223426  163.437622439    77.3550   5  11   0.6209   0.5497   1.7826  -0.0860   0.1819  -0.5459   0.00    0.0
2018/11/14 00:51:45.000  -74.407224510  163.437621594    77.1312   5  11   0.6213   0.5501   1.7826  -0.0832   0.1719  -0.5453   0.00    0.0
2018/11/14 00:52:00.000  -74.407225400  163.437625110    77.5919   5  11   0.6217   0.5505   1.7829  -0.0804   0.1612  -0.5449   0.00    0.0
2018/11/14 00:52:15.000  -74.407224762  163.437620689    76.8603   5  11   0.6222   0.5510   1.7835  -0.0775   0.1497  -0.5444   0.00    0.0
2018/11/14 00:52:30.000  -74.407223373  163.437623470    77.1306   5  11   0.6228   0.5516   1.7844  -0.0744   0.1371  -0.5440   0.00    0.0
2018/11/14 00:52:45.000  -74.407225010  163.437623235    77.1167   5  11   0.6224   0.5511   1.7801  -0.0712   0.1247  -0.5431   0.00    0.0
2018/11/14 00:53:00.000  -74.407223569  163.437619782    77.6656   5  11   0.6220   0.5506   1.7761  -0.0678   0.1108  -0.5423   0.00    0.0
2018/11/14 00:53:15.000  -74.407224328  163.437617476    77.3542   5  12   0.6142   0.5273   1.7055  -0.1388  -0.2582  -0.5829   0.00    0.0
2018/11/14 00:53:30.000  -74.407223204  163.437616582    76.2131   5  12   0.6138   0.5270   1.7034  -0.1375  -0.2629  -0.5821   0.00    0.0
2018/11/14 00:53:45.000  -74.407222209  163.437621355    77.0918   5  12   0.6135   0.5267   1.7015  -0.1362  -0.2676  -0.5813   0.00    0.0
2018/11/14 00:54:00.000  -74.407224295  163.437623923    76.7338   5  12   0.6133   0.5265   1.6999  -0.1349  -0.2723  -0.5805   0.00    0.0
2018/11/14 00:54:15.000  -74.407223114  163.437622563    75.4916   5  12   0.6131   0.5264   1.6986  -0.1336  -0.2770  -0.5799   0.00    0.0
2018/11/14 00:54:30.000  -74.407225742  163.437613125    76.3494   5  12   0.6129   0.5263   1.6975  -0.1323  -0.2816  -0.5792   0.00    0.0
2018/11/14 00:54:45.000  -74.407226896  163.437619494    76.7486   5  12   0.6128   0.5263   1.6968  -0.1310  -0.2863  -0.5786   0.00    0.0
2018/11/14 00:55:00.000  -74.407224955  163.437618136    76.7631   5  12   0.6128   0.5263   1.6963  -0.1297  -0.2910  -0.5781   0.00    0.0
2018/11/14 00:55:15.000  -74.407225724  163.437618756    77.2869   5  12   0.6128   0.5264   1.6961  -0.1284  -0.2957  -0.5776   0.00    0.0
2018/11/14 00:55:30.000  -74.407225376  163.437617146    77.0604   5  12   0.6129   0.5266   1.6962  -0.1272  -0.3004  -0.5771   0.00    0.0
2018/11/14 00:55:45.000  -74.407225615  163.437620203    76.6813   5  12   0.6130   0.5268   1.6967  -0.1259  -0.3051  -0.5767   0.00    0.0
2018/11/14 00:56:00.000  -74.407227369  163.437619418    77.4152   5  12   0.6132   0.5272   1.6973  -0.1246  -0.3098  -0.5764   0.00    0.0
2018/11/14 00:56:15.000  -74.407226439  163.437620801    76.9700   5  12   0.6134   0.5275   1.6983  -0.1234  -0.3145  -0.5761   0.00    0.0
2018/11/14 00:56:30.000  -74.407226519  163.437624195    77.4007   5  12   0.6137   0.5279   1.6996  -0.1221  -0.3193  -0.5758   0.00    0.0
2018/11/14 00:56:45.000  -74.407227996  163.437620480    77.9998   5  12   0.6140   0.5284   1.7011  -0.1209  -0.3241  -0.5756   0.00    0.0
2018/11/14 00:57:00.000  -74.407225594  163.437621454    77.1088   5  12   0.6144   0.5290   1.7029  -0.1196  -0.3289  -0.5754   0.00    0.0
2018/11/14 00:57:15.000  -74.407227417  163.437619618    77.3371   5  12   0.6148   0.5296   1.7050  -0.1184  -0.3337  -0.5753   0.00    0.0
2018/11/14 00:57:30.000  -74.407226329  163.437619557    76.3814   5  12   0.6153   0.5303   1.7074  -0.1172  -0.3385  -0.5752   0.00    0.0
2018/11/14 00:57:45.000  -74.407227439  163.437619118    77.2416   5  12   0.6148   0.5299   1.7049  -0.1157  -0.3418  -0.5744   0.00    0.0
2018/11/14 00:58:00.000  -74.407225776  163.437627491    77.3030   5  12   0.6144   0.5295   1.7026  -0.1141  -0.3451  -0.5736   0.00    0.0
2018/11/14 00:58:15.000  -74.407227132  163.437616400    77.4455   5  12   0.6141   0.5292   1.7005  -0.1125  -0.3484  -0.5729   0.00    0.0
2018/11/14 00:58:30.000  -74.407226097  163.437621462    78.4669   5  12   0.6138   0.5290   1.6987  -0.1109  -0.3518  -0.5722   0.00    0.0
2018/11/14 00:58:45.000  -74.407224743  163.437615973    77.0922   5  12   0.6135   0.5289   1.6972  -0.1094  -0.3552  -0.5716   0.00    0.0
2018/11/14 00:59:00.000  -74.407226268  163.437621077    76.7715   5  12   0.6133   0.5288   1.6960  -0.1078  -0.3586  -0.5710   0.00    0.0
2018/11/14 00:59:15.000  -74.407223514  163.437618472    76.1870   5  12   0.6132   0.5287   1.6951  -0.1062  -0.3621  -0.5705   0.00    0.0
2018/11/14 00:59:30.000  -74.407227205  163.437620142    77.2088   5  12   0.6131   0.5287   1.6945  -0.1046  -0.3656  -0.5700   0.00    0.0
2018/11/14 00:59:45.000  -74.407225266  163.437615980    77.4485   5  12   0.6130   0.5288   1.6941  -0.1030  -0.3691  -0.5695   0.00    0.0
2018/11/14 01:00:00.000  -74.407228001  163.437620055    77.2705   5  12   0.6130   0.5290   1.6940  -0.1014  -0.3727  -0.5691   0.00    0.0
2018/11/14 01:00:15.000  -74.407228080  163.437618330    77.0870   5  12   0.6131   0.5292   1.6943  -0.0998  -0.3764  -0.5688   0.00    0.0
2018/11/14 01:00:30.000  -74.407227048  163.437621788    77.5386   5  12   0.6132   0.5295   1.6949  -0.0982  -0.3801  -0.5685   0.00    0.0
2018/11/14 01:00:45.000  -74.407224566  163.437618318    76.7623   5  12   0.6134   0.5298   1.6957  -0.0966  -0.3838  -0.5682   0.00    0.0
2018/11/14 01:01:00.000  -74.407227114  163.437616772    77.3628   5  12   0.6136   0.5302   1.6968  -0.0950  -0.3876  -0.5680   0.00    0.0
2018/11/14 01:01:15.000  -74.407225969  163.437621077    76.3261   5  12   0.6139   0.5307   1.6983  -0.0934  -0.3915  -0.5679   0.00    0.0
2018/11/14 01:01:30.000  -74.407226162  163.437619874    76.3734   5  12   0.6142   0.5312   1.7000  -0.0917  -0.3953  -0.5678   0.00    0.0
2018/11/14 01:01:45.000  -74.407225415  163.437614897    77.0559   5  12   0.6146   0.5318   1.7020  -0.0901  -0.3993  -0.5677   0.00    0.0
2018/11/14 01:02:00.000  -74.407227246  163.437622167    76.5969   5  12   0.6151   0.5325   1.7043  -0.0884  -0.4033  -0.5677   0.00    0.0
2018/11/14 01:02:15.000  -74.407226745  163.437615214    76.7897   5  12   0.6155   0.5332   1.7068  -0.0867  -0.4073  -0.5678   0.00    0.0
2018/11/14 01:02:30.000  -74.407227586  163.437611781    77.1316   5  12   0.6161   0.5340   1.7097  -0.0850  -0.4114  -0.5678   0.00    0.0
2018/11/14 01:02:45.000  -74.407226432  163.437617009    77.4023   5  12   0.6157   0.5337   1.7075  -0.0829  -0.4139  -0.5672   0.00    0.0
2018/11/14 01:03:00.000  -74.407226454  163.437619318    76.9037   5  12   0.6153   0.5335   1.7056  -0.0808  -0.4165  -0.5666   0.00    0.0
2018/11/14 01:03:15.000  -74.407225707  163.437626165    76.8255   5  12   0.6150   0.5333   1.7039  -0.0786  -0.4192  -0.5660   0.00    0.0
2018/11/14 01:03:30.000  -74.407224738  163.437616783    76.8773   5  12   0.6148   0.5331   1.7025  -0.0764  -0.4218  -0.5655   0.00    0.0
2018/11/14 01:03:45.000  -74.407225808  163.437614270    76.3450   5  12   0.6146   0.5331   1.7014  -0.0742  -0.4246  -0.5650   0.00    0.0
2018/11/14 01:04:00.000  -74.407225412  163.437614133    77.4107   5  12   0.6145   0.5331   1.7006  -0.0719  -0.4274  -0.5646   0.00    0.0
2018/11/14 01:04:15.000  -74.407226921  163.437615631    76.8661   5  12   0.6144   0.5331   1.7001  -0.0695  -0.4302  -0.5642   0.00    0.0
2018/11/14 01:04:30.000  -74.407230481  163.437621577    77.2081   5  12   0.6143   0.5333   1.6999  -0.0671  -0.4332  -0.5639   0.00    0.0
2018/11/14 01:04:45.000  -74.407227668  163.437622741    77.3637   5  12   0.6143   0.5334   1.6999  -0.0646  -0.4361  -0.5636   0.00    0.0
2018/11/14 01:05:00.000  -74.407226044  163.437619841    77.6788   5  12   0.6144   0.5337   1.7003  -0.0621  -0.4391  -0.5634   0.00    0.0
2018/11/14 01:05:15.000  -74.407226106  163.437621344    77.6193   5  12   0.6145   0.5340   1.7010  -0.0595  -0.4422  -0.5632   0.00    0.0
2018/11/14 01:05:30.000  -74.407228440  163.437618239    77.8176   5  12   0.6147   0.5344   1.7019  -0.0567  -0.4454  -0.5631   0.00    0.0
2018/11/14 01:05:45.000  -74.407224487  163.437616942    77.4598   5  12   0.6150   0.5349   1.7032  -0.0539  -0.4486  -0.5630   0.00    0.0
2018/11/14 01:06:00.000  -74.407225579  163.437619911    76.8634   5  12   0.6152   0.5354   1.7048  -0.0510  -0.4519  -0.5630   0.00    0.0
2018/11/14 01:06:15.000  -74.407227177  163.437618276    77.3582   5  12   0.6156   0.5359   1.7066  -0.0478  -0.4552  -0.5630   0.00    0.0
2018/11/14 01:06:30.000  -74.407227473  163.437618499    77.5498   5  12   0.6160   0.5366   1.7088  -0.0445  -0.4586  -0.5631   0.00    0.0
2018/11/14 01:06:45.000  -74.407228217  163.437626153    77.4589   5  12   0.6164   0.5372   1.7112  -0.0410  -0.4621  -0.5632   0.00    0.0
2018/11/14 01:07:00.000  -74.407227365  163.437622356    77.2948   5  12   0.6169   0.5380   1.7139  -0.0371  -0.4656  -0.5633   0.00    0.0
2018/11/14 01:07:15.000  -74.407226732  163.437629276    76.9163   5  12   0.6174   0.5388   1.7169  -0.0328  -0.4692  -0.5635   0.00    0.0
2018/11/14 01:07:30.000  -74.407228072  163.437624136    77.2727   5  12   0.6180   0.5397   1.7201  -0.0279  -0.4728  -0.5638   0.00    0.0
2018/11/14 01:07:45.000  -74.407228113  163.437626152    77.4971   5  12   0.6177   0.5394   1.7182  -0.0209  -0.4749  -0.5633   0.00    0.0
2018/11/14 01:08:00.000  -74.407225366  163.437621381    77.7177   5  12   0.6174   0.5393   1.7167  -0.0096  -0.4770  -0.5629   0.00    0.0
2018/11/14 01:08:15.000  -74.407227747  163.437618598    76.6909   5  12   0.6171   0.5392   1.7154   0.0158  -0.4793  -0.5625   0.00    0.0
2018/11/14 01:08:30.000  -74.407230230  163.437623828    77.2678   5  12   0.6169   0.5392   1.7145   0.0242  -0.4815  -0.5621   0.00    0.0
2018/11/14 01:08:45.000  -74.407228250  163.437622385    77.8891   5  12   0.6168   0.5392   1.7138   0.0303  -0.4839  -0.5619   0.00    0.0
2018/11/14 01:09:00.000  -74.407226923  163.437622164    77.6448   5  12   0.6167   0.5393   1.7134   0.0354  -0.4863  -0.5616   0.00    0.0
2018/11/14 01:09:15.000  -74.407229819  163.437614407    77.9726   5  12   0.6167   0.5394   1.7132   0.0398  -0.4887  -0.5614   0.00    0.0
2018/11/14 01:09:30.000  -74.407225973  163.437619187    76.7442   5  12   0.6167   0.5396   1.7134   0.0437  -0.4913  -0.5613   0.00    0.0
2018/11/14 01:09:45.000  -74.407228698  163.437615317    77.2060   5  12   0.6168   0.5399   1.7139   0.0473  -0.4938  -0.5612   0.00    0.0
2018/11/14 01:10:00.000  -74.407227765  163.437612832    77.1127   5  12   0.6169   0.5402   1.7146   0.0506  -0.4965  -0.5611   0.00    0.0
2018/11/14 01:10:15.000  -74.407227378  163.437615594    77.0546   5  12   0.6171   0.5406   1.7157   0.0537  -0.4992  -0.5611   0.00    0.0
2018/11/14 01:10:30.000  -74.407226889  163.437621902    77.1835   5  12   0.6173   0.5411   1.7170   0.0566  -0.5020  -0.5612   0.00    0.0
2018/11/14 01:10:45.000  -74.407227464  163.437621884    77.3834   5  12   0.6176   0.5416   1.7187   0.0593  -0.5049  -0.5613   0.00    0.0
2018/11/14 01:11:00.000  -74.407224821  163.437618450    77.3533   5  12   0.6179   0.5422   1.7206   0.0619  -0.5078  -0.5614   0.00    0.0
2018/11/14 01:11:15.000  -74.407227327  163.437615494    76.7025   5  12   0.6183   0.5428   1.7228   0.0643  -0.5108  -0.5616   0.00    0.0
2018/11/14 01:11:30.000  -74.407226596  163.437615599    77.9964   5  12   0.6188   0.5435   1.7252   0.0667  -0.5138  -0.5618   0.00    0.0
2018/11/14 01:11:45.000  -74.407226798  163.437612263    77.5004   5  12   0.6193   0.5443   1.7280   0.0690  -0.5169  -0.5621   0.00    0.0
2018/11/14 01:12:00.000  -74.407227983  163.437609240    77.2985   5  12   0.6198   0.5451   1.7310   0.0712  -0.5201  -0.5624   0.00    0.0
2018/11/14 01:12:15.000  -74.407226477  163.437612791    77.3491   5  12   0.6204   0.5460   1.7343   0.0733  -0.5233  -0.5628   0.00    0.0
2018/11/14 01:12:30.000  -74.407226128  163.437613234    77.2907   5  12   0.6210   0.5469   1.7378   0.0754  -0.5266  -0.5632   0.00    0.0
2018/11/14 01:12:45.000  -74.407226173  163.437619604    77.0244   5  12   0.6208   0.5468   1.7365   0.0776  -0.5284  -0.5629   0.00    0.0
2018/11/14 01:13:00.000  -74.407225499  163.437620119    77.4843   5  12   0.6205   0.5467   1.7353   0.0798  -0.5302  -0.5627   0.00    0.0
2018/11/14 01:13:15.000  -74.407229098  163.437622766    77.3302   5  12   0.6203   0.5467   1.7344   0.0819  -0.5321  -0.5625   0.00    0.0
2018/11/14 01:13:30.000  -74.407227402  163.437619101    77.2046   5  12   0.6202   0.5467   1.7338   0.0839  -0.5341  -0.5623   0.00    0.0
2018/11/14 01:13:45.000  -74.407223702  163.437618444    76.7284   5  12   0.6201   0.5468   1.7335   0.0859  -0.5361  -0.5622   0.00    0.0
2018/11/14 01:14:00.000  -74.407226487  163.437611957    77.5847   5  12   0.6201   0.5470   1.7334   0.0878  -0.5382  -0.5621   0.00    0.0
2018/11/14 01:14:15.000  -74.407228467  163.437622115    78.1168   5  12   0.6201   0.5472   1.7337   0.0897  -0.5404  -0.5621   0.00    0.0
2018/11/14 01:14:30.000  -74.407226701  163.437623888    77.1568   5  12   0.6202   0.5474   1.7342   0.0915  -0.5426  -0.5622   0.00    0.0
2018/11/14 01:14:45.000  -74.407227149  163.437625594    77.0907   5  12   0.6203   0.5478   1.7349   0.0933  -0.5449  -0.5622   0.00    0.0
2018/11/14 01:15:00.000  -74.407228087  163.437623211    77.2181   5  12   0.6205   0.5481   1.7360   0.0950  -0.5473  -0.5624   0.00    0.0
2018/11/14 01:15:15.000  -74.407228688  163.437618698    77.5589   5  12   0.6207   0.5486   1.7374   0.0967  -0.5497  -0.5625   0.00    0.0
2018/11/14 01:15:30.000  -74.407227133  163.437620314    77.1920   5  12   0.6210   0.5491   1.7390   0.0984  -0.5522  -0.5628   0.00    0.0
2018/11/14 01:15:45.000  -74.407227224  163.437625106    77.6093   5  12   0.6214   0.5497   1.7410   0.1000  -0.5547  -0.5630   0.00    0.0
2018/11/14 01:16:00.000  -74.407229440  163.437619348    78.1184   5  12   0.6218   0.5503   1.7431   0.1016  -0.5574  -0.5633   0.00    0.0
2018/11/14 01:16:15.000  -74.407228453  163.437623905    77.6249   5  12   0.6222   0.5510   1.7456   0.1031  -0.5600  -0.5637   0.00    0.0
2018/11/14 01:16:30.000  -74.407226692  163.437626306    77.2197   5  12   0.6227   0.5518   1.7483   0.1047  -0.5628  -0.5641   0.00    0.0
2018/11/14 01:16:45.000  -74.407229491  163.437613953    78.2042   5  12   0.6233   0.5526   1.7513   0.1062  -0.5656  -0.5645   0.00    0.0
2018/11/14 01:17:00.000  -74.407228360  163.437615276    76.9648   5  12   0.6239   0.5535   1.7545   0.1076  -0.5684  -0.5650   0.00    0.0
2018/11/14 01:17:15.000  -74.407228905  163.437624151    78.2312   5  12   0.6245   0.5544   1.7579   0.1091  -0.5713  -0.5655   0.00    0.0
2018/11/14 01:17:30.000  -74.407226237  163.437623837    76.8558   5  12   0.6252   0.5554   1.7616   0.1105  -0.5743  -0.5661   0.00    0.0
2018/11/14 01:17:45.000  -74.407228188  163.437621474    78.1151   5  12   0.6250   0.5553   1.7606   0.1120  -0.5758  -0.5660   0.00    0.0
2018/11/14 01:18:00.000  -74.407229920  163.437614136    77.6345   5  12   0.6248   0.5552   1.7598   0.1136  -0.5774  -0.5659   0.00    0.0
2018/11/14 01:18:15.000  -74.407227238  163.437612026    76.9505   5  12   0.6247   0.5552   1.7593   0.1151  -0.5791  -0.5659   0.00    0.0
2018/11/14 01:18:30.000  -74.407227360  163.437617609    77.1125   5  12   0.6246   0.5553   1.7590   0.1165  -0.5807  -0.5660   0.00    0.0
2018/11/14 01:18:45.000  -74.407227357  163.437618568    77.1357   5  12   0.6246   0.5554   1.7589   0.1180  -0.5825  -0.5660   0.00    0.0
2018/11/14 01:19:00.000  -74.407227079  163.437614251    77.3811   5  12   0.6246   0.5556   1.7592   0.1194  -0.5843  -0.5662   0.00    0.0
2018/11/14 01:19:15.000  -74.407228769  163.437616455    77.2463   5  12   0.6247   0.5559   1.7596   0.1208  -0.5862  -0.5663   0.00    0.0
2018/11/14 01:19:30.000  -74.407227665  163.437617966    76.6887   5  12   0.6248   0.5562   1.7604   0.1221  -0.5881  -0.5666   0.00    0.0
2018/11/14 01:19:45.000  -74.407228464  163.437620107    77.5988   5  12   0.6250   0.5565   1.7614   0.1235  -0.5901  -0.5668   0.00    0.0
2018/11/14 01:20:00.000  -74.407228315  163.437620743    77.1690   5  12   0.6252   0.5569   1.7627   0.1248  -0.5922  -0.5671   0.00    0.0
2018/11/14 01:20:15.000  -74.407227334  163.437622307    77.1640   5  12   0.6255   0.5574   1.7643   0.1261  -0.5943  -0.5674   0.00    0.0
2018/11/14 01:20:30.000  -74.407227615  163.437611201    77.9860   5  12   0.6259   0.5580   1.7661   0.1274  -0.5965  -0.5678   0.00    0.0
2018/11/14 01:20:45.000  -74.407226534  163.437606743    78.3515   5  12   0.6263   0.5586   1.7682   0.1287  -0.5988  -0.5683   0.00    0.0
2018/11/14 01:21:00.000  -74.407228637  163.437616233    77.0310   5  12   0.6268   0.5592   1.7705   0.1300  -0.6011  -0.5687   0.00    0.0
2018/11/14 01:21:15.000  -74.407229619  163.437619658    77.8531   5  12   0.6273   0.5600   1.7731   0.1312  -0.6035  -0.5692   0.00    0.0
2018/11/14 01:21:30.000  -74.407228348  163.437617596    77.9347   5  12   0.6279   0.5607   1.7759   0.1324  -0.6059  -0.5698   0.00    0.0
2018/11/14 01:21:45.000  -74.407229131  163.437620212    77.8246   5  12   0.6285   0.5616   1.7789   0.1336  -0.6084  -0.5704   0.00    0.0
2018/11/14 01:22:00.000  -74.407229739  163.437613166    78.1769   5  12   0.6291   0.5624   1.7821   0.1348  -0.6109  -0.5710   0.00    0.0
2018/11/14 01:22:15.000  -74.407228197  163.437610044    77.6358   5  12   0.6299   0.5634   1.7856   0.1360  -0.6135  -0.5716   0.00    0.0
2018/11/14 01:22:30.000  -74.407228662  163.437614847    77.6837   5  12   0.6306   0.5643   1.7893   0.1372  -0.6161  -0.5723   0.00    0.0
2018/11/14 01:22:45.000  -74.407228356  163.437623172    77.0264   5  12   0.6305   0.5643   1.7886   0.1384  -0.6174  -0.5724   0.00    0.0
2018/11/14 01:23:00.000  -74.407229152  163.437619473    77.1964   5  12   0.6304   0.5643   1.7880   0.1397  -0.6187  -0.5726   0.00    0.0
2018/11/14 01:23:15.000  -74.407229080  163.437611175    77.7201   5  11   0.6616   0.5681   1.8241   0.1816  -0.6007  -0.5050   0.00    0.0
2018/11/14 01:23:30.000  -74.407228893  163.437618119    77.7568   5  11   0.6614   0.5681   1.8243   0.1823  -0.6021  -0.5053   0.00    0.0
2018/11/14 01:23:45.000  -74.407228143  163.437623344    77.7956   5  11   0.6612   0.5682   1.8247   0.1830  -0.6037  -0.5055   0.00    0.0
2018/11/14 01:24:00.000  -74.407228793  163.437616877    77.0266   5  11   0.6611   0.5684   1.8254   0.1836  -0.6052  -0.5059   0.00    0.0
2018/11/14 01:24:15.000  -74.407227891  163.437613975    77.5972   5  11   0.6611   0.5686   1.8263   0.1843  -0.6069  -0.5062   0.00    0.0
2018/11/14 01:24:30.000  -74.407229292  163.437617555    77.5797   5  11   0.6611   0.5689   1.8274   0.1850  -0.6085  -0.5065   0.00    0.0
2018/11/14 01:24:45.000  -74.407230565  163.437617873    78.6481   5  11   0.6611   0.5692   1.8288   0.1857  -0.6103  -0.5069   0.00    0.0
2018/11/14 01:25:00.000  -74.407233263  163.437615332    77.3127   5  10   0.6724   0.6276   2.0799   0.0498  -0.7969  -0.3696   0.00    0.0
2018/11/14 01:25:15.000  -74.407230640  163.437624854    76.8782   5  10   0.6725   0.6284   2.0844   0.0533  -0.7998  -0.3702   0.00    0.0
2018/11/14 01:25:30.000  -74.407230250  163.437624377    76.6414   5  10   0.6726   0.6292   2.0892   0.0565  -0.8027  -0.3708   0.00    0.0
2018/11/14 01:25:45.000  -74.407230569  163.437622963    76.8120   5  10   0.6728   0.6301   2.0943   0.0594  -0.8058  -0.3713   0.00    0.0
2018/11/14 01:26:00.000  -74.407231003  163.437636221    76.5544   5  10   0.6731   0.6310   2.0997   0.0620  -0.8090  -0.3718   0.00    0.0
2018/11/14 01:26:15.000  -74.407232537  163.437623560    77.6213   5   9   0.7742   0.6849   2.6342   0.3239  -1.0380  -0.8621   0.00    0.0
2018/11/14 01:26:30.000  -74.407233553  163.437625989    77.4276   5   9   0.7749   0.6871   2.6476   0.3264  -1.0446  -0.8661   0.00    0.0
2018/11/14 01:26:45.000  -74.407230619  163.437631046    76.1391   5   9   0.7756   0.6893   2.6614   0.3289  -1.0514  -0.8702   0.00    0.0
2018/11/14 01:27:00.000  -74.407228888  163.437628196    76.4518   5   9   0.7765   0.6916   2.6757   0.3314  -1.0584  -0.8744   0.00    0.0
2018/11/14 01:27:15.000  -74.407231538  163.437621114    77.2112   5   9   0.7774   0.6940   2.6905   0.3339  -1.0655  -0.8787   0.00    0.0
2018/11/14 01:27:30.000  -74.407230231  163.437633899    76.0204   5   9   0.7784   0.6965   2.7057   0.3365  -1.0729  -0.8831   0.00    0.0
2018/11/14 01:27:45.000  -74.407231310  163.437613508    77.4993   5   9   0.7781   0.6972   2.7124   0.3385  -1.0767  -0.8860   0.00    0.0
2018/11/14 01:28:00.000  -74.407228846  163.437623829    76.4973   5   9   0.7778   0.6981   2.7198   0.3405  -1.0808  -0.8891   0.00    0.0
2018/11/14 01:28:15.000  -74.407231932  163.437617164    77.3750   5   9   0.7776   0.6990   2.7276   0.3425  -1.0850  -0.8923   0.00    0.0
2018/11/14 01:28:30.000  -74.407230018  163.437623386    77.1174   5   9   0.7775   0.7001   2.7359   0.3446  -1.0895  -0.8955   0.00    0.0
2018/11/14 01:28:45.000  -74.407231907  163.437629330    76.6307   5   9   0.7774   0.7012   2.7446   0.3467  -1.0940  -0.8989   0.00    0.0
2018/11/14 01:29:00.000  -74.407231831  163.437616953    77.8447   5   9   0.7774   0.7024   2.7537   0.3488  -1.0987  -0.9024   0.00    0.0
2018/11/14 01:29:15.000  -74.407232234  163.437618385    76.9408   5   9   0.7776   0.7037   2.7633   0.3510  -1.1036  -0.9059   0.00    0.0
2018/11/14 01:29:30.000  -74.407229564  163.437628290    76.6084   5   9   0.7778   0.7051   2.7734   0.3531  -1.1086  -0.9095   0.00    0.0
2018/11/14 01:29:45.000  -74.407227806  163.437629095    75.4528   5   9   0.7780   0.7065   2.7838   0.3553  -1.1138  -0.9132   0.00    0.0
2018/11/14 01:30:00.000  -74.407230488  163.437623337    76.6150   5   9   0.7784   0.7081   2.7947   0.3575  -1.1192  -0.9171   0.00    0.0
2018/11/14 01:30:15.000  -74.407230657  163.437628088    75.7111   5   9   0.7789   0.7098   2.8062   0.3598  -1.1247  -0.9210   0.00    0.0
2018/11/14 01:30:30.000  -74.407232548  163.437620284    77.1803   5   9   0.7794   0.7115   2.8181   0.3620  -1.1304  -0.9250   0.00    0.0
2018/11/14 01:30:45.000  -74.407231139  163.437615927    76.8159   5   9   0.7801   0.7134   2.8304   0.3643  -1.1362  -0.9292   0.00    0.0
2018/11/14 01:31:00.000  -74.407228169  163.437623012    75.8877   5   9   0.7808   0.7153   2.8431   0.3667  -1.1422  -0.9334   0.00    0.0
2018/11/14 01:31:15.000  -74.407232171  163.437617789    77.6388   5   9   0.7816   0.7173   2.8563   0.3690  -1.1484  -0.9377   0.00    0.0
2018/11/14 01:31:30.000  -74.407230885  163.437619270    77.0878   5   9   0.7824   0.7194   2.8698   0.3714  -1.1547  -0.9421   0.00    0.0
2018/11/14 01:31:45.000  -74.407231830  163.437627173    76.5884   5   9   0.7834   0.7216   2.8837   0.3738  -1.1611  -0.9466   0.00    0.0
2018/11/14 01:32:00.000  -74.407230875  163.437630013    76.4906   5   9   0.7844   0.7238   2.8981   0.3762  -1.1677  -0.9511   0.00    0.0
2018/11/14 01:32:15.000  -74.407230342  163.437619253    76.4200   5   9   0.7856   0.7262   2.9128   0.3787  -1.1744  -0.9558   0.00    0.0
2018/11/14 01:32:30.000  -74.407232118  163.437615460    77.6404   5   9   0.7868   0.7286   2.9279   0.3811  -1.1812  -0.9605   0.00    0.0
2018/11/14 01:32:45.000  -74.407229525  163.437615626    76.6162   5   9   0.7866   0.7292   2.9345   0.3829  -1.1845  -0.9637   0.00    0.0
2018/11/14 01:33:00.000  -74.407232187  163.437621571    76.6549   5   9   0.7865   0.7299   2.9416   0.3848  -1.1879  -0.9670   0.00    0.0
2018/11/14 01:33:15.000  -74.407230281  163.437625962    76.1483   5   9   0.7864   0.7307   2.9490   0.3866  -1.1915  -0.9703   0.00    0.0
2018/11/14 01:33:30.000  -74.407230303  163.437615111    78.0134   5   9   0.7864   0.7315   2.9568   0.3885  -1.1952  -0.9737   0.00    0.0
2018/11/14 01:33:45.000  -74.407231874  163.437621868    77.6985   5   9   0.7866   0.7324   2.9649   0.3904  -1.1990  -0.9772   0.00    0.0
2018/11/14 01:34:00.000  -74.407229787  163.437621338    77.2005   5   9   0.7867   0.7334   2.9734   0.3923  -1.2030  -0.9808   0.00    0.0
2018/11/14 01:34:15.000  -74.407230201  163.437621617    77.3226   5   9   0.7870   0.7345   2.9822   0.3942  -1.2070  -0.9844   0.00    0.0
2018/11/14 01:34:30.000  -74.407227624  163.437633931    75.7608   5   9   0.7874   0.7356   2.9914   0.3961  -1.2112  -0.9881   0.00    0.0
2018/11/14 01:34:45.000  -74.407232993  163.437626797    76.8594   5   9   0.7878   0.7368   3.0010   0.3980  -1.2154  -0.9919   0.00    0.0
2018/11/14 01:35:00.000  -74.407232932  163.437621869    76.9052   5   9   0.7883   0.7381   3.0108   0.4000  -1.2198  -0.9957   0.00    0.0
2018/11/14 01:35:15.000  -74.407231610  163.437628068    76.2338   5   9   0.7889   0.7395   3.0211   0.4020  -1.2244  -0.9996   0.00    0.0
2018/11/14 01:35:30.000  -74.407232063  163.437620661    76.8206   5   9   0.7896   0.7409   3.0317   0.4040  -1.2290  -1.0036   0.00    0.0
2018/11/14 01:35:45.000  -74.407232239  163.437612558    77.6711   5   9   0.7904   0.7425   3.0426   0.4060  -1.2338  -1.0077   0.00    0.0
2018/11/14 01:36:00.000  -74.407232651  163.437619226    77.1086   5   9   0.7913   0.7440   3.0537   0.4080  -1.2386  -1.0118   0.00    0.0
2018/11/14 01:36:15.000  -74.407231065  163.437615363    77.9078   5   9   0.7922   0.7457   3.0652   0.4101  -1.2435  -1.0159   0.00    0.0
2018/11/14 01:36:30.000  -74.407230251  163.437623375    76.7593   5   9   0.7932   0.7474   3.0769   0.4122  -1.2485  -1.0201   0.00    0.0
2018/11/14 01:36:45.000  -74.407232015  163.437624682    76.8356   5   9   0.7943   0.7492   3.0888   0.4142  -1.2536  -1.0244   0.00    0.0
2018/11/14 01:37:00.000  -74.407227871  163.437621831    75.2852   5   9   0.7955   0.7510   3.1010   0.4163  -1.2588  -1.0287   0.00    0.0
2018/11/14 01:37:15.000  -74.407232254  163.437615708    77.6546   5   9   0.7967   0.7529   3.1134   0.4184  -1.2640  -1.0330   0.00    0.0
2018/11/14 01:37:30.000  -74.407232893  163.437610117    77.9704   5   9   0.7981   0.7549   3.1261   0.4205  -1.2693  -1.0374   0.00    0.0
2018/11/14 01:37:45.000  -74.407230325  163.437619278    77.0095   5   9   0.7980   0.7550   3.1306   0.4219  -1.2711  -1.0402   0.00    0.0
2018/11/14 01:38:00.000  -74.407233376  163.437616481    78.3853   5   8   0.9706   0.7718   4.0561   0.5169  -1.4250  -1.5843   0.00    0.0
2018/11/14 01:38:15.000  -74.407230902  163.437622594    76.1411   5   8   0.9731   0.7730   4.0794   0.5214  -1.4330  -1.5950   0.00    0.0
2018/11/14 01:38:30.000  -74.407234619  163.437618407    78.6868   5   9   0.7320   0.7309   2.8841   0.3338  -1.1532  -0.8343   0.00    0.0
2018/11/14 01:38:45.000  -74.407235973  163.437613167    77.5836   5   9   0.7320   0.7313   2.8941   0.3363  -1.1569  -0.8390   0.00    0.0
2018/11/14 01:39:00.000  -74.407234128  163.437608591    79.3789   5   9   0.7321   0.7318   2.9045   0.3388  -1.1606  -0.8437   0.00    0.0
2018/11/14 01:39:15.000  -74.407235244  163.437613680    78.2808   5   9   0.7322   0.7323   2.9152   0.3412  -1.1645  -0.8485   0.00    0.0
2018/11/14 01:39:30.000  -74.407236654  163.437610167    79.6541   5   9   0.7324   0.7329   2.9262   0.3437  -1.1684  -0.8534   0.00    0.0
2018/11/14 01:39:45.000  -74.407234400  163.437616329    79.2237   5   9   0.7327   0.7336   2.9375   0.3462  -1.1725  -0.8583   0.00    0.0
2018/11/14 01:40:00.000  -74.407236006  163.437613066    79.9696   5   9   0.7331   0.7344   2.9491   0.3486  -1.1766  -0.8632   0.00    0.0
2018/11/14 01:40:15.000  -74.407236387  163.437612376    79.1547   5   9   0.7336   0.7353   2.9611   0.3511  -1.1809  -0.8682   0.00    0.0
2018/11/14 01:40:30.000  -74.407235960  163.437618486    78.2683   5   9   0.7342   0.7362   2.9734   0.3536  -1.1853  -0.8732   0.00    0.0
2018/11/14 01:40:45.000  -74.407235174  163.437618977    78.6015   5   9   0.7348   0.7372   2.9859   0.3561  -1.1898  -0.8783   0.00    0.0
2018/11/14 01:41:00.000  -74.407234595  163.437604637    79.7252   5   9   0.7355   0.7383   2.9988   0.3586  -1.1943  -0.8834   0.00    0.0
2018/11/14 01:41:15.000  -74.407234345  163.437617623    78.4145   5   9   0.7363   0.7394   3.0119   0.3611  -1.1990  -0.8886   0.00    0.0
2018/11/14 01:41:30.000  -74.407234628  163.437609618    78.8143   5   9   0.7372   0.7406   3.0252   0.3636  -1.2037  -0.8938   0.00    0.0
2018/11/14 01:41:45.000  -74.407236089  163.437608211    79.5828   5   9   0.7382   0.7419   3.0389   0.3661  -1.2085  -0.8991   0.00    0.0
2018/11/14 01:42:00.000  -74.407237275  163.437608849    80.0077   5   9   0.7392   0.7432   3.0527   0.3686  -1.2133  -0.9044   0.00    0.0
2018/11/14 01:42:15.000  -74.407231944  163.437625123    77.9443   5   9   0.7403   0.7446   3.0668   0.3712  -1.2183  -0.9098   0.00    0.0
2018/11/14 01:42:30.000  -74.407236255  163.437617019    78.6903   5   9   0.7415   0.7460   3.0812   0.3737  -1.2233  -0.9152   0.00    0.0
2018/11/14 01:42:45.000  -74.407233870  163.437612008    78.7059   5   9   0.7415   0.7458   3.0886   0.3758  -1.2253  -0.9197   0.00    0.0
2018/11/14 01:43:00.000  -74.407236423  163.437607831    78.8426   5   9   0.7415   0.7456   3.0962   0.3778  -1.2274  -0.9242   0.00    0.0
2018/11/14 01:43:15.000  -74.407239825  163.437599479    80.8851   5   9   0.7415   0.7454   3.1039   0.3799  -1.2296  -0.9288   0.00    0.0
2018/11/14 01:43:30.000  -74.407237011  163.437605429    79.9404   5   9   0.7417   0.7453   3.1119   0.3820  -1.2318  -0.9334   0.00    0.0
2018/11/14 01:43:45.000  -74.407235622  163.437618937    78.3794   5   9   0.7419   0.7453   3.1201   0.3840  -1.2340  -0.9380   0.00    0.0
2018/11/14 01:44:00.000  -74.407238553  163.437610468    80.6688   5   9   0.7421   0.7453   3.1285   0.3861  -1.2363  -0.9426   0.00    0.0
2018/11/14 01:44:15.000  -74.407235639  163.437614514    77.4370   5   9   0.7425   0.7454   3.1371   0.3881  -1.2387  -0.9472   0.00    0.0
