% program   : RTKLIB ver.2.4.3
% inp file  : _by_type/_obs/shirase/20181113.18o
% inp file  : _by_type/_obs/base/20181113.18o
% inp file  : _by_type/_sp3+clk/igs20272.clk
% inp file  : _by_type/_sp3+clk/igs20272.sp3
% inp file  : _by_type/_nav/shirase/20181113.18n
% obs start : 2018/11/13 00:00:00.0 GPST (week2027 172800.0s)
% obs end   : 2018/11/13 23:59:45.0 GPST (week2027 259185.0s)
% pos mode  : dgps
% freqs     : L1+L2
% solution  : combined
% elev mask : 15.0 deg
% dynamics  : off
% tidecorr  : off
% ionos opt : iono-free
% tropo opt : est ztd+grad
% ephemeris : precise
% navi sys  : gps glonass
% antenna1  :                       ( 0.0000  0.0000  0.0000)
% antenna2  :                       ( 0.0000  0.0000  0.0000)
% ref pos   : 90.000000000   0.000000000-6335367.6285
%
% (lat/lon/height=WGS84/ellipsoidal,Q=1:fix,2:float,3:sbas,4:dgps,5:single,6:ppp,ns=# of satellites)
%  GPST                  latitude(deg) longitude(deg)  height(m)   Q  ns   sdn(m)   sde(m)   sdu(m)  sdne(m)  sdeu(m)  sdun(m) age(s)  ratio
2018/11/13 00:00:00.000  -74.525931621  163.457854524    24.5881   5  10   0.6623   0.6324   2.4141  -0.3093   0.8384  -0.7934   0.00    0.0
2018/11/13 00:00:15.000  -74.525929785  163.457842390    24.9259   5  10   0.6628   0.6331   2.4211  -0.3106   0.8420  -0.7963   0.00    0.0
2018/11/13 00:00:30.000  -74.525931800  163.457846414    25.4447   5  10   0.6633   0.6338   2.4283  -0.3119   0.8457  -0.7993   0.00    0.0
2018/11/13 00:00:45.000  -74.525933398  163.457847958    25.9954   5  10   0.6640   0.6347   2.4358  -0.3133   0.8496  -0.8024   0.00    0.0
2018/11/13 00:01:00.000  -74.525931970  163.457843230    25.1274   5  11   0.6518   0.6356   2.3471  -0.3133   0.8563  -0.8590   0.00    0.0
2018/11/13 00:01:15.000  -74.525934784  163.457846755    25.3745   5  11   0.6525   0.6367   2.3555  -0.3149   0.8603  -0.8623   0.00    0.0
2018/11/13 00:01:30.000  -74.525932941  163.457847083    24.9050   5  11   0.6533   0.6378   2.3642  -0.3165   0.8644  -0.8656   0.00    0.0
2018/11/13 00:01:45.000  -74.525928800  163.457849282    25.0737   5  11   0.6542   0.6390   2.3732  -0.3181   0.8686  -0.8691   0.00    0.0
2018/11/13 00:02:00.000  -74.525931459  163.457848972    25.1483   5  11   0.6552   0.6404   2.3824  -0.3198   0.8730  -0.8727   0.00    0.0
2018/11/13 00:02:15.000  -74.525932112  163.457848440    24.4891   5  11   0.6562   0.6418   2.3919  -0.3216   0.8774  -0.8764   0.00    0.0
2018/11/13 00:02:30.000  -74.525931195  163.457842971    24.6440   5  11   0.6573   0.6432   2.4016  -0.3234   0.8820  -0.8802   0.00    0.0
2018/11/13 00:02:45.000  -74.525931532  163.457848373    24.8576   5  11   0.6570   0.6430   2.4057  -0.3241   0.8839  -0.8820   0.00    0.0
2018/11/13 00:03:00.000  -74.525932870  163.457848415    24.5579   5  11   0.6569   0.6428   2.4099  -0.3249   0.8858  -0.8839   0.00    0.0
2018/11/13 00:03:15.000  -74.525935152  163.457858034    26.3768   5  11   0.6568   0.6427   2.4143  -0.3256   0.8878  -0.8859   0.00    0.0
2018/11/13 00:03:30.000  -74.525931664  163.457845511    25.1671   5  11   0.6568   0.6427   2.4190  -0.3265   0.8900  -0.8880   0.00    0.0
2018/11/13 00:03:45.000  -74.525930751  163.457850484    24.8436   5  11   0.6569   0.6428   2.4240  -0.3273   0.8922  -0.8901   0.00    0.0
2018/11/13 00:04:00.000  -74.525930118  163.457848415    23.7852   5  11   0.6570   0.6430   2.4291  -0.3282   0.8946  -0.8924   0.00    0.0
2018/11/13 00:04:15.000  -74.525928770  163.457851312    24.9960   5  11   0.6572   0.6432   2.4345  -0.3292   0.8970  -0.8947   0.00    0.0
2018/11/13 00:04:30.000  -74.525930296  163.457843605    23.9839   5  11   0.6575   0.6436   2.4402  -0.3302   0.8996  -0.8971   0.00    0.0
2018/11/13 00:04:45.000  -74.525930067  163.457844009    24.3915   5  11   0.6579   0.6440   2.4460  -0.3313   0.9023  -0.8996   0.00    0.0
2018/11/13 00:05:00.000  -74.525932224  163.457848978    24.4795   5  11   0.6583   0.6445   2.4521  -0.3324   0.9050  -0.9022   0.00    0.0
2018/11/13 00:05:15.000  -74.525931264  163.457852669    24.7260   5  11   0.6588   0.6451   2.4587  -0.3337   0.9080  -0.9050   0.00    0.0
2018/11/13 00:05:30.000  -74.525931364  163.457851590    24.5789   5  11   0.6594   0.6458   2.4654  -0.3349   0.9111  -0.9078   0.00    0.0
2018/11/13 00:05:45.000  -74.525930648  163.457846099    24.5935   5  11   0.6601   0.6467   2.4724  -0.3362   0.9143  -0.9107   0.00    0.0
2018/11/13 00:06:00.000  -74.525932015  163.457853313    25.2474   5  11   0.6608   0.6476   2.4796  -0.3376   0.9176  -0.9137   0.00    0.0
2018/11/13 00:06:15.000  -74.525930369  163.457846414    24.1807   5  11   0.6616   0.6485   2.4870  -0.3390   0.9209  -0.9168   0.00    0.0
2018/11/13 00:06:30.000  -74.525931498  163.457851817    24.8114   5  11   0.6625   0.6496   2.4947  -0.3404   0.9244  -0.9199   0.00    0.0
2018/11/13 00:06:45.000  -74.525931660  163.457846054    24.1759   5  11   0.6634   0.6507   2.5025  -0.3419   0.9279  -0.9232   0.00    0.0
2018/11/13 00:07:00.000  -74.525930720  163.457841822    24.0189   5  11   0.6644   0.6519   2.5106  -0.3435   0.9316  -0.9265   0.00    0.0
2018/11/13 00:07:15.000  -74.525931751  163.457845206    25.2000   5  11   0.6655   0.6532   2.5188  -0.3450   0.9353  -0.9298   0.00    0.0
2018/11/13 00:07:30.000  -74.525932574  163.457850649    24.2834   5  11   0.6667   0.6546   2.5273  -0.3466   0.9391  -0.9333   0.00    0.0
2018/11/13 00:07:45.000  -74.525931612  163.457845138    24.1472   5  11   0.6665   0.6542   2.5297  -0.3471   0.9400  -0.9347   0.00    0.0
2018/11/13 00:08:00.000  -74.525931964  163.457848306    24.2447   5  11   0.6664   0.6539   2.5324  -0.3476   0.9412  -0.9362   0.00    0.0
2018/11/13 00:08:15.000  -74.525930616  163.457849831    24.3609   5  11   0.6663   0.6536   2.5353  -0.3481   0.9424  -0.9377   0.00    0.0
2018/11/13 00:08:30.000  -74.525933654  163.457846456    24.4357   5  11   0.6663   0.6535   2.5384  -0.3487   0.9437  -0.9393   0.00    0.0
2018/11/13 00:08:45.000  -74.525931768  163.457860317    25.2213   5  11   0.6664   0.6534   2.5416  -0.3493   0.9450  -0.9410   0.00    0.0
2018/11/13 00:09:00.000  -74.525930647  163.457851201    24.3941   5  11   0.6666   0.6534   2.5451  -0.3500   0.9465  -0.9428   0.00    0.0
2018/11/13 00:09:15.000  -74.525931191  163.457851781    25.4190   5  11   0.6668   0.6535   2.5487  -0.3507   0.9480  -0.9446   0.00    0.0
2018/11/13 00:09:30.000  -74.525928191  163.457842814    22.9061   5  11   0.6671   0.6536   2.5525  -0.3514   0.9496  -0.9465   0.00    0.0
2018/11/13 00:09:45.000  -74.525931764  163.457853349    24.8560   5  11   0.6675   0.6539   2.5565  -0.3522   0.9513  -0.9485   0.00    0.0
2018/11/13 00:10:00.000  -74.525929897  163.457845912    24.2150   5  11   0.6679   0.6542   2.5606  -0.3530   0.9530  -0.9505   0.00    0.0
2018/11/13 00:10:15.000  -74.525930747  163.457840884    24.9768   5  11   0.6684   0.6546   2.5651  -0.3539   0.9549  -0.9526   0.00    0.0
2018/11/13 00:10:30.000  -74.525931271  163.457852891    24.5469   5  11   0.6690   0.6551   2.5698  -0.3548   0.9569  -0.9548   0.00    0.0
2018/11/13 00:10:45.000  -74.525931468  163.457848174    24.7687   5  11   0.6696   0.6557   2.5746  -0.3558   0.9589  -0.9570   0.00    0.0
2018/11/13 00:11:00.000  -74.525931080  163.457851110    25.4272   5  11   0.6703   0.6563   2.5796  -0.3568   0.9610  -0.9593   0.00    0.0
2018/11/13 00:11:15.000  -74.525932738  163.457850333    24.5047   5  11   0.6711   0.6571   2.5847  -0.3578   0.9632  -0.9617   0.00    0.0
2018/11/13 00:11:30.000  -74.525930370  163.457849078    23.9254   5  11   0.6719   0.6578   2.5900  -0.3588   0.9654  -0.9641   0.00    0.0
2018/11/13 00:11:45.000  -74.525929872  163.457853913    24.7075   5  11   0.6728   0.6587   2.5954  -0.3599   0.9677  -0.9665   0.00    0.0
2018/11/13 00:12:00.000  -74.525934178  163.457853986    25.4085   5  11   0.6737   0.6596   2.6009  -0.3610   0.9700  -0.9690   0.00    0.0
2018/11/13 00:12:15.000  -74.525930557  163.457847354    24.7973   5  11   0.6747   0.6606   2.6066  -0.3621   0.9723  -0.9715   0.00    0.0
2018/11/13 00:12:30.000  -74.525933189  163.457853847    25.0145   5  11   0.6758   0.6617   2.6124  -0.3632   0.9747  -0.9741   0.00    0.0
2018/11/13 00:12:45.000  -74.525928911  163.457837862    23.6396   5  11   0.6756   0.6610   2.6123  -0.3632   0.9745  -0.9747   0.00    0.0
2018/11/13 00:13:00.000  -74.525930491  163.457846012    23.7458   5  11   0.6754   0.6604   2.6123  -0.3633   0.9743  -0.9753   0.00    0.0
2018/11/13 00:13:15.000  -74.525929669  163.457843028    23.7539   5  11   0.6753   0.6599   2.6125  -0.3634   0.9742  -0.9760   0.00    0.0
2018/11/13 00:13:30.000  -74.525933394  163.457854599    25.8486   5  11   0.6752   0.6594   2.6128  -0.3636   0.9741  -0.9767   0.00    0.0
2018/11/13 00:13:45.000  -74.525934536  163.457847922    25.4745   5  11   0.6752   0.6590   2.6133  -0.3637   0.9741  -0.9775   0.00    0.0
2018/11/13 00:14:00.000  -74.525932829  163.457846648    24.4792   5  11   0.6753   0.6587   2.6139  -0.3639   0.9741  -0.9783   0.00    0.0
2018/11/13 00:14:15.000  -74.525931356  163.457846814    24.0953   5  11   0.6754   0.6585   2.6146  -0.3641   0.9742  -0.9791   0.00    0.0
2018/11/13 00:14:30.000  -74.525932778  163.457847968    24.4916   5  11   0.6756   0.6583   2.6154  -0.3644   0.9743  -0.9800   0.00    0.0
2018/11/13 00:14:45.000  -74.525932931  163.457850626    24.0506   5  11   0.6758   0.6582   2.6163  -0.3646   0.9745  -0.9809   0.00    0.0
2018/11/13 00:15:00.000  -74.525930958  163.457848893    24.0346   5  11   0.6761   0.6581   2.6174  -0.3649   0.9747  -0.9819   0.00    0.0
2018/11/13 00:15:15.000  -74.525930835  163.457839919    23.4969   5  11   0.6765   0.6582   2.6188  -0.3653   0.9750  -0.9829   0.00    0.0
2018/11/13 00:15:30.000  -74.525932362  163.457845316    24.9236   5  11   0.6770   0.6583   2.6202  -0.3656   0.9754  -0.9840   0.00    0.0
2018/11/13 00:15:45.000  -74.525932337  163.457841534    23.9964   5  11   0.6775   0.6585   2.6218  -0.3660   0.9758  -0.9851   0.00    0.0
2018/11/13 00:16:00.000  -74.525932608  163.457840098    23.7576   5  11   0.6780   0.6588   2.6235  -0.3664   0.9762  -0.9863   0.00    0.0
2018/11/13 00:16:15.000  -74.525931685  163.457846871    24.1025   5  11   0.6786   0.6591   2.6253  -0.3668   0.9767  -0.9874   0.00    0.0
2018/11/13 00:16:30.000  -74.525932666  163.457853108    24.7336   5  11   0.6793   0.6595   2.6272  -0.3673   0.9772  -0.9886   0.00    0.0
2018/11/13 00:16:45.000  -74.525930483  163.457849859    24.2809   5  11   0.6800   0.6599   2.6292  -0.3677   0.9777  -0.9899   0.00    0.0
2018/11/13 00:17:00.000  -74.525930272  163.457842395    23.6123   5  11   0.6808   0.6604   2.6313  -0.3681   0.9783  -0.9911   0.00    0.0
2018/11/13 00:17:15.000  -74.525931246  163.457846748    23.8114   5  11   0.6816   0.6610   2.6335  -0.3686   0.9789  -0.9924   0.00    0.0
2018/11/13 00:17:30.000  -74.525930816  163.457837508    23.0300   5  11   0.6825   0.6616   2.6357  -0.3691   0.9795  -0.9937   0.00    0.0
2018/11/13 00:17:45.000  -74.525932962  163.457839706    24.4949   5  11   0.6821   0.6606   2.6324  -0.3686   0.9777  -0.9931   0.00    0.0
2018/11/13 00:18:00.000  -74.525929424  163.457840814    23.3183   5  11   0.6818   0.6596   2.6291  -0.3681   0.9759  -0.9926   0.00    0.0
2018/11/13 00:18:15.000  -74.525930627  163.457840373    23.8042   5  11   0.6815   0.6587   2.6259  -0.3676   0.9741  -0.9921   0.00    0.0
2018/11/13 00:18:30.000  -74.525931640  163.457845315    24.2499   5  11   0.6813   0.6579   2.6228  -0.3672   0.9724  -0.9916   0.00    0.0
2018/11/13 00:18:45.000  -74.525930502  163.457841527    23.4268   5  11   0.6811   0.6571   2.6198  -0.3668   0.9707  -0.9911   0.00    0.0
2018/11/13 00:19:00.000  -74.525931622  163.457842748    24.3417   5  11   0.6810   0.6564   2.6169  -0.3663   0.9690  -0.9907   0.00    0.0
2018/11/13 00:19:15.000  -74.525930298  163.457840156    23.2367   5  11   0.6809   0.6558   2.6141  -0.3659   0.9674  -0.9903   0.00    0.0
2018/11/13 00:19:30.000  -74.525930124  163.457846429    24.2898   5  11   0.6809   0.6552   2.6115  -0.3656   0.9658  -0.9899   0.00    0.0
2018/11/13 00:19:45.000  -74.525931869  163.457846818    24.0477   5  11   0.6810   0.6547   2.6089  -0.3652   0.9643  -0.9896   0.00    0.0
2018/11/13 00:20:00.000  -74.525929375  163.457840678    23.5101   5  11   0.6811   0.6542   2.6065  -0.3648   0.9627  -0.9893   0.00    0.0
2018/11/13 00:20:15.000  -74.525931604  163.457842165    23.4005   5  11   0.6812   0.6539   2.6043  -0.3645   0.9613  -0.9890   0.00    0.0
2018/11/13 00:20:30.000  -74.525930162  163.457845773    23.1188   5  11   0.6815   0.6536   2.6023  -0.3642   0.9599  -0.9888   0.00    0.0
2018/11/13 00:20:45.000  -74.525930323  163.457845295    24.2219   5  11   0.6818   0.6534   2.6004  -0.3640   0.9586  -0.9886   0.00    0.0
2018/11/13 00:21:00.000  -74.525930539  163.457843809    24.1304   5  11   0.6821   0.6533   2.5986  -0.3637   0.9573  -0.9885   0.00    0.0
2018/11/13 00:21:15.000  -74.525929967  163.457843477    24.0321   5  11   0.6825   0.6532   2.5969  -0.3634   0.9560  -0.9883   0.00    0.0
2018/11/13 00:21:30.000  -74.525931668  163.457834230    23.5928   5  11   0.6830   0.6531   2.5953  -0.3632   0.9547  -0.9882   0.00    0.0
2018/11/13 00:21:45.000  -74.525929321  163.457842840    24.4932   5  11   0.6835   0.6532   2.5938  -0.3630   0.9534  -0.9881   0.00    0.0
2018/11/13 00:22:00.000  -74.525929823  163.457845554    24.1932   5  11   0.6840   0.6532   2.5924  -0.3627   0.9522  -0.9881   0.00    0.0
2018/11/13 00:22:15.000  -74.525929457  163.457845263    23.4811   5  11   0.6847   0.6534   2.5912  -0.3625   0.9510  -0.9880   0.00    0.0
2018/11/13 00:22:30.000  -74.525931959  163.457844976    23.6026   5  11   0.6853   0.6536   2.5900  -0.3623   0.9498  -0.9880   0.00    0.0
2018/11/13 00:22:45.000  -74.525928754  163.457841364    23.9629   5  11   0.6847   0.6522   2.5834  -0.3612   0.9464  -0.9862   0.00    0.0
2018/11/13 00:23:00.000  -74.525930534  163.457834154    22.8210   5  11   0.6842   0.6510   2.5769  -0.3602   0.9431  -0.9845   0.00    0.0
2018/11/13 00:23:15.000  -74.525930254  163.457839762    23.5051   5  11   0.6838   0.6497   2.5706  -0.3591   0.9398  -0.9828   0.00    0.0
2018/11/13 00:23:30.000  -74.525929525  163.457836004    22.7263   5  11   0.6834   0.6486   2.5644  -0.3581   0.9365  -0.9812   0.00    0.0
2018/11/13 00:23:45.000  -74.525931725  163.457837122    23.4052   5  11   0.6830   0.6475   2.5583  -0.3571   0.9333  -0.9796   0.00    0.0
2018/11/13 00:24:00.000  -74.525932647  163.457846461    24.5335   5  11   0.6827   0.6465   2.5524  -0.3561   0.9301  -0.9780   0.00    0.0
2018/11/13 00:24:15.000  -74.525929242  163.457835246    22.6361   5  11   0.6825   0.6455   2.5466  -0.3551   0.9269  -0.9765   0.00    0.0
2018/11/13 00:24:30.000  -74.525927867  163.457835343    23.3164   5  11   0.6823   0.6446   2.5410  -0.3541   0.9239  -0.9750   0.00    0.0
2018/11/13 00:24:45.000  -74.525929639  163.457838604    23.2868   5  11   0.6822   0.6438   2.5355  -0.3532   0.9208  -0.9735   0.00    0.0
2018/11/13 00:25:00.000  -74.525931173  163.457835789    23.6895   5  11   0.6821   0.6430   2.5302  -0.3522   0.9178  -0.9721   0.00    0.0
2018/11/13 00:25:15.000  -74.525931105  163.457834426    23.2503   5  11   0.6821   0.6424   2.5252  -0.3513   0.9149  -0.9707   0.00    0.0
2018/11/13 00:25:30.000  -74.525932053  163.457844331    24.0767   5  11   0.6822   0.6418   2.5203  -0.3505   0.9120  -0.9694   0.00    0.0
2018/11/13 00:25:45.000  -74.525927402  163.457836916    21.0407   5  10   0.9324   0.6744   3.5887  -0.5049   1.1666  -1.6011   0.00    0.0
2018/11/13 00:26:00.000  -74.525927051  163.457842492    22.5484   5  10   0.9322   0.6737   3.5830  -0.5035   1.1629  -1.5994   0.00    0.0
2018/11/13 00:26:15.000  -74.525925236  163.457839617    22.0416   5  10   0.9322   0.6730   3.5773  -0.5022   1.1592  -1.5976   0.00    0.0
2018/11/13 00:26:30.000  -74.525925975  163.457836832    21.6376   5  10   0.9321   0.6723   3.5717  -0.5008   1.1556  -1.5959   0.00    0.0
2018/11/13 00:26:45.000  -74.525925159  163.457845444    21.2709   5  10   0.9322   0.6717   3.5662  -0.4995   1.1519  -1.5942   0.00    0.0
2018/11/13 00:27:00.000  -74.525925244  163.457829970    20.9673   5  10   0.9323   0.6712   3.5609  -0.4981   1.1482  -1.5926   0.00    0.0
2018/11/13 00:27:15.000  -74.525928809  163.457835948    23.5055   5  10   0.9324   0.6707   3.5556  -0.4968   1.1445  -1.5910   0.00    0.0
2018/11/13 00:27:30.000  -74.525925547  163.457832175    21.1724   5  10   0.9326   0.6703   3.5505  -0.4954   1.1409  -1.5895   0.00    0.0
2018/11/13 00:27:45.000  -74.525924677  163.457839352    21.2884   5  10   0.9305   0.6682   3.5354  -0.4925   1.1339  -1.5835   0.00    0.0
2018/11/13 00:28:00.000  -74.525922948  163.457834133    19.8342   5  10   0.9284   0.6662   3.5203  -0.4897   1.1270  -1.5775   0.00    0.0
2018/11/13 00:28:15.000  -74.525926832  163.457835581    21.5559   5  10   0.9264   0.6642   3.5054  -0.4868   1.1201  -1.5716   0.00    0.0
2018/11/13 00:28:30.000  -74.525925928  163.457835555    21.3342   5  10   0.9245   0.6624   3.4906  -0.4840   1.1132  -1.5658   0.00    0.0
2018/11/13 00:28:45.000  -74.525926360  163.457844209    21.7399   5  10   0.9226   0.6606   3.4761  -0.4811   1.1064  -1.5601   0.00    0.0
2018/11/13 00:29:00.000  -74.525927198  163.457841443    21.4577   5  10   0.9208   0.6589   3.4618  -0.4783   1.0997  -1.5544   0.00    0.0
2018/11/13 00:29:15.000  -74.525927857  163.457845755    21.6427   5  10   0.9191   0.6572   3.4477  -0.4756   1.0930  -1.5489   0.00    0.0
2018/11/13 00:29:30.000  -74.525929413  163.457841217    22.3020   5  10   0.9175   0.6556   3.4339  -0.4728   1.0864  -1.5434   0.00    0.0
2018/11/13 00:29:45.000  -74.525925797  163.457841318    22.0663   5  10   0.9159   0.6541   3.4204  -0.4701   1.0798  -1.5380   0.00    0.0
2018/11/13 00:30:00.000  -74.525926327  163.457837812    20.3079   5   9   0.9185   0.6528   3.6617  -0.4664   1.0668  -1.5701   0.00    0.0
2018/11/13 00:30:15.000  -74.525924684  163.457833636    20.5801   5   9   0.9172   0.6515   3.6509  -0.4637   1.0604  -1.5657   0.00    0.0
2018/11/13 00:30:30.000  -74.525926771  163.457839507    21.5046   5   9   0.9160   0.6502   3.6404  -0.4611   1.0540  -1.5613   0.00    0.0
2018/11/13 00:30:45.000  -74.525927317  163.457838199    21.8583   5   9   0.9149   0.6491   3.6301  -0.4584   1.0476  -1.5571   0.00    0.0
2018/11/13 00:31:00.000  -74.525925064  163.457834653    20.1824   5   9   0.9139   0.6480   3.6202  -0.4558   1.0413  -1.5530   0.00    0.0
2018/11/13 00:31:15.000  -74.525926768  163.457834823    20.9923   5   9   0.9130   0.6470   3.6105  -0.4532   1.0350  -1.5490   0.00    0.0
2018/11/13 00:31:30.000  -74.525927256  163.457841405    22.4518   5   9   0.9121   0.6461   3.6012  -0.4507   1.0287  -1.5451   0.00    0.0
2018/11/13 00:31:45.000  -74.525929863  163.457846875    23.0233   5   9   0.9113   0.6452   3.5922  -0.4481   1.0225  -1.5413   0.00    0.0
2018/11/13 00:32:00.000  -74.525930732  163.457854920    23.1794   5   9   0.9106   0.6444   3.5835  -0.4456   1.0163  -1.5376   0.00    0.0
2018/11/13 00:32:15.000  -74.525929837  163.457839239    23.3362   5   9   0.9100   0.6437   3.5752  -0.4430   1.0102  -1.5340   0.00    0.0
2018/11/13 00:32:30.000  -74.525928712  163.457845259    23.1116   5   9   0.9094   0.6431   3.5672  -0.4405   1.0041  -1.5306   0.00    0.0
2018/11/13 00:32:45.000  -74.525931100  163.457850364    23.7582   5  10   0.7469   0.6371   2.6889  -0.3934   0.9102  -1.0625   0.00    0.0
2018/11/13 00:33:00.000  -74.525927440  163.457836066    21.8753   5  10   0.7460   0.6354   2.6812  -0.3917   0.9053  -1.0598   0.00    0.0
2018/11/13 00:33:15.000  -74.525929724  163.457842278    23.1470   5  10   0.7451   0.6338   2.6736  -0.3899   0.9006  -1.0572   0.00    0.0
2018/11/13 00:33:30.000  -74.525929772  163.457844834    23.2349   5  10   0.7443   0.6322   2.6663  -0.3883   0.8959  -1.0546   0.00    0.0
2018/11/13 00:33:45.000  -74.525926863  163.457842928    22.4436   5  10   0.7435   0.6307   2.6592  -0.3866   0.8912  -1.0520   0.00    0.0
2018/11/13 00:34:00.000  -74.525931101  163.457838266    22.4269   5  10   0.7429   0.6293   2.6522  -0.3850   0.8866  -1.0496   0.00    0.0
2018/11/13 00:34:15.000  -74.525931722  163.457850305    23.2786   5  10   0.7422   0.6280   2.6456  -0.3833   0.8821  -1.0471   0.00    0.0
2018/11/13 00:34:30.000  -74.525925987  163.457837423    22.7195   5  10   0.7417   0.6267   2.6391  -0.3818   0.8776  -1.0448   0.00    0.0
2018/11/13 00:34:45.000  -74.525931372  163.457850976    24.6758   5  10   0.7412   0.6255   2.6329  -0.3802   0.8731  -1.0425   0.00    0.0
2018/11/13 00:35:00.000  -74.525930933  163.457850001    23.9681   5  10   0.7408   0.6244   2.6269  -0.3787   0.8688  -1.0403   0.00    0.0
2018/11/13 00:35:15.000  -74.525930070  163.457846728    22.8097   5  10   0.7405   0.6234   2.6214  -0.3773   0.8645  -1.0382   0.00    0.0
2018/11/13 00:35:30.000  -74.525928974  163.457843599    23.0512   5  10   0.7402   0.6225   2.6162  -0.3759   0.8603  -1.0362   0.00    0.0
2018/11/13 00:35:45.000  -74.525932270  163.457851338    22.7911   5  10   0.7401   0.6216   2.6112  -0.3745   0.8562  -1.0343   0.00    0.0
2018/11/13 00:36:00.000  -74.525932027  163.457855316    23.6305   5  10   0.7399   0.6208   2.6065  -0.3731   0.8521  -1.0324   0.00    0.0
2018/11/13 00:36:15.000  -74.525930290  163.457849864    23.7798   5  10   0.7399   0.6201   2.6020  -0.3718   0.8481  -1.0306   0.00    0.0
2018/11/13 00:36:30.000  -74.525932654  163.457844661    23.3532   5  10   0.7399   0.6195   2.5979  -0.3705   0.8441  -1.0289   0.00    0.0
2018/11/13 00:36:45.000  -74.525931290  163.457847304    23.6744   5  10   0.7400   0.6189   2.5940  -0.3692   0.8402  -1.0273   0.00    0.0
2018/11/13 00:37:00.000  -74.525933049  163.457850636    24.4245   5  10   0.7402   0.6184   2.5904  -0.3680   0.8363  -1.0257   0.00    0.0
2018/11/13 00:37:15.000  -74.525932807  163.457850068    23.7873   5  10   0.7404   0.6180   2.5871  -0.3668   0.8325  -1.0243   0.00    0.0
2018/11/13 00:37:30.000  -74.525932675  163.457846898    24.1164   5  10   0.7407   0.6176   2.5841  -0.3656   0.8288  -1.0229   0.00    0.0
2018/11/13 00:37:45.000  -74.525931143  163.457841836    24.0829   5  10   0.7396   0.6159   2.5743  -0.3635   0.8230  -1.0193   0.00    0.0
2018/11/13 00:38:00.000  -74.525932244  163.457853649    22.7764   5  10   0.7386   0.6142   2.5647  -0.3614   0.8173  -1.0159   0.00    0.0
2018/11/13 00:38:15.000  -74.525932271  163.457850250    23.8356   5  10   0.7376   0.6126   2.5554  -0.3594   0.8116  -1.0126   0.00    0.0
2018/11/13 00:38:30.000  -74.525932783  163.457850323    23.9679   5  10   0.7367   0.6111   2.5463  -0.3574   0.8061  -1.0093   0.00    0.0
2018/11/13 00:38:45.000  -74.525935117  163.457854044    24.5941   5  10   0.7359   0.6096   2.5376  -0.3555   0.8006  -1.0061   0.00    0.0
2018/11/13 00:39:00.000  -74.525931109  163.457850806    23.5051   5  10   0.7352   0.6083   2.5292  -0.3536   0.7951  -1.0030   0.00    0.0
2018/11/13 00:39:15.000  -74.525931830  163.457848733    23.8759   5  10   0.7345   0.6070   2.5211  -0.3517   0.7898  -1.0000   0.00    0.0
2018/11/13 00:39:30.000  -74.525931998  163.457854950    24.0033   5  10   0.7339   0.6058   2.5133  -0.3499   0.7845  -0.9971   0.00    0.0
2018/11/13 00:39:45.000  -74.525932200  163.457847751    23.6065   5  10   0.7334   0.6047   2.5058  -0.3481   0.7793  -0.9943   0.00    0.0
2018/11/13 00:40:00.000  -74.525931144  163.457845222    22.9417   5  10   0.7329   0.6036   2.4986  -0.3463   0.7742  -0.9916   0.00    0.0
2018/11/13 00:40:15.000  -74.525934114  163.457850940    24.4076   5  10   0.7326   0.6027   2.4920  -0.3446   0.7692  -0.9890   0.00    0.0
2018/11/13 00:40:30.000  -74.525932796  163.457851434    23.9351   5  10   0.7323   0.6018   2.4857  -0.3430   0.7643  -0.9865   0.00    0.0
2018/11/13 00:40:45.000  -74.525931053  163.457847785    23.4290   5  10   0.7321   0.6011   2.4798  -0.3413   0.7594  -0.9841   0.00    0.0
2018/11/13 00:41:00.000  -74.525932949  163.457853145    23.9992   5  10   0.7319   0.6004   2.4742  -0.3397   0.7546  -0.9818   0.00    0.0
2018/11/13 00:41:15.000  -74.525933389  163.457855519    24.5294   5  10   0.7318   0.5997   2.4689  -0.3382   0.7498  -0.9796   0.00    0.0
2018/11/13 00:41:30.000  -74.525934266  163.457856086    23.9656   5  10   0.7318   0.5992   2.4640  -0.3367   0.7452  -0.9775   0.00    0.0
2018/11/13 00:41:45.000  -74.525933206  163.457847082    23.9608   5  10   0.7319   0.5987   2.4594  -0.3352   0.7405  -0.9755   0.00    0.0
2018/11/13 00:42:00.000  -74.525932400  163.457843156    23.6701   5  10   0.7321   0.5983   2.4552  -0.3337   0.7360  -0.9736   0.00    0.0
2018/11/13 00:42:15.000  -74.525931959  163.457849426    23.8261   5  10   0.7323   0.5980   2.4513  -0.3323   0.7315  -0.9718   0.00    0.0
2018/11/13 00:42:30.000  -74.525933641  163.457852462    24.7221   5  10   0.7326   0.5977   2.4477  -0.3309   0.7271  -0.9701   0.00    0.0
2018/11/13 00:42:45.000  -74.525932866  163.457855672    23.4462   5  10   0.7315   0.5962   2.4374  -0.3287   0.7208  -0.9664   0.00    0.0
2018/11/13 00:43:00.000  -74.525932543  163.457849623    23.6902   5  10   0.7305   0.5947   2.4272  -0.3265   0.7147  -0.9627   0.00    0.0
2018/11/13 00:43:15.000  -74.525932822  163.457855092    24.0967   5  10   0.7296   0.5933   2.4174  -0.3244   0.7087  -0.9591   0.00    0.0
2018/11/13 00:43:30.000  -74.525930851  163.457847381    23.5930   5  10   0.7287   0.5920   2.4080  -0.3223   0.7027  -0.9557   0.00    0.0
2018/11/13 00:43:45.000  -74.525931110  163.457852988    24.6013   5  10   0.7280   0.5907   2.3988  -0.3202   0.6968  -0.9523   0.00    0.0
2018/11/13 00:44:00.000  -74.525933547  163.457852099    24.3032   5  10   0.7273   0.5896   2.3901  -0.3182   0.6910  -0.9491   0.00    0.0
2018/11/13 00:44:15.000  -74.525933190  163.457846734    23.9976   5  10   0.7266   0.5885   2.3817  -0.3163   0.6852  -0.9459   0.00    0.0
2018/11/13 00:44:30.000  -74.525934997  163.457853657    24.7888   5  10   0.7261   0.5875   2.3737  -0.3143   0.6796  -0.9429   0.00    0.0
2018/11/13 00:44:45.000  -74.525931921  163.457845768    23.9845   5  10   0.7256   0.5866   2.3661  -0.3124   0.6740  -0.9400   0.00    0.0
2018/11/13 00:45:00.000  -74.525934138  163.457851495    24.5542   5  10   0.7252   0.5857   2.3588  -0.3106   0.6685  -0.9371   0.00    0.0
2018/11/13 00:45:15.000  -74.525932226  163.457846764    23.9927   5  10   0.7249   0.5850   2.3522  -0.3088   0.6630  -0.9345   0.00    0.0
2018/11/13 00:45:30.000  -74.525932476  163.457842008    23.4835   5  10   0.7247   0.5843   2.3459  -0.3070   0.6577  -0.9319   0.00    0.0
2018/11/13 00:45:45.000  -74.525933128  163.457853704    24.3733   5  10   0.7245   0.5838   2.3400  -0.3053   0.6524  -0.9295   0.00    0.0
2018/11/13 00:46:00.000  -74.525932394  163.457843166    25.0810   5  10   0.7244   0.5833   2.3345  -0.3036   0.6472  -0.9272   0.00    0.0
2018/11/13 00:46:15.000  -74.525931475  163.457843093    24.4650   5  10   0.7244   0.5828   2.3293  -0.3020   0.6420  -0.9249   0.00    0.0
2018/11/13 00:46:30.000  -74.525932943  163.457851318    24.3938   5  10   0.7245   0.5825   2.3246  -0.3003   0.6368  -0.9228   0.00    0.0
2018/11/13 00:46:45.000  -74.525932739  163.457844099    24.5002   5  10   0.7246   0.5822   2.3202  -0.2987   0.6318  -0.9208   0.00    0.0
2018/11/13 00:47:00.000  -74.525928206  163.457851804    22.9714   5  10   0.7248   0.5820   2.3161  -0.2972   0.6267  -0.9188   0.00    0.0
2018/11/13 00:47:15.000  -74.525932676  163.457848192    24.1975   5  10   0.7251   0.5819   2.3125  -0.2957   0.6217  -0.9170   0.00    0.0
2018/11/13 00:47:30.000  -74.525933620  163.457848435    23.8687   5  10   0.7254   0.5818   2.3092  -0.2942   0.6168  -0.9153   0.00    0.0
2018/11/13 00:47:45.000  -74.525933010  163.457850815    24.3178   5  10   0.7245   0.5806   2.2990  -0.2919   0.6104  -0.9117   0.00    0.0
2018/11/13 00:48:00.000  -74.525934064  163.457854167    23.5767   5  10   0.7236   0.5793   2.2892  -0.2898   0.6041  -0.9081   0.00    0.0
2018/11/13 00:48:15.000  -74.525934169  163.457855852    24.9642   5  10   0.7228   0.5782   2.2798  -0.2877   0.5979  -0.9047   0.00    0.0
2018/11/13 00:48:30.000  -74.525932247  163.457852979    23.7270   5  10   0.7221   0.5771   2.2708  -0.2856   0.5917  -0.9014   0.00    0.0
2018/11/13 00:48:45.000  -74.525934365  163.457855611    24.7117   5  10   0.7214   0.5762   2.2622  -0.2835   0.5856  -0.8982   0.00    0.0
2018/11/13 00:49:00.000  -74.525930832  163.457851642    24.3108   5  10   0.7208   0.5753   2.2540  -0.2815   0.5795  -0.8951   0.00    0.0
2018/11/13 00:49:15.000  -74.525934158  163.457854322    24.5478   5  10   0.7203   0.5744   2.2462  -0.2795   0.5735  -0.8921   0.00    0.0
2018/11/13 00:49:30.000  -74.525931555  163.457856038    22.6237   5  10   0.7198   0.5737   2.2387  -0.2776   0.5676  -0.8893   0.00    0.0
2018/11/13 00:49:45.000  -74.525934116  163.457850555    25.0549   5  10   0.7195   0.5730   2.2317  -0.2757   0.5617  -0.8865   0.00    0.0
2018/11/13 00:50:00.000  -74.525934098  163.457855092    23.7831   5  10   0.7192   0.5724   2.2250  -0.2738   0.5559  -0.8839   0.00    0.0
2018/11/13 00:50:15.000  -74.525931693  163.457852970    23.7082   5  10   0.7190   0.5719   2.2190  -0.2720   0.5501  -0.8814   0.00    0.0
2018/11/13 00:50:30.000  -74.525934587  163.457858468    24.3575   5  10   0.7189   0.5715   2.2134  -0.2702   0.5444  -0.8791   0.00    0.0
2018/11/13 00:50:45.000  -74.525934013  163.457855472    24.6799   5  10   0.7188   0.5712   2.2081  -0.2685   0.5387  -0.8768   0.00    0.0
2018/11/13 00:51:00.000  -74.525930708  163.457850678    23.7631   5  10   0.7188   0.5709   2.2032  -0.2667   0.5330  -0.8746   0.00    0.0
2018/11/13 00:51:15.000  -74.525933939  163.457857144    24.4809   5  10   0.7189   0.5708   2.1987  -0.2650   0.5274  -0.8726   0.00    0.0
2018/11/13 00:51:30.000  -74.525934144  163.457850704    23.5358   5  10   0.7191   0.5707   2.1946  -0.2634   0.5218  -0.8706   0.00    0.0
2018/11/13 00:51:45.000  -74.525933438  163.457850783    24.8895   5  10   0.7193   0.5706   2.1909  -0.2617   0.5162  -0.8688   0.00    0.0
2018/11/13 00:52:00.000  -74.525931816  163.457852371    24.6467   5  10   0.7197   0.5707   2.1875  -0.2601   0.5106  -0.8671   0.00    0.0
2018/11/13 00:52:15.000  -74.525932862  163.457853685    24.6025   5  10   0.7200   0.5708   2.1845  -0.2585   0.5050  -0.8654   0.00    0.0
2018/11/13 00:52:30.000  -74.525932334  163.457859889    24.0191   5  10   0.7205   0.5710   2.1819  -0.2569   0.4995  -0.8639   0.00    0.0
2018/11/13 00:52:45.000  -74.525933149  163.457851732    24.1033   5  10   0.7197   0.5700   2.1728  -0.2548   0.4929  -0.8606   0.00    0.0
2018/11/13 00:53:00.000  -74.525931764  163.457852060    24.6618   5  10   0.7189   0.5691   2.1639  -0.2527   0.4863  -0.8574   0.00    0.0
2018/11/13 00:53:15.000  -74.525932909  163.457854857    25.0387   5  10   0.7183   0.5682   2.1555  -0.2506   0.4798  -0.8543   0.00    0.0
2018/11/13 00:53:30.000  -74.525931532  163.457849187    23.4819   5  10   0.7177   0.5674   2.1474  -0.2485   0.4733  -0.8513   0.00    0.0
2018/11/13 00:53:45.000  -74.525933960  163.457860565    24.4259   5  11   0.6191   0.5498   1.7987  -0.1053   0.2425  -0.5482   0.00    0.0
2018/11/13 00:54:00.000  -74.525933129  163.457856454    24.7697   5  11   0.6189   0.5495   1.7954  -0.1030   0.2353  -0.5473   0.00    0.0
2018/11/13 00:54:15.000  -74.525936552  163.457852964    24.8036   5  11   0.6188   0.5492   1.7924  -0.1007   0.2279  -0.5464   0.00    0.0
2018/11/13 00:54:30.000  -74.525934875  163.457849078    24.6402   5  11   0.6187   0.5490   1.7897  -0.0984   0.2202  -0.5456   0.00    0.0
2018/11/13 00:54:45.000  -74.525933503  163.457865062    24.2982   5  11   0.6187   0.5488   1.7873  -0.0960   0.2122  -0.5448   0.00    0.0
2018/11/13 00:55:00.000  -74.525934413  163.457859344    24.5295   5  11   0.6187   0.5487   1.7852  -0.0936   0.2040  -0.5440   0.00    0.0
2018/11/13 00:55:15.000  -74.525935728  163.457846707    24.8753   5  11   0.6188   0.5488   1.7835  -0.0911   0.1953  -0.5433   0.00    0.0
2018/11/13 00:55:30.000  -74.525934388  163.457854958    25.3736   5  11   0.6189   0.5488   1.7822  -0.0886   0.1862  -0.5426   0.00    0.0
2018/11/13 00:55:45.000  -74.525934585  163.457856936    24.9508   5  11   0.6191   0.5490   1.7811  -0.0860   0.1766  -0.5420   0.00    0.0
2018/11/13 00:56:00.000  -74.525934648  163.457856732    24.1579   5  11   0.6194   0.5492   1.7804  -0.0833   0.1664  -0.5414   0.00    0.0
2018/11/13 00:56:15.000  -74.525934991  163.457855330    24.7334   5  11   0.6197   0.5495   1.7799  -0.0805   0.1554  -0.5408   0.00    0.0
2018/11/13 00:56:30.000  -74.525933476  163.457856828    24.4022   5  11   0.6201   0.5498   1.7798  -0.0777   0.1436  -0.5403   0.00    0.0
2018/11/13 00:56:45.000  -74.525932158  163.457855076    23.8560   5  11   0.6205   0.5503   1.7799  -0.0747   0.1306  -0.5399   0.00    0.0
2018/11/13 00:57:00.000  -74.525938053  163.457852236    24.3363   5  12   0.6136   0.5279   1.7113  -0.1420  -0.2523  -0.5813   0.00    0.0
2018/11/13 00:57:15.000  -74.525935500  163.457848909    24.4961   5  12   0.6139   0.5284   1.7131  -0.1409  -0.2585  -0.5811   0.00    0.0
2018/11/13 00:57:30.000  -74.525935597  163.457852506    24.5268   5  12   0.6144   0.5290   1.7151  -0.1399  -0.2647  -0.5809   0.00    0.0
2018/11/13 00:57:45.000  -74.525935129  163.457855098    25.1221   5  12   0.6139   0.5285   1.7122  -0.1386  -0.2690  -0.5799   0.00    0.0
2018/11/13 00:58:00.000  -74.525933113  163.457844905    24.5031   5  12   0.6134   0.5280   1.7095  -0.1372  -0.2734  -0.5791   0.00    0.0
2018/11/13 00:58:15.000  -74.525935016  163.457857738    24.1309   5  12   0.6130   0.5277   1.7072  -0.1359  -0.2777  -0.5782   0.00    0.0
2018/11/13 00:58:30.000  -74.525937818  163.457852635    24.8542   5  12   0.6127   0.5273   1.7050  -0.1346  -0.2820  -0.5774   0.00    0.0
2018/11/13 00:58:45.000  -74.525935065  163.457847101    25.1825   5  12   0.6124   0.5271   1.7032  -0.1333  -0.2863  -0.5767   0.00    0.0
2018/11/13 00:59:00.000  -74.525933610  163.457855254    23.6898   5  12   0.6122   0.5269   1.7016  -0.1319  -0.2906  -0.5760   0.00    0.0
2018/11/13 00:59:15.000  -74.525935963  163.457855692    24.4094   5  12   0.6120   0.5268   1.7003  -0.1306  -0.2950  -0.5753   0.00    0.0
2018/11/13 00:59:30.000  -74.525936402  163.457850769    24.6385   5  12   0.6118   0.5267   1.6993  -0.1294  -0.2993  -0.5747   0.00    0.0
2018/11/13 00:59:45.000  -74.525936873  163.457844841    24.5343   5  12   0.6117   0.5267   1.6985  -0.1281  -0.3037  -0.5742   0.00    0.0
2018/11/13 01:00:00.000  -74.525933747  163.457852537    24.3852   5  12   0.6117   0.5267   1.6980  -0.1268  -0.3081  -0.5736   0.00    0.0
2018/11/13 01:00:15.000  -74.525936063  163.457855061    24.5452   5  12   0.6117   0.5269   1.6980  -0.1255  -0.3125  -0.5732   0.00    0.0
2018/11/13 01:00:30.000  -74.525935285  163.457857724    24.1555   5  12   0.6118   0.5271   1.6983  -0.1243  -0.3170  -0.5727   0.00    0.0
2018/11/13 01:00:45.000  -74.525935860  163.457850610    24.6034   5  12   0.6120   0.5273   1.6988  -0.1230  -0.3215  -0.5724   0.00    0.0
2018/11/13 01:01:00.000  -74.525934588  163.457854873    24.4656   5  12   0.6121   0.5277   1.6996  -0.1217  -0.3260  -0.5720   0.00    0.0
2018/11/13 01:01:15.000  -74.525934990  163.457855683    24.5749   5  12   0.6124   0.5281   1.7007  -0.1205  -0.3306  -0.5717   0.00    0.0
2018/11/13 01:01:30.000  -74.525934814  163.457849676    24.5640   5  12   0.6127   0.5285   1.7021  -0.1193  -0.3352  -0.5715   0.00    0.0
2018/11/13 01:01:45.000  -74.525934169  163.457853478    24.6552   5  12   0.6130   0.5290   1.7038  -0.1180  -0.3398  -0.5713   0.00    0.0
2018/11/13 01:02:00.000  -74.525936034  163.457844442    25.1267   5  12   0.6134   0.5296   1.7058  -0.1168  -0.3444  -0.5711   0.00    0.0
2018/11/13 01:02:15.000  -74.525935847  163.457848262    23.9244   5  12   0.6138   0.5302   1.7080  -0.1155  -0.3491  -0.5710   0.00    0.0
2018/11/13 01:02:30.000  -74.525935638  163.457844194    24.5416   5  12   0.6143   0.5309   1.7105  -0.1143  -0.3537  -0.5710   0.00    0.0
2018/11/13 01:02:45.000  -74.525934902  163.457846359    24.6343   5  12   0.6139   0.5305   1.7079  -0.1127  -0.3568  -0.5702   0.00    0.0
2018/11/13 01:03:00.000  -74.525933534  163.457856001    25.2591   5  12   0.6135   0.5302   1.7056  -0.1111  -0.3599  -0.5695   0.00    0.0
2018/11/13 01:03:15.000  -74.525936214  163.457846312    24.5643   5  12   0.6132   0.5299   1.7036  -0.1096  -0.3630  -0.5688   0.00    0.0
2018/11/13 01:03:30.000  -74.525935076  163.457855620    23.9751   5  12   0.6129   0.5297   1.7018  -0.1080  -0.3662  -0.5681   0.00    0.0
2018/11/13 01:03:45.000  -74.525934060  163.457849087    25.2323   5  12   0.6126   0.5296   1.7004  -0.1064  -0.3694  -0.5675   0.00    0.0
2018/11/13 01:04:00.000  -74.525936289  163.457849411    24.8934   5  12   0.6125   0.5295   1.6992  -0.1048  -0.3727  -0.5670   0.00    0.0
2018/11/13 01:04:15.000  -74.525934801  163.457847877    24.6929   5  12   0.6123   0.5295   1.6983  -0.1032  -0.3760  -0.5665   0.00    0.0
2018/11/13 01:04:30.000  -74.525934441  163.457852520    25.1626   5  12   0.6122   0.5295   1.6976  -0.1016  -0.3794  -0.5660   0.00    0.0
2018/11/13 01:04:45.000  -74.525935405  163.457848056    25.1730   5  12   0.6122   0.5296   1.6973  -0.1000  -0.3828  -0.5656   0.00    0.0
2018/11/13 01:05:00.000  -74.525935688  163.457855284    24.9537   5  12   0.6122   0.5298   1.6973  -0.0984  -0.3862  -0.5652   0.00    0.0
2018/11/13 01:05:15.000  -74.525936266  163.457846165    25.3235   5  12   0.6123   0.5300   1.6976  -0.0968  -0.3898  -0.5649   0.00    0.0
2018/11/13 01:05:30.000  -74.525937307  163.457847847    24.9277   5  12   0.6125   0.5303   1.6983  -0.0952  -0.3934  -0.5647   0.00    0.0
2018/11/13 01:05:45.000  -74.525934422  163.457848516    24.7283   5  12   0.6126   0.5307   1.6993  -0.0935  -0.3970  -0.5644   0.00    0.0
2018/11/13 01:06:00.000  -74.525935753  163.457854018    24.5024   5  12   0.6129   0.5311   1.7006  -0.0919  -0.4007  -0.5643   0.00    0.0
2018/11/13 01:06:15.000  -74.525935112  163.457858792    24.5641   5  12   0.6132   0.5316   1.7021  -0.0902  -0.4045  -0.5641   0.00    0.0
2018/11/13 01:06:30.000  -74.525936934  163.457854766    24.7149   5  12   0.6135   0.5322   1.7040  -0.0886  -0.4083  -0.5640   0.00    0.0
2018/11/13 01:06:45.000  -74.525935592  163.457846951    25.3161   5  12   0.6139   0.5328   1.7061  -0.0869  -0.4121  -0.5640   0.00    0.0
2018/11/13 01:07:00.000  -74.525938340  163.457849265    25.5567   5  12   0.6143   0.5335   1.7085  -0.0852  -0.4160  -0.5640   0.00    0.0
2018/11/13 01:07:15.000  -74.525934875  163.457853258    25.0522   5  12   0.6148   0.5342   1.7112  -0.0835  -0.4200  -0.5641   0.00    0.0
2018/11/13 01:07:30.000  -74.525936055  163.457848653    25.1969   5  12   0.6154   0.5350   1.7142  -0.0818  -0.4240  -0.5641   0.00    0.0
2018/11/13 01:07:45.000  -74.525933851  163.457845298    25.4288   5  12   0.6150   0.5347   1.7120  -0.0796  -0.4264  -0.5635   0.00    0.0
2018/11/13 01:08:00.000  -74.525934935  163.457846345    24.9223   5  12   0.6147   0.5345   1.7101  -0.0774  -0.4289  -0.5630   0.00    0.0
2018/11/13 01:08:15.000  -74.525934886  163.457854838    24.4550   5  12   0.6144   0.5343   1.7085  -0.0752  -0.4314  -0.5624   0.00    0.0
2018/11/13 01:08:30.000  -74.525933941  163.457849700    24.7769   5  12   0.6142   0.5342   1.7071  -0.0729  -0.4340  -0.5620   0.00    0.0
2018/11/13 01:08:45.000  -74.525936182  163.457852383    24.9036   5  12   0.6140   0.5342   1.7060  -0.0706  -0.4366  -0.5615   0.00    0.0
2018/11/13 01:09:00.000  -74.525933745  163.457854765    25.0472   5  12   0.6139   0.5342   1.7053  -0.0682  -0.4393  -0.5611   0.00    0.0
2018/11/13 01:09:15.000  -74.525934844  163.457856076    24.5856   5  12   0.6138   0.5342   1.7048  -0.0658  -0.4421  -0.5608   0.00    0.0
2018/11/13 01:09:30.000  -74.525936175  163.457851020    23.9680   5  12   0.6138   0.5344   1.7045  -0.0633  -0.4449  -0.5605   0.00    0.0
2018/11/13 01:09:45.000  -74.525934055  163.457849913    24.5787   5  12   0.6138   0.5346   1.7046  -0.0607  -0.4478  -0.5603   0.00    0.0
2018/11/13 01:10:00.000  -74.525935197  163.457849883    25.4347   5  12   0.6138   0.5348   1.7050  -0.0580  -0.4507  -0.5601   0.00    0.0
2018/11/13 01:10:15.000  -74.525935170  163.457851046    24.5359   5  12   0.6140   0.5352   1.7058  -0.0553  -0.4537  -0.5599   0.00    0.0
2018/11/13 01:10:30.000  -74.525934859  163.457852970    24.9381   5  12   0.6142   0.5356   1.7069  -0.0524  -0.4568  -0.5598   0.00    0.0
2018/11/13 01:10:45.000  -74.525935669  163.457857482    24.6463   5  12   0.6144   0.5360   1.7083  -0.0494  -0.4600  -0.5598   0.00    0.0
2018/11/13 01:11:00.000  -74.525934785  163.457856538    24.0246   5  12   0.6147   0.5366   1.7100  -0.0462  -0.4632  -0.5597   0.00    0.0
2018/11/13 01:11:15.000  -74.525937312  163.457851508    25.3601   5  12   0.6151   0.5371   1.7119  -0.0428  -0.4665  -0.5598   0.00    0.0
2018/11/13 01:11:30.000  -74.525937424  163.457845961    25.0544   5  12   0.6155   0.5378   1.7142  -0.0392  -0.4699  -0.5599   0.00    0.0
2018/11/13 01:11:45.000  -74.525935443  163.457851444    25.4263   5  12   0.6159   0.5385   1.7167  -0.0351  -0.4733  -0.5600   0.00    0.0
2018/11/13 01:12:00.000  -74.525936775  163.457856277    24.5329   5  12   0.6164   0.5393   1.7195  -0.0307  -0.4767  -0.5602   0.00    0.0
2018/11/13 01:12:15.000  -74.525936457  163.457851583    24.6981   5  12   0.6169   0.5401   1.7226  -0.0254  -0.4802  -0.5604   0.00    0.0
2018/11/13 01:12:30.000  -74.525937154  163.457851264    25.0404   5  12   0.6175   0.5410   1.7260  -0.0188  -0.4838  -0.5606   0.00    0.0
2018/11/13 01:12:45.000  -74.525937055  163.457852502    25.3416   5  12   0.6172   0.5408   1.7242  -0.0034  -0.4858  -0.5602   0.00    0.0
2018/11/13 01:13:00.000  -74.525935327  163.457852343    24.9693   5  12   0.6169   0.5406   1.7226   0.0181  -0.4879  -0.5598   0.00    0.0
2018/11/13 01:13:15.000  -74.525934062  163.457855946    23.9977   5  12   0.6167   0.5405   1.7214   0.0257  -0.4900  -0.5595   0.00    0.0
2018/11/13 01:13:30.000  -74.525936355  163.457845760    25.0087   5  12   0.6166   0.5405   1.7205   0.0315  -0.4922  -0.5592   0.00    0.0
2018/11/13 01:13:45.000  -74.525936675  163.457850387    25.2359   5  12   0.6164   0.5405   1.7198   0.0364  -0.4945  -0.5589   0.00    0.0
2018/11/13 01:14:00.000  -74.525936581  163.457857497    25.5863   5  12   0.6164   0.5406   1.7194   0.0406  -0.4968  -0.5587   0.00    0.0
2018/11/13 01:14:15.000  -74.525935907  163.457854118    24.9438   5  12   0.6163   0.5408   1.7193   0.0445  -0.4992  -0.5585   0.00    0.0
2018/11/13 01:14:30.000  -74.525934368  163.457856275    24.5018   5  12   0.6164   0.5410   1.7195   0.0480  -0.5017  -0.5584   0.00    0.0
2018/11/13 01:14:45.000  -74.525937671  163.457856392    25.0504   5  12   0.6164   0.5413   1.7199   0.0512  -0.5042  -0.5584   0.00    0.0
2018/11/13 01:15:00.000  -74.525935173  163.457854517    24.1476   5  12   0.6166   0.5416   1.7207   0.0542  -0.5067  -0.5583   0.00    0.0
2018/11/13 01:15:15.000  -74.525936091  163.457854830    25.2860   5  12   0.6168   0.5420   1.7219   0.0570  -0.5094  -0.5584   0.00    0.0
2018/11/13 01:15:30.000  -74.525935408  163.457859055    24.7164   5  12   0.6170   0.5425   1.7233   0.0597  -0.5122  -0.5584   0.00    0.0
2018/11/13 01:15:45.000  -74.525935448  163.457853363    25.1700   5  12   0.6173   0.5431   1.7251   0.0623  -0.5150  -0.5585   0.00    0.0
2018/11/13 01:16:00.000  -74.525934235  163.457858619    24.7701   5  12   0.6177   0.5437   1.7271   0.0647  -0.5179  -0.5587   0.00    0.0
2018/11/13 01:16:15.000  -74.525935274  163.457859147    24.4923   5  12   0.6181   0.5443   1.7294   0.0670  -0.5208  -0.5589   0.00    0.0
2018/11/13 01:16:30.000  -74.525935485  163.457857591    24.8589   5  12   0.6185   0.5450   1.7320   0.0693  -0.5238  -0.5592   0.00    0.0
2018/11/13 01:16:45.000  -74.525934025  163.457857998    24.5783   5  12   0.6190   0.5458   1.7348   0.0714  -0.5269  -0.5594   0.00    0.0
2018/11/13 01:17:00.000  -74.525937001  163.457856134    25.0098   5  12   0.6196   0.5466   1.7379   0.0735  -0.5300  -0.5598   0.00    0.0
2018/11/13 01:17:15.000  -74.525936416  163.457862457    24.0269   5  12   0.6202   0.5475   1.7413   0.0755  -0.5332  -0.5601   0.00    0.0
2018/11/13 01:17:30.000  -74.525935633  163.457855018    24.3436   5  12   0.6208   0.5485   1.7449   0.0775  -0.5365  -0.5606   0.00    0.0
2018/11/13 01:17:45.000  -74.525937108  163.457851138    25.6756   5  12   0.6206   0.5483   1.7435   0.0796  -0.5382  -0.5603   0.00    0.0
2018/11/13 01:18:00.000  -74.525935938  163.457845091    24.6596   5  12   0.6204   0.5483   1.7424   0.0817  -0.5399  -0.5601   0.00    0.0
2018/11/13 01:18:15.000  -74.525937127  163.457864898    23.8190   5  12   0.6202   0.5482   1.7415   0.0837  -0.5418  -0.5600   0.00    0.0
2018/11/13 01:18:30.000  -74.525936310  163.457853007    25.3687   5  12   0.6201   0.5483   1.7410   0.0857  -0.5437  -0.5599   0.00    0.0
2018/11/13 01:18:45.000  -74.525936793  163.457850018    24.9829   5  12   0.6200   0.5484   1.7406   0.0876  -0.5456  -0.5598   0.00    0.0
2018/11/13 01:19:00.000  -74.525936490  163.457855041    25.1110   5  12   0.6200   0.5485   1.7406   0.0895  -0.5477  -0.5598   0.00    0.0
2018/11/13 01:19:15.000  -74.525935322  163.457859545    25.3694   5  12   0.6200   0.5487   1.7408   0.0913  -0.5498  -0.5598   0.00    0.0
2018/11/13 01:19:30.000  -74.525936432  163.457854570    25.2332   5  12   0.6201   0.5490   1.7414   0.0931  -0.5519  -0.5599   0.00    0.0
2018/11/13 01:19:45.000  -74.525936713  163.457853292    24.7426   5  12   0.6202   0.5493   1.7421   0.0948  -0.5541  -0.5600   0.00    0.0
2018/11/13 01:20:00.000  -74.525935919  163.457852495    24.9932   5  12   0.6204   0.5497   1.7432   0.0965  -0.5564  -0.5601   0.00    0.0
2018/11/13 01:20:15.000  -74.525935821  163.457850920    25.4849   5  12   0.6206   0.5502   1.7447   0.0981  -0.5588  -0.5603   0.00    0.0
2018/11/13 01:20:30.000  -74.525936395  163.457856312    24.8073   5  12   0.6210   0.5507   1.7464   0.0997  -0.5613  -0.5606   0.00    0.0
2018/11/13 01:20:45.000  -74.525936972  163.457853475    24.5768   5  12   0.6213   0.5513   1.7484   0.1013  -0.5638  -0.5609   0.00    0.0
2018/11/13 01:21:00.000  -74.525936464  163.457851572    24.6620   5  12   0.6217   0.5520   1.7507   0.1028  -0.5664  -0.5612   0.00    0.0
2018/11/13 01:21:15.000  -74.525936357  163.457856046    24.8463   5  12   0.6222   0.5527   1.7532   0.1043  -0.5690  -0.5615   0.00    0.0
2018/11/13 01:21:30.000  -74.525936353  163.457857478    25.5524   5  12   0.6227   0.5534   1.7560   0.1058  -0.5717  -0.5620   0.00    0.0
2018/11/13 01:21:45.000  -74.525936907  163.457861472    24.6994   5  12   0.6233   0.5542   1.7590   0.1073  -0.5745  -0.5624   0.00    0.0
2018/11/13 01:22:00.000  -74.525935603  163.457859548    24.8726   5  12   0.6239   0.5551   1.7623   0.1087  -0.5773  -0.5629   0.00    0.0
2018/11/13 01:22:15.000  -74.525936924  163.457851802    25.6074   5  12   0.6246   0.5560   1.7658   0.1101  -0.5801  -0.5634   0.00    0.0
2018/11/13 01:22:30.000  -74.525934709  163.457856593    25.0238   5  12   0.6253   0.5570   1.7696   0.1115  -0.5831  -0.5640   0.00    0.0
2018/11/13 01:22:45.000  -74.525935006  163.457856359    24.9010   5  12   0.6251   0.5569   1.7685   0.1130  -0.5845  -0.5639   0.00    0.0
2018/11/13 01:23:00.000  -74.525936962  163.457852688    24.7770   5  12   0.6249   0.5569   1.7677   0.1145  -0.5860  -0.5639   0.00    0.0
2018/11/13 01:23:15.000  -74.525934102  163.457855560    24.7323   5  12   0.6248   0.5569   1.7672   0.1160  -0.5876  -0.5640   0.00    0.0
2018/11/13 01:23:30.000  -74.525936366  163.457850386    25.4622   5  12   0.6247   0.5570   1.7669   0.1174  -0.5893  -0.5640   0.00    0.0
2018/11/13 01:23:45.000  -74.525937355  163.457845936    25.1953   5  12   0.6247   0.5571   1.7669   0.1188  -0.5910  -0.5642   0.00    0.0
2018/11/13 01:24:00.000  -74.525935460  163.457852952    24.1999   5  12   0.6247   0.5573   1.7671   0.1202  -0.5927  -0.5643   0.00    0.0
2018/11/13 01:24:15.000  -74.525938527  163.457857332    25.3325   5  12   0.6248   0.5575   1.7676   0.1216  -0.5945  -0.5645   0.00    0.0
2018/11/13 01:24:30.000  -74.525934937  163.457851171    24.7585   5  12   0.6250   0.5578   1.7683   0.1230  -0.5964  -0.5648   0.00    0.0
2018/11/13 01:24:45.000  -74.525934922  163.457860306    24.3724   5  12   0.6251   0.5582   1.7693   0.1243  -0.5983  -0.5650   0.00    0.0
2018/11/13 01:25:00.000  -74.525938266  163.457854430    25.2169   5  12   0.6254   0.5586   1.7706   0.1256  -0.6003  -0.5654   0.00    0.0
2018/11/13 01:25:15.000  -74.525935672  163.457852234    25.1854   5  12   0.6257   0.5591   1.7722   0.1269  -0.6024  -0.5657   0.00    0.0
2018/11/13 01:25:30.000  -74.525935305  163.457851149    25.4177   5  12   0.6261   0.5597   1.7741   0.1281  -0.6046  -0.5661   0.00    0.0
2018/11/13 01:25:45.000  -74.525936883  163.457853871    25.4878   5  12   0.6265   0.5603   1.7763   0.1294  -0.6068  -0.5666   0.00    0.0
2018/11/13 01:26:00.000  -74.525935888  163.457850270    25.0190   5  12   0.6270   0.5609   1.7786   0.1306  -0.6091  -0.5671   0.00    0.0
2018/11/13 01:26:15.000  -74.525935569  163.457862463    24.0844   5  12   0.6275   0.5616   1.7812   0.1318  -0.6114  -0.5676   0.00    0.0
2018/11/13 01:26:30.000  -74.525933171  163.457858250    24.1688   5  12   0.6281   0.5624   1.7840   0.1330  -0.6138  -0.5681   0.00    0.0
2018/11/13 01:26:45.000  -74.525933546  163.457858920    24.0362   5  12   0.6287   0.5632   1.7871   0.1342  -0.6162  -0.5687   0.00    0.0
2018/11/13 01:27:00.000  -74.525936271  163.457859164    24.8797   5  12   0.6294   0.5641   1.7904   0.1354  -0.6186  -0.5693   0.00    0.0
2018/11/13 01:27:15.000  -74.525937324  163.457850979    24.6807   5  12   0.6301   0.5650   1.7938   0.1365  -0.6212  -0.5700   0.00    0.0
2018/11/13 01:27:30.000  -74.525933856  163.457849224    24.5881   5  12   0.6309   0.5660   1.7975   0.1376  -0.6237  -0.5707   0.00    0.0
2018/11/13 01:27:45.000  -74.525935740  163.457852286    24.6251   5  11   0.6622   0.5696   1.8341   0.1798  -0.6056  -0.5018   0.00    0.0
2018/11/13 01:28:00.000  -74.525937594  163.457854737    25.2403   5  11   0.6618   0.5696   1.8337   0.1805  -0.6069  -0.5020   0.00    0.0
2018/11/13 01:28:15.000  -74.525936070  163.457849091    24.5430   5  11   0.6616   0.5696   1.8336   0.1812  -0.6082  -0.5023   0.00    0.0
2018/11/13 01:28:30.000  -74.525937554  163.457852341    24.3594   5  11   0.6613   0.5696   1.8338   0.1819  -0.6097  -0.5027   0.00    0.0
2018/11/13 01:28:45.000  -74.525936898  163.457851489    25.1921   5  11   0.6612   0.5697   1.8342   0.1826  -0.6111  -0.5030   0.00    0.0
2018/11/13 01:29:00.000  -74.525937326  163.457845355    24.7502   5  11   0.6611   0.5699   1.8349   0.1832  -0.6126  -0.5034   0.00    0.0
2018/11/13 01:29:15.000  -74.525936933  163.457860427    24.7195   5  10   0.6725   0.6289   2.0886   0.0319  -0.8011  -0.3615   0.00    0.0
2018/11/13 01:29:30.000  -74.525937235  163.457861527    23.8743   5  10   0.6723   0.6294   2.0921   0.0377  -0.8035  -0.3624   0.00    0.0
2018/11/13 01:29:45.000  -74.525937748  163.457853119    24.9024   5  10   0.6723   0.6300   2.0958   0.0425  -0.8061  -0.3632   0.00    0.0
2018/11/13 01:30:00.000  -74.525934476  163.457862304    23.8691   5   9   0.7708   0.6818   2.6184   0.3161  -1.0293  -0.8500   0.00    0.0
2018/11/13 01:30:15.000  -74.525935836  163.457857540    23.5413   5   9   0.7711   0.6835   2.6296   0.3184  -1.0351  -0.8535   0.00    0.0
2018/11/13 01:30:30.000  -74.525934622  163.457860507    23.6263   5   9   0.7715   0.6852   2.6413   0.3207  -1.0411  -0.8571   0.00    0.0
2018/11/13 01:30:45.000  -74.525933810  163.457861927    22.8339   5   9   0.7720   0.6871   2.6535   0.3231  -1.0472  -0.8609   0.00    0.0
2018/11/13 01:31:00.000  -74.525933695  163.457870448    22.3015   5   9   0.7725   0.6890   2.6662   0.3255  -1.0535  -0.8647   0.00    0.0
2018/11/13 01:31:15.000  -74.525935967  163.457859794    22.7818   5   9   0.7731   0.6911   2.6793   0.3279  -1.0600  -0.8686   0.00    0.0
2018/11/13 01:31:30.000  -74.525936936  163.457857822    24.0413   5   9   0.7739   0.6932   2.6929   0.3303  -1.0667  -0.8727   0.00    0.0
2018/11/13 01:31:45.000  -74.525933626  163.457868149    22.5095   5   9   0.7746   0.6955   2.7070   0.3328  -1.0735  -0.8768   0.00    0.0
2018/11/13 01:32:00.000  -74.525935253  163.457864369    23.4016   5   9   0.7755   0.6978   2.7215   0.3353  -1.0805  -0.8810   0.00    0.0
2018/11/13 01:32:15.000  -74.525932914  163.457869123    22.8922   5   9   0.7765   0.7002   2.7365   0.3378  -1.0876  -0.8854   0.00    0.0
2018/11/13 01:32:30.000  -74.525934544  163.457863933    23.1420   5   9   0.7775   0.7027   2.7520   0.3403  -1.0950  -0.8898   0.00    0.0
2018/11/13 01:32:45.000  -74.525934478  163.457872014    22.4874   5   9   0.7771   0.7035   2.7589   0.3423  -1.0988  -0.8929   0.00    0.0
2018/11/13 01:33:00.000  -74.525935549  163.457868669    23.0543   5   9   0.7769   0.7043   2.7663   0.3443  -1.1028  -0.8960   0.00    0.0
2018/11/13 01:33:15.000  -74.525937312  163.457856799    23.6849   5   9   0.7767   0.7053   2.7741   0.3463  -1.1070  -0.8992   0.00    0.0
2018/11/13 01:33:30.000  -74.525934500  163.457871751    22.9309   5   9   0.7766   0.7063   2.7823   0.3484  -1.1113  -0.9025   0.00    0.0
2018/11/13 01:33:45.000  -74.525935570  163.457860530    22.8528   5   9   0.7766   0.7074   2.7910   0.3505  -1.1158  -0.9059   0.00    0.0
2018/11/13 01:34:00.000  -74.525934909  163.457867087    21.3554   5   9   0.7766   0.7086   2.8001   0.3525  -1.1204  -0.9094   0.00    0.0
2018/11/13 01:34:15.000  -74.525933948  163.457869651    23.0563   5   9   0.7767   0.7099   2.8097   0.3547  -1.1252  -0.9129   0.00    0.0
2018/11/13 01:34:30.000  -74.525935592  163.457870411    21.9754   5   9   0.7770   0.7112   2.8197   0.3568  -1.1301  -0.9166   0.00    0.0
2018/11/13 01:34:45.000  -74.525931649  163.457865826    22.3775   5   9   0.7772   0.7126   2.8301   0.3589  -1.1351  -0.9203   0.00    0.0
2018/11/13 01:35:00.000  -74.525934775  163.457875197    22.0675   5   9   0.7776   0.7142   2.8409   0.3611  -1.1403  -0.9241   0.00    0.0
2018/11/13 01:35:15.000  -74.525935623  163.457864260    23.6844   5   9   0.7781   0.7158   2.8524   0.3633  -1.1458  -0.9281   0.00    0.0
2018/11/13 01:35:30.000  -74.525934397  163.457866006    22.2111   5   9   0.7787   0.7176   2.8643   0.3656  -1.1514  -0.9321   0.00    0.0
2018/11/13 01:35:45.000  -74.525936346  163.457866904    23.2951   5   9   0.7793   0.7194   2.8767   0.3678  -1.1572  -0.9362   0.00    0.0
2018/11/13 01:36:00.000  -74.525933550  163.457873302    22.5805   5   9   0.7800   0.7213   2.8894   0.3701  -1.1631  -0.9404   0.00    0.0
2018/11/13 01:36:15.000  -74.525934817  163.457867723    22.6689   5   9   0.7808   0.7233   2.9026   0.3724  -1.1692  -0.9447   0.00    0.0
2018/11/13 01:36:30.000  -74.525936049  163.457865715    22.9016   5   9   0.7817   0.7253   2.9161   0.3747  -1.1753  -0.9491   0.00    0.0
2018/11/13 01:36:45.000  -74.525935985  163.457864342    22.6616   5   9   0.7827   0.7275   2.9300   0.3771  -1.1816  -0.9535   0.00    0.0
2018/11/13 01:37:00.000  -74.525933692  163.457872939    21.4140   5   9   0.7838   0.7297   2.9442   0.3794  -1.1881  -0.9581   0.00    0.0
2018/11/13 01:37:15.000  -74.525934668  163.457864730    22.2908   5   9   0.7849   0.7320   2.9588   0.3818  -1.1946  -0.9627   0.00    0.0
2018/11/13 01:37:30.000  -74.525935247  163.457877403    21.9755   5   9   0.7861   0.7344   2.9738   0.3842  -1.2013  -0.9674   0.00    0.0
2018/11/13 01:37:45.000  -74.525936350  163.457865213    22.5262   5   9   0.7859   0.7349   2.9802   0.3860  -1.2044  -0.9705   0.00    0.0
2018/11/13 01:38:00.000  -74.525935401  163.457874134    22.5208   5   9   0.7858   0.7355   2.9870   0.3878  -1.2077  -0.9738   0.00    0.0
2018/11/13 01:38:15.000  -74.525934298  163.457875000    21.9759   5   9   0.7858   0.7362   2.9941   0.3896  -1.2110  -0.9771   0.00    0.0
2018/11/13 01:38:30.000  -74.525937035  163.457863375    23.4334   5   9   0.7858   0.7370   3.0015   0.3914  -1.2144  -0.9804   0.00    0.0
2018/11/13 01:38:45.000  -74.525935831  163.457865458    23.5476   5   9   0.7859   0.7378   3.0093   0.3932  -1.2180  -0.9838   0.00    0.0
2018/11/13 01:39:00.000  -74.525934807  163.457866457    23.3971   5   9   0.7861   0.7387   3.0174   0.3950  -1.2217  -0.9873   0.00    0.0
2018/11/13 01:39:15.000  -74.525937085  163.457871437    22.6894   5   9   0.7864   0.7397   3.0259   0.3969  -1.2254  -0.9909   0.00    0.0
2018/11/13 01:39:30.000  -74.525933755  163.457875754    22.1108   5   9   0.7867   0.7408   3.0346   0.3987  -1.2293  -0.9945   0.00    0.0
2018/11/13 01:39:45.000  -74.525935869  163.457875215    22.2136   5   9   0.7872   0.7419   3.0437   0.4006  -1.2333  -0.9982   0.00    0.0
2018/11/13 01:40:00.000  -74.525935339  163.457875715    22.0341   5   9   0.7877   0.7430   3.0531   0.4025  -1.2374  -1.0019   0.00    0.0
2018/11/13 01:40:15.000  -74.525935342  163.457872203    22.6799   5   9   0.7883   0.7443   3.0630   0.4044  -1.2417  -1.0057   0.00    0.0
2018/11/13 01:40:30.000  -74.525934489  163.457871588    21.8546   5   9   0.7890   0.7457   3.0733   0.4063  -1.2461  -1.0096   0.00    0.0
2018/11/13 01:40:45.000  -74.525933928  163.457873269    22.0626   5   9   0.7898   0.7471   3.0838   0.4082  -1.2505  -1.0135   0.00    0.0
2018/11/13 01:41:00.000  -74.525935740  163.457859602    22.7984   5   9   0.7906   0.7486   3.0945   0.4101  -1.2551  -1.0175   0.00    0.0
2018/11/13 01:41:15.000  -74.525933852  163.457867455    22.0579   5   9   0.7916   0.7501   3.1055   0.4121  -1.2597  -1.0215   0.00    0.0
2018/11/13 01:41:30.000  -74.525935154  163.457859825    23.1680   5   9   0.7926   0.7517   3.1167   0.4140  -1.2644  -1.0255   0.00    0.0
2018/11/13 01:41:45.000  -74.525934698  163.457859796    23.5136   5   9   0.7937   0.7534   3.1281   0.4160  -1.2691  -1.0296   0.00    0.0
2018/11/13 01:42:00.000  -74.525936862  163.457864926    23.7807   5   8   0.9643   0.7715   4.0558   0.5109  -1.4243  -1.5717   0.00    0.0
2018/11/13 01:42:15.000  -74.525939783  163.457864991    25.1666   5   8   0.9685   0.7744   4.0898   0.5165  -1.4361  -1.5859   0.00    0.0
2018/11/13 01:42:30.000  -74.525940041  163.457861681    24.1518   5   8   0.9729   0.7775   4.1246   0.5221  -1.4481  -1.6004   0.00    0.0
2018/11/13 01:42:45.000  -74.525936535  163.457875212    24.0422   5   8   0.9752   0.7785   4.1466   0.5265  -1.4556  -1.6107   0.00    0.0
2018/11/13 01:43:00.000  -74.525941242  163.457852903    27.1415   5   9   0.7319   0.7339   2.9161   0.3334  -1.1649  -0.8349   0.00    0.0
2018/11/13 01:43:15.000  -74.525939669  163.457859989    25.4418   5   9   0.7317   0.7341   2.9254   0.3358  -1.1681  -0.8396   0.00    0.0
2018/11/13 01:43:30.000  -74.525940079  163.457855103    26.6118   5   9   0.7317   0.7344   2.9350   0.3383  -1.1715  -0.8443   0.00    0.0
2018/11/13 01:43:45.000  -74.525940239  163.457853592    25.2381   5   9   0.7317   0.7347   2.9448   0.3407  -1.1750  -0.8490   0.00    0.0
2018/11/13 01:44:00.000  -74.525941200  163.457854721    25.7538   5   9   0.7318   0.7351   2.9550   0.3431  -1.1785  -0.8537   0.00    0.0
2018/11/13 01:44:15.000  -74.525939441  163.457860678    24.8961   5   9   0.7319   0.7356   2.9654   0.3456  -1.1822  -0.8585   0.00    0.0
