% program   : RTKLIB ver.2.4.3
% inp file  : _by_type/_obs/shirase/20181114.18o
% inp file  : _by_type/_obs/base/20181114.18o
% inp file  : _by_type/_sp3+clk/igs20273.clk
% inp file  : _by_type/_sp3+clk/igs20273.sp3
% inp file  : _by_type/_nav/shirase/20181114.18n
% obs start : 2018/11/14 00:00:00.0 GPST (week2027 259200.0s)
% obs end   : 2018/11/14 23:59:45.0 GPST (week2027 345585.0s)
% pos mode  : dgps
% freqs     : L1+L2
% solution  : combined
% elev mask : 15.0 deg
% dynamics  : off
% tidecorr  : off
% ionos opt : iono-free
% tropo opt : est ztd+grad
% ephemeris : precise
% navi sys  : gps glonass
% antenna1  :                       ( 0.0000  0.0000  0.0000)
% antenna2  :                       ( 0.0000  0.0000  0.0000)
% ref pos   : 90.000000000   0.000000000-6335367.6285
%
% (lat/lon/height=WGS84/ellipsoidal,Q=1:fix,2:float,3:sbas,4:dgps,5:single,6:ppp,ns=# of satellites)
%  GPST                  latitude(deg) longitude(deg)  height(m)   Q  ns   sdn(m)   sde(m)   sdu(m)  sdne(m)  sdeu(m)  sdun(m) age(s)  ratio
2018/11/14 00:00:00.000  -74.525928343  163.457838378    22.6881   5  11   0.6565   0.6422   2.4293  -0.3279   0.8943  -0.8923   0.00    0.0
2018/11/14 00:00:15.000  -74.525929338  163.457850926    24.0163   5  11   0.6571   0.6429   2.4361  -0.3292   0.8974  -0.8951   0.00    0.0
2018/11/14 00:00:30.000  -74.525928416  163.457840162    22.5296   5  11   0.6576   0.6436   2.4431  -0.3305   0.9006  -0.8980   0.00    0.0
2018/11/14 00:00:45.000  -74.525927852  163.457841167    22.6590   5  11   0.6583   0.6444   2.4504  -0.3318   0.9039  -0.9010   0.00    0.0
2018/11/14 00:01:00.000  -74.525929892  163.457855086    23.8717   5  11   0.6590   0.6453   2.4578  -0.3332   0.9074  -0.9041   0.00    0.0
2018/11/14 00:01:15.000  -74.525928080  163.457853127    22.9271   5  11   0.6598   0.6463   2.4655  -0.3347   0.9109  -0.9072   0.00    0.0
2018/11/14 00:01:30.000  -74.525929645  163.457848068    23.2111   5  11   0.6607   0.6474   2.4735  -0.3362   0.9145  -0.9105   0.00    0.0
2018/11/14 00:01:45.000  -74.525930332  163.457846401    23.2896   5  11   0.6617   0.6486   2.4816  -0.3377   0.9182  -0.9138   0.00    0.0
2018/11/14 00:02:00.000  -74.525929331  163.457849834    22.8933   5  11   0.6627   0.6498   2.4900  -0.3393   0.9220  -0.9172   0.00    0.0
2018/11/14 00:02:15.000  -74.525929330  163.457854470    24.1229   5  11   0.6637   0.6511   2.4986  -0.3409   0.9259  -0.9206   0.00    0.0
2018/11/14 00:02:30.000  -74.525929060  163.457854308    22.8257   5  11   0.6649   0.6525   2.5074  -0.3425   0.9299  -0.9242   0.00    0.0
2018/11/14 00:02:45.000  -74.525928344  163.457853185    23.4586   5  11   0.6647   0.6522   2.5103  -0.3431   0.9311  -0.9257   0.00    0.0
2018/11/14 00:03:00.000  -74.525928778  163.457854958    23.6496   5  11   0.6646   0.6519   2.5133  -0.3436   0.9324  -0.9273   0.00    0.0
2018/11/14 00:03:15.000  -74.525929001  163.457852465    23.4229   5  11   0.6646   0.6517   2.5166  -0.3442   0.9338  -0.9290   0.00    0.0
2018/11/14 00:03:30.000  -74.525927113  163.457851189    22.4754   5  11   0.6646   0.6516   2.5201  -0.3449   0.9353  -0.9308   0.00    0.0
2018/11/14 00:03:45.000  -74.525930714  163.457848641    23.9272   5  11   0.6647   0.6516   2.5237  -0.3456   0.9369  -0.9326   0.00    0.0
2018/11/14 00:04:00.000  -74.525930480  163.457851555    24.1749   5  11   0.6648   0.6516   2.5276  -0.3463   0.9385  -0.9344   0.00    0.0
2018/11/14 00:04:15.000  -74.525929672  163.457849684    23.3227   5  11   0.6651   0.6518   2.5316  -0.3471   0.9403  -0.9364   0.00    0.0
2018/11/14 00:04:30.000  -74.525928526  163.457850912    22.5460   5  11   0.6654   0.6520   2.5358  -0.3479   0.9421  -0.9384   0.00    0.0
2018/11/14 00:04:45.000  -74.525930236  163.457850038    23.5017   5  11   0.6657   0.6522   2.5403  -0.3487   0.9440  -0.9405   0.00    0.0
2018/11/14 00:05:00.000  -74.525928844  163.457846393    22.5389   5  11   0.6661   0.6526   2.5448  -0.3496   0.9460  -0.9426   0.00    0.0
2018/11/14 00:05:15.000  -74.525928736  163.457848290    22.0932   5  11   0.6667   0.6531   2.5498  -0.3506   0.9481  -0.9449   0.00    0.0
2018/11/14 00:05:30.000  -74.525931405  163.457851875    23.5790   5  11   0.6673   0.6536   2.5550  -0.3516   0.9503  -0.9473   0.00    0.0
2018/11/14 00:05:45.000  -74.525930842  163.457860197    22.8519   5  11   0.6679   0.6543   2.5603  -0.3526   0.9526  -0.9497   0.00    0.0
2018/11/14 00:06:00.000  -74.525928406  163.457846755    22.3248   5  11   0.6686   0.6550   2.5658  -0.3537   0.9550  -0.9522   0.00    0.0
2018/11/14 00:06:15.000  -74.525930426  163.457851247    22.4344   5  11   0.6694   0.6557   2.5714  -0.3548   0.9574  -0.9547   0.00    0.0
2018/11/14 00:06:30.000  -74.525929013  163.457855005    23.4424   5  11   0.6703   0.6566   2.5772  -0.3559   0.9599  -0.9573   0.00    0.0
2018/11/14 00:06:45.000  -74.525927657  163.457847408    22.0976   5  11   0.6712   0.6575   2.5832  -0.3571   0.9624  -0.9599   0.00    0.0
2018/11/14 00:07:00.000  -74.525930497  163.457851630    23.5727   5  11   0.6722   0.6585   2.5893  -0.3583   0.9650  -0.9626   0.00    0.0
2018/11/14 00:07:15.000  -74.525927621  163.457854040    22.5335   5  11   0.6732   0.6595   2.5956  -0.3595   0.9677  -0.9653   0.00    0.0
2018/11/14 00:07:30.000  -74.525927417  163.457849982    22.8952   5  11   0.6743   0.6607   2.6020  -0.3607   0.9704  -0.9681   0.00    0.0
2018/11/14 00:07:45.000  -74.525930422  163.457853991    22.9752   5  11   0.6741   0.6600   2.6023  -0.3608   0.9703  -0.9688   0.00    0.0
2018/11/14 00:08:00.000  -74.525928499  163.457854888    22.3880   5  11   0.6739   0.6595   2.6029  -0.3610   0.9704  -0.9696   0.00    0.0
2018/11/14 00:08:15.000  -74.525927593  163.457849230    23.1020   5  11   0.6738   0.6591   2.6037  -0.3612   0.9706  -0.9705   0.00    0.0
2018/11/14 00:08:30.000  -74.525927141  163.457852912    23.3925   5  11   0.6738   0.6587   2.6046  -0.3614   0.9708  -0.9714   0.00    0.0
2018/11/14 00:08:45.000  -74.525926611  163.457845507    22.4069   5  11   0.6738   0.6584   2.6056  -0.3617   0.9711  -0.9724   0.00    0.0
2018/11/14 00:09:00.000  -74.525929977  163.457854269    23.0490   5  11   0.6739   0.6581   2.6068  -0.3620   0.9714  -0.9734   0.00    0.0
2018/11/14 00:09:15.000  -74.525930522  163.457852402    24.2006   5  11   0.6740   0.6579   2.6081  -0.3623   0.9718  -0.9744   0.00    0.0
2018/11/14 00:09:30.000  -74.525928258  163.457850981    23.1774   5  11   0.6742   0.6578   2.6095  -0.3627   0.9722  -0.9755   0.00    0.0
2018/11/14 00:09:45.000  -74.525928407  163.457844341    23.5370   5  11   0.6745   0.6578   2.6111  -0.3630   0.9727  -0.9767   0.00    0.0
2018/11/14 00:10:00.000  -74.525929061  163.457848421    24.0213   5  11   0.6748   0.6578   2.6128  -0.3634   0.9732  -0.9778   0.00    0.0
2018/11/14 00:10:15.000  -74.525928550  163.457850915    23.0025   5  11   0.6753   0.6580   2.6147  -0.3639   0.9738  -0.9791   0.00    0.0
2018/11/14 00:10:30.000  -74.525928171  163.457847151    22.8056   5  11   0.6757   0.6582   2.6169  -0.3644   0.9745  -0.9804   0.00    0.0
2018/11/14 00:10:45.000  -74.525927897  163.457844076    22.7505   5  11   0.6763   0.6584   2.6191  -0.3649   0.9752  -0.9818   0.00    0.0
2018/11/14 00:11:00.000  -74.525930637  163.457844664    23.3046   5  11   0.6769   0.6588   2.6214  -0.3654   0.9760  -0.9832   0.00    0.0
2018/11/14 00:11:15.000  -74.525927968  163.457848983    23.3414   5  11   0.6775   0.6592   2.6239  -0.3659   0.9768  -0.9846   0.00    0.0
2018/11/14 00:11:30.000  -74.525928841  163.457848491    23.2271   5  11   0.6782   0.6596   2.6264  -0.3665   0.9776  -0.9861   0.00    0.0
2018/11/14 00:11:45.000  -74.525927915  163.457843999    23.0810   5  11   0.6790   0.6601   2.6291  -0.3670   0.9785  -0.9875   0.00    0.0
2018/11/14 00:12:00.000  -74.525929811  163.457850786    23.4751   5  11   0.6798   0.6607   2.6318  -0.3676   0.9794  -0.9890   0.00    0.0
2018/11/14 00:12:15.000  -74.525927751  163.457843681    23.9229   5  11   0.6807   0.6613   2.6347  -0.3682   0.9803  -0.9906   0.00    0.0
2018/11/14 00:12:30.000  -74.525929561  163.457846611    24.2150   5  11   0.6816   0.6620   2.6376  -0.3688   0.9813  -0.9921   0.00    0.0
2018/11/14 00:12:45.000  -74.525928713  163.457850536    23.3120   5  11   0.6812   0.6611   2.6348  -0.3684   0.9797  -0.9917   0.00    0.0
2018/11/14 00:13:00.000  -74.525927061  163.457845428    22.9535   5  11   0.6809   0.6602   2.6321  -0.3680   0.9782  -0.9914   0.00    0.0
2018/11/14 00:13:15.000  -74.525929079  163.457850770    23.7864   5  11   0.6807   0.6594   2.6295  -0.3676   0.9768  -0.9911   0.00    0.0
2018/11/14 00:13:30.000  -74.525926882  163.457848864    22.7004   5  11   0.6805   0.6586   2.6270  -0.3673   0.9753  -0.9908   0.00    0.0
2018/11/14 00:13:45.000  -74.525929278  163.457849580    22.9111   5  11   0.6803   0.6579   2.6247  -0.3670   0.9739  -0.9906   0.00    0.0
2018/11/14 00:14:00.000  -74.525929555  163.457853891    23.2778   5  11   0.6803   0.6573   2.6224  -0.3667   0.9726  -0.9904   0.00    0.0
2018/11/14 00:14:15.000  -74.525927180  163.457851423    22.9661   5  11   0.6802   0.6567   2.6203  -0.3664   0.9713  -0.9902   0.00    0.0
2018/11/14 00:14:30.000  -74.525928180  163.457844386    23.1520   5  11   0.6803   0.6562   2.6183  -0.3662   0.9700  -0.9901   0.00    0.0
2018/11/14 00:14:45.000  -74.525927138  163.457854052    23.0950   5  11   0.6803   0.6558   2.6164  -0.3659   0.9688  -0.9900   0.00    0.0
2018/11/14 00:15:00.000  -74.525930003  163.457853405    23.7254   5  11   0.6805   0.6554   2.6146  -0.3657   0.9676  -0.9899   0.00    0.0
2018/11/14 00:15:15.000  -74.525928081  163.457848294    22.7685   5  11   0.6807   0.6551   2.6130  -0.3655   0.9665  -0.9899   0.00    0.0
2018/11/14 00:15:30.000  -74.525928381  163.457846718    22.9845   5  11   0.6810   0.6549   2.6116  -0.3653   0.9654  -0.9899   0.00    0.0
2018/11/14 00:15:45.000  -74.525927671  163.457850225    23.4379   5  11   0.6813   0.6548   2.6103  -0.3651   0.9643  -0.9900   0.00    0.0
2018/11/14 00:16:00.000  -74.525928043  163.457838433    22.5019   5  11   0.6817   0.6547   2.6091  -0.3650   0.9633  -0.9901   0.00    0.0
2018/11/14 00:16:15.000  -74.525928960  163.457843200    23.2605   5  11   0.6822   0.6547   2.6079  -0.3649   0.9623  -0.9902   0.00    0.0
2018/11/14 00:16:30.000  -74.525928885  163.457855935    22.4214   5  11   0.6826   0.6547   2.6069  -0.3647   0.9614  -0.9903   0.00    0.0
2018/11/14 00:16:45.000  -74.525928752  163.457850773    23.2177   5  11   0.6832   0.6548   2.6060  -0.3646   0.9604  -0.9904   0.00    0.0
2018/11/14 00:17:00.000  -74.525928838  163.457845563    23.2524   5  11   0.6838   0.6549   2.6052  -0.3645   0.9595  -0.9906   0.00    0.0
2018/11/14 00:17:15.000  -74.525929354  163.457851557    24.4858   5  11   0.6844   0.6551   2.6045  -0.3644   0.9586  -0.9908   0.00    0.0
2018/11/14 00:17:30.000  -74.525928558  163.457849312    23.0309   5  11   0.6851   0.6554   2.6039  -0.3643   0.9577  -0.9910   0.00    0.0
2018/11/14 00:17:45.000  -74.525928195  163.457839710    22.5652   5  11   0.6846   0.6541   2.5978  -0.3633   0.9546  -0.9894   0.00    0.0
2018/11/14 00:18:00.000  -74.525927455  163.457838184    22.8351   5  11   0.6841   0.6529   2.5919  -0.3624   0.9515  -0.9879   0.00    0.0
2018/11/14 00:18:15.000  -74.525924346  163.457841526    22.1326   5  11   0.6837   0.6517   2.5861  -0.3614   0.9484  -0.9864   0.00    0.0
2018/11/14 00:18:30.000  -74.525928017  163.457845255    22.6135   5  11   0.6833   0.6506   2.5804  -0.3605   0.9454  -0.9850   0.00    0.0
2018/11/14 00:18:45.000  -74.525928920  163.457855004    23.8560   5  11   0.6830   0.6496   2.5748  -0.3596   0.9424  -0.9835   0.00    0.0
2018/11/14 00:19:00.000  -74.525929289  163.457847154    23.3452   5  11   0.6827   0.6486   2.5694  -0.3587   0.9395  -0.9822   0.00    0.0
2018/11/14 00:19:15.000  -74.525926237  163.457849759    22.5798   5  11   0.6825   0.6477   2.5641  -0.3578   0.9366  -0.9808   0.00    0.0
2018/11/14 00:19:30.000  -74.525928516  163.457844416    22.1333   5  11   0.6824   0.6469   2.5589  -0.3569   0.9338  -0.9795   0.00    0.0
2018/11/14 00:19:45.000  -74.525929947  163.457854660    23.9400   5  11   0.6823   0.6461   2.5539  -0.3561   0.9309  -0.9782   0.00    0.0
2018/11/14 00:20:00.000  -74.525928976  163.457846579    23.4645   5  11   0.6822   0.6454   2.5490  -0.3552   0.9282  -0.9769   0.00    0.0
2018/11/14 00:20:15.000  -74.525929783  163.457850118    23.1236   5  11   0.6822   0.6448   2.5444  -0.3544   0.9255  -0.9757   0.00    0.0
2018/11/14 00:20:30.000  -74.525930100  163.457851819    23.3101   5  11   0.6823   0.6442   2.5400  -0.3536   0.9229  -0.9746   0.00    0.0
2018/11/14 00:20:45.000  -74.525929391  163.457852026    23.1117   5  11   0.6825   0.6437   2.5357  -0.3529   0.9203  -0.9735   0.00    0.0
2018/11/14 00:21:00.000  -74.525927873  163.457850224    22.4674   5  11   0.6827   0.6433   2.5315  -0.3521   0.9177  -0.9724   0.00    0.0
2018/11/14 00:21:15.000  -74.525926088  163.457838220    21.5493   5  11   0.6829   0.6430   2.5275  -0.3514   0.9152  -0.9714   0.00    0.0
2018/11/14 00:21:30.000  -74.525926312  163.457847141    21.7820   5  10   0.9347   0.6762   3.6031  -0.5070   1.1721  -1.6068   0.00    0.0
2018/11/14 00:21:45.000  -74.525925374  163.457844377    21.4484   5  10   0.9349   0.6757   3.5990  -0.5059   1.1690  -1.6058   0.00    0.0
2018/11/14 00:22:00.000  -74.525925684  163.457836400    21.0890   5  10   0.9352   0.6753   3.5950  -0.5049   1.1658  -1.6048   0.00    0.0
2018/11/14 00:22:15.000  -74.525925183  163.457847107    21.1075   5  10   0.9356   0.6749   3.5911  -0.5038   1.1627  -1.6039   0.00    0.0
2018/11/14 00:22:30.000  -74.525927561  163.457849415    22.3911   5  10   0.9360   0.6746   3.5873  -0.5027   1.1596  -1.6029   0.00    0.0
2018/11/14 00:22:45.000  -74.525929906  163.457861597    23.9669   5  10   0.9341   0.6726   3.5733  -0.5000   1.1531  -1.5975   0.00    0.0
2018/11/14 00:23:00.000  -74.525924498  163.457854450    20.1261   5  10   0.9322   0.6706   3.5595  -0.4974   1.1466  -1.5922   0.00    0.0
2018/11/14 00:23:15.000  -74.525924792  163.457844264    21.9409   5  10   0.9304   0.6687   3.5458  -0.4947   1.1402  -1.5869   0.00    0.0
2018/11/14 00:23:30.000  -74.525925008  163.457840700    20.9847   5  10   0.9287   0.6669   3.5323  -0.4921   1.1338  -1.5816   0.00    0.0
2018/11/14 00:23:45.000  -74.525923607  163.457847009    21.2455   5  10   0.9270   0.6652   3.5189  -0.4895   1.1275  -1.5764   0.00    0.0
2018/11/14 00:24:00.000  -74.525926986  163.457850312    22.4744   5  10   0.9254   0.6635   3.5057  -0.4869   1.1212  -1.5713   0.00    0.0
2018/11/14 00:24:15.000  -74.525925262  163.457848839    21.6385   5  10   0.9238   0.6619   3.4927  -0.4844   1.1149  -1.5662   0.00    0.0
2018/11/14 00:24:30.000  -74.525921979  163.457843959    20.9670   5  10   0.9223   0.6604   3.4799  -0.4818   1.1087  -1.5612   0.00    0.0
2018/11/14 00:24:45.000  -74.525926328  163.457843923    21.6565   5  10   0.9209   0.6589   3.4673  -0.4793   1.1025  -1.5563   0.00    0.0
2018/11/14 00:25:00.000  -74.525923360  163.457843930    21.5964   5  10   0.9196   0.6575   3.4550  -0.4768   1.0963  -1.5515   0.00    0.0
2018/11/14 00:25:15.000  -74.525924768  163.457851144    21.2006   5  10   0.9184   0.6562   3.4430  -0.4743   1.0903  -1.5469   0.00    0.0
2018/11/14 00:25:30.000  -74.525922617  163.457838418    20.2166   5  10   0.9172   0.6550   3.4314  -0.4718   1.0843  -1.5424   0.00    0.0
2018/11/14 00:25:45.000  -74.525925840  163.457845321    20.8196   5  10   0.9161   0.6539   3.4199  -0.4694   1.0784  -1.5379   0.00    0.0
2018/11/14 00:26:00.000  -74.525924836  163.457852403    20.6159   5   9   0.9193   0.6529   3.6650  -0.4660   1.0661  -1.5714   0.00    0.0
2018/11/14 00:26:15.000  -74.525928056  163.457854464    22.0112   5   9   0.9185   0.6519   3.6563  -0.4635   1.0601  -1.5678   0.00    0.0
2018/11/14 00:26:30.000  -74.525923493  163.457840172    19.9357   5   9   0.9177   0.6509   3.6479  -0.4611   1.0543  -1.5643   0.00    0.0
2018/11/14 00:26:45.000  -74.525923283  163.457841198    21.0140   5   9   0.9171   0.6501   3.6397  -0.4587   1.0484  -1.5609   0.00    0.0
2018/11/14 00:27:00.000  -74.525924645  163.457844098    20.9759   5   9   0.9165   0.6493   3.6318  -0.4563   1.0426  -1.5576   0.00    0.0
2018/11/14 00:27:15.000  -74.525926360  163.457846578    20.6198   5   9   0.9160   0.6486   3.6243  -0.4540   1.0367  -1.5544   0.00    0.0
2018/11/14 00:27:30.000  -74.525926141  163.457856503    22.0156   5   9   0.9155   0.6480   3.6170  -0.4516   1.0310  -1.5513   0.00    0.0
2018/11/14 00:27:45.000  -74.525927556  163.457860555    21.9012   5   9   0.9128   0.6458   3.5982  -0.4479   1.0222  -1.5436   0.00    0.0
2018/11/14 00:28:00.000  -74.525927497  163.457850843    21.4703   5   9   0.9102   0.6437   3.5799  -0.4443   1.0136  -1.5361   0.00    0.0
2018/11/14 00:28:15.000  -74.525928423  163.457855510    21.8032   5   9   0.9077   0.6418   3.5619  -0.4407   1.0051  -1.5287   0.00    0.0
2018/11/14 00:28:30.000  -74.525927210  163.457858650    21.5356   5   9   0.9053   0.6399   3.5444  -0.4371   0.9966  -1.5214   0.00    0.0
2018/11/14 00:28:45.000  -74.525927350  163.457846464    21.8217   5  10   0.7447   0.6344   2.6781  -0.3913   0.9055  -1.0589   0.00    0.0
2018/11/14 00:29:00.000  -74.525924716  163.457845781    21.7086   5  10   0.7441   0.6330   2.6716  -0.3898   0.9011  -1.0566   0.00    0.0
2018/11/14 00:29:15.000  -74.525927792  163.457854462    21.4010   5  10   0.7435   0.6317   2.6654  -0.3882   0.8968  -1.0544   0.00    0.0
2018/11/14 00:29:30.000  -74.525928243  163.457853065    22.6941   5  10   0.7430   0.6304   2.6594  -0.3867   0.8925  -1.0522   0.00    0.0
2018/11/14 00:29:45.000  -74.525926185  163.457847864    21.0341   5  10   0.7425   0.6292   2.6536  -0.3853   0.8883  -1.0501   0.00    0.0
2018/11/14 00:30:00.000  -74.525927549  163.457860729    22.1376   5  10   0.7421   0.6281   2.6480  -0.3838   0.8841  -1.0480   0.00    0.0
2018/11/14 00:30:15.000  -74.525928924  163.457845881    22.4385   5  10   0.7418   0.6271   2.6428  -0.3824   0.8800  -1.0461   0.00    0.0
2018/11/14 00:30:30.000  -74.525930426  163.457855142    24.4221   5  10   0.7416   0.6262   2.6378  -0.3811   0.8760  -1.0442   0.00    0.0
2018/11/14 00:30:45.000  -74.525927440  163.457856222    22.4538   5  10   0.7414   0.6253   2.6330  -0.3797   0.8720  -1.0424   0.00    0.0
2018/11/14 00:31:00.000  -74.525928926  163.457848584    22.3787   5  10   0.7413   0.6245   2.6286  -0.3784   0.8681  -1.0406   0.00    0.0
2018/11/14 00:31:15.000  -74.525928748  163.457849011    22.3797   5  10   0.7413   0.6238   2.6243  -0.3771   0.8642  -1.0389   0.00    0.0
2018/11/14 00:31:30.000  -74.525927669  163.457851841    22.2591   5  10   0.7414   0.6232   2.6204  -0.3759   0.8604  -1.0373   0.00    0.0
2018/11/14 00:31:45.000  -74.525926157  163.457848885    22.2868   5  10   0.7415   0.6226   2.6167  -0.3747   0.8567  -1.0358   0.00    0.0
2018/11/14 00:32:00.000  -74.525930195  163.457857233    22.6298   5  10   0.7416   0.6221   2.6133  -0.3735   0.8530  -1.0343   0.00    0.0
2018/11/14 00:32:15.000  -74.525929144  163.457858007    22.1130   5  10   0.7419   0.6216   2.6102  -0.3723   0.8493  -1.0329   0.00    0.0
2018/11/14 00:32:30.000  -74.525928459  163.457859175    21.4906   5  10   0.7422   0.6213   2.6073  -0.3712   0.8457  -1.0316   0.00    0.0
2018/11/14 00:32:45.000  -74.525928939  163.457852596    21.3673   5  10   0.7411   0.6195   2.5978  -0.3692   0.8401  -1.0282   0.00    0.0
2018/11/14 00:33:00.000  -74.525927668  163.457845746    21.6584   5  10   0.7401   0.6178   2.5884  -0.3671   0.8345  -1.0249   0.00    0.0
2018/11/14 00:33:15.000  -74.525928971  163.457853913    22.2316   5  10   0.7391   0.6162   2.5794  -0.3652   0.8290  -1.0217   0.00    0.0
2018/11/14 00:33:30.000  -74.525928125  163.457854101    22.0912   5  10   0.7382   0.6147   2.5706  -0.3632   0.8235  -1.0185   0.00    0.0
2018/11/14 00:33:45.000  -74.525928575  163.457852513    21.4543   5  10   0.7374   0.6132   2.5621  -0.3613   0.8182  -1.0154   0.00    0.0
2018/11/14 00:34:00.000  -74.525930760  163.457851955    22.4769   5  10   0.7367   0.6119   2.5538  -0.3595   0.8129  -1.0124   0.00    0.0
2018/11/14 00:34:15.000  -74.525931127  163.457855493    22.7083   5  10   0.7360   0.6106   2.5459  -0.3576   0.8076  -1.0094   0.00    0.0
2018/11/14 00:34:30.000  -74.525928952  163.457845453    21.5833   5  10   0.7354   0.6093   2.5383  -0.3558   0.8025  -1.0066   0.00    0.0
2018/11/14 00:34:45.000  -74.525930649  163.457862718    23.0953   5  10   0.7349   0.6082   2.5310  -0.3541   0.7974  -1.0038   0.00    0.0
2018/11/14 00:35:00.000  -74.525929264  163.457859204    22.5039   5  10   0.7344   0.6071   2.5240  -0.3523   0.7924  -1.0012   0.00    0.0
2018/11/14 00:35:15.000  -74.525930578  163.457854323    23.0648   5  10   0.7341   0.6062   2.5175  -0.3507   0.7874  -0.9987   0.00    0.0
2018/11/14 00:35:30.000  -74.525929914  163.457850875    22.9585   5  10   0.7338   0.6053   2.5112  -0.3490   0.7826  -0.9962   0.00    0.0
2018/11/14 00:35:45.000  -74.525928966  163.457854618    23.1225   5  10   0.7336   0.6045   2.5053  -0.3474   0.7778  -0.9939   0.00    0.0
2018/11/14 00:36:00.000  -74.525930238  163.457859109    23.5983   5  10   0.7334   0.6038   2.4997  -0.3459   0.7731  -0.9916   0.00    0.0
2018/11/14 00:36:15.000  -74.525927102  163.457856319    21.9587   5  10   0.7334   0.6031   2.4944  -0.3443   0.7685  -0.9894   0.00    0.0
2018/11/14 00:36:30.000  -74.525929142  163.457859352    22.9743   5  10   0.7333   0.6025   2.4895  -0.3428   0.7639  -0.9874   0.00    0.0
2018/11/14 00:36:45.000  -74.525927625  163.457864547    23.3604   5  10   0.7334   0.6020   2.4849  -0.3413   0.7593  -0.9854   0.00    0.0
2018/11/14 00:37:00.000  -74.525929424  163.457857057    22.6625   5  10   0.7336   0.6016   2.4806  -0.3399   0.7549  -0.9835   0.00    0.0
2018/11/14 00:37:15.000  -74.525930048  163.457868875    23.0842   5  10   0.7338   0.6012   2.4767  -0.3385   0.7505  -0.9817   0.00    0.0
2018/11/14 00:37:30.000  -74.525931632  163.457860774    24.4962   5  10   0.7340   0.6010   2.4731  -0.3371   0.7461  -0.9800   0.00    0.0
2018/11/14 00:37:45.000  -74.525929817  163.457858392    23.2269   5  10   0.7330   0.5994   2.4627  -0.3349   0.7400  -0.9763   0.00    0.0
2018/11/14 00:38:00.000  -74.525930702  163.457859467    22.6132   5  10   0.7320   0.5978   2.4526  -0.3328   0.7339  -0.9726   0.00    0.0
2018/11/14 00:38:15.000  -74.525928183  163.457859875    22.6784   5  10   0.7310   0.5964   2.4428  -0.3307   0.7279  -0.9691   0.00    0.0
2018/11/14 00:38:30.000  -74.525928648  163.457858484    23.1383   5  10   0.7302   0.5950   2.4334  -0.3286   0.7220  -0.9656   0.00    0.0
2018/11/14 00:38:45.000  -74.525931244  163.457854541    23.8518   5  10   0.7294   0.5938   2.4244  -0.3266   0.7162  -0.9623   0.00    0.0
2018/11/14 00:39:00.000  -74.525929457  163.457860595    24.0318   5  10   0.7287   0.5926   2.4157  -0.3246   0.7104  -0.9590   0.00    0.0
2018/11/14 00:39:15.000  -74.525930190  163.457860351    22.8053   5  10   0.7280   0.5914   2.4073  -0.3226   0.7047  -0.9559   0.00    0.0
2018/11/14 00:39:30.000  -74.525933654  163.457858069    24.3242   5  10   0.7275   0.5904   2.3994  -0.3207   0.6991  -0.9529   0.00    0.0
2018/11/14 00:39:45.000  -74.525930086  163.457860022    23.0309   5  10   0.7270   0.5894   2.3917  -0.3188   0.6936  -0.9499   0.00    0.0
2018/11/14 00:40:00.000  -74.525931797  163.457848433    23.6869   5  10   0.7265   0.5885   2.3845  -0.3170   0.6881  -0.9471   0.00    0.0
2018/11/14 00:40:15.000  -74.525931223  163.457852256    23.6190   5  10   0.7262   0.5878   2.3777  -0.3152   0.6827  -0.9444   0.00    0.0
2018/11/14 00:40:30.000  -74.525931317  163.457860609    24.1815   5  10   0.7260   0.5871   2.3713  -0.3134   0.6774  -0.9419   0.00    0.0
2018/11/14 00:40:45.000  -74.525929506  163.457858179    22.5454   5  10   0.7258   0.5864   2.3653  -0.3117   0.6722  -0.9394   0.00    0.0
2018/11/14 00:41:00.000  -74.525932658  163.457860961    23.9347   5  10   0.7257   0.5859   2.3596  -0.3100   0.6670  -0.9371   0.00    0.0
2018/11/14 00:41:15.000  -74.525930741  163.457857224    22.8062   5  10   0.7257   0.5854   2.3543  -0.3084   0.6619  -0.9348   0.00    0.0
2018/11/14 00:41:30.000  -74.525931317  163.457855342    23.8552   5  10   0.7257   0.5850   2.3493  -0.3067   0.6569  -0.9326   0.00    0.0
2018/11/14 00:41:45.000  -74.525931604  163.457864337    23.2809   5  10   0.7259   0.5847   2.3448  -0.3052   0.6518  -0.9306   0.00    0.0
2018/11/14 00:42:00.000  -74.525931672  163.457855718    23.4193   5  10   0.7260   0.5845   2.3406  -0.3036   0.6469  -0.9287   0.00    0.0
2018/11/14 00:42:15.000  -74.525930208  163.457858770    23.0414   5  10   0.7263   0.5843   2.3368  -0.3021   0.6420  -0.9268   0.00    0.0
2018/11/14 00:42:30.000  -74.525932537  163.457863661    24.1487   5  10   0.7266   0.5842   2.3333  -0.3006   0.6371  -0.9251   0.00    0.0
2018/11/14 00:42:45.000  -74.525932110  163.457857841    23.3970   5  10   0.7257   0.5829   2.3232  -0.2984   0.6308  -0.9214   0.00    0.0
2018/11/14 00:43:00.000  -74.525930694  163.457862640    23.9335   5  10   0.7247   0.5816   2.3133  -0.2962   0.6245  -0.9178   0.00    0.0
2018/11/14 00:43:15.000  -74.525934749  163.457861114    23.9981   5  10   0.7239   0.5804   2.3039  -0.2941   0.6183  -0.9143   0.00    0.0
2018/11/14 00:43:30.000  -74.525930182  163.457859544    23.7489   5  10   0.7231   0.5793   2.2948  -0.2920   0.6121  -0.9110   0.00    0.0
2018/11/14 00:43:45.000  -74.525929907  163.457856116    23.6769   5  10   0.7225   0.5783   2.2861  -0.2899   0.6061  -0.9077   0.00    0.0
2018/11/14 00:44:00.000  -74.525932674  163.457859151    24.5356   5  10   0.7218   0.5774   2.2778  -0.2879   0.6001  -0.9046   0.00    0.0
2018/11/14 00:44:15.000  -74.525930914  163.457855908    23.6506   5  10   0.7213   0.5765   2.2699  -0.2860   0.5941  -0.9016   0.00    0.0
2018/11/14 00:44:30.000  -74.525930500  163.457860830    23.3428   5  10   0.7208   0.5757   2.2624  -0.2840   0.5882  -0.8987   0.00    0.0
2018/11/14 00:44:45.000  -74.525932649  163.457861429    24.0227   5  10   0.7204   0.5750   2.2552  -0.2821   0.5824  -0.8959   0.00    0.0
2018/11/14 00:45:00.000  -74.525932254  163.457862864    24.5436   5  10   0.7201   0.5744   2.2485  -0.2802   0.5767  -0.8932   0.00    0.0
2018/11/14 00:45:15.000  -74.525927736  163.457853078    22.7985   5  10   0.7199   0.5738   2.2422  -0.2784   0.5710  -0.8907   0.00    0.0
2018/11/14 00:45:30.000  -74.525931499  163.457858592    23.3967   5  10   0.7198   0.5734   2.2364  -0.2766   0.5653  -0.8883   0.00    0.0
2018/11/14 00:45:45.000  -74.525930896  163.457856228    23.5197   5  10   0.7197   0.5730   2.2309  -0.2749   0.5597  -0.8860   0.00    0.0
2018/11/14 00:46:00.000  -74.525933064  163.457861545    23.5979   5  10   0.7197   0.5727   2.2258  -0.2731   0.5541  -0.8838   0.00    0.0
2018/11/14 00:46:15.000  -74.525933119  163.457855038    24.0326   5  10   0.7198   0.5725   2.2211  -0.2714   0.5486  -0.8817   0.00    0.0
2018/11/14 00:46:30.000  -74.525933793  163.457856404    24.0740   5  10   0.7199   0.5723   2.2167  -0.2698   0.5431  -0.8797   0.00    0.0
2018/11/14 00:46:45.000  -74.525927701  163.457863698    23.3035   5  10   0.7201   0.5722   2.2128  -0.2681   0.5376  -0.8778   0.00    0.0
2018/11/14 00:47:00.000  -74.525930526  163.457856731    23.5142   5  10   0.7204   0.5722   2.2092  -0.2665   0.5321  -0.8760   0.00    0.0
2018/11/14 00:47:15.000  -74.525931564  163.457864780    23.7202   5  10   0.7208   0.5723   2.2060  -0.2649   0.5267  -0.8743   0.00    0.0
2018/11/14 00:47:30.000  -74.525930515  163.457866861    22.8893   5  10   0.7212   0.5724   2.2032  -0.2634   0.5213  -0.8727   0.00    0.0
2018/11/14 00:47:45.000  -74.525932835  163.457861318    23.7706   5  10   0.7204   0.5714   2.1939  -0.2612   0.5147  -0.8694   0.00    0.0
2018/11/14 00:48:00.000  -74.525930740  163.457858581    23.9463   5  10   0.7196   0.5704   2.1849  -0.2591   0.5082  -0.8661   0.00    0.0
2018/11/14 00:48:15.000  -74.525931190  163.457858654    24.7198   5  10   0.7189   0.5695   2.1763  -0.2570   0.5017  -0.8629   0.00    0.0
2018/11/14 00:48:30.000  -74.525929035  163.457852855    23.3308   5  10   0.7183   0.5687   2.1681  -0.2549   0.4953  -0.8599   0.00    0.0
2018/11/14 00:48:45.000  -74.525930167  163.457854536    24.1231   5  10   0.7177   0.5679   2.1603  -0.2529   0.4889  -0.8570   0.00    0.0
2018/11/14 00:49:00.000  -74.525930814  163.457849303    23.7305   5  10   0.7173   0.5672   2.1529  -0.2509   0.4826  -0.8542   0.00    0.0
2018/11/14 00:49:15.000  -74.525931039  163.457851670    23.0712   5  10   0.7169   0.5666   2.1459  -0.2489   0.4763  -0.8515   0.00    0.0
2018/11/14 00:49:30.000  -74.525931110  163.457858278    24.5987   5  11   0.6186   0.5491   1.7969  -0.1060   0.2473  -0.5484   0.00    0.0
2018/11/14 00:49:45.000  -74.525931550  163.457860708    23.9648   5  11   0.6185   0.5490   1.7944  -0.1038   0.2401  -0.5476   0.00    0.0
2018/11/14 00:50:00.000  -74.525930309  163.457862984    24.0822   5  11   0.6185   0.5488   1.7923  -0.1016   0.2328  -0.5467   0.00    0.0
2018/11/14 00:50:15.000  -74.525933362  163.457856293    24.2386   5  11   0.6186   0.5488   1.7905  -0.0993   0.2252  -0.5460   0.00    0.0
2018/11/14 00:50:30.000  -74.525932239  163.457865224    23.4702   5  11   0.6187   0.5489   1.7890  -0.0969   0.2173  -0.5453   0.00    0.0
2018/11/14 00:50:45.000  -74.525933787  163.457864642    24.4211   5  11   0.6189   0.5490   1.7878  -0.0945   0.2091  -0.5446   0.00    0.0
2018/11/14 00:51:00.000  -74.525933124  163.457864901    24.1063   5  11   0.6192   0.5492   1.7869  -0.0921   0.2005  -0.5439   0.00    0.0
2018/11/14 00:51:15.000  -74.525932328  163.457856041    22.9033   5  11   0.6195   0.5494   1.7863  -0.0896   0.1916  -0.5433   0.00    0.0
2018/11/14 00:51:30.000  -74.525931906  163.457861843    23.7614   5  11   0.6198   0.5498   1.7859  -0.0870   0.1821  -0.5428   0.00    0.0
2018/11/14 00:51:45.000  -74.525931285  163.457865927    23.4747   5  11   0.6202   0.5501   1.7859  -0.0844   0.1721  -0.5423   0.00    0.0
2018/11/14 00:52:00.000  -74.525933158  163.457860872    23.7144   5  11   0.6207   0.5506   1.7862  -0.0816   0.1614  -0.5418   0.00    0.0
2018/11/14 00:52:15.000  -74.525933473  163.457862569    24.1412   5  11   0.6212   0.5511   1.7868  -0.0788   0.1498  -0.5413   0.00    0.0
2018/11/14 00:52:30.000  -74.525932592  163.457864269    24.0359   5  11   0.6218   0.5517   1.7877  -0.0759   0.1372  -0.5409   0.00    0.0
2018/11/14 00:52:45.000  -74.525931496  163.457850036    22.7200   5  11   0.6214   0.5512   1.7833  -0.0727   0.1248  -0.5401   0.00    0.0
2018/11/14 00:53:00.000  -74.525932724  163.457846736    23.9545   5  12   0.6136   0.5278   1.7108  -0.1412  -0.2541  -0.5812   0.00    0.0
2018/11/14 00:53:15.000  -74.525930081  163.457848313    24.0061   5  12   0.6131   0.5274   1.7084  -0.1399  -0.2588  -0.5803   0.00    0.0
2018/11/14 00:53:30.000  -74.525932394  163.457849052    24.2743   5  12   0.6128   0.5270   1.7063  -0.1386  -0.2635  -0.5795   0.00    0.0
2018/11/14 00:53:45.000  -74.525933979  163.457851903    24.0783   5  12   0.6125   0.5268   1.7045  -0.1373  -0.2682  -0.5787   0.00    0.0
2018/11/14 00:54:00.000  -74.525933352  163.457845931    23.5891   5  12   0.6122   0.5266   1.7029  -0.1360  -0.2729  -0.5780   0.00    0.0
2018/11/14 00:54:15.000  -74.525933060  163.457848257    22.8632   5  12   0.6120   0.5264   1.7015  -0.1348  -0.2775  -0.5773   0.00    0.0
2018/11/14 00:54:30.000  -74.525931563  163.457849788    23.0985   5  12   0.6119   0.5263   1.7005  -0.1335  -0.2822  -0.5767   0.00    0.0
2018/11/14 00:54:45.000  -74.525933656  163.457855004    23.2899   5  12   0.6118   0.5263   1.6997  -0.1322  -0.2869  -0.5761   0.00    0.0
2018/11/14 00:55:00.000  -74.525933889  163.457854115    23.6428   5  12   0.6117   0.5263   1.6992  -0.1310  -0.2915  -0.5755   0.00    0.0
2018/11/14 00:55:15.000  -74.525931872  163.457857022    23.6536   5  12   0.6118   0.5265   1.6990  -0.1298  -0.2962  -0.5750   0.00    0.0
2018/11/14 00:55:30.000  -74.525932909  163.457857433    21.9712   5  12   0.6118   0.5266   1.6991  -0.1285  -0.3009  -0.5746   0.00    0.0
2018/11/14 00:55:45.000  -74.525935990  163.457852638    23.3784   5  12   0.6120   0.5269   1.6995  -0.1273  -0.3056  -0.5742   0.00    0.0
2018/11/14 00:56:00.000  -74.525934087  163.457854975    23.5544   5  12   0.6121   0.5272   1.7002  -0.1261  -0.3104  -0.5738   0.00    0.0
2018/11/14 00:56:15.000  -74.525934708  163.457857138    23.3745   5  12   0.6124   0.5275   1.7012  -0.1249  -0.3151  -0.5735   0.00    0.0
2018/11/14 00:56:30.000  -74.525935278  163.457859953    23.3052   5  12   0.6126   0.5280   1.7024  -0.1237  -0.3198  -0.5732   0.00    0.0
2018/11/14 00:56:45.000  -74.525934789  163.457857347    22.7313   5  12   0.6130   0.5285   1.7040  -0.1225  -0.3246  -0.5730   0.00    0.0
2018/11/14 00:57:00.000  -74.525934258  163.457852951    23.5892   5  12   0.6133   0.5290   1.7058  -0.1213  -0.3294  -0.5728   0.00    0.0
2018/11/14 00:57:15.000  -74.525935623  163.457851872    23.1168   5  12   0.6138   0.5296   1.7079  -0.1201  -0.3342  -0.5727   0.00    0.0
2018/11/14 00:57:30.000  -74.525934453  163.457853115    23.0954   5  12   0.6142   0.5303   1.7103  -0.1189  -0.3391  -0.5726   0.00    0.0
2018/11/14 00:57:45.000  -74.525934314  163.457849261    23.5416   5  12   0.6138   0.5299   1.7077  -0.1174  -0.3423  -0.5718   0.00    0.0
2018/11/14 00:58:00.000  -74.525935226  163.457857309    22.8477   5  12   0.6134   0.5295   1.7054  -0.1159  -0.3456  -0.5710   0.00    0.0
2018/11/14 00:58:15.000  -74.525932182  163.457855608    23.1042   5  12   0.6131   0.5293   1.7033  -0.1144  -0.3489  -0.5703   0.00    0.0
2018/11/14 00:58:30.000  -74.525931763  163.457849840    23.3392   5  12   0.6128   0.5290   1.7016  -0.1128  -0.3523  -0.5696   0.00    0.0
2018/11/14 00:58:45.000  -74.525934345  163.457857704    23.3162   5  12   0.6125   0.5289   1.7001  -0.1113  -0.3557  -0.5690   0.00    0.0
2018/11/14 00:59:00.000  -74.525934799  163.457851725    23.1834   5  12   0.6123   0.5288   1.6988  -0.1098  -0.3591  -0.5684   0.00    0.0
2018/11/14 00:59:15.000  -74.525933244  163.457857032    23.5329   5  12   0.6122   0.5287   1.6979  -0.1082  -0.3626  -0.5679   0.00    0.0
2018/11/14 00:59:30.000  -74.525933410  163.457851550    23.2469   5  12   0.6121   0.5288   1.6973  -0.1067  -0.3661  -0.5674   0.00    0.0
2018/11/14 00:59:45.000  -74.525933894  163.457845170    23.5448   5  12   0.6120   0.5288   1.6969  -0.1052  -0.3696  -0.5669   0.00    0.0
2018/11/14 01:00:00.000  -74.525934218  163.457852851    23.5360   5  12   0.6121   0.5290   1.6968  -0.1036  -0.3732  -0.5665   0.00    0.0
2018/11/14 01:00:15.000  -74.525933263  163.457859053    23.4942   5  12   0.6121   0.5292   1.6971  -0.1021  -0.3769  -0.5662   0.00    0.0
2018/11/14 01:00:30.000  -74.525935115  163.457857036    23.2660   5  12   0.6123   0.5295   1.6976  -0.1006  -0.3806  -0.5659   0.00    0.0
2018/11/14 01:00:45.000  -74.525934393  163.457849873    24.2174   5  12   0.6124   0.5299   1.6985  -0.0990  -0.3843  -0.5656   0.00    0.0
2018/11/14 01:01:00.000  -74.525934655  163.457852639    23.2105   5  12   0.6127   0.5303   1.6996  -0.0975  -0.3881  -0.5654   0.00    0.0
2018/11/14 01:01:15.000  -74.525932198  163.457852345    23.3716   5  12   0.6129   0.5307   1.7010  -0.0959  -0.3919  -0.5653   0.00    0.0
2018/11/14 01:01:30.000  -74.525932525  163.457846473    22.9347   5  12   0.6133   0.5313   1.7027  -0.0944  -0.3958  -0.5652   0.00    0.0
2018/11/14 01:01:45.000  -74.525935857  163.457849341    22.6080   5  12   0.6137   0.5319   1.7047  -0.0928  -0.3998  -0.5651   0.00    0.0
2018/11/14 01:02:00.000  -74.525934625  163.457848887    23.4596   5  12   0.6141   0.5325   1.7070  -0.0912  -0.4038  -0.5651   0.00    0.0
2018/11/14 01:02:15.000  -74.525933372  163.457850348    23.3305   5  12   0.6146   0.5332   1.7096  -0.0896  -0.4078  -0.5651   0.00    0.0
2018/11/14 01:02:30.000  -74.525930241  163.457849490    23.3759   5  12   0.6151   0.5340   1.7124  -0.0880  -0.4119  -0.5652   0.00    0.0
2018/11/14 01:02:45.000  -74.525934961  163.457858650    23.0859   5  12   0.6147   0.5337   1.7103  -0.0860  -0.4144  -0.5645   0.00    0.0
2018/11/14 01:03:00.000  -74.525935338  163.457851947    23.9853   5  12   0.6144   0.5335   1.7083  -0.0840  -0.4170  -0.5639   0.00    0.0
2018/11/14 01:03:15.000  -74.525934509  163.457848607    24.1880   5  12   0.6141   0.5333   1.7066  -0.0819  -0.4196  -0.5634   0.00    0.0
2018/11/14 01:03:30.000  -74.525934486  163.457846142    23.5941   5  12   0.6139   0.5332   1.7053  -0.0798  -0.4223  -0.5628   0.00    0.0
2018/11/14 01:03:45.000  -74.525933365  163.457849998    23.1295   5  12   0.6137   0.5331   1.7041  -0.0777  -0.4251  -0.5624   0.00    0.0
2018/11/14 01:04:00.000  -74.525931641  163.457842783    23.3682   5  12   0.6135   0.5331   1.7033  -0.0756  -0.4279  -0.5620   0.00    0.0
2018/11/14 01:04:15.000  -74.525934519  163.457853448    23.9989   5  12   0.6134   0.5332   1.7028  -0.0734  -0.4307  -0.5616   0.00    0.0
2018/11/14 01:04:30.000  -74.525934225  163.457854809    23.6385   5  12   0.6134   0.5333   1.7026  -0.0711  -0.4336  -0.5613   0.00    0.0
2018/11/14 01:04:45.000  -74.525934306  163.457853701    23.9600   5  12   0.6134   0.5335   1.7026  -0.0689  -0.4366  -0.5610   0.00    0.0
2018/11/14 01:05:00.000  -74.525933710  163.457847221    24.0993   5  12   0.6135   0.5337   1.7029  -0.0665  -0.4396  -0.5607   0.00    0.0
2018/11/14 01:05:15.000  -74.525932861  163.457849327    23.6867   5  12   0.6136   0.5340   1.7036  -0.0641  -0.4427  -0.5606   0.00    0.0
2018/11/14 01:05:30.000  -74.525933437  163.457849646    23.9560   5  12   0.6138   0.5344   1.7046  -0.0617  -0.4459  -0.5604   0.00    0.0
2018/11/14 01:05:45.000  -74.525933581  163.457853792    23.3153   5  12   0.6140   0.5349   1.7059  -0.0591  -0.4491  -0.5603   0.00    0.0
2018/11/14 01:06:00.000  -74.525933679  163.457852217    23.1527   5  12   0.6143   0.5354   1.7074  -0.0565  -0.4524  -0.5603   0.00    0.0
2018/11/14 01:06:15.000  -74.525935708  163.457853696    23.6581   5  12   0.6146   0.5359   1.7093  -0.0538  -0.4557  -0.5603   0.00    0.0
2018/11/14 01:06:30.000  -74.525934934  163.457855496    23.3948   5  12   0.6150   0.5366   1.7114  -0.0509  -0.4591  -0.5604   0.00    0.0
2018/11/14 01:06:45.000  -74.525936433  163.457854872    23.5744   5  12   0.6155   0.5373   1.7138  -0.0479  -0.4626  -0.5605   0.00    0.0
2018/11/14 01:07:00.000  -74.525934991  163.457860151    23.8034   5  12   0.6159   0.5380   1.7165  -0.0447  -0.4661  -0.5606   0.00    0.0
2018/11/14 01:07:15.000  -74.525936265  163.457850949    23.4970   5  12   0.6165   0.5388   1.7195  -0.0413  -0.4696  -0.5608   0.00    0.0
2018/11/14 01:07:30.000  -74.525935511  163.457859373    24.2141   5  12   0.6171   0.5397   1.7227  -0.0376  -0.4733  -0.5610   0.00    0.0
2018/11/14 01:07:45.000  -74.525935149  163.457858861    23.2908   5  12   0.6167   0.5394   1.7208  -0.0328  -0.4753  -0.5606   0.00    0.0
2018/11/14 01:08:00.000  -74.525935919  163.457863505    23.6732   5  12   0.6165   0.5393   1.7193  -0.0271  -0.4775  -0.5601   0.00    0.0
2018/11/14 01:08:15.000  -74.525935815  163.457851054    23.5776   5  12   0.6162   0.5392   1.7180  -0.0200  -0.4797  -0.5597   0.00    0.0
2018/11/14 01:08:30.000  -74.525937841  163.457845993    24.2820   5  12   0.6160   0.5392   1.7171  -0.0082  -0.4820  -0.5594   0.00    0.0
2018/11/14 01:08:45.000  -74.525937055  163.457849423    23.7724   5  12   0.6159   0.5392   1.7164   0.0162  -0.4843  -0.5591   0.00    0.0
2018/11/14 01:09:00.000  -74.525933677  163.457852213    23.5142   5  12   0.6158   0.5393   1.7160   0.0243  -0.4867  -0.5589   0.00    0.0
2018/11/14 01:09:15.000  -74.525936605  163.457849040    24.7820   5  12   0.6158   0.5394   1.7158   0.0303  -0.4892  -0.5587   0.00    0.0
2018/11/14 01:09:30.000  -74.525936758  163.457851599    24.0845   5  12   0.6158   0.5396   1.7160   0.0352  -0.4917  -0.5585   0.00    0.0
2018/11/14 01:09:45.000  -74.525933631  163.457856748    22.8404   5  12   0.6159   0.5399   1.7164   0.0395  -0.4943  -0.5584   0.00    0.0
2018/11/14 01:10:00.000  -74.525933795  163.457860057    23.5450   5  12   0.6160   0.5402   1.7172   0.0433  -0.4969  -0.5584   0.00    0.0
2018/11/14 01:10:15.000  -74.525934682  163.457854174    24.5795   5  12   0.6162   0.5406   1.7182   0.0468  -0.4997  -0.5584   0.00    0.0
2018/11/14 01:10:30.000  -74.525934573  163.457848834    23.9456   5  12   0.6164   0.5411   1.7196   0.0500  -0.5025  -0.5584   0.00    0.0
2018/11/14 01:10:45.000  -74.525933935  163.457857223    23.9106   5  12   0.6167   0.5416   1.7212   0.0530  -0.5053  -0.5585   0.00    0.0
2018/11/14 01:11:00.000  -74.525937152  163.457857350    24.2476   5  12   0.6170   0.5422   1.7231   0.0559  -0.5082  -0.5586   0.00    0.0
2018/11/14 01:11:15.000  -74.525935916  163.457852269    24.1302   5  12   0.6174   0.5428   1.7253   0.0585  -0.5112  -0.5588   0.00    0.0
2018/11/14 01:11:30.000  -74.525932537  163.457859018    22.6038   5  12   0.6179   0.5435   1.7278   0.0611  -0.5143  -0.5590   0.00    0.0
2018/11/14 01:11:45.000  -74.525935250  163.457845050    23.9998   5  12   0.6184   0.5443   1.7305   0.0635  -0.5174  -0.5593   0.00    0.0
2018/11/14 01:12:00.000  -74.525935415  163.457858060    23.2792   5  12   0.6189   0.5451   1.7335   0.0658  -0.5205  -0.5596   0.00    0.0
2018/11/14 01:12:15.000  -74.525935889  163.457853439    24.1368   5  12   0.6195   0.5460   1.7368   0.0680  -0.5237  -0.5599   0.00    0.0
2018/11/14 01:12:30.000  -74.525935792  163.457853633    23.8362   5  12   0.6201   0.5469   1.7403   0.0702  -0.5270  -0.5603   0.00    0.0
2018/11/14 01:12:45.000  -74.525937379  163.457849619    23.7196   5  12   0.6199   0.5468   1.7390   0.0726  -0.5288  -0.5600   0.00    0.0
2018/11/14 01:13:00.000  -74.525933686  163.457843318    24.3950   5  12   0.6196   0.5467   1.7378   0.0749  -0.5307  -0.5598   0.00    0.0
2018/11/14 01:13:15.000  -74.525937628  163.457852805    23.7857   5  12   0.6195   0.5467   1.7369   0.0771  -0.5326  -0.5596   0.00    0.0
2018/11/14 01:13:30.000  -74.525936205  163.457855336    23.7343   5  12   0.6193   0.5467   1.7363   0.0792  -0.5345  -0.5595   0.00    0.0
2018/11/14 01:13:45.000  -74.525935944  163.457847790    23.1970   5  12   0.6193   0.5468   1.7360   0.0813  -0.5366  -0.5594   0.00    0.0
2018/11/14 01:14:00.000  -74.525934710  163.457858464    23.6847   5  12   0.6192   0.5469   1.7359   0.0833  -0.5387  -0.5593   0.00    0.0
2018/11/14 01:14:15.000  -74.525937278  163.457858019    24.1520   5  12   0.6192   0.5472   1.7362   0.0852  -0.5408  -0.5593   0.00    0.0
2018/11/14 01:14:30.000  -74.525935214  163.457857662    23.0782   5  12   0.6193   0.5474   1.7367   0.0871  -0.5430  -0.5593   0.00    0.0
2018/11/14 01:14:45.000  -74.525934704  163.457856397    23.7648   5  12   0.6194   0.5477   1.7374   0.0889  -0.5453  -0.5594   0.00    0.0
2018/11/14 01:15:00.000  -74.525935632  163.457863225    23.1696   5  12   0.6196   0.5481   1.7385   0.0907  -0.5477  -0.5595   0.00    0.0
2018/11/14 01:15:15.000  -74.525936822  163.457852590    23.4735   5  12   0.6199   0.5486   1.7399   0.0925  -0.5501  -0.5597   0.00    0.0
2018/11/14 01:15:30.000  -74.525935216  163.457862689    23.3043   5  12   0.6201   0.5491   1.7415   0.0942  -0.5526  -0.5599   0.00    0.0
2018/11/14 01:15:45.000  -74.525935191  163.457850489    23.6918   5  12   0.6205   0.5497   1.7434   0.0958  -0.5552  -0.5601   0.00    0.0
2018/11/14 01:16:00.000  -74.525936407  163.457851650    23.6801   5  12   0.6209   0.5503   1.7456   0.0974  -0.5578  -0.5604   0.00    0.0
2018/11/14 01:16:15.000  -74.525937982  163.457849124    24.1280   5  12   0.6213   0.5510   1.7480   0.0990  -0.5605  -0.5608   0.00    0.0
2018/11/14 01:16:30.000  -74.525937164  163.457855340    23.9768   5  12   0.6218   0.5518   1.7507   0.1006  -0.5632  -0.5612   0.00    0.0
2018/11/14 01:16:45.000  -74.525934681  163.457853405    23.8565   5  12   0.6224   0.5526   1.7537   0.1021  -0.5660  -0.5616   0.00    0.0
2018/11/14 01:17:00.000  -74.525935456  163.457855438    23.5710   5  12   0.6230   0.5534   1.7569   0.1036  -0.5688  -0.5620   0.00    0.0
2018/11/14 01:17:15.000  -74.525935914  163.457849812    23.7207   5  12   0.6237   0.5544   1.7603   0.1051  -0.5717  -0.5625   0.00    0.0
2018/11/14 01:17:30.000  -74.525934627  163.457848860    23.5363   5  12   0.6244   0.5553   1.7640   0.1065  -0.5747  -0.5631   0.00    0.0
2018/11/14 01:17:45.000  -74.525935694  163.457852001    23.8728   5  12   0.6241   0.5552   1.7631   0.1081  -0.5763  -0.5630   0.00    0.0
2018/11/14 01:18:00.000  -74.525935804  163.457854731    23.8568   5  12   0.6240   0.5552   1.7622   0.1097  -0.5778  -0.5629   0.00    0.0
2018/11/14 01:18:15.000  -74.525935218  163.457855925    23.3860   5  12   0.6238   0.5552   1.7617   0.1112  -0.5795  -0.5629   0.00    0.0
2018/11/14 01:18:30.000  -74.525932018  163.457856748    23.2480   5  12   0.6238   0.5553   1.7614   0.1127  -0.5812  -0.5630   0.00    0.0
2018/11/14 01:18:45.000  -74.525935697  163.457851197    24.3579   5  12   0.6237   0.5554   1.7613   0.1142  -0.5829  -0.5631   0.00    0.0
2018/11/14 01:19:00.000  -74.525935713  163.457848618    23.8126   5  12   0.6238   0.5556   1.7616   0.1156  -0.5847  -0.5632   0.00    0.0
2018/11/14 01:19:15.000  -74.525934508  163.457852215    23.4478   5  12   0.6238   0.5558   1.7621   0.1170  -0.5866  -0.5634   0.00    0.0
2018/11/14 01:19:30.000  -74.525934551  163.457848770    23.7532   5  12   0.6240   0.5561   1.7628   0.1184  -0.5885  -0.5636   0.00    0.0
2018/11/14 01:19:45.000  -74.525934212  163.457854573    23.5482   5  12   0.6241   0.5565   1.7638   0.1198  -0.5905  -0.5638   0.00    0.0
2018/11/14 01:20:00.000  -74.525935603  163.457841561    24.2190   5  12   0.6244   0.5569   1.7651   0.1211  -0.5926  -0.5641   0.00    0.0
2018/11/14 01:20:15.000  -74.525935332  163.457857352    23.2493   5  12   0.6247   0.5574   1.7666   0.1225  -0.5947  -0.5645   0.00    0.0
2018/11/14 01:20:30.000  -74.525933492  163.457849350    23.7436   5  12   0.6250   0.5579   1.7685   0.1238  -0.5969  -0.5648   0.00    0.0
2018/11/14 01:20:45.000  -74.525934399  163.457851495    23.3630   5  12   0.6255   0.5586   1.7706   0.1251  -0.5992  -0.5653   0.00    0.0
2018/11/14 01:21:00.000  -74.525936445  163.457848415    23.5930   5  12   0.6259   0.5592   1.7729   0.1263  -0.6015  -0.5657   0.00    0.0
2018/11/14 01:21:15.000  -74.525935738  163.457850145    23.8460   5  12   0.6264   0.5599   1.7754   0.1276  -0.6039  -0.5662   0.00    0.0
2018/11/14 01:21:30.000  -74.525937008  163.457855245    23.2448   5  12   0.6270   0.5607   1.7782   0.1288  -0.6063  -0.5667   0.00    0.0
2018/11/14 01:21:45.000  -74.525936073  163.457846276    23.5334   5  12   0.6276   0.5615   1.7812   0.1300  -0.6088  -0.5673   0.00    0.0
2018/11/14 01:22:00.000  -74.525936479  163.457843776    24.5460   5  12   0.6283   0.5624   1.7845   0.1312  -0.6113  -0.5679   0.00    0.0
2018/11/14 01:22:15.000  -74.525936089  163.457850971    23.9740   5  12   0.6290   0.5633   1.7879   0.1324  -0.6139  -0.5685   0.00    0.0
2018/11/14 01:22:30.000  -74.525934547  163.457847481    23.5495   5  12   0.6298   0.5643   1.7916   0.1336  -0.6165  -0.5692   0.00    0.0
2018/11/14 01:22:45.000  -74.525937279  163.457849856    23.6203   5  12   0.6296   0.5642   1.7909   0.1349  -0.6178  -0.5693   0.00    0.0
2018/11/14 01:23:00.000  -74.525935084  163.457848651    24.1829   5  12   0.6295   0.5642   1.7903   0.1362  -0.6191  -0.5695   0.00    0.0
2018/11/14 01:23:15.000  -74.525936131  163.457853168    23.0418   5  12   0.6294   0.5642   1.7900   0.1374  -0.6204  -0.5697   0.00    0.0
2018/11/14 01:23:30.000  -74.525937463  163.457852452    23.8575   5  12   0.6294   0.5643   1.7899   0.1386  -0.6218  -0.5699   0.00    0.0
2018/11/14 01:23:45.000  -74.525936126  163.457853975    23.1397   5  11   0.6606   0.5682   1.8271   0.1804  -0.6040  -0.5017   0.00    0.0
2018/11/14 01:24:00.000  -74.525937774  163.457846965    24.1199   5  11   0.6605   0.5683   1.8277   0.1810  -0.6056  -0.5020   0.00    0.0
2018/11/14 01:24:15.000  -74.525936649  163.457853205    23.1801   5  11   0.6605   0.5685   1.8287   0.1817  -0.6072  -0.5023   0.00    0.0
2018/11/14 01:24:30.000  -74.525936904  163.457847259    23.9618   5  11   0.6605   0.5688   1.8298   0.1824  -0.6089  -0.5027   0.00    0.0
2018/11/14 01:24:45.000  -74.525935008  163.457847431    24.6781   5  11   0.6605   0.5691   1.8312   0.1831  -0.6106  -0.5031   0.00    0.0
2018/11/14 01:25:00.000  -74.525937009  163.457850543    23.7828   5  11   0.6606   0.5695   1.8329   0.1837  -0.6124  -0.5034   0.00    0.0
2018/11/14 01:25:15.000  -74.525939797  163.457858547    23.1748   5  10   0.6722   0.6287   2.0881   0.0368  -0.8012  -0.3622   0.00    0.0
2018/11/14 01:25:30.000  -74.525937282  163.457860675    22.6878   5  10   0.6723   0.6295   2.0930   0.0411  -0.8042  -0.3627   0.00    0.0
2018/11/14 01:25:45.000  -74.525941548  163.457871215    21.9481   5  10   0.6725   0.6304   2.0981   0.0449  -0.8072  -0.3632   0.00    0.0
2018/11/14 01:26:00.000  -74.525936882  163.457858364    23.6438   5   9   0.7715   0.6830   2.6253   0.3174  -1.0325  -0.8517   0.00    0.0
2018/11/14 01:26:15.000  -74.525937724  163.457858001    23.2137   5   9   0.7721   0.6851   2.6382   0.3198  -1.0390  -0.8556   0.00    0.0
2018/11/14 01:26:30.000  -74.525938269  163.457864621    22.2968   5   9   0.7728   0.6872   2.6515   0.3222  -1.0456  -0.8595   0.00    0.0
2018/11/14 01:26:45.000  -74.525939827  163.457846348    24.2603   5   9   0.7735   0.6894   2.6654   0.3247  -1.0524  -0.8635   0.00    0.0
2018/11/14 01:27:00.000  -74.525935508  163.457856721    22.1770   5   9   0.7744   0.6917   2.6797   0.3272  -1.0594  -0.8677   0.00    0.0
2018/11/14 01:27:15.000  -74.525937021  163.457860461    22.6064   5   9   0.7753   0.6941   2.6945   0.3297  -1.0665  -0.8719   0.00    0.0
2018/11/14 01:27:30.000  -74.525934543  163.457853726    22.9687   5   9   0.7763   0.6966   2.7097   0.3323  -1.0738  -0.8763   0.00    0.0
2018/11/14 01:27:45.000  -74.525935188  163.457859086    22.1314   5   9   0.7759   0.6973   2.7164   0.3342  -1.0777  -0.8792   0.00    0.0
2018/11/14 01:28:00.000  -74.525938345  163.457854585    23.3590   5   9   0.7756   0.6982   2.7238   0.3363  -1.0818  -0.8822   0.00    0.0
2018/11/14 01:28:15.000  -74.525939153  163.457854388    22.7277   5   9   0.7754   0.6991   2.7317   0.3383  -1.0860  -0.8854   0.00    0.0
2018/11/14 01:28:30.000  -74.525939320  163.457848101    24.0304   5   9   0.7753   0.7002   2.7400   0.3404  -1.0904  -0.8886   0.00    0.0
2018/11/14 01:28:45.000  -74.525936115  163.457855912    22.4966   5   9   0.7752   0.7013   2.7487   0.3424  -1.0950  -0.8919   0.00    0.0
2018/11/14 01:29:00.000  -74.525939153  163.457848006    24.4578   5   9   0.7752   0.7025   2.7578   0.3445  -1.0997  -0.8953   0.00    0.0
2018/11/14 01:29:15.000  -74.525938912  163.457860745    23.3438   5   9   0.7753   0.7038   2.7674   0.3467  -1.1046  -0.8988   0.00    0.0
2018/11/14 01:29:30.000  -74.525940426  163.457861355    22.6227   5   9   0.7755   0.7052   2.7775   0.3488  -1.1096  -0.9024   0.00    0.0
2018/11/14 01:29:45.000  -74.525939071  163.457857199    22.5266   5   9   0.7757   0.7066   2.7880   0.3510  -1.1148  -0.9061   0.00    0.0
2018/11/14 01:30:00.000  -74.525936835  163.457857037    22.9522   5   9   0.7761   0.7082   2.7989   0.3532  -1.1201  -0.9099   0.00    0.0
2018/11/14 01:30:15.000  -74.525936226  163.457854597    22.9869   5   9   0.7765   0.7099   2.8104   0.3554  -1.1257  -0.9138   0.00    0.0
2018/11/14 01:30:30.000  -74.525936769  163.457860445    22.9323   5   9   0.7771   0.7116   2.8223   0.3577  -1.1314  -0.9178   0.00    0.0
2018/11/14 01:30:45.000  -74.525937061  163.457858861    22.3173   5   9   0.7777   0.7134   2.8346   0.3600  -1.1372  -0.9218   0.00    0.0
2018/11/14 01:31:00.000  -74.525939281  163.457848044    24.2441   5   9   0.7784   0.7154   2.8473   0.3623  -1.1432  -0.9260   0.00    0.0
2018/11/14 01:31:15.000  -74.525937252  163.457850260    23.8675   5   9   0.7792   0.7174   2.8605   0.3646  -1.1493  -0.9302   0.00    0.0
2018/11/14 01:31:30.000  -74.525935801  163.457857038    23.6390   5   9   0.7800   0.7195   2.8740   0.3670  -1.1556  -0.9346   0.00    0.0
2018/11/14 01:31:45.000  -74.525940064  163.457843493    23.2588   5   9   0.7810   0.7216   2.8880   0.3694  -1.1621  -0.9390   0.00    0.0
2018/11/14 01:32:00.000  -74.525938234  163.457861066    23.2053   5   9   0.7820   0.7239   2.9023   0.3718  -1.1686  -0.9435   0.00    0.0
2018/11/14 01:32:15.000  -74.525939648  163.457862626    23.6140   5   9   0.7831   0.7262   2.9170   0.3742  -1.1753  -0.9481   0.00    0.0
2018/11/14 01:32:30.000  -74.525938981  163.457862733    22.9598   5   9   0.7843   0.7286   2.9321   0.3766  -1.1821  -0.9528   0.00    0.0
2018/11/14 01:32:45.000  -74.525941873  163.457847824    23.5042   5   9   0.7841   0.7293   2.9388   0.3784  -1.1855  -0.9560   0.00    0.0
2018/11/14 01:33:00.000  -74.525938239  163.457862427    22.0877   5   9   0.7839   0.7300   2.9458   0.3803  -1.1889  -0.9592   0.00    0.0
2018/11/14 01:33:15.000  -74.525938893  163.457853623    24.0316   5   9   0.7839   0.7307   2.9533   0.3821  -1.1925  -0.9625   0.00    0.0
2018/11/14 01:33:30.000  -74.525939199  163.457852883    23.0617   5   9   0.7839   0.7316   2.9611   0.3840  -1.1962  -0.9659   0.00    0.0
2018/11/14 01:33:45.000  -74.525938922  163.457855207    22.5575   5   9   0.7840   0.7325   2.9692   0.3858  -1.2000  -0.9694   0.00    0.0
2018/11/14 01:34:00.000  -74.525937079  163.457851069    23.2031   5   9   0.7841   0.7335   2.9777   0.3877  -1.2039  -0.9729   0.00    0.0
2018/11/14 01:34:15.000  -74.525936006  163.457851696    22.5539   5   9   0.7844   0.7345   2.9866   0.3896  -1.2080  -0.9765   0.00    0.0
2018/11/14 01:34:30.000  -74.525936772  163.457858910    22.6194   5   9   0.7847   0.7357   2.9958   0.3916  -1.2121  -0.9801   0.00    0.0
2018/11/14 01:34:45.000  -74.525939673  163.457850493    23.5008   5   9   0.7851   0.7369   3.0053   0.3935  -1.2164  -0.9839   0.00    0.0
2018/11/14 01:35:00.000  -74.525937237  163.457855023    22.5215   5   9   0.7856   0.7381   3.0152   0.3954  -1.2208  -0.9877   0.00    0.0
2018/11/14 01:35:15.000  -74.525938761  163.457861469    22.1099   5   9   0.7862   0.7395   3.0255   0.3974  -1.2253  -0.9915   0.00    0.0
2018/11/14 01:35:30.000  -74.525936620  163.457852317    22.6682   5   9   0.7869   0.7410   3.0361   0.3994  -1.2300  -0.9955   0.00    0.0
2018/11/14 01:35:45.000  -74.525938317  163.457854969    22.0895   5   9   0.7876   0.7425   3.0470   0.4014  -1.2347  -0.9995   0.00    0.0
2018/11/14 01:36:00.000  -74.525937604  163.457857932    21.9126   5   9   0.7885   0.7441   3.0582   0.4034  -1.2395  -1.0036   0.00    0.0
2018/11/14 01:36:15.000  -74.525937171  163.457868627    21.0731   5   9   0.7894   0.7457   3.0696   0.4055  -1.2445  -1.0077   0.00    0.0
2018/11/14 01:36:30.000  -74.525937015  163.457870853    21.9027   5   9   0.7904   0.7474   3.0813   0.4075  -1.2495  -1.0118   0.00    0.0
2018/11/14 01:36:45.000  -74.525939262  163.457848451    24.1720   5   9   0.7915   0.7492   3.0933   0.4096  -1.2546  -1.0160   0.00    0.0
2018/11/14 01:37:00.000  -74.525939274  163.457859936    22.1614   5   9   0.7926   0.7510   3.1055   0.4116  -1.2597  -1.0203   0.00    0.0
2018/11/14 01:37:15.000  -74.525936536  163.457859248    22.1366   5   9   0.7939   0.7529   3.1179   0.4137  -1.2649  -1.0246   0.00    0.0
2018/11/14 01:37:30.000  -74.525935792  163.457867416    21.0522   5   9   0.7952   0.7549   3.1305   0.4158  -1.2702  -1.0289   0.00    0.0
2018/11/14 01:37:45.000  -74.525940932  163.457849470    24.9689   5   8   0.9629   0.7706   4.0388   0.5079  -1.4183  -1.5644   0.00    0.0
2018/11/14 01:38:00.000  -74.525940587  163.457848169    23.8720   5   8   0.9652   0.7718   4.0614   0.5123  -1.4261  -1.5748   0.00    0.0
2018/11/14 01:38:15.000  -74.525938717  163.457853932    23.0053   5   8   0.9676   0.7731   4.0847   0.5168  -1.4342  -1.5855   0.00    0.0
2018/11/14 01:38:30.000  -74.525936550  163.457860273    22.4941   5   8   0.9701   0.7744   4.1087   0.5213  -1.4424  -1.5964   0.00    0.0
2018/11/14 01:38:45.000  -74.525940304  163.457857549    22.2424   5   8   0.9729   0.7759   4.1333   0.5259  -1.4508  -1.6075   0.00    0.0
2018/11/14 01:39:00.000  -74.525943047  163.457847627    25.1290   5   9   0.7303   0.7318   2.9099   0.3342  -1.1620  -0.8359   0.00    0.0
2018/11/14 01:39:15.000  -74.525941632  163.457853686    24.4292   5   9   0.7304   0.7324   2.9206   0.3366  -1.1658  -0.8406   0.00    0.0
2018/11/14 01:39:30.000  -74.525943255  163.457841370    26.5394   5   9   0.7306   0.7330   2.9316   0.3391  -1.1698  -0.8454   0.00    0.0
2018/11/14 01:39:45.000  -74.525942756  163.457844417    24.5700   5   9   0.7309   0.7337   2.9429   0.3416  -1.1738  -0.8503   0.00    0.0
2018/11/14 01:40:00.000  -74.525939391  163.457852418    25.0083   5   9   0.7313   0.7344   2.9546   0.3441  -1.1780  -0.8551   0.00    0.0
2018/11/14 01:40:15.000  -74.525941445  163.457842917    25.2363   5   9   0.7317   0.7353   2.9665   0.3465  -1.1823  -0.8601   0.00    0.0
2018/11/14 01:40:30.000  -74.525942961  163.457837929    26.0570   5   9   0.7323   0.7362   2.9788   0.3490  -1.1866  -0.8651   0.00    0.0
2018/11/14 01:40:45.000  -74.525940860  163.457857287    24.5448   5   9   0.7329   0.7372   2.9914   0.3515  -1.1911  -0.8701   0.00    0.0
2018/11/14 01:41:00.000  -74.525943702  163.457841495    25.5047   5   9   0.7336   0.7383   3.0042   0.3540  -1.1957  -0.8752   0.00    0.0
2018/11/14 01:41:15.000  -74.525943092  163.457848512    24.7667   5   9   0.7344   0.7394   3.0173   0.3565  -1.2003  -0.8803   0.00    0.0
2018/11/14 01:41:30.000  -74.525942335  163.457849456    25.5255   5   9   0.7352   0.7406   3.0307   0.3590  -1.2050  -0.8855   0.00    0.0
2018/11/14 01:41:45.000  -74.525945043  163.457843388    24.6821   5   9   0.7362   0.7419   3.0443   0.3615  -1.2098  -0.8907   0.00    0.0
2018/11/14 01:42:00.000  -74.525941722  163.457845709    25.0665   5   9   0.7372   0.7432   3.0582   0.3640  -1.2147  -0.8960   0.00    0.0
2018/11/14 01:42:15.000  -74.525943064  163.457845634    25.3263   5   9   0.7383   0.7446   3.0723   0.3666  -1.2196  -0.9013   0.00    0.0
2018/11/14 01:42:30.000  -74.525944257  163.457857790    24.4706   5   9   0.7394   0.7461   3.0866   0.3691  -1.2246  -0.9066   0.00    0.0
2018/11/14 01:42:45.000  -74.525940731  163.457852189    24.1698   5   9   0.7393   0.7458   3.0941   0.3712  -1.2266  -0.9112   0.00    0.0
2018/11/14 01:43:00.000  -74.525946286  163.457842075    25.1175   5   9   0.7393   0.7456   3.1016   0.3733  -1.2287  -0.9157   0.00    0.0
2018/11/14 01:43:15.000  -74.525942462  163.457852554    25.1649   5   9   0.7393   0.7454   3.1094   0.3753  -1.2309  -0.9202   0.00    0.0
2018/11/14 01:43:30.000  -74.525943444  163.457834372    26.3628   5   9   0.7394   0.7453   3.1174   0.3774  -1.2330  -0.9248   0.00    0.0
2018/11/14 01:43:45.000  -74.525945711  163.457849913    25.6755   5   9   0.7396   0.7453   3.1255   0.3794  -1.2353  -0.9294   0.00    0.0
2018/11/14 01:44:00.000  -74.525940278  163.457848182    25.2648   5   9   0.7399   0.7453   3.1339   0.3815  -1.2376  -0.9339   0.00    0.0
2018/11/14 01:44:15.000  -74.525943299  163.457846537    26.2160   5   9   0.7402   0.7454   3.1425   0.3835  -1.2399  -0.9386   0.00    0.0
