% program   : RTKLIB ver.2.4.3
% inp file  : _by_type/_obs/tuati/20181108.18o
% inp file  : _by_type/_obs/base/20181107_GPS.18o
% inp file  : _by_type/_sp3+clk/igs20264.clk
% inp file  : _by_type/_sp3+clk/igs20264.sp3
% inp file  : _by_type/_nav/tuati/20181108.18n
% obs start : 2018/11/08 00:00:00.0 GPST (week2026 345600.0s)
% obs end   : 2018/11/08 23:59:30.0 GPST (week2026 431970.0s)
% pos mode  : dgps
% freqs     : L1+L2
% solution  : combined
% elev mask : 15.0 deg
% dynamics  : off
% tidecorr  : off
% ionos opt : iono-free
% tropo opt : est ztd+grad
% ephemeris : precise
% navi sys  : gps glonass
% antenna1  :                       ( 0.0000  0.0000  0.0000)
% antenna2  :                       ( 0.0000  0.0000  0.0000)
% ref pos   : 90.000000000   0.000000000-6335367.6285
%
% (lat/lon/height=WGS84/ellipsoidal,Q=1:fix,2:float,3:sbas,4:dgps,5:single,6:ppp,ns=# of satellites)
%  GPST                  latitude(deg) longitude(deg)  height(m)   Q  ns   sdn(m)   sde(m)   sdu(m)  sdne(m)  sdeu(m)  sdun(m) age(s)  ratio
2018/11/08 00:00:00.000  -74.425539162  163.418447612    63.7847   5   9   0.6779   0.6131   2.1561  -0.1863   0.4312  -0.7534  15.00    0.0
2018/11/08 00:00:30.000  -74.425540143  163.418455153    63.9139   5   9   0.6777   0.6134   2.1667  -0.1882   0.4398  -0.7559  45.00    0.0
2018/11/08 00:01:00.000  -74.425539395  163.418443016    64.5007   5   9   0.6777   0.6141   2.1785  -0.1904   0.4488  -0.7587  75.00    0.0
2018/11/08 00:01:30.000  -74.425541239  163.418455886    63.8556   5   9   0.6781   0.6151   2.1914  -0.1928   0.4582  -0.7620 105.00    0.0
2018/11/08 00:02:00.000  -74.425540263  163.418444724    64.3034   5   9   0.6788   0.6165   2.2056  -0.1954   0.4680  -0.7657 135.00    0.0
2018/11/08 00:02:30.000  -74.425546193  163.418441213    64.6944   5   9   0.6797   0.6182   2.2211  -0.1983   0.4783  -0.7697 165.00    0.0
2018/11/08 00:03:00.000  -74.425543961  163.418452691    64.8377   5   9   0.6782   0.6169   2.2266  -0.1993   0.4849  -0.7709 195.00    0.0
2018/11/08 00:03:30.000  -74.425543111  163.418454414    63.5232   5   9   0.6769   0.6160   2.2333  -0.2006   0.4920  -0.7725 225.00    0.0
2018/11/08 00:04:00.000  -74.425540654  163.418445041    64.2833   5   9   0.6760   0.6154   2.2412  -0.2021   0.4995  -0.7745 255.00    0.0
2018/11/08 00:04:30.000  -74.425544334  163.418449683    64.7413   5   9   0.6753   0.6152   2.2502  -0.2039   0.5073  -0.7769 285.00    0.0
2018/11/08 00:05:00.000  -74.425542778  163.418440615    64.7622   5   9   0.6750   0.6153   2.2604  -0.2059   0.5156  -0.7796 315.00    0.0
2018/11/08 00:05:30.000  -74.425541088  163.418456775    64.4085   5   9   0.6751   0.6159   2.2722  -0.2082   0.5244  -0.7829 345.00    0.0
2018/11/08 00:06:00.000  -74.425542150  163.418445407    64.4143   5   9   0.6754   0.6168   2.2852  -0.2107   0.5336  -0.7865 375.00    0.0
2018/11/08 00:06:30.000  -74.425541436  163.418449532    64.7877   5   9   0.6760   0.6182   2.2995  -0.2135   0.5432  -0.7906 405.00    0.0
2018/11/08 00:07:00.000  -74.425541021  163.418447268    63.8704   5   9   0.6770   0.6198   2.3150  -0.2165   0.5533  -0.7951 435.00    0.0
2018/11/08 00:07:30.000  -74.425542442  163.418452571    64.9619   5   9   0.6783   0.6219   2.3318  -0.2198   0.5639  -0.8000 465.00    0.0
2018/11/08 00:08:00.000  -74.425540103  163.418452403    63.3593   5  10   0.6543   0.6115   2.0871  -0.2601   0.6626  -0.6780 495.00    0.0
2018/11/08 00:08:30.000  -74.425540909  163.418453439    62.8838   5  10   0.6535   0.6110   2.0956  -0.2611   0.6680  -0.6811 525.00    0.0
2018/11/08 00:09:00.000  -74.425539271  163.418457880    62.7793   5  10   0.6529   0.6108   2.1053  -0.2623   0.6738  -0.6844 555.00    0.0
2018/11/08 00:09:30.000  -74.425538767  163.418454106    62.6897   5  10   0.6526   0.6110   2.1161  -0.2638   0.6802  -0.6882 585.00    0.0
2018/11/08 00:10:00.000  -74.425539855  163.418452696    62.8291   5  10   0.6526   0.6116   2.1280  -0.2656   0.6871  -0.6923 615.00    0.0
2018/11/08 00:10:30.000  -74.425539381  163.418453079    62.0565   5  10   0.6530   0.6126   2.1414  -0.2677   0.6946  -0.6969 645.00    0.0
2018/11/08 00:11:00.000  -74.425538209  163.418453020    62.2317   5  10   0.6537   0.6140   2.1560  -0.2700   0.7027  -0.7019 675.00    0.0
2018/11/08 00:11:30.000  -74.425539382  163.418459101    62.4434   5  10   0.6547   0.6157   2.1719  -0.2726   0.7113  -0.7072 705.00    0.0
2018/11/08 00:12:00.000  -74.425540096  163.418454802    63.0371   5  10   0.6560   0.6179   2.1890  -0.2755   0.7204  -0.7130 735.00    0.0
2018/11/08 00:12:30.000  -74.425540340  163.418454941    62.7036   5  10   0.6576   0.6204   2.2073  -0.2786   0.7301  -0.7192 765.00    0.0
2018/11/08 00:13:00.000  -74.425539508  163.418457158    63.1989   5  10   0.6568   0.6198   2.2157  -0.2797   0.7352  -0.7227 795.00    0.0
2018/11/08 00:13:30.000  -74.425537814  163.418456915    63.5638   5  10   0.6562   0.6195   2.2251  -0.2811   0.7407  -0.7265 825.00    0.0
2018/11/08 00:14:00.000  -74.425536669  163.418449952    61.8179   5  10   0.6560   0.6196   2.2356  -0.2827   0.7467  -0.7307 855.00    0.0
2018/11/08 00:14:30.000  -74.425538785  163.418446520    62.1948   5  10   0.6560   0.6200   2.2473  -0.2845   0.7533  -0.7353 885.00    0.0
2018/11/08 00:15:00.000  -74.425536660  163.418455811    63.0830   5  10   0.6564   0.6209   2.2602  -0.2866   0.7603  -0.7402 915.00    0.0
2018/11/08 00:15:30.000  -74.425539397  163.418449807    62.3428   5  10   0.6571   0.6222   2.2746  -0.2890   0.7680  -0.7456 945.00    0.0
2018/11/08 00:16:00.000  -74.425537595  163.418449970    62.3442   5  10   0.6582   0.6238   2.2902  -0.2917   0.7763  -0.7515 975.00    0.0
2018/11/08 00:16:30.000  -74.425541212  163.418463928    63.3916   5  10   0.6595   0.6259   2.3070  -0.2946   0.7851  -0.7578 1005.00    0.0
2018/11/08 00:17:00.000  -74.425541502  163.418456454    63.4458   5  10   0.6612   0.6283   2.3250  -0.2978   0.7944  -0.7644 1035.00    0.0
2018/11/08 00:17:30.000  -74.425540906  163.418460058    63.6612   5  10   0.6632   0.6311   2.3442  -0.3013   0.8042  -0.7715 1065.00    0.0
2018/11/08 00:18:00.000  -74.425540853  163.418462309    63.4793   5  10   0.6626   0.6306   2.3526  -0.3026   0.8090  -0.7754 1095.00    0.0
2018/11/08 00:18:30.000  -74.425540460  163.418457060    63.1181   5  10   0.6624   0.6305   2.3621  -0.3041   0.8143  -0.7798 1125.00    0.0
2018/11/08 00:19:00.000  -74.425540866  163.418462407    62.9142   5  10   0.6625   0.6308   2.3726  -0.3059   0.8201  -0.7845 1155.00    0.0
2018/11/08 00:19:30.000  -74.425540817  163.418452150    62.8574   5  10   0.6628   0.6314   2.3843  -0.3080   0.8263  -0.7896 1185.00    0.0
2018/11/08 00:20:00.000  -74.425537034  163.418455869    61.5812   5  10   0.6635   0.6324   2.3971  -0.3103   0.8331  -0.7950 1215.00    0.0
2018/11/08 00:20:30.000  -74.425539819  163.418456909    61.6884   5  10   0.6646   0.6339   2.4113  -0.3129   0.8405  -0.8010 1245.00    0.0
2018/11/08 00:21:00.000  -74.425540417  163.418452032    62.7928   5  10   0.6660   0.6357   2.4266  -0.3157   0.8483  -0.8073 1275.00    0.0
2018/11/08 00:21:30.000  -74.425539817  163.418459602    62.5831   5  10   0.6677   0.6379   2.4430  -0.3188   0.8567  -0.8140 1305.00    0.0
2018/11/08 00:22:00.000  -74.425540140  163.418459386    62.2568   5  11   0.6568   0.6404   2.3656  -0.3208   0.8680  -0.8732 1335.00    0.0
2018/11/08 00:22:30.000  -74.425540831  163.418462612    62.5944   5  11   0.6589   0.6433   2.3847  -0.3244   0.8770  -0.8807 1365.00    0.0
2018/11/08 00:23:00.000  -74.425538408  163.418458568    62.7940   5  11   0.6586   0.6429   2.3933  -0.3259   0.8810  -0.8845 1395.00    0.0
2018/11/08 00:23:30.000  -74.425538607  163.418459885    62.0604   5  11   0.6585   0.6428   2.4025  -0.3276   0.8853  -0.8886 1425.00    0.0
2018/11/08 00:24:00.000  -74.425541385  163.418461009    63.0802   5  11   0.6587   0.6431   2.4127  -0.3294   0.8900  -0.8930 1455.00    0.0
2018/11/08 00:24:30.000  -74.425538614  163.418457836    62.1621   5  11   0.6592   0.6437   2.4239  -0.3314   0.8951  -0.8978 1485.00    0.0
2018/11/08 00:25:00.000  -74.425539262  163.418457532    63.0137   5  11   0.6600   0.6446   2.4360  -0.3337   0.9006  -0.9030 1515.00    0.0
2018/11/08 00:25:30.000  -74.425541053  163.418456119    63.2799   5  11   0.6611   0.6460   2.4494  -0.3362   0.9068  -0.9086 1545.00    0.0
2018/11/08 00:26:00.000  -74.425538078  163.418453708    62.6932   5  11   0.6625   0.6477   2.4638  -0.3389   0.9134  -0.9146 1575.00    0.0
2018/11/08 00:26:30.000  -74.425541800  163.418457118    62.7025   5  11   0.6642   0.6498   2.4790  -0.3418   0.9203  -0.9208 1605.00    0.0
2018/11/08 00:27:00.000  -74.425539503  163.418462184    63.0493   5  11   0.6662   0.6522   2.4951  -0.3449   0.9276  -0.9274 1635.00    0.0
2018/11/08 00:27:30.000  -74.425541974  163.418464588    63.6778   5  11   0.6684   0.6549   2.5120  -0.3481   0.9353  -0.9344 1665.00    0.0
2018/11/08 00:28:00.000  -74.425538459  163.418453191    62.4852   5  11   0.6681   0.6542   2.5174  -0.3492   0.9376  -0.9373 1695.00    0.0
2018/11/08 00:28:30.000  -74.425538250  163.418452770    62.3299   5  11   0.6681   0.6539   2.5237  -0.3504   0.9403  -0.9406 1725.00    0.0
2018/11/08 00:29:00.000  -74.425538151  163.418451360    62.0940   5  11   0.6684   0.6538   2.5308  -0.3517   0.9433  -0.9442 1755.00    0.0
2018/11/08 00:29:30.000  -74.425539623  163.418459530    63.4064   5  11   0.6689   0.6541   2.5385  -0.3532   0.9466  -0.9480 1785.00    0.0
2018/11/08 00:30:00.000  -74.425536984  163.418453825    62.2951   5  11   0.6697   0.6547   2.5470  -0.3549   0.9502  -0.9520 1815.00    0.0
2018/11/08 00:30:30.000  -74.425540158  163.418457185    62.3491   5  11   0.6708   0.6557   2.5565  -0.3568   0.9543  -0.9565 1845.00    0.0
2018/11/08 00:31:00.000  -74.425538802  163.418460435    61.7226   5  11   0.6722   0.6569   2.5667  -0.3588   0.9587  -0.9612 1875.00    0.0
2018/11/08 00:31:30.000  -74.425540043  163.418463500    62.8652   5  11   0.6738   0.6585   2.5775  -0.3609   0.9633  -0.9660 1905.00    0.0
2018/11/08 00:32:00.000  -74.425539183  163.418459015    62.6337   5  11   0.6757   0.6603   2.5889  -0.3632   0.9681  -0.9711 1935.00    0.0
2018/11/08 00:32:30.000  -74.425536976  163.418449209    61.1827   5  11   0.6778   0.6624   2.6008  -0.3655   0.9731  -0.9764 1965.00    0.0
2018/11/08 00:33:00.000  -74.425537489  163.418458785    61.2587   5  11   0.6774   0.6613   2.6013  -0.3657   0.9729  -0.9777 1995.00    0.0
2018/11/08 00:33:30.000  -74.425537390  163.418449302    60.7259   5  11   0.6772   0.6604   2.6023  -0.3661   0.9730  -0.9793 2025.00    0.0
2018/11/08 00:34:00.000  -74.425540099  163.418462129    62.4455   5  11   0.6773   0.6597   2.6038  -0.3665   0.9732  -0.9810 2055.00    0.0
2018/11/08 00:34:30.000  -74.425538169  163.418448442    61.7227   5  11   0.6776   0.6593   2.6058  -0.3671   0.9737  -0.9829 2085.00    0.0
2018/11/08 00:35:00.000  -74.425537615  163.418452757    61.1591   5  11   0.6782   0.6592   2.6084  -0.3677   0.9744  -0.9849 2115.00    0.0
2018/11/08 00:35:30.000  -74.425538850  163.418456935    62.0295   5  11   0.6790   0.6595   2.6118  -0.3685   0.9754  -0.9872 2145.00    0.0
2018/11/08 00:36:00.000  -74.425538887  163.418455570    61.5168   5  11   0.6801   0.6600   2.6156  -0.3694   0.9765  -0.9897 2175.00    0.0
2018/11/08 00:36:30.000  -74.425536948  163.418456563    61.6990   5  11   0.6814   0.6608   2.6199  -0.3703   0.9778  -0.9922 2205.00    0.0
2018/11/08 00:37:00.000  -74.425539144  163.418453406    61.6143   5  11   0.6829   0.6618   2.6245  -0.3713   0.9792  -0.9949 2235.00    0.0
2018/11/08 00:37:30.000  -74.425539394  163.418461692    62.5285   5  11   0.6847   0.6631   2.6296  -0.3724   0.9807  -0.9977 2265.00    0.0
2018/11/08 00:38:00.000  -74.425539884  163.418464741    62.7283   5  11   0.6840   0.6611   2.6234  -0.3715   0.9773  -0.9967 2295.00    0.0
2018/11/08 00:38:30.000  -74.425539235  163.418447029    61.4425   5  11   0.6835   0.6595   2.6177  -0.3707   0.9741  -0.9958 2325.00    0.0
2018/11/08 00:39:00.000  -74.425538010  163.418459848    62.7416   5  11   0.6832   0.6581   2.6124  -0.3699   0.9710  -0.9951 2355.00    0.0
2018/11/08 00:39:30.000  -74.425538234  163.418460402    61.7286   5  11   0.6832   0.6569   2.6076  -0.3692   0.9681  -0.9945 2385.00    0.0
2018/11/08 00:40:00.000  -74.425538378  163.418451084    61.2362   5  11   0.6833   0.6560   2.6032  -0.3686   0.9653  -0.9940 2415.00    0.0
2018/11/08 00:40:30.000  -74.425537839  163.418448274    61.9032   5  11   0.6838   0.6555   2.5996  -0.3681   0.9628  -0.9937 2445.00    0.0
2018/11/08 00:41:00.000  -74.425538262  163.418456319    61.6557   5  11   0.6844   0.6551   2.5964  -0.3676   0.9604  -0.9936 2475.00    0.0
2018/11/08 00:41:30.000  -74.425539035  163.418451266    62.3218   5  11   0.6853   0.6551   2.5936  -0.3672   0.9581  -0.9935 2505.00    0.0
2018/11/08 00:42:00.000  -74.425540641  163.418462156    62.7304   5  11   0.6864   0.6552   2.5913  -0.3669   0.9560  -0.9935 2535.00    0.0
2018/11/08 00:42:30.000  -74.425538875  163.418458458    61.4844   5  11   0.6876   0.6556   2.5894  -0.3666   0.9538  -0.9936 2565.00    0.0
2018/11/08 00:43:00.000  -74.425538867  163.418459942    61.1132   5  11   0.6866   0.6530   2.5768  -0.3645   0.9473  -0.9902 2595.00    0.0
2018/11/08 00:43:30.000  -74.425536846  163.418449673    60.9150   5  11   0.6857   0.6507   2.5648  -0.3625   0.9410  -0.9870 2625.00    0.0
2018/11/08 00:44:00.000  -74.425539185  163.418454530    61.9996   5  11   0.6851   0.6486   2.5533  -0.3605   0.9348  -0.9839 2655.00    0.0
2018/11/08 00:44:30.000  -74.425538316  163.418453778    61.0095   5  11   0.6846   0.6468   2.5424  -0.3586   0.9288  -0.9810 2685.00    0.0
2018/11/08 00:45:00.000  -74.425537931  163.418454377    61.0280   5  11   0.6844   0.6453   2.5321  -0.3568   0.9230  -0.9782 2715.00    0.0
2018/11/08 00:45:30.000  -74.425538638  163.418452844    61.9610   5  11   0.6845   0.6441   2.5226  -0.3551   0.9175  -0.9756 2745.00    0.0
2018/11/08 00:46:00.000  -74.425538383  163.418463907    62.3492   5  11   0.6848   0.6432   2.5137  -0.3535   0.9120  -0.9732 2775.00    0.0
2018/11/08 00:46:30.000  -74.425538579  163.418458400    61.4402   5  10   0.9372   0.6753   3.5718  -0.5067   1.1625  -1.6032 2805.00    0.0
2018/11/08 00:47:00.000  -74.425535944  163.418457633    60.5297   5  10   0.9375   0.6742   3.5625  -0.5042   1.1557  -1.6006 2835.00    0.0
2018/11/08 00:47:30.000  -74.425535022  163.418452994    59.8339   5  10   0.9381   0.6734   3.5536  -0.5018   1.1490  -1.5980 2865.00    0.0
2018/11/08 00:48:00.000  -74.425539225  163.418452385    60.4973   5  10   0.9340   0.6694   3.5249  -0.4963   1.1356  -1.5867 2895.00    0.0
2018/11/08 00:48:30.000  -74.425538708  163.418455166    60.9178   5  10   0.9303   0.6656   3.4967  -0.4908   1.1224  -1.5756 2925.00    0.0
2018/11/08 00:49:00.000  -74.425533856  163.418450228    58.9172   5  10   0.9268   0.6622   3.4693  -0.4854   1.1094  -1.5647 2955.00    0.0
2018/11/08 00:49:30.000  -74.425537950  163.418456092    61.5679   5  10   0.9235   0.6590   3.4428  -0.4800   1.0965  -1.5542 2985.00    0.0
2018/11/08 00:50:00.000  -74.425538640  163.418457196    60.5185   5  10   0.9206   0.6561   3.4172  -0.4748   1.0839  -1.5441 3015.00    0.0
2018/11/08 00:50:30.000  -74.425538037  163.418453002    60.4507   5   9   0.9222   0.6536   3.6456  -0.4687   1.0653  -1.5720 3045.00    0.0
2018/11/08 00:51:00.000  -74.425540670  163.418451975    61.8058   5   9   0.9202   0.6514   3.6266  -0.4636   1.0531  -1.5641 3075.00    0.0
2018/11/08 00:51:30.000  -74.425539948  163.418460562    61.6889   5   9   0.9185   0.6495   3.6088  -0.4586   1.0410  -1.5566 3105.00    0.0
2018/11/08 00:52:00.000  -74.425539604  163.418453713    60.6962   5   9   0.9171   0.6478   3.5921  -0.4537   1.0290  -1.5496 3135.00    0.0
2018/11/08 00:52:30.000  -74.425535529  163.418456722    60.3185   5   9   0.9160   0.6465   3.5768  -0.4488   1.0172  -1.5430 3165.00    0.0
2018/11/08 00:53:00.000  -74.425540455  163.418454695    61.4091   5  10   0.7493   0.6382   2.6823  -0.3968   0.9126  -1.0669 3195.00    0.0
2018/11/08 00:53:30.000  -74.425539711  163.418459291    62.2415   5  10   0.7476   0.6350   2.6680  -0.3935   0.9033  -1.0618 3225.00    0.0
2018/11/08 00:54:00.000  -74.425538131  163.418450696    61.4346   5  10   0.7461   0.6321   2.6545  -0.3902   0.8943  -1.0570 3255.00    0.0
2018/11/08 00:54:30.000  -74.425540257  163.418469256    62.4919   5  10   0.7450   0.6295   2.6419  -0.3871   0.8855  -1.0524 3285.00    0.0
2018/11/08 00:55:00.000  -74.425537102  163.418447035    60.6045   5  10   0.7441   0.6272   2.6302  -0.3841   0.8769  -1.0480 3315.00    0.0
2018/11/08 00:55:30.000  -74.425537717  163.418455825    60.9436   5  10   0.7435   0.6253   2.6198  -0.3813   0.8687  -1.0440 3345.00    0.0
2018/11/08 00:56:00.000  -74.425539043  163.418450996    60.4920   5  10   0.7432   0.6236   2.6105  -0.3786   0.8606  -1.0404 3375.00    0.0
2018/11/08 00:56:30.000  -74.425538794  163.418454503    60.9151   5  10   0.7432   0.6222   2.6022  -0.3760   0.8528  -1.0370 3405.00    0.0
2018/11/08 00:57:00.000  -74.425538512  163.418454657    60.9971   5  10   0.7434   0.6212   2.5950  -0.3735   0.8453  -1.0339 3435.00    0.0
2018/11/08 00:57:30.000  -74.425539399  163.418457544    60.8676   5  10   0.7439   0.6204   2.5890  -0.3712   0.8379  -1.0311 3465.00    0.0
2018/11/08 00:58:00.000  -74.425540139  163.418465592    62.5808   5  10   0.7418   0.6169   2.5699  -0.3670   0.8265  -1.0242 3495.00    0.0
2018/11/08 00:58:30.000  -74.425539382  163.418459006    59.8851   5  10   0.7399   0.6138   2.5520  -0.3631   0.8155  -1.0176 3525.00    0.0
2018/11/08 00:59:00.000  -74.425538607  163.418453476    61.3090   5  10   0.7384   0.6110   2.5351  -0.3592   0.8047  -1.0114 3555.00    0.0
2018/11/08 00:59:30.000  -74.425541574  163.418464979    62.4756   5  10   0.7371   0.6084   2.5195  -0.3555   0.7942  -1.0055 3585.00    0.0
2018/11/08 01:00:00.000  -74.425539849  163.418460367    61.1342   5  10   0.7360   0.6062   2.5052  -0.3520   0.7840  -1.0001 3615.00    0.0
2018/11/08 01:00:30.000  -74.425536006  163.418449257    59.8466   5  10   0.7354   0.6044   2.4924  -0.3487   0.7742  -0.9950 3645.00    0.0
2018/11/08 01:01:00.000  -74.425540845  163.418457687    61.7676   5  10   0.7350   0.6029   2.4810  -0.3454   0.7647  -0.9904 3675.00    0.0
2018/11/08 01:01:30.000  -74.425541508  163.418456571    61.0581   5  10   0.7349   0.6017   2.4709  -0.3424   0.7554  -0.9861 3705.00    0.0
2018/11/08 01:02:00.000  -74.425541995  163.418462433    61.5079   5  10   0.7351   0.6008   2.4622  -0.3394   0.7463  -0.9822 3735.00    0.0
2018/11/08 01:02:30.000  -74.425541800  163.418462778    61.7566   5  10   0.7355   0.6002   2.4548  -0.3366   0.7375  -0.9787 3765.00    0.0
2018/11/08 01:03:00.000  -74.425540965  163.418458156    60.9568   5  10   0.7334   0.5971   2.4343  -0.3322   0.7253  -0.9712 3795.00    0.0
2018/11/08 01:03:30.000  -74.425539832  163.418459741    60.7759   5  10   0.7316   0.5943   2.4152  -0.3280   0.7133  -0.9641 3825.00    0.0
2018/11/08 01:04:00.000  -74.425540247  163.418461657    62.0770   5  10   0.7301   0.5918   2.3975  -0.3240   0.7017  -0.9575 3855.00    0.0
2018/11/08 01:04:30.000  -74.425541425  163.418455142    61.0460   5  10   0.7289   0.5897   2.3813  -0.3201   0.6904  -0.9513 3885.00    0.0
2018/11/08 01:05:00.000  -74.425541766  163.418454058    61.4360   5  10   0.7280   0.5879   2.3666  -0.3163   0.6793  -0.9456 3915.00    0.0
2018/11/08 01:05:30.000  -74.425542278  163.418464867    62.6368   5  10   0.7274   0.5864   2.3536  -0.3127   0.6687  -0.9403 3945.00    0.0
2018/11/08 01:06:00.000  -74.425540681  163.418457656    62.0286   5  10   0.7271   0.5853   2.3421  -0.3093   0.6582  -0.9355 3975.00    0.0
2018/11/08 01:06:30.000  -74.425541458  163.418460285    61.8039   5  10   0.7271   0.5845   2.3321  -0.3060   0.6480  -0.9311 4005.00    0.0
2018/11/08 01:07:00.000  -74.425542187  163.418460677    62.4006   5  10   0.7274   0.5839   2.3236  -0.3029   0.6380  -0.9271 4035.00    0.0
2018/11/08 01:07:30.000  -74.425544727  163.418466776    62.6098   5  10   0.7280   0.5837   2.3165  -0.2998   0.6282  -0.9235 4065.00    0.0
2018/11/08 01:08:00.000  -74.425543461  163.418457715    61.4937   5  10   0.7261   0.5812   2.2967  -0.2955   0.6156  -0.9163 4095.00    0.0
2018/11/08 01:08:30.000  -74.425542711  163.418466518    61.7673   5  10   0.7245   0.5789   2.2784  -0.2912   0.6032  -0.9095 4125.00    0.0
2018/11/08 01:09:00.000  -74.425542060  163.418468836    61.5810   5  10   0.7232   0.5770   2.2616  -0.2872   0.5911  -0.9031 4155.00    0.0
2018/11/08 01:09:30.000  -74.425543192  163.418459441    62.0564   5  10   0.7222   0.5753   2.2464  -0.2832   0.5793  -0.8972 4185.00    0.0
2018/11/08 01:10:00.000  -74.425542047  163.418459619    61.8880   5  10   0.7215   0.5740   2.2327  -0.2794   0.5677  -0.8918 4215.00    0.0
2018/11/08 01:10:30.000  -74.425543159  163.418472694    62.2698   5  10   0.7212   0.5731   2.2209  -0.2758   0.5563  -0.8868 4245.00    0.0
2018/11/08 01:11:00.000  -74.425543179  163.418468936    61.8580   5  10   0.7211   0.5724   2.2106  -0.2723   0.5451  -0.8823 4275.00    0.0
2018/11/08 01:11:30.000  -74.425541053  163.418464108    61.5528   5  10   0.7213   0.5721   2.2018  -0.2689   0.5340  -0.8783 4305.00    0.0
2018/11/08 01:12:00.000  -74.425542756  163.418461794    61.7501   5  10   0.7218   0.5720   2.1945  -0.2657   0.5229  -0.8746 4335.00    0.0
2018/11/08 01:12:30.000  -74.425543107  163.418463416    62.8906   5  10   0.7226   0.5723   2.1888  -0.2625   0.5120  -0.8714 4365.00    0.0
2018/11/08 01:13:00.000  -74.425541657  163.418466862    62.1153   5  10   0.7210   0.5702   2.1707  -0.2582   0.4989  -0.8648 4395.00    0.0
2018/11/08 01:13:30.000  -74.425544263  163.418466502    63.5106   5  10   0.7197   0.5685   2.1542  -0.2540   0.4860  -0.8586 4425.00    0.0
2018/11/08 01:14:00.000  -74.425545881  163.418470308    62.6963   5  11   0.6195   0.5498   1.7954  -0.1089   0.2493  -0.5512 4455.00    0.0
2018/11/08 01:14:30.000  -74.425542676  163.418467156    62.3893   5  11   0.6193   0.5493   1.7898  -0.1045   0.2351  -0.5494 4485.00    0.0
2018/11/08 01:15:00.000  -74.425543487  163.418469339    62.4563   5  11   0.6192   0.5491   1.7853  -0.0999   0.2199  -0.5478 4515.00    0.0
2018/11/08 01:15:30.000  -74.425544619  163.418460914    62.7145   5  11   0.6195   0.5491   1.7822  -0.0952   0.2035  -0.5464 4545.00    0.0
2018/11/08 01:16:00.000  -74.425544796  163.418468863    62.5441   5  11   0.6199   0.5494   1.7803  -0.0902   0.1856  -0.5451 4575.00    0.0
2018/11/08 01:16:30.000  -74.425545157  163.418466693    62.4479   5  11   0.6206   0.5500   1.7795  -0.0850   0.1655  -0.5440 4605.00    0.0
2018/11/08 01:17:00.000  -74.425544632  163.418472577    62.8793   5  11   0.6214   0.5509   1.7800  -0.0794   0.1425  -0.5430 4635.00    0.0
2018/11/08 01:17:30.000  -74.425544437  163.418467179    61.8989   5  11   0.6225   0.5520   1.7816  -0.0735   0.1144  -0.5422 4665.00    0.0
2018/11/08 01:18:00.000  -74.425545386  163.418465249    63.1084   5  12   0.6143   0.5283   1.7068  -0.1399  -0.2627  -0.5820 4695.00    0.0
2018/11/08 01:18:30.000  -74.425545805  163.418469243    62.6362   5  12   0.6135   0.5275   1.7023  -0.1373  -0.2717  -0.5803 4725.00    0.0
2018/11/08 01:19:00.000  -74.425545524  163.418458844    62.5783   5  12   0.6130   0.5271   1.6989  -0.1347  -0.2808  -0.5788 4755.00    0.0
2018/11/08 01:19:30.000  -74.425543668  163.418465916    62.6360   5  12   0.6126   0.5268   1.6966  -0.1321  -0.2898  -0.5775 4785.00    0.0
2018/11/08 01:20:00.000  -74.425542024  163.418460749    62.5149   5  12   0.6125   0.5269   1.6954  -0.1295  -0.2989  -0.5764 4815.00    0.0
2018/11/08 01:20:30.000  -74.425543192  163.418464778    62.5995   5  12   0.6126   0.5272   1.6956  -0.1270  -0.3081  -0.5755 4845.00    0.0
2018/11/08 01:21:00.000  -74.425544223  163.418471953    62.4601   5  12   0.6129   0.5277   1.6968  -0.1245  -0.3173  -0.5748 4875.00    0.0
2018/11/08 01:21:30.000  -74.425543797  163.418465184    61.8422   5  12   0.6134   0.5285   1.6992  -0.1221  -0.3267  -0.5742 4905.00    0.0
2018/11/08 01:22:00.000  -74.425547395  163.418465855    63.1269   5  12   0.6141   0.5296   1.7027  -0.1196  -0.3361  -0.5739 4935.00    0.0
2018/11/08 01:22:30.000  -74.425547206  163.418468519    63.0783   5  12   0.6150   0.5309   1.7074  -0.1171  -0.3456  -0.5737 4965.00    0.0
2018/11/08 01:23:00.000  -74.425546414  163.418464973    62.6561   5  12   0.6142   0.5301   1.7025  -0.1140  -0.3520  -0.5722 4995.00    0.0
2018/11/08 01:23:30.000  -74.425546915  163.418466886    63.3553   5  12   0.6135   0.5297   1.6988  -0.1109  -0.3585  -0.5708 5025.00    0.0
2018/11/08 01:24:00.000  -74.425545373  163.418463080    62.6325   5  12   0.6131   0.5294   1.6962  -0.1077  -0.3652  -0.5696 5055.00    0.0
2018/11/08 01:24:30.000  -74.425544665  163.418458316    62.7542   5  12   0.6129   0.5294   1.6947  -0.1046  -0.3721  -0.5686 5085.00    0.0
2018/11/08 01:25:00.000  -74.425544656  163.418467689    63.1859   5  12   0.6129   0.5296   1.6943  -0.1014  -0.3791  -0.5678 5115.00    0.0
2018/11/08 01:25:30.000  -74.425545004  163.418467371    63.8160   5  12   0.6131   0.5302   1.6953  -0.0982  -0.3864  -0.5672 5145.00    0.0
2018/11/08 01:26:00.000  -74.425546258  163.418469417    62.8109   5  12   0.6135   0.5309   1.6975  -0.0950  -0.3938  -0.5668 5175.00    0.0
2018/11/08 01:26:30.000  -74.425544743  163.418461907    62.7005   5  12   0.6141   0.5320   1.7007  -0.0918  -0.4015  -0.5666 5205.00    0.0
2018/11/08 01:27:00.000  -74.425544269  163.418457918    62.8741   5  12   0.6149   0.5332   1.7052  -0.0884  -0.4093  -0.5665 5235.00    0.0
2018/11/08 01:27:30.000  -74.425544901  163.418459364    63.3440   5  12   0.6159   0.5347   1.7108  -0.0851  -0.4174  -0.5667 5265.00    0.0
2018/11/08 01:28:00.000  -74.425546886  163.418456133    63.4211   5  12   0.6152   0.5342   1.7068  -0.0809  -0.4224  -0.5655 5295.00    0.0
2018/11/08 01:28:30.000  -74.425546123  163.418462448    63.0876   5  12   0.6147   0.5339   1.7038  -0.0765  -0.4277  -0.5644 5325.00    0.0
2018/11/08 01:29:00.000  -74.425545867  163.418463015    62.0052   5  12   0.6144   0.5339   1.7020  -0.0720  -0.4331  -0.5636 5355.00    0.0
2018/11/08 01:29:30.000  -74.425544827  163.418449693    63.4411   5  12   0.6143   0.5341   1.7013  -0.0673  -0.4388  -0.5629 5385.00    0.0
2018/11/08 01:30:00.000  -74.425547920  163.418464629    63.2744   5  12   0.6144   0.5345   1.7018  -0.0623  -0.4447  -0.5624 5415.00    0.0
2018/11/08 01:30:30.000  -74.425547685  163.418462623    63.0307   5  12   0.6147   0.5352   1.7036  -0.0570  -0.4510  -0.5622 5445.00    0.0
2018/11/08 01:31:00.000  -74.425547070  163.418463825    63.2877   5  12   0.6152   0.5362   1.7066  -0.0513  -0.4574  -0.5621 5475.00    0.0
2018/11/08 01:31:30.000  -74.425546223  163.418461286    62.7634   5  12   0.6159   0.5374   1.7108  -0.0449  -0.4641  -0.5622 5505.00    0.0
2018/11/08 01:32:00.000  -74.425546931  163.418464814    63.1057   5  12   0.6169   0.5388   1.7160  -0.0376  -0.4711  -0.5625 5535.00    0.0
2018/11/08 01:32:30.000  -74.425546915  163.418460249    63.1495   5  12   0.6180   0.5405   1.7224  -0.0286  -0.4782  -0.5630 5565.00    0.0
2018/11/08 01:33:00.000  -74.425545595  163.418465225    62.9797   5  12   0.6174   0.5401   1.7191  -0.0113  -0.4824  -0.5621 5595.00    0.0
2018/11/08 01:33:30.000  -74.425545569  163.418465408    63.3400   5  12   0.6170   0.5400   1.7169   0.0234  -0.4868  -0.5614 5625.00    0.0
2018/11/08 01:34:00.000  -74.425544684  163.418463408    62.7054   5  12   0.6168   0.5402   1.7159   0.0349  -0.4915  -0.5609 5655.00    0.0
2018/11/08 01:34:30.000  -74.425546417  163.418460668    63.7763   5  12   0.6168   0.5405   1.7160   0.0433  -0.4964  -0.5606 5685.00    0.0
2018/11/08 01:35:00.000  -74.425545307  163.418464317    63.5939   5  12   0.6170   0.5411   1.7173   0.0502  -0.5016  -0.5605 5715.00    0.0
2018/11/08 01:35:30.000  -74.425546720  163.418474456    63.3362   5  12   0.6174   0.5420   1.7198   0.0562  -0.5071  -0.5606 5745.00    0.0
2018/11/08 01:36:00.000  -74.425545075  163.418456760    64.0361   5  12   0.6181   0.5431   1.7236   0.0615  -0.5129  -0.5609 5775.00    0.0
2018/11/08 01:36:30.000  -74.425546783  163.418455681    63.5074   5  12   0.6189   0.5444   1.7284   0.0664  -0.5189  -0.5613 5805.00    0.0
2018/11/08 01:37:00.000  -74.425546333  163.418457799    63.8250   5  12   0.6199   0.5460   1.7343   0.0709  -0.5251  -0.5619 5835.00    0.0
2018/11/08 01:37:30.000  -74.425545149  163.418459543    64.3215   5  12   0.6212   0.5479   1.7412   0.0750  -0.5316  -0.5627 5865.00    0.0
2018/11/08 01:38:00.000  -74.425544920  163.418458748    63.5149   5  12   0.6207   0.5476   1.7388   0.0795  -0.5352  -0.5623 5895.00    0.0
2018/11/08 01:38:30.000  -74.425545604  163.418456895    63.4896   5  12   0.6204   0.5477   1.7374   0.0836  -0.5390  -0.5620 5925.00    0.0
2018/11/08 01:39:00.000  -74.425547663  163.418462172    63.5930   5  12   0.6203   0.5479   1.7370   0.0875  -0.5431  -0.5618 5955.00    0.0
2018/11/08 01:39:30.000  -74.425547511  163.418465493    63.6335   5  12   0.6204   0.5484   1.7378   0.0912  -0.5475  -0.5619 5985.00    0.0
2018/11/08 01:40:00.000  -74.425546337  163.418461772    63.8236   5  12   0.6207   0.5491   1.7397   0.0948  -0.5520  -0.5622 6015.00    0.0
2018/11/08 01:40:30.000  -74.425543292  163.418465935    62.8743   5  12   0.6213   0.5501   1.7429   0.0981  -0.5569  -0.5626 6045.00    0.0
2018/11/08 01:41:00.000  -74.425546523  163.418467077    63.7982   5  12   0.6220   0.5513   1.7472   0.1013  -0.5621  -0.5632 6075.00    0.0
2018/11/08 01:41:30.000  -74.425546819  163.418468092    62.9787   5  12   0.6230   0.5527   1.7524   0.1044  -0.5675  -0.5640 6105.00    0.0
2018/11/08 01:42:00.000  -74.425547828  163.418461174    63.5579   5  12   0.6241   0.5544   1.7587   0.1074  -0.5731  -0.5649 6135.00    0.0
2018/11/08 01:42:30.000  -74.425546687  163.418462027    62.9578   5  12   0.6255   0.5563   1.7660   0.1102  -0.5790  -0.5660 6165.00    0.0
2018/11/08 01:43:00.000  -74.425547285  163.418466229    63.3359   5  12   0.6251   0.5562   1.7642   0.1133  -0.5820  -0.5659 6195.00    0.0
2018/11/08 01:43:30.000  -74.425545501  163.418460129    63.9111   5  12   0.6249   0.5563   1.7634   0.1163  -0.5853  -0.5660 6225.00    0.0
2018/11/08 01:44:00.000  -74.425548216  163.418466892    63.4042   5  12   0.6249   0.5566   1.7637   0.1192  -0.5889  -0.5662 6255.00    0.0
2018/11/08 01:44:30.000  -74.425546869  163.418459686    64.1099   5  12   0.6252   0.5571   1.7650   0.1219  -0.5926  -0.5667 6285.00    0.0
2018/11/08 01:45:00.000  -74.425547235  163.418474697    63.2016   5  12   0.6256   0.5579   1.7673   0.1246  -0.5967  -0.5673 6315.00    0.0
2018/11/08 01:45:30.000  -74.425547827  163.418465265    64.3675   5  12   0.6263   0.5589   1.7708   0.1272  -0.6010  -0.5680 6345.00    0.0
2018/11/08 01:46:00.000  -74.425546321  163.418470574    62.9888   5  12   0.6271   0.5602   1.7753   0.1298  -0.6055  -0.5689 6375.00    0.0
2018/11/08 01:46:30.000  -74.425544566  163.418467388    63.8133   5  12   0.6282   0.5617   1.7808   0.1322  -0.6103  -0.5700 6405.00    0.0
2018/11/08 01:47:00.000  -74.425547152  163.418476247    63.3941   5  12   0.6295   0.5634   1.7871   0.1346  -0.6152  -0.5712 6435.00    0.0
2018/11/08 01:47:30.000  -74.425548019  163.418461028    64.0520   5  12   0.6310   0.5653   1.7943   0.1369  -0.6204  -0.5726 6465.00    0.0
2018/11/08 01:48:00.000  -74.425546012  163.418466531    63.2558   5  11   0.6620   0.5689   1.8299   0.1802  -0.6036  -0.5047 6495.00    0.0
2018/11/08 01:48:30.000  -74.425550443  163.418471967    63.2328   5  11   0.6615   0.5689   1.8300   0.1816  -0.6065  -0.5053 6525.00    0.0
2018/11/08 01:49:00.000  -74.425544604  163.418464801    63.2367   5  11   0.6613   0.5692   1.8312   0.1830  -0.6096  -0.5060 6555.00    0.0
2018/11/08 01:49:30.000  -74.425548424  163.418474723    62.3609   5  10   0.6726   0.6280   2.0831   0.0374  -0.7981  -0.3672 6585.00    0.0
2018/11/08 01:50:00.000  -74.425549762  163.418474399    63.1871   5  10   0.6725   0.6293   2.0911   0.0465  -0.8035  -0.3687 6615.00    0.0
2018/11/08 01:50:30.000  -74.425550671  163.418478522    63.1765   5  10   0.6727   0.6308   2.1005   0.0535  -0.8093  -0.3699 6645.00    0.0
2018/11/08 01:51:00.000  -74.425545868  163.418486325    61.0996   5   9   0.7737   0.6861   2.6460   0.3238  -1.0434  -0.8638 6675.00    0.0
2018/11/08 01:51:30.000  -74.425547090  163.418483577    60.3593   5   9   0.7751   0.6903   2.6726   0.3287  -1.0566  -0.8718 6705.00    0.0
2018/11/08 01:52:00.000  -74.425548691  163.418485159    61.3202   5   9   0.7767   0.6948   2.7012   0.3337  -1.0705  -0.8802 6735.00    0.0
2018/11/08 01:52:30.000  -74.425548225  163.418480213    62.0034   5   9   0.7787   0.6998   2.7317   0.3388  -1.0850  -0.8891 6765.00    0.0
2018/11/08 01:53:00.000  -74.425551914  163.418479693    64.3027   5   9   0.7781   0.7014   2.7462   0.3429  -1.0931  -0.8953 6795.00    0.0
2018/11/08 01:53:30.000  -74.425546574  163.418488859    61.4690   5   9   0.7778   0.7035   2.7626   0.3471  -1.1018  -0.9018 6825.00    0.0
2018/11/08 01:54:00.000  -74.425545961  163.418484310    61.6651   5   9   0.7778   0.7058   2.7807   0.3513  -1.1111  -0.9087 6855.00    0.0
2018/11/08 01:54:30.000  -74.425547660  163.418485428    62.1071   5   9   0.7782   0.7085   2.8006   0.3556  -1.1210  -0.9160 6885.00    0.0
2018/11/08 01:55:00.000  -74.425547569  163.418481045    61.0450   5   9   0.7789   0.7115   2.8222   0.3601  -1.1316  -0.9237 6915.00    0.0
2018/11/08 01:55:30.000  -74.425546591  163.418488470    60.6180   5   9   0.7799   0.7150   2.8459   0.3646  -1.1429  -0.9318 6945.00    0.0
2018/11/08 01:56:00.000  -74.425549349  163.418486029    61.9570   5   9   0.7813   0.7187   2.8712   0.3692  -1.1547  -0.9402 6975.00    0.0
2018/11/08 01:56:30.000  -74.425548396  163.418490447    61.0276   5   9   0.7830   0.7228   2.8982   0.3740  -1.1672  -0.9490 7005.00    0.0
2018/11/08 01:57:00.000  -74.425547503  163.418487825    60.7569   5   9   0.7850   0.7272   2.9267   0.3788  -1.1802  -0.9581 7035.00    0.0
2018/11/08 01:57:30.000  -74.425544433  163.418487728    60.1926   5   9   0.7873   0.7320   2.9567   0.3837  -1.1937  -0.9676 7065.00    0.0
2018/11/08 01:58:00.000  -74.425546050  163.418500721    58.2468   5   9   0.7871   0.7333   2.9705   0.3873  -1.2004  -0.9741 7095.00    0.0
2018/11/08 01:58:30.000  -74.425544206  163.418485753    59.2416   5   9   0.7871   0.7349   2.9857   0.3910  -1.2076  -0.9809 7125.00    0.0
2018/11/08 01:59:00.000  -74.425551159  163.418487819    61.5462   5   9   0.7874   0.7368   3.0024   0.3948  -1.2152  -0.9880 7155.00    0.0
2018/11/08 01:59:30.000  -74.425546720  163.418502463    58.7705   5   9   0.7881   0.7389   3.0203   0.3986  -1.2233  -0.9954 7185.00    0.0
2018/11/08 02:00:00.000  -74.425546138  163.418490775    59.6868   5   9   0.7890   0.7414   3.0396   0.4025  -1.2318  -1.0030 7215.00    0.0
2018/11/08 02:00:30.000  -74.425545084  163.418497834    59.2580   5   9   0.7904   0.7441   3.0605   0.4065  -1.2409  -1.0109 7245.00    0.0
2018/11/08 02:01:00.000  -74.425547146  163.418484424    60.4831   5   9   0.7920   0.7472   3.0825   0.4105  -1.2503  -1.0191 7275.00    0.0
2018/11/08 02:01:30.000  -74.425546730  163.418495180    60.0613   5   9   0.7940   0.7505   3.1055   0.4146  -1.2601  -1.0274 7305.00    0.0
2018/11/08 02:02:00.000  -74.425547853  163.418483073    61.4859   5   9   0.7963   0.7540   3.1294   0.4186  -1.2701  -1.0359 7335.00    0.0
2018/11/08 02:02:30.000  -74.425549493  163.418485025    61.1154   5   8   0.9727   0.7747   4.0849   0.5179  -1.4346  -1.5911 7365.00    0.0
2018/11/08 02:03:00.000  -74.425548104  163.418496412    61.2529   5   8   0.9775   0.7771   4.1306   0.5269  -1.4504  -1.6124 7395.00    0.0
2018/11/08 02:03:30.000  -74.425551299  163.418476763    63.9168   5   9   0.7327   0.7332   2.9137   0.3366  -1.1645  -0.8422 7425.00    0.0
2018/11/08 02:04:00.000  -74.425552594  163.418481355    63.3067   5   9   0.7328   0.7340   2.9342   0.3416  -1.1718  -0.8517 7455.00    0.0
2018/11/08 02:04:30.000  -74.425548608  163.418481756    61.9396   5   9   0.7332   0.7352   2.9560   0.3465  -1.1795  -0.8614 7485.00    0.0
2018/11/08 02:05:00.000  -74.425552923  163.418488567    62.7071   5   9   0.7339   0.7366   2.9789   0.3514  -1.1876  -0.8713 7515.00    0.0
2018/11/08 02:05:30.000  -74.425550363  163.418488167    61.5506   5   9   0.7350   0.7383   3.0032   0.3564  -1.1962  -0.8813 7545.00    0.0
2018/11/08 02:06:00.000  -74.425550390  163.418483669    62.5972   5   9   0.7363   0.7403   3.0285   0.3613  -1.2051  -0.8916 7575.00    0.0
2018/11/08 02:06:30.000  -74.425550692  163.418470458    64.1058   5   9   0.7381   0.7426   3.0549   0.3663  -1.2142  -0.9020 7605.00    0.0
2018/11/08 02:07:00.000  -74.425550098  163.418480009    61.7520   5   9   0.7401   0.7451   3.0823   0.3713  -1.2237  -0.9126 7635.00    0.0
2018/11/08 02:07:30.000  -74.425553446  163.418476896    62.9863   5   9   0.7424   0.7479   3.1105   0.3763  -1.2334  -0.9234 7665.00    0.0
2018/11/08 02:08:00.000  -74.425551268  163.418480073    63.0674   5   9   0.7423   0.7473   3.1252   0.3804  -1.2374  -0.9324 7695.00    0.0
2018/11/08 02:08:30.000  -74.425549918  163.418481505    62.8680   5   9   0.7426   0.7470   3.1407   0.3845  -1.2415  -0.9415 7725.00    0.0
2018/11/08 02:09:00.000  -74.425552394  163.418483591    62.7039   5   9   0.7431   0.7469   3.1569   0.3885  -1.2457  -0.9507 7755.00    0.0
2018/11/08 02:09:30.000  -74.425551781  163.418468216    63.4773   5   9   0.7439   0.7470   3.1738   0.3925  -1.2502  -0.9598 7785.00    0.0
2018/11/08 02:10:00.000  -74.425551533  163.418470042    63.4799   5   9   0.7450   0.7473   3.1914   0.3965  -1.2548  -0.9691 7815.00    0.0
2018/11/08 02:10:30.000  -74.425553268  163.418457858    64.1695   5   9   0.7465   0.7479   3.2097   0.4005  -1.2597  -0.9784 7845.00    0.0
2018/11/08 02:11:00.000  -74.425550372  163.418480280    62.1995   5   9   0.7482   0.7487   3.2287   0.4044  -1.2647  -0.9878 7875.00    0.0
2018/11/08 02:11:30.000  -74.425550216  163.418474616    63.0072   5   9   0.7503   0.7497   3.2480   0.4084  -1.2698  -0.9972 7905.00    0.0
2018/11/08 02:12:00.000  -74.425552544  163.418466024    61.9835   5   9   0.7527   0.7509   3.2678   0.4123  -1.2749  -1.0067 7935.00    0.0
2018/11/08 02:12:30.000  -74.425551192  163.418483752    61.7084   5   9   0.7554   0.7523   3.2878   0.4162  -1.2801  -1.0162 7965.00    0.0
2018/11/08 02:13:00.000  -74.425549761  163.418471427    62.5539   5   9   0.7555   0.7503   3.2941   0.4188  -1.2793  -1.0232 7995.00    0.0
2018/11/08 02:13:30.000  -74.425551094  163.418477272    62.4428   5   9   0.7559   0.7485   3.3007   0.4214  -1.2786  -1.0302 8025.00    0.0
2018/11/08 02:14:00.000  -74.425551539  163.418469441    63.0136   5   9   0.7566   0.7469   3.3075   0.4239  -1.2778  -1.0372 8055.00    0.0
2018/11/08 02:14:30.000  -74.425552268  163.418471630    63.9206   5   9   0.7575   0.7454   3.3145   0.4264  -1.2771  -1.0440 8085.00    0.0
2018/11/08 02:15:00.000  -74.425552642  163.418470928    63.6543   5   9   0.7588   0.7442   3.3217   0.4289  -1.2764  -1.0508 8115.00    0.0
2018/11/08 02:15:30.000  -74.425552232  163.418470068    63.3786   5   9   0.7603   0.7432   3.3293   0.4313  -1.2758  -1.0575 8145.00    0.0
2018/11/08 02:16:00.000  -74.425551364  163.418468477    62.2199   5   9   0.7622   0.7424   3.3371   0.4337  -1.2752  -1.0642 8175.00    0.0
2018/11/08 02:16:30.000  -74.425548228  163.418478980    61.0864   5   9   0.7643   0.7418   3.3448   0.4360  -1.2746  -1.0708 8205.00    0.0
2018/11/08 02:17:00.000  -74.425554171  163.418469049    63.7822   5   9   0.7667   0.7414   3.3527   0.4384  -1.2739  -1.0774 8235.00    0.0
2018/11/08 02:17:30.000  -74.425551812  163.418461274    63.7380   5   9   0.7695   0.7412   3.3606   0.4408  -1.2733  -1.0840 8265.00    0.0
2018/11/08 02:18:00.000  -74.425550014  163.418480218    62.5507   5   9   0.7695   0.7376   3.3549   0.4415  -1.2667  -1.0875 8295.00    0.0
2018/11/08 02:18:30.000  -74.425551308  163.418469910    62.6658   5   9   0.7697   0.7342   3.3493   0.4423  -1.2601  -1.0908 8325.00    0.0
2018/11/08 02:19:00.000  -74.425556348  163.418457623    64.6534   5   9   0.7702   0.7310   3.3438   0.4429  -1.2535  -1.0941 8355.00    0.0
2018/11/08 02:19:30.000  -74.425556194  163.418457237    65.6262   5   9   0.7710   0.7281   3.3385   0.4436  -1.2469  -1.0973 8385.00    0.0
2018/11/08 02:20:00.000  -74.425554237  163.418456659    65.8608   5   9   0.7721   0.7254   3.3332   0.4443  -1.2404  -1.1003 8415.00    0.0
2018/11/08 02:20:30.000  -74.425553714  163.418455775    65.6097   5   9   0.7734   0.7230   3.3284   0.4450  -1.2341  -1.1034 8445.00    0.0
2018/11/08 02:21:00.000  -74.425553195  163.418471714    63.3361   5   9   0.7751   0.7208   3.3237   0.4457  -1.2279  -1.1065 8475.00    0.0
2018/11/08 02:21:30.000  -74.425554245  163.418458200    65.3363   5   9   0.7770   0.7190   3.3191   0.4464  -1.2217  -1.1095 8505.00    0.0
2018/11/08 02:22:00.000  -74.425554904  163.418453472    66.5954   5   9   0.7793   0.7174   3.3149   0.4472  -1.2157  -1.1126 8535.00    0.0
2018/11/08 02:22:30.000  -74.425555349  163.418452269    66.6605   5   9   0.7818   0.7161   3.3108   0.4480  -1.2099  -1.1157 8565.00    0.0
2018/11/08 02:23:00.000  -74.425555081  163.418461400    66.8807   5   9   0.7814   0.7114   3.2939   0.4471  -1.1982  -1.1153 8595.00    0.0
2018/11/08 02:23:30.000  -74.425553407  163.418470719    64.3748   5   9   0.7813   0.7071   3.2772   0.4461  -1.1867  -1.1148 8625.00    0.0
2018/11/08 02:24:00.000  -74.425555067  163.418461321    65.8598   5   9   0.7815   0.7030   3.2609   0.4451  -1.1754  -1.1143 8655.00    0.0
2018/11/08 02:24:30.000  -74.425553937  163.418459474    65.7191   5   9   0.7819   0.6993   3.2451   0.4443  -1.1643  -1.1139 8685.00    0.0
2018/11/08 02:25:00.000  -74.425556843  163.418463956    65.3106   5   9   0.7827   0.6959   3.2298   0.4435  -1.1534  -1.1135 8715.00    0.0
2018/11/08 02:25:30.000  -74.425556014  163.418454877    66.3936   5   9   0.7838   0.6929   3.2153   0.4428  -1.1430  -1.1133 8745.00    0.0
2018/11/08 02:26:00.000  -74.425554741  163.418467525    64.6567   5   9   0.7851   0.6903   3.2014   0.4423  -1.1330  -1.1132 8775.00    0.0
2018/11/08 02:26:30.000  -74.425555522  163.418447060    65.9585   5   9   0.7868   0.6880   3.1881   0.4419  -1.1232  -1.1133 8805.00    0.0
2018/11/08 02:27:00.000  -74.425553830  163.418460001    65.8566   5   9   0.7889   0.6861   3.1755   0.4416  -1.1138  -1.1136 8835.00    0.0
2018/11/08 02:27:30.000  -74.425553766  163.418462612    65.2829   5   9   0.7912   0.6845   3.1636   0.4415  -1.1048  -1.1140 8865.00    0.0
2018/11/08 02:28:00.000  -74.425553251  163.418459286    66.4104   5   9   0.7905   0.6797   3.1395   0.4393  -1.0901  -1.1106 8895.00    0.0
2018/11/08 02:28:30.000  -74.425553686  163.418467226    64.1277   5   9   0.7900   0.6753   3.1162   0.4373  -1.0759  -1.1074 8925.00    0.0
2018/11/08 02:29:00.000  -74.425554010  163.418461245    65.1892   5   9   0.7899   0.6713   3.0938   0.4354  -1.0621  -1.1043 8955.00    0.0
2018/11/08 02:29:30.000  -74.425553673  163.418458809    65.7525   5   9   0.7901   0.6676   3.0723   0.4337  -1.0487  -1.1015 8985.00    0.0
2018/11/08 02:30:00.000  -74.425553550  163.418463623    65.0947   5   9   0.7906   0.6644   3.0518   0.4321  -1.0359  -1.0989 9015.00    0.0
2018/11/08 02:30:30.000  -74.425552935  163.418461815    65.4152   5   9   0.7915   0.6617   3.0325   0.4308  -1.0236  -1.0967 9045.00    0.0
2018/11/08 02:31:00.000  -74.425557593  163.418457474    65.8632   5   9   0.7928   0.6594   3.0143   0.4297  -1.0119  -1.0948 9075.00    0.0
2018/11/08 02:31:30.000  -74.425553462  163.418466777    64.4777   5   9   0.7943   0.6575   2.9971   0.4288  -1.0008  -1.0932 9105.00    0.0
2018/11/08 02:32:00.000  -74.425554592  163.418455167    65.6110   5   9   0.7963   0.6560   2.9810   0.4281  -0.9901  -1.0920 9135.00    0.0
2018/11/08 02:32:30.000  -74.425555269  163.418459548    65.4246   5   9   0.7986   0.6549   2.9660   0.4276  -0.9800  -1.0911 9165.00    0.0
2018/11/08 02:33:00.000  -74.425551676  163.418471542    65.2536   5   9   0.7977   0.6507   2.9396   0.4251  -0.9646  -1.0862 9195.00    0.0
2018/11/08 02:33:30.000  -74.425554066  163.418464009    65.5440   5   9   0.7971   0.6469   2.9144   0.4227  -0.9497  -1.0816 9225.00    0.0
2018/11/08 02:34:00.000  -74.425554314  163.418471766    65.1606   5   9   0.7969   0.6435   2.8904   0.4205  -0.9354  -1.0774 9255.00    0.0
2018/11/08 02:34:30.000  -74.425555352  163.418466970    65.7624   5   8   0.8310   0.6508   3.4347   0.3850  -0.7951  -1.2638 9285.00    0.0
2018/11/08 02:35:00.000  -74.425552510  163.418468635    64.7534   5   8   0.8322   0.6487   3.4182   0.3822  -0.7775  -1.2631 9315.00    0.0
2018/11/08 02:35:30.000  -74.425554412  163.418470041    64.3367   5   8   0.8338   0.6471   3.4031   0.3796  -0.7605  -1.2629 9345.00    0.0
2018/11/08 02:36:00.000  -74.425554560  163.418471557    64.5325   5   8   0.8358   0.6459   3.3891   0.3773  -0.7439  -1.2631 9375.00    0.0
2018/11/08 02:36:30.000  -74.425555030  163.418463783    65.4931   5   8   0.8382   0.6452   3.3764   0.3752  -0.7276  -1.2637 9405.00    0.0
2018/11/08 02:37:00.000  -74.425558829  163.418466479    65.8891   5   8   0.8410   0.6449   3.3648   0.3733  -0.7118  -1.2648 9435.00    0.0
2018/11/08 02:37:30.000  -74.425556188  163.418473102    65.4422   5   8   0.8442   0.6451   3.3546   0.3716  -0.6963  -1.2664 9465.00    0.0
2018/11/08 02:38:00.000  -74.425554993  163.418477919    65.6109   5   8   0.8438   0.6422   3.3305   0.3678  -0.6756  -1.2626 9495.00    0.0
2018/11/08 02:38:30.000  -74.425556977  163.418472670    66.5680   5   8   0.8437   0.6398   3.3077   0.3643  -0.6554  -1.2592 9525.00    0.0
2018/11/08 02:39:00.000  -74.425552744  163.418472657    65.0717   5   8   0.8441   0.6378   3.2862   0.3611  -0.6356  -1.2563 9555.00    0.0
2018/11/08 02:39:30.000  -74.425555570  163.418471642    65.8788   5   8   0.8448   0.6363   3.2662   0.3580  -0.6162  -1.2539 9585.00    0.0
2018/11/08 02:40:00.000  -74.425552863  163.418461101    65.6674   5   8   0.8459   0.6352   3.2475   0.3552  -0.5971  -1.2519 9615.00    0.0
2018/11/08 02:40:30.000  -74.425554794  163.418467066    65.8939   5   8   0.8475   0.6347   3.2304   0.3527  -0.5785  -1.2506 9645.00    0.0
2018/11/08 02:41:00.000  -74.425551750  163.418465990    63.4956   5   9   0.8452   0.6343   2.9671   0.3485  -0.5780  -1.2915 9675.00    0.0
2018/11/08 02:41:30.000  -74.425556149  163.418470082    64.9842   5   9   0.8471   0.6345   2.9624   0.3458  -0.5647  -1.2928 9705.00    0.0
2018/11/08 02:42:00.000  -74.425557785  163.418464145    66.3614   5   9   0.8494   0.6350   2.9588   0.3433  -0.5516  -1.2946 9735.00    0.0
2018/11/08 02:42:30.000  -74.425558671  163.418463214    66.0447   5   9   0.8520   0.6359   2.9565   0.3410  -0.5387  -1.2969 9765.00    0.0
2018/11/08 02:43:00.000  -74.425557469  163.418463438    65.1919   5   9   0.8510   0.6339   2.9415   0.3367  -0.5211  -1.2933 9795.00    0.0
2018/11/08 02:43:30.000  -74.425557102  163.418461199    65.7954   5   9   0.8503   0.6323   2.9276   0.3326  -0.5037  -1.2901 9825.00    0.0
2018/11/08 02:44:00.000  -74.425557143  163.418456242    64.7390   5   8   0.8546   0.6609   3.1672   0.3542   0.0808  -1.2440 9855.00    0.0
2018/11/08 02:44:30.000  -74.425555967  163.418468242    65.4196   5   8   0.8543   0.6607   3.1593   0.3500   0.1630  -1.2434 9885.00    0.0
2018/11/08 02:45:00.000  -74.425556862  163.418463718    65.1238   5   8   0.8544   0.6609   3.1526   0.3460   0.2148  -1.2433 9915.00    0.0
2018/11/08 02:45:30.000  -74.425553298  163.418468801    64.5247   5   8   0.8550   0.6616   3.1475   0.3423   0.2555  -1.2439 9945.00    0.0
2018/11/08 02:46:00.000  -74.425554101  163.418472174    64.6260   5   8   0.8561   0.6627   3.1437   0.3388   0.2899  -1.2450 9975.00    0.0
2018/11/08 02:46:30.000  -74.425556917  163.418465305    65.8778   5   8   0.8575   0.6643   3.1413   0.3355   0.3203  -1.2468 10005.00    0.0
2018/11/08 02:47:00.000  -74.425559626  163.418480961    65.6355   5   8   0.8593   0.6662   3.1403   0.3323   0.3478  -1.2491 10035.00    0.0
2018/11/08 02:47:30.000  -74.425556824  163.418474956    65.4834   5   8   0.8616   0.6686   3.1407   0.3293   0.3731  -1.2519 10065.00    0.0
2018/11/08 02:48:00.000  -74.425556968  163.418468368    66.2070   5   8   0.8601   0.6678   3.1263   0.3244   0.3964  -1.2489 10095.00    0.0
2018/11/08 02:48:30.000  -74.425554879  163.418474696    65.7579   5   8   0.8590   0.6675   3.1132   0.3197   0.4178  -1.2463 10125.00    0.0
2018/11/08 02:49:00.000  -74.425559819  163.418462821    66.7115   5   9   0.8125   0.6540   2.6102   0.2501   0.6442  -1.0417 10155.00    0.0
2018/11/08 02:49:30.000  -74.425560213  163.418470683    67.2294   5   9   0.8130   0.6548   2.6110   0.2463   0.6528  -1.0447 10185.00    0.0
2018/11/08 02:50:00.000  -74.425561454  163.418463221    67.1949   5   9   0.8139   0.6559   2.6129   0.2425   0.6616  -1.0480 10215.00    0.0
2018/11/08 02:50:30.000  -74.425561592  163.418465493    66.8215   5   9   0.8152   0.6575   2.6160   0.2389   0.6705  -1.0518 10245.00    0.0
2018/11/08 02:51:00.000  -74.425561675  163.418463802    66.8899   5   9   0.8169   0.6594   2.6202   0.2352   0.6796  -1.0561 10275.00    0.0
2018/11/08 02:51:30.000  -74.425558757  163.418465234    66.1349   5   9   0.8190   0.6617   2.6256   0.2317   0.6889  -1.0609 10305.00    0.0
2018/11/08 02:52:00.000  -74.425559232  163.418466868    66.3747   5   9   0.8215   0.6643   2.6321   0.2281   0.6984  -1.0661 10335.00    0.0
2018/11/08 02:52:30.000  -74.425559484  163.418464951    66.5666   5   9   0.8244   0.6673   2.6398   0.2245   0.7081  -1.0718 10365.00    0.0
2018/11/08 02:53:00.000  -74.425560483  163.418471927    66.8171   5   9   0.8239   0.6672   2.6355   0.2201   0.7140  -1.0730 10395.00    0.0
2018/11/08 02:53:30.000  -74.425557271  163.418468580    66.2785   5   9   0.8238   0.6675   2.6323   0.2158   0.7199  -1.0745 10425.00    0.0
2018/11/08 02:54:00.000  -74.425559890  163.418462610    65.8599   5   9   0.8241   0.6680   2.6301   0.2116   0.7259  -1.0765 10455.00    0.0
2018/11/08 02:54:30.000  -74.425561205  163.418466726    66.9912   5   9   0.8247   0.6690   2.6290   0.2075   0.7321  -1.0789 10485.00    0.0
2018/11/08 02:55:00.000  -74.425559220  163.418474356    66.0224   5   9   0.8257   0.6703   2.6290   0.2033   0.7386  -1.0818 10515.00    0.0
2018/11/08 02:55:30.000  -74.425558108  163.418466377    66.1304   5   9   0.8272   0.6720   2.6304   0.1992   0.7453  -1.0852 10545.00    0.0
2018/11/08 02:56:00.000  -74.425556264  163.418466774    65.9887   5   9   0.8291   0.6740   2.6330   0.1951   0.7523  -1.0891 10575.00    0.0
2018/11/08 02:56:30.000  -74.425558795  163.418473689    66.8385   5   9   0.8313   0.6764   2.6368   0.1910   0.7596  -1.0935 10605.00    0.0
2018/11/08 02:57:00.000  -74.425557998  163.418474836    65.5962   5   9   0.8340   0.6792   2.6419   0.1867   0.7672  -1.0983 10635.00    0.0
2018/11/08 02:57:30.000  -74.425560609  163.418463451    66.7630   5   9   0.8370   0.6824   2.6483   0.1824   0.7752  -1.1037 10665.00    0.0
2018/11/08 02:58:00.000  -74.425561054  163.418469495    67.0235   5   9   0.8366   0.6823   2.6417   0.1781   0.7784  -1.1042 10695.00    0.0
2018/11/08 02:58:30.000  -74.425559815  163.418469326    66.7892   5   9   0.8366   0.6825   2.6361   0.1738   0.7818  -1.1050 10725.00    0.0
2018/11/08 02:59:00.000  -74.425559458  163.418469130    66.7851   5   9   0.8369   0.6831   2.6317   0.1694   0.7855  -1.1063 10755.00    0.0
2018/11/08 02:59:30.000  -74.425558350  163.418464488    66.0022   5   9   0.8377   0.6840   2.6284   0.1651   0.7894  -1.1081 10785.00    0.0
2018/11/08 03:00:00.000  -74.425559199  163.418467359    66.4954   5   9   0.8388   0.6852   2.6264   0.1607   0.7937  -1.1103 10815.00    0.0
2018/11/08 03:00:30.000  -74.425562924  163.418467957    67.0884   5   9   0.8403   0.6869   2.6260   0.1563   0.7983  -1.1132 10845.00    0.0
2018/11/08 03:01:00.000  -74.425556026  163.418463759    65.5851   5   9   0.8423   0.6889   2.6268   0.1518   0.8034  -1.1165 10875.00    0.0
2018/11/08 03:01:30.000  -74.425561501  163.418466119    66.3804   5   9   0.8446   0.6913   2.6289   0.1472   0.8088  -1.1203 10905.00    0.0
2018/11/08 03:02:00.000  -74.425561708  163.418473773    67.2987   5   9   0.8473   0.6941   2.6323   0.1424   0.8145  -1.1247 10935.00    0.0
2018/11/08 03:02:30.000  -74.425556846  163.418470386    65.6556   5   9   0.8504   0.6972   2.6370   0.1373   0.8207  -1.1295 10965.00    0.0
2018/11/08 03:03:00.000  -74.425555850  163.418467979    64.9810   5   9   0.8501   0.6969   2.6279   0.1333   0.8215  -1.1291 10995.00    0.0
2018/11/08 03:03:30.000  -74.425559784  163.418465833    65.8596   5   9   0.8501   0.6969   2.6201   0.1293   0.8226  -1.1292 11025.00    0.0
2018/11/08 03:04:00.000  -74.425557800  163.418461073    65.0291   5   9   0.8504   0.6973   2.6135   0.1252   0.8240  -1.1298 11055.00    0.0
2018/11/08 03:04:30.000  -74.425559121  163.418466341    64.9445   5   9   0.8512   0.6980   2.6083   0.1211   0.8257  -1.1308 11085.00    0.0
2018/11/08 03:05:00.000  -74.425559544  163.418458247    65.7025   5   9   0.8523   0.6990   2.6043   0.1168   0.8279  -1.1324 11115.00    0.0
2018/11/08 03:05:30.000  -74.425560505  163.418470704    66.2692   5   9   0.8539   0.7005   2.6019   0.1124   0.8305  -1.1345 11145.00    0.0
2018/11/08 03:06:00.000  -74.425556269  163.418472068    65.7307   5   9   0.8559   0.7024   2.6009   0.1078   0.8336  -1.1372 11175.00    0.0
2018/11/08 03:06:30.000  -74.425559050  163.418466843    65.8472   5   9   0.8582   0.7046   2.6011   0.1028   0.8372  -1.1403 11205.00    0.0
2018/11/08 03:07:00.000  -74.425557631  163.418469528    66.3914   5  10   0.8465   0.5842   2.1572   0.2683   0.3565  -1.0394 11235.00    0.0
2018/11/08 03:07:30.000  -74.425559710  163.418467754    65.8928   5  10   0.8496   0.5855   2.1611   0.2675   0.3604  -1.0438 11265.00    0.0
2018/11/08 03:08:00.000  -74.425557530  163.418472406    65.6019   5  10   0.8494   0.5845   2.1556   0.2659   0.3627  -1.0441 11295.00    0.0
2018/11/08 03:08:30.000  -74.425558719  163.418463697    65.6129   5  10   0.8496   0.5837   2.1510   0.2645   0.3649  -1.0448 11325.00    0.0
2018/11/08 03:09:00.000  -74.425558246  163.418473457    66.4184   5  10   0.8501   0.5832   2.1475   0.2632   0.3672  -1.0459 11355.00    0.0
2018/11/08 03:09:30.000  -74.425557835  163.418470584    65.9057   5  10   0.8510   0.5830   2.1449   0.2619   0.3694  -1.0474 11385.00    0.0
2018/11/08 03:10:00.000  -74.425556055  163.418470619    65.5882   5  10   0.8522   0.5830   2.1434   0.2608   0.3717  -1.0494 11415.00    0.0
2018/11/08 03:10:30.000  -74.425559224  163.418463225    65.9965   5  10   0.8539   0.5833   2.1431   0.2598   0.3741  -1.0519 11445.00    0.0
2018/11/08 03:11:00.000  -74.425558575  163.418463148    65.5661   5  10   0.8559   0.5838   2.1438   0.2589   0.3766  -1.0548 11475.00    0.0
2018/11/08 03:11:30.000  -74.425558789  163.418457662    65.1035   5  10   0.8583   0.5846   2.1456   0.2581   0.3793  -1.0581 11505.00    0.0
2018/11/08 03:12:00.000  -74.425560632  163.418464983    66.0406   5  10   0.8610   0.5857   2.1483   0.2574   0.3821  -1.0618 11535.00    0.0
2018/11/08 03:12:30.000  -74.425560120  163.418456432    65.8358   5  10   0.8641   0.5870   2.1520   0.2567   0.3851  -1.0659 11565.00    0.0
2018/11/08 03:13:00.000  -74.425560700  163.418463887    65.9163   5  10   0.8640   0.5860   2.1463   0.2554   0.3858  -1.0659 11595.00    0.0
2018/11/08 03:13:30.000  -74.425561839  163.418457231    65.7412   5  10   0.8642   0.5853   2.1415   0.2543   0.3864  -1.0665 11625.00    0.0
2018/11/08 03:14:00.000  -74.425564369  163.418467792    66.3552   5  10   0.8648   0.5848   2.1377   0.2533   0.3872  -1.0674 11655.00    0.0
2018/11/08 03:14:30.000  -74.425556739  163.418464823    65.0858   5  10   0.8657   0.5846   2.1350   0.2523   0.3881  -1.0687 11685.00    0.0
2018/11/08 03:15:00.000  -74.425560960  163.418459030    65.7657   5  10   0.8670   0.5846   2.1333   0.2515   0.3892  -1.0705 11715.00    0.0
2018/11/08 03:15:30.000  -74.425557711  163.418465865    65.1908   5  10   0.8687   0.5850   2.1327   0.2507   0.3905  -1.0727 11745.00    0.0
2018/11/08 03:16:00.000  -74.425557664  163.418474082    65.6949   5  10   0.8707   0.5855   2.1332   0.2500   0.3921  -1.0753 11775.00    0.0
2018/11/08 03:16:30.000  -74.425558530  163.418462504    66.1575   5  10   0.8731   0.5864   2.1346   0.2493   0.3939  -1.0782 11805.00    0.0
2018/11/08 03:17:00.000  -74.425559771  163.418466256    65.7217   5  10   0.8758   0.5874   2.1370   0.2487   0.3959  -1.0816 11835.00    0.0
2018/11/08 03:17:30.000  -74.425558810  163.418469950    65.5805   5  10   0.8788   0.5888   2.1404   0.2481   0.3982  -1.0854 11865.00    0.0
2018/11/08 03:18:00.000  -74.425556965  163.418476555    65.4228   5  10   0.8787   0.5878   2.1345   0.2473   0.3974  -1.0852 11895.00    0.0
2018/11/08 03:18:30.000  -74.425559746  163.418468224    66.2592   5  10   0.8789   0.5871   2.1295   0.2466   0.3968  -1.0855 11925.00    0.0
2018/11/08 03:19:00.000  -74.425559381  163.418474534    65.4539   5  10   0.8795   0.5866   2.1256   0.2459   0.3964  -1.0862 11955.00    0.0
2018/11/08 03:19:30.000  -74.425558674  163.418465906    65.7894   5  10   0.8804   0.5864   2.1226   0.2453   0.3962  -1.0872 11985.00    0.0
2018/11/08 03:20:00.000  -74.425556271  163.418475992    65.4563   5  10   0.8817   0.5864   2.1206   0.2448   0.3963  -1.0887 12015.00    0.0
2018/11/08 03:20:30.000  -74.425556840  163.418469325    65.3333   5  11   0.8379   0.5711   1.9416   0.1485   0.5215  -0.9755 12045.00    0.0
2018/11/08 03:21:00.000  -74.425554394  163.418463398    64.5155   5  11   0.8401   0.5714   1.9438   0.1468   0.5223  -0.9788 12075.00    0.0
2018/11/08 03:21:30.000  -74.425552204  163.418469017    64.1809   5  11   0.8426   0.5720   1.9468   0.1451   0.5234  -0.9824 12105.00    0.0
2018/11/08 03:22:00.000  -74.425555522  163.418470571    65.0903   5  11   0.8454   0.5728   1.9508   0.1434   0.5249  -0.9864 12135.00    0.0
2018/11/08 03:22:30.000  -74.425557188  163.418474914    65.0672   5  11   0.8486   0.5739   1.9556   0.1415   0.5267  -0.9906 12165.00    0.0
2018/11/08 03:23:00.000  -74.425555005  163.418465354    64.4787   5  11   0.8489   0.5727   1.9520   0.1408   0.5248  -0.9918 12195.00    0.0
2018/11/08 03:23:30.000  -74.425554731  163.418473216    64.4735   5  12   0.8242   0.5690   1.9379   0.0898   0.5118  -1.0149 12225.00    0.0
2018/11/08 03:24:00.000  -74.425555610  163.418467148    64.2785   5  12   0.8246   0.5683   1.9369   0.0880   0.5110  -1.0161 12255.00    0.0
2018/11/08 03:24:30.000  -74.425553206  163.418474245    63.9792   5  12   0.8252   0.5678   1.9367   0.0860   0.5104  -1.0177 12285.00    0.0
2018/11/08 03:25:00.000  -74.425555197  163.418470238    64.6834   5  12   0.8262   0.5676   1.9374   0.0838   0.5102  -1.0196 12315.00    0.0
2018/11/08 03:25:30.000  -74.425555922  163.418464125    64.7518   5  12   0.8275   0.5676   1.9391   0.0812   0.5103  -1.0218 12345.00    0.0
2018/11/08 03:26:00.000  -74.425555160  163.418477276    64.8930   5  12   0.8290   0.5679   1.9416   0.0783   0.5108  -1.0244 12375.00    0.0
2018/11/08 03:26:30.000  -74.425551276  163.418466462    63.9050   5  12   0.8308   0.5685   1.9449   0.0751   0.5117  -1.0272 12405.00    0.0
