% program   : RTKLIB ver.2.4.3
% inp file  : _by_type/_obs/tuati/20181110.18o
% inp file  : _by_type/_obs/base/20181109.18o
% inp file  : _by_type/_sp3+clk/igs20266.clk
% inp file  : _by_type/_sp3+clk/igs20266.sp3
% inp file  : _by_type/_nav/tuati/20181110.18n
% obs start : 2018/11/10 00:00:00.0 GPST (week2026 518400.0s)
% obs end   : 2018/11/10 23:59:30.0 GPST (week2026 604770.0s)
% pos mode  : dgps
% freqs     : L1+L2
% solution  : combined
% elev mask : 15.0 deg
% dynamics  : off
% tidecorr  : off
% ionos opt : iono-free
% tropo opt : est ztd+grad
% ephemeris : precise
% navi sys  : gps glonass
% antenna1  :                       ( 0.0000  0.0000  0.0000)
% antenna2  :                       ( 0.0000  0.0000  0.0000)
% ref pos   : 90.000000000   0.000000000-6335367.6285
%
% (lat/lon/height=WGS84/ellipsoidal,Q=1:fix,2:float,3:sbas,4:dgps,5:single,6:ppp,ns=# of satellites)
%  GPST                  latitude(deg) longitude(deg)  height(m)   Q  ns   sdn(m)   sde(m)   sdu(m)  sdne(m)  sdeu(m)  sdun(m) age(s)  ratio
2018/11/10 00:00:00.000  -74.425547324  163.418465757    64.8555   5  10   0.6521   0.6086   2.0834  -0.2587   0.6609  -0.6766  15.00    0.0
2018/11/10 00:00:30.000  -74.425547114  163.418467392    65.6240   5  10   0.6523   0.6095   2.0963  -0.2606   0.6682  -0.6808  45.00    0.0
2018/11/10 00:01:00.000  -74.425544964  163.418466006    64.8525   5  10   0.6529   0.6108   2.1104  -0.2628   0.6761  -0.6854  75.00    0.0
2018/11/10 00:01:30.000  -74.425546637  163.418465062    64.9470   5  10   0.6538   0.6124   2.1257  -0.2652   0.6846  -0.6904 105.00    0.0
2018/11/10 00:02:00.000  -74.425547534  163.418462267    65.1494   5  10   0.6549   0.6144   2.1422  -0.2679   0.6935  -0.6958 135.00    0.0
2018/11/10 00:02:30.000  -74.425548742  163.418469287    65.5545   5  10   0.6564   0.6168   2.1600  -0.2709   0.7030  -0.7016 165.00    0.0
2018/11/10 00:03:00.000  -74.425549374  163.418466510    64.9716   5  10   0.6555   0.6161   2.1682  -0.2719   0.7081  -0.7048 195.00    0.0
2018/11/10 00:03:30.000  -74.425547941  163.418473165    65.3953   5  10   0.6548   0.6157   2.1774  -0.2731   0.7136  -0.7084 225.00    0.0
2018/11/10 00:04:00.000  -74.425546781  163.418470551    64.8369   5  10   0.6544   0.6157   2.1877  -0.2746   0.7197  -0.7123 255.00    0.0
2018/11/10 00:04:30.000  -74.425548620  163.418473584    65.2557   5  10   0.6544   0.6161   2.1992  -0.2764   0.7262  -0.7166 285.00    0.0
2018/11/10 00:05:00.000  -74.425544452  163.418463209    63.7662   5  10   0.6546   0.6169   2.2119  -0.2784   0.7333  -0.7213 315.00    0.0
2018/11/10 00:05:30.000  -74.425545284  163.418475218    65.7177   5  10   0.6552   0.6180   2.2260  -0.2806   0.7409  -0.7265 345.00    0.0
2018/11/10 00:06:00.000  -74.425545882  163.418464353    64.6429   5  10   0.6561   0.6196   2.2414  -0.2832   0.7492  -0.7321 375.00    0.0
2018/11/10 00:06:30.000  -74.425547043  163.418479751    64.9741   5  10   0.6573   0.6215   2.2580  -0.2860   0.7579  -0.7380 405.00    0.0
2018/11/10 00:07:00.000  -74.425549279  163.418478576    64.8690   5  10   0.6589   0.6239   2.2758  -0.2891   0.7672  -0.7444 435.00    0.0
2018/11/10 00:07:30.000  -74.425546110  163.418476861    64.6765   5  10   0.6607   0.6265   2.2948  -0.2924   0.7770  -0.7512 465.00    0.0
2018/11/10 00:08:00.000  -74.425546043  163.418465044    64.1911   5  10   0.6601   0.6261   2.3033  -0.2937   0.7820  -0.7550 495.00    0.0
2018/11/10 00:08:30.000  -74.425545415  163.418460027    63.7340   5  10   0.6597   0.6259   2.3130  -0.2952   0.7875  -0.7593 525.00    0.0
2018/11/10 00:09:00.000  -74.425548510  163.418461061    64.9399   5  10   0.6597   0.6262   2.3237  -0.2970   0.7935  -0.7639 555.00    0.0
2018/11/10 00:09:30.000  -74.425545750  163.418471208    64.1169   5  10   0.6600   0.6268   2.3356  -0.2990   0.7999  -0.7688 585.00    0.0
2018/11/10 00:10:00.000  -74.425546160  163.418472434    64.3108   5  10   0.6605   0.6277   2.3487  -0.3012   0.8069  -0.7742 615.00    0.0
2018/11/10 00:10:30.000  -74.425547176  163.418472394    64.2958   5  10   0.6615   0.6291   2.3631  -0.3038   0.8145  -0.7800 645.00    0.0
2018/11/10 00:11:00.000  -74.425545943  163.418462161    64.4433   5  10   0.6628   0.6309   2.3787  -0.3066   0.8225  -0.7862 675.00    0.0
2018/11/10 00:11:30.000  -74.425545252  163.418464392    64.0624   5  10   0.6643   0.6330   2.3955  -0.3096   0.8311  -0.7928 705.00    0.0
2018/11/10 00:12:00.000  -74.425547750  163.418470915    64.1365   5  10   0.6662   0.6355   2.4134  -0.3129   0.8402  -0.7998 735.00    0.0
2018/11/10 00:12:30.000  -74.425545046  163.418466387    64.7736   5  10   0.6684   0.6384   2.4324  -0.3164   0.8497  -0.8072 765.00    0.0
2018/11/10 00:13:00.000  -74.425546064  163.418476042    64.4020   5  10   0.6681   0.6380   2.4402  -0.3178   0.8542  -0.8113 795.00    0.0
2018/11/10 00:13:30.000  -74.425548873  163.418476629    64.9018   5  11   0.6553   0.6380   2.3536  -0.3181   0.8616  -0.8681 825.00    0.0
2018/11/10 00:14:00.000  -74.425548217  163.418466869    63.5024   5  11   0.6554   0.6383   2.3645  -0.3200   0.8667  -0.8727 855.00    0.0
2018/11/10 00:14:30.000  -74.425547486  163.418470035    64.8615   5  11   0.6559   0.6389   2.3764  -0.3222   0.8723  -0.8776 885.00    0.0
2018/11/10 00:15:00.000  -74.425548674  163.418471376    64.8520   5  11   0.6566   0.6399   2.3893  -0.3246   0.8784  -0.8829 915.00    0.0
2018/11/10 00:15:30.000  -74.425547111  163.418460964    64.1456   5  11   0.6577   0.6414   2.4034  -0.3272   0.8850  -0.8888 945.00    0.0
2018/11/10 00:16:00.000  -74.425548962  163.418468388    64.4702   5  11   0.6591   0.6432   2.4186  -0.3300   0.8920  -0.8949 975.00    0.0
2018/11/10 00:16:30.000  -74.425546404  163.418472263    64.8813   5  11   0.6607   0.6453   2.4348  -0.3331   0.8995  -0.9015 1005.00    0.0
2018/11/10 00:17:00.000  -74.425548865  163.418469564    64.6418   5  11   0.6626   0.6478   2.4519  -0.3363   0.9074  -0.9084 1035.00    0.0
2018/11/10 00:17:30.000  -74.425545939  163.418464872    63.6327   5  11   0.6648   0.6506   2.4699  -0.3397   0.9157  -0.9156 1065.00    0.0
2018/11/10 00:18:00.000  -74.425546966  163.418472093    64.6469   5  11   0.6646   0.6501   2.4768  -0.3410   0.9187  -0.9190 1095.00    0.0
2018/11/10 00:18:30.000  -74.425546078  163.418482027    64.6678   5  11   0.6646   0.6499   2.4845  -0.3424   0.9222  -0.9227 1125.00    0.0
2018/11/10 00:19:00.000  -74.425545299  163.418470281    64.3956   5  11   0.6649   0.6500   2.4931  -0.3440   0.9259  -0.9267 1155.00    0.0
2018/11/10 00:19:30.000  -74.425546322  163.418460977    63.5146   5  11   0.6654   0.6504   2.5024  -0.3458   0.9301  -0.9310 1185.00    0.0
2018/11/10 00:20:00.000  -74.425545867  163.418466978    63.9109   5  11   0.6662   0.6512   2.5126  -0.3477   0.9346  -0.9357 1215.00    0.0
2018/11/10 00:20:30.000  -74.425544923  163.418470935    63.5129   5  11   0.6674   0.6524   2.5238  -0.3499   0.9395  -0.9407 1245.00    0.0
2018/11/10 00:21:00.000  -74.425546245  163.418472924    65.0563   5  11   0.6688   0.6538   2.5358  -0.3522   0.9448  -0.9459 1275.00    0.0
2018/11/10 00:21:30.000  -74.425545426  163.418474753    64.6427   5  11   0.6705   0.6556   2.5485  -0.3546   0.9504  -0.9514 1305.00    0.0
2018/11/10 00:22:00.000  -74.425546002  163.418466799    64.3249   5  11   0.6724   0.6577   2.5618  -0.3572   0.9562  -0.9572 1335.00    0.0
2018/11/10 00:22:30.000  -74.425545752  163.418465206    64.1321   5  11   0.6746   0.6601   2.5759  -0.3600   0.9623  -0.9632 1365.00    0.0
2018/11/10 00:23:00.000  -74.425544248  163.418461057    64.0332   5  11   0.6742   0.6591   2.5784  -0.3605   0.9632  -0.9652 1395.00    0.0
2018/11/10 00:23:30.000  -74.425546221  163.418468374    64.6036   5  11   0.6742   0.6584   2.5816  -0.3612   0.9643  -0.9675 1425.00    0.0
2018/11/10 00:24:00.000  -74.425545003  163.418462551    63.4449   5  11   0.6744   0.6580   2.5855  -0.3621   0.9657  -0.9701 1455.00    0.0
2018/11/10 00:24:30.000  -74.425547609  163.418471055    64.2689   5  11   0.6748   0.6579   2.5899  -0.3630   0.9673  -0.9728 1485.00    0.0
2018/11/10 00:25:00.000  -74.425543551  163.418452429    62.6069   5  11   0.6755   0.6581   2.5949  -0.3641   0.9692  -0.9757 1515.00    0.0
2018/11/10 00:25:30.000  -74.425543510  163.418460842    64.0535   5  11   0.6764   0.6587   2.6006  -0.3653   0.9714  -0.9788 1545.00    0.0
2018/11/10 00:26:00.000  -74.425544028  163.418464724    64.0630   5  11   0.6777   0.6595   2.6069  -0.3666   0.9738  -0.9822 1575.00    0.0
2018/11/10 00:26:30.000  -74.425545265  163.418467031    64.0494   5  11   0.6791   0.6606   2.6137  -0.3681   0.9763  -0.9857 1605.00    0.0
2018/11/10 00:27:00.000  -74.425545332  163.418462528    63.6093   5  11   0.6808   0.6619   2.6209  -0.3695   0.9790  -0.9893 1635.00    0.0
2018/11/10 00:27:30.000  -74.425542699  163.418457824    63.0572   5  11   0.6826   0.6635   2.6286  -0.3711   0.9818  -0.9930 1665.00    0.0
2018/11/10 00:28:00.000  -74.425543032  163.418452872    62.3936   5  11   0.6821   0.6618   2.6249  -0.3706   0.9797  -0.9929 1695.00    0.0
2018/11/10 00:28:30.000  -74.425543722  163.418459754    62.6685   5  11   0.6817   0.6604   2.6217  -0.3702   0.9777  -0.9930 1725.00    0.0
2018/11/10 00:29:00.000  -74.425544137  163.418455819    63.4654   5  11   0.6816   0.6593   2.6190  -0.3700   0.9759  -0.9933 1755.00    0.0
2018/11/10 00:29:30.000  -74.425543868  163.418451661    61.6877   5  11   0.6817   0.6584   2.6168  -0.3697   0.9742  -0.9936 1785.00    0.0
2018/11/10 00:30:00.000  -74.425543254  163.418457100    62.0446   5  11   0.6821   0.6579   2.6150  -0.3696   0.9727  -0.9941 1815.00    0.0
2018/11/10 00:30:30.000  -74.425543389  163.418464114    62.8673   5  11   0.6826   0.6576   2.6138  -0.3696   0.9715  -0.9947 1845.00    0.0
2018/11/10 00:31:00.000  -74.425542576  163.418455571    62.2742   5  11   0.6835   0.6575   2.6131  -0.3696   0.9703  -0.9955 1875.00    0.0
2018/11/10 00:31:30.000  -74.425542407  163.418456687    62.1690   5  11   0.6845   0.6578   2.6127  -0.3697   0.9693  -0.9964 1905.00    0.0
2018/11/10 00:32:00.000  -74.425543411  163.418457128    62.1612   5  11   0.6857   0.6582   2.6128  -0.3698   0.9683  -0.9973 1935.00    0.0
2018/11/10 00:32:30.000  -74.425543421  163.418470030    63.1443   5  11   0.6872   0.6589   2.6132  -0.3699   0.9675  -0.9983 1965.00    0.0
2018/11/10 00:33:00.000  -74.425544112  163.418465682    63.4099   5  11   0.6862   0.6566   2.6029  -0.3683   0.9621  -0.9958 1995.00    0.0
2018/11/10 00:33:30.000  -74.425544027  163.418451932    61.7835   5  11   0.6855   0.6545   2.5930  -0.3667   0.9568  -0.9934 2025.00    0.0
2018/11/10 00:34:00.000  -74.425546844  163.418466141    63.0828   5  11   0.6850   0.6526   2.5836  -0.3652   0.9517  -0.9912 2055.00    0.0
2018/11/10 00:34:30.000  -74.425545326  163.418456191    62.7363   5  11   0.6847   0.6510   2.5747  -0.3637   0.9468  -0.9890 2085.00    0.0
2018/11/10 00:35:00.000  -74.425543231  163.418448992    61.8191   5  11   0.6846   0.6496   2.5664  -0.3623   0.9420  -0.9870 2115.00    0.0
2018/11/10 00:35:30.000  -74.425543155  163.418461264    62.8813   5  11   0.6848   0.6486   2.5587  -0.3610   0.9374  -0.9852 2145.00    0.0
2018/11/10 00:36:00.000  -74.425542304  163.418459384    61.9366   5  11   0.6852   0.6479   2.5516  -0.3598   0.9330  -0.9835 2175.00    0.0
2018/11/10 00:36:30.000  -74.425543934  163.418456386    62.5858   5  11   0.6858   0.6474   2.5450  -0.3586   0.9287  -0.9819 2205.00    0.0
2018/11/10 00:37:00.000  -74.425545269  163.418459821    62.4888   5  11   0.6867   0.6472   2.5390  -0.3574   0.9245  -0.9805 2235.00    0.0
2018/11/10 00:37:30.000  -74.425545781  163.418457901    63.0431   5  11   0.6877   0.6472   2.5335  -0.3563   0.9204  -0.9791 2265.00    0.0
2018/11/10 00:38:00.000  -74.425543000  163.418461372    62.6113   5  11   0.6864   0.6442   2.5178  -0.3536   0.9123  -0.9746 2295.00    0.0
2018/11/10 00:38:30.000  -74.425541931  163.418458587    62.0297   5  10   0.9376   0.6742   3.5713  -0.5056   1.1600  -1.6034 2325.00    0.0
2018/11/10 00:39:00.000  -74.425540417  163.418462157    60.8293   5  10   0.9349   0.6710   3.5488  -0.5012   1.1489  -1.5950 2355.00    0.0
2018/11/10 00:39:30.000  -74.425542023  163.418463306    62.3870   5  10   0.9324   0.6681   3.5269  -0.4967   1.1379  -1.5867 2385.00    0.0
2018/11/10 00:40:00.000  -74.425546094  163.418459892    63.7123   5  10   0.9302   0.6654   3.5055  -0.4923   1.1269  -1.5786 2415.00    0.0
2018/11/10 00:40:30.000  -74.425543297  163.418459084    62.4905   5  10   0.9283   0.6630   3.4852  -0.4880   1.1163  -1.5709 2445.00    0.0
2018/11/10 00:41:00.000  -74.425542967  163.418461783    63.1860   5  10   0.9266   0.6610   3.4657  -0.4837   1.1057  -1.5635 2475.00    0.0
2018/11/10 00:41:30.000  -74.425541694  163.418462219    61.8733   5  10   0.9253   0.6591   3.4469  -0.4795   1.0953  -1.5565 2505.00    0.0
2018/11/10 00:42:00.000  -74.425543756  163.418463603    63.3618   5   9   0.9283   0.6577   3.6822  -0.4744   1.0788  -1.5872 2535.00    0.0
2018/11/10 00:42:30.000  -74.425538657  163.418455811    61.1411   5   9   0.9278   0.6564   3.6707  -0.4702   1.0686  -1.5824 2565.00    0.0
2018/11/10 00:43:00.000  -74.425540913  163.418460964    61.6975   5   9   0.9228   0.6521   3.6368  -0.4633   1.0522  -1.5683 2595.00    0.0
2018/11/10 00:43:30.000  -74.425540597  163.418464033    61.9965   5   9   0.9181   0.6482   3.6041  -0.4565   1.0362  -1.5548 2625.00    0.0
2018/11/10 00:44:00.000  -74.425542887  163.418455274    61.6629   5   9   0.9137   0.6446   3.5727  -0.4498   1.0204  -1.5417 2655.00    0.0
2018/11/10 00:44:30.000  -74.425545199  163.418462875    62.4951   5   9   0.9097   0.6413   3.5426  -0.4433   1.0049  -1.5292 2685.00    0.0
2018/11/10 00:45:00.000  -74.425543752  163.418469512    61.8487   5  10   0.7468   0.6346   2.6693  -0.3940   0.9060  -1.0627 2715.00    0.0
2018/11/10 00:45:30.000  -74.425544649  163.418453733    61.9261   5  10   0.7463   0.6327   2.6603  -0.3914   0.8985  -1.0593 2745.00    0.0
2018/11/10 00:46:00.000  -74.425542065  163.418466083    63.0589   5  10   0.7461   0.6311   2.6522  -0.3890   0.8913  -1.0561 2775.00    0.0
2018/11/10 00:46:30.000  -74.425545037  163.418462750    63.0317   5  10   0.7462   0.6297   2.6451  -0.3867   0.8842  -1.0533 2805.00    0.0
2018/11/10 00:47:00.000  -74.425542325  163.418476033    62.8252   5  10   0.7465   0.6286   2.6390  -0.3844   0.8773  -1.0507 2835.00    0.0
2018/11/10 00:47:30.000  -74.425542897  163.418464142    62.5626   5  10   0.7470   0.6278   2.6339  -0.3823   0.8706  -1.0483 2865.00    0.0
2018/11/10 00:48:00.000  -74.425544831  163.418473941    62.0374   5  10   0.7450   0.6244   2.6160  -0.3784   0.8600  -1.0419 2895.00    0.0
2018/11/10 00:48:30.000  -74.425546428  163.418473041    62.4966   5  10   0.7431   0.6212   2.5991  -0.3746   0.8494  -1.0358 2925.00    0.0
2018/11/10 00:49:00.000  -74.425545251  163.418478566    62.2244   5  10   0.7416   0.6183   2.5832  -0.3710   0.8392  -1.0299 2955.00    0.0
2018/11/10 00:49:30.000  -74.425544833  163.418467709    62.4446   5  10   0.7403   0.6157   2.5683  -0.3674   0.8292  -1.0244 2985.00    0.0
2018/11/10 00:50:00.000  -74.425544911  163.418469724    62.5139   5  10   0.7393   0.6134   2.5547  -0.3640   0.8194  -1.0192 3015.00    0.0
2018/11/10 00:50:30.000  -74.425545489  163.418466606    62.4635   5  10   0.7386   0.6115   2.5424  -0.3608   0.8101  -1.0144 3045.00    0.0
2018/11/10 00:51:00.000  -74.425545402  163.418477206    61.9124   5  10   0.7383   0.6099   2.5314  -0.3577   0.8009  -1.0100 3075.00    0.0
2018/11/10 00:51:30.000  -74.425544932  163.418469807    61.5618   5  10   0.7382   0.6086   2.5216  -0.3548   0.7921  -1.0059 3105.00    0.0
2018/11/10 00:52:00.000  -74.425545336  163.418470170    62.5615   5  10   0.7383   0.6076   2.5131  -0.3520   0.7835  -1.0022 3135.00    0.0
2018/11/10 00:52:30.000  -74.425545244  163.418467550    62.3549   5  10   0.7388   0.6069   2.5059  -0.3493   0.7751  -0.9989 3165.00    0.0
2018/11/10 00:53:00.000  -74.425545180  163.418466792    62.1647   5  10   0.7367   0.6037   2.4858  -0.3450   0.7631  -0.9915 3195.00    0.0
2018/11/10 00:53:30.000  -74.425543995  163.418472908    61.7914   5  10   0.7348   0.6008   2.4668  -0.3408   0.7514  -0.9845 3225.00    0.0
2018/11/10 00:54:00.000  -74.425545474  163.418458442    61.1188   5  10   0.7332   0.5981   2.4492  -0.3368   0.7400  -0.9779 3255.00    0.0
2018/11/10 00:54:30.000  -74.425542863  163.418457850    61.7835   5  10   0.7320   0.5958   2.4329  -0.3329   0.7289  -0.9717 3285.00    0.0
2018/11/10 00:55:00.000  -74.425545035  163.418472461    62.2112   5  10   0.7310   0.5938   2.4180  -0.3292   0.7180  -0.9660 3315.00    0.0
2018/11/10 00:55:30.000  -74.425543968  163.418463633    61.8523   5  10   0.7304   0.5922   2.4049  -0.3257   0.7076  -0.9607 3345.00    0.0
2018/11/10 00:56:00.000  -74.425546173  163.418471977    63.5447   5  10   0.7300   0.5910   2.3932  -0.3223   0.6975  -0.9559 3375.00    0.0
2018/11/10 00:56:30.000  -74.425545265  163.418469732    62.7543   5  10   0.7300   0.5900   2.3830  -0.3190   0.6876  -0.9514 3405.00    0.0
2018/11/10 00:57:00.000  -74.425545561  163.418464468    62.7614   5  10   0.7302   0.5893   2.3742  -0.3159   0.6779  -0.9474 3435.00    0.0
2018/11/10 00:57:30.000  -74.425547194  163.418471284    63.1006   5  10   0.7308   0.5890   2.3668  -0.3130   0.6684  -0.9438 3465.00    0.0
2018/11/10 00:58:00.000  -74.425547472  163.418471447    63.7272   5  10   0.7287   0.5861   2.3464  -0.3085   0.6558  -0.9363 3495.00    0.0
2018/11/10 00:58:30.000  -74.425546062  163.418468146    63.4691   5  10   0.7270   0.5837   2.3277  -0.3042   0.6435  -0.9293 3525.00    0.0
2018/11/10 00:59:00.000  -74.425546623  163.418464532    62.5358   5  10   0.7257   0.5815   2.3104  -0.3002   0.6316  -0.9228 3555.00    0.0
2018/11/10 00:59:30.000  -74.425545973  163.418471117    62.9273   5  10   0.7246   0.5797   2.2947  -0.2962   0.6199  -0.9168 3585.00    0.0
2018/11/10 01:00:00.000  -74.425548787  163.418465145    62.6230   5  10   0.7238   0.5782   2.2805  -0.2924   0.6085  -0.9111 3615.00    0.0
2018/11/10 01:00:30.000  -74.425545817  163.418460676    61.7434   5  10   0.7233   0.5771   2.2681  -0.2888   0.5974  -0.9060 3645.00    0.0
2018/11/10 01:01:00.000  -74.425546115  163.418465771    62.2901   5  10   0.7232   0.5762   2.2572  -0.2853   0.5865  -0.9014 3675.00    0.0
2018/11/10 01:01:30.000  -74.425547363  163.418471725    63.0982   5  10   0.7233   0.5757   2.2478  -0.2819   0.5757  -0.8971 3705.00    0.0
2018/11/10 01:02:00.000  -74.425546503  163.418465821    61.8363   5  10   0.7237   0.5755   2.2400  -0.2787   0.5651  -0.8933 3735.00    0.0
2018/11/10 01:02:30.000  -74.425545917  163.418466568    62.6017   5  10   0.7244   0.5756   2.2336  -0.2756   0.5546  -0.8899 3765.00    0.0
2018/11/10 01:03:00.000  -74.425545961  163.418461122    62.1915   5  10   0.7227   0.5734   2.2148  -0.2712   0.5417  -0.8830 3795.00    0.0
2018/11/10 01:03:30.000  -74.425547279  163.418461123    62.6429   5  10   0.7213   0.5715   2.1975  -0.2670   0.5291  -0.8766 3825.00    0.0
2018/11/10 01:04:00.000  -74.425547900  163.418470264    63.0295   5  10   0.7202   0.5699   2.1818  -0.2630   0.5166  -0.8706 3855.00    0.0
2018/11/10 01:04:30.000  -74.425549328  163.418459242    63.7976   5  10   0.7193   0.5686   2.1677  -0.2591   0.5043  -0.8651 3885.00    0.0
2018/11/10 01:05:00.000  -74.425547905  163.418460431    62.7496   5  10   0.7188   0.5676   2.1552  -0.2553   0.4921  -0.8600 3915.00    0.0
2018/11/10 01:05:30.000  -74.425546098  163.418455857    62.9804   5  10   0.7186   0.5670   2.1444  -0.2516   0.4801  -0.8555 3945.00    0.0
2018/11/10 01:06:00.000  -74.425547088  163.418465864    62.7066   5  11   0.6196   0.5496   1.7941  -0.1064   0.2438  -0.5507 3975.00    0.0
2018/11/10 01:06:30.000  -74.425545026  163.418463363    62.2463   5  11   0.6202   0.5501   1.7930  -0.1020   0.2288  -0.5494 4005.00    0.0
2018/11/10 01:07:00.000  -74.425547145  163.418461139    62.4772   5  11   0.6210   0.5509   1.7930  -0.0974   0.2127  -0.5482 4035.00    0.0
2018/11/10 01:07:30.000  -74.425546659  163.418460444    63.2866   5  11   0.6220   0.5519   1.7942  -0.0926   0.1951  -0.5472 4065.00    0.0
2018/11/10 01:08:00.000  -74.425546554  163.418458575    62.5318   5  11   0.6213   0.5508   1.7856  -0.0874   0.1773  -0.5454 4095.00    0.0
2018/11/10 01:08:30.000  -74.425546276  163.418455018    62.9496   5  11   0.6207   0.5499   1.7783  -0.0818   0.1573  -0.5436 4125.00    0.0
2018/11/10 01:09:00.000  -74.425547409  163.418462521    62.7927   5  11   0.6204   0.5493   1.7722  -0.0759   0.1344  -0.5420 4155.00    0.0
2018/11/10 01:09:30.000  -74.425545003  163.418461484    62.1356   5  11   0.6202   0.5490   1.7672  -0.0694   0.1066  -0.5406 4185.00    0.0
2018/11/10 01:10:00.000  -74.425547771  163.418452776    62.9814   5  12   0.6127   0.5263   1.6983  -0.1379  -0.2638  -0.5805 4215.00    0.0
2018/11/10 01:10:30.000  -74.425549816  163.418460944    62.6245   5  12   0.6127   0.5265   1.6980  -0.1356  -0.2742  -0.5795 4245.00    0.0
2018/11/10 01:11:00.000  -74.425548396  163.418459702    62.5652   5  12   0.6130   0.5270   1.6989  -0.1332  -0.2845  -0.5786 4275.00    0.0
2018/11/10 01:11:30.000  -74.425548610  163.418456690    62.5568   5  12   0.6135   0.5277   1.7009  -0.1309  -0.2948  -0.5780 4305.00    0.0
2018/11/10 01:12:00.000  -74.425546954  163.418457641    63.4849   5  12   0.6141   0.5287   1.7040  -0.1286  -0.3051  -0.5775 4335.00    0.0
2018/11/10 01:12:30.000  -74.425548699  163.418455300    62.7504   5  12   0.6150   0.5299   1.7082  -0.1263  -0.3154  -0.5772 4365.00    0.0
2018/11/10 01:13:00.000  -74.425549085  163.418446843    62.4083   5  12   0.6141   0.5290   1.7033  -0.1233  -0.3227  -0.5755 4395.00    0.0
2018/11/10 01:13:30.000  -74.425547153  163.418461296    62.3076   5  12   0.6135   0.5285   1.6993  -0.1204  -0.3299  -0.5741 4425.00    0.0
2018/11/10 01:14:00.000  -74.425551224  163.418458869    62.9833   5  12   0.6130   0.5282   1.6964  -0.1175  -0.3372  -0.5728 4455.00    0.0
2018/11/10 01:14:30.000  -74.425548154  163.418458796    61.8936   5  12   0.6127   0.5281   1.6946  -0.1146  -0.3447  -0.5717 4485.00    0.0
2018/11/10 01:15:00.000  -74.425548443  163.418446851    62.2714   5  12   0.6127   0.5283   1.6940  -0.1117  -0.3523  -0.5707 4515.00    0.0
2018/11/10 01:15:30.000  -74.425548246  163.418453814    61.8999   5  12   0.6128   0.5287   1.6946  -0.1088  -0.3601  -0.5700 4545.00    0.0
2018/11/10 01:16:00.000  -74.425545655  163.418444685    61.9938   5  12   0.6132   0.5294   1.6964  -0.1059  -0.3680  -0.5695 4575.00    0.0
2018/11/10 01:16:30.000  -74.425545638  163.418450213    62.0084   5  12   0.6138   0.5303   1.6994  -0.1029  -0.3762  -0.5691 4605.00    0.0
2018/11/10 01:17:00.000  -74.425547128  163.418450961    62.1366   5  12   0.6145   0.5315   1.7034  -0.1000  -0.3845  -0.5690 4635.00    0.0
2018/11/10 01:17:30.000  -74.425547057  163.418449832    61.5665   5  12   0.6155   0.5329   1.7087  -0.0970  -0.3930  -0.5690 4665.00    0.0
2018/11/10 01:18:00.000  -74.425548961  163.418451913    62.8075   5  12   0.6148   0.5324   1.7043  -0.0934  -0.3984  -0.5677 4695.00    0.0
2018/11/10 01:18:30.000  -74.425550392  163.418452161    63.5614   5  12   0.6142   0.5320   1.7011  -0.0896  -0.4040  -0.5665 4725.00    0.0
2018/11/10 01:19:00.000  -74.425549819  163.418463860    63.1175   5  12   0.6139   0.5319   1.6990  -0.0857  -0.4098  -0.5655 4755.00    0.0
2018/11/10 01:19:30.000  -74.425548212  163.418457589    63.1861   5  12   0.6137   0.5320   1.6980  -0.0818  -0.4159  -0.5647 4785.00    0.0
2018/11/10 01:20:00.000  -74.425547291  163.418461089    62.6517   5  12   0.6137   0.5324   1.6982  -0.0777  -0.4221  -0.5641 4815.00    0.0
2018/11/10 01:20:30.000  -74.425547500  163.418454604    62.1013   5  12   0.6140   0.5331   1.6997  -0.0735  -0.4287  -0.5637 4845.00    0.0
2018/11/10 01:21:00.000  -74.425549446  163.418449641    62.6234   5  12   0.6145   0.5340   1.7023  -0.0692  -0.4354  -0.5635 4875.00    0.0
2018/11/10 01:21:30.000  -74.425549509  163.418455416    62.8985   5  12   0.6152   0.5351   1.7061  -0.0646  -0.4424  -0.5635 4905.00    0.0
2018/11/10 01:22:00.000  -74.425548819  163.418451407    62.6528   5  12   0.6161   0.5365   1.7111  -0.0598  -0.4496  -0.5637 4935.00    0.0
2018/11/10 01:22:30.000  -74.425548623  163.418452889    62.9178   5  12   0.6172   0.5381   1.7172  -0.0546  -0.4571  -0.5640 4965.00    0.0
2018/11/10 01:23:00.000  -74.425546585  163.418449564    61.9364   5  12   0.6165   0.5377   1.7135  -0.0477  -0.4615  -0.5630 4995.00    0.0
2018/11/10 01:23:30.000  -74.425548635  163.418456835    63.1585   5  12   0.6161   0.5375   1.7111  -0.0400  -0.4662  -0.5622 5025.00    0.0
2018/11/10 01:24:00.000  -74.425548418  163.418454197    63.3248   5  12   0.6158   0.5376   1.7098  -0.0307  -0.4712  -0.5616 5055.00    0.0
2018/11/10 01:24:30.000  -74.425548023  163.418446282    63.4817   5  12   0.6158   0.5379   1.7097  -0.0169  -0.4763  -0.5612 5085.00    0.0
2018/11/10 01:25:00.000  -74.425548411  163.418454148    62.6377   5  12   0.6159   0.5384   1.7107   0.0189  -0.4818  -0.5609 5115.00    0.0
2018/11/10 01:25:30.000  -74.425549685  163.418461178    61.2255   5  12   0.6163   0.5393   1.7130   0.0315  -0.4875  -0.5609 5145.00    0.0
2018/11/10 01:26:00.000  -74.425547449  163.418455884    62.3667   5  12   0.6169   0.5403   1.7164   0.0403  -0.4935  -0.5610 5175.00    0.0
2018/11/10 01:26:30.000  -74.425549462  163.418461255    62.4601   5  12   0.6177   0.5416   1.7209   0.0474  -0.4997  -0.5613 5205.00    0.0
2018/11/10 01:27:00.000  -74.425547223  163.418454187    62.1888   5  12   0.6187   0.5432   1.7265   0.0535  -0.5062  -0.5618 5235.00    0.0
2018/11/10 01:27:30.000  -74.425547048  163.418452236    62.9716   5  12   0.6199   0.5449   1.7333   0.0589  -0.5129  -0.5625 5265.00    0.0
2018/11/10 01:28:00.000  -74.425549628  163.418449041    63.1123   5  12   0.6194   0.5447   1.7306   0.0643  -0.5167  -0.5619 5295.00    0.0
2018/11/10 01:28:30.000  -74.425548185  163.418454706    61.9174   5  12   0.6190   0.5447   1.7289   0.0694  -0.5207  -0.5614 5325.00    0.0
2018/11/10 01:29:00.000  -74.425550091  163.418452503    62.2393   5  12   0.6189   0.5449   1.7284   0.0740  -0.5250  -0.5612 5355.00    0.0
2018/11/10 01:29:30.000  -74.425549974  163.418451502    62.5310   5  12   0.6190   0.5453   1.7290   0.0783  -0.5295  -0.5611 5385.00    0.0
2018/11/10 01:30:00.000  -74.425547427  163.418450221    62.2037   5  12   0.6192   0.5460   1.7307   0.0824  -0.5343  -0.5612 5415.00    0.0
2018/11/10 01:30:30.000  -74.425547557  163.418460330    61.3879   5  12   0.6197   0.5469   1.7336   0.0862  -0.5394  -0.5615 5445.00    0.0
2018/11/10 01:31:00.000  -74.425549376  163.418455152    61.5587   5  12   0.6204   0.5481   1.7376   0.0898  -0.5448  -0.5620 5475.00    0.0
2018/11/10 01:31:30.000  -74.425550536  163.418460047    61.3083   5  12   0.6214   0.5496   1.7427   0.0933  -0.5504  -0.5627 5505.00    0.0
2018/11/10 01:32:00.000  -74.425548532  163.418463702    61.1412   5  12   0.6225   0.5512   1.7489   0.0966  -0.5562  -0.5635 5535.00    0.0
2018/11/10 01:32:30.000  -74.425549656  163.418462408    61.9420   5  12   0.6238   0.5531   1.7560   0.0997  -0.5623  -0.5645 5565.00    0.0
2018/11/10 01:33:00.000  -74.425547996  163.418463278    61.6324   5  12   0.6234   0.5529   1.7540   0.1031  -0.5656  -0.5642 5595.00    0.0
2018/11/10 01:33:30.000  -74.425547900  163.418461200    61.5564   5  12   0.6231   0.5530   1.7530   0.1064  -0.5691  -0.5641 5625.00    0.0
2018/11/10 01:34:00.000  -74.425550663  163.418454282    62.2522   5  12   0.6231   0.5533   1.7531   0.1095  -0.5728  -0.5643 5655.00    0.0
2018/11/10 01:34:30.000  -74.425546838  163.418463792    61.5666   5  12   0.6233   0.5538   1.7543   0.1125  -0.5768  -0.5646 5685.00    0.0
2018/11/10 01:35:00.000  -74.425548570  163.418459539    61.1099   5  12   0.6237   0.5546   1.7565   0.1154  -0.5810  -0.5650 5715.00    0.0
2018/11/10 01:35:30.000  -74.425548103  163.418459734    61.8047   5  12   0.6243   0.5556   1.7599   0.1182  -0.5855  -0.5657 5745.00    0.0
2018/11/10 01:36:00.000  -74.425550512  163.418463847    62.1181   5  12   0.6251   0.5569   1.7643   0.1209  -0.5903  -0.5665 5775.00    0.0
2018/11/10 01:36:30.000  -74.425550389  163.418461933    62.5660   5  12   0.6262   0.5583   1.7696   0.1235  -0.5953  -0.5674 5805.00    0.0
2018/11/10 01:37:00.000  -74.425547011  163.418460111    62.2923   5  12   0.6274   0.5600   1.7760   0.1261  -0.6005  -0.5685 5835.00    0.0
2018/11/10 01:37:30.000  -74.425547630  163.418452699    62.1751   5  12   0.6289   0.5619   1.7832   0.1286  -0.6059  -0.5698 5865.00    0.0
2018/11/10 01:38:00.000  -74.425548540  163.418459910    61.9440   5  12   0.6286   0.5619   1.7817   0.1312  -0.6086  -0.5700 5895.00    0.0
2018/11/10 01:38:30.000  -74.425547341  163.418465034    61.3023   5  12   0.6284   0.5620   1.7813   0.1338  -0.6115  -0.5703 5925.00    0.0
2018/11/10 01:39:00.000  -74.425549855  163.418465096    62.2281   5  12   0.6285   0.5623   1.7818   0.1363  -0.6147  -0.5708 5955.00    0.0
2018/11/10 01:39:30.000  -74.425548360  163.418454821    62.4925   5  12   0.6288   0.5629   1.7834   0.1387  -0.6181  -0.5714 5985.00    0.0
2018/11/10 01:40:00.000  -74.425548057  163.418461321    61.9793   5  11   0.6603   0.5673   1.8225   0.1812  -0.6026  -0.5047 6015.00    0.0
2018/11/10 01:40:30.000  -74.425548753  163.418461505    61.9250   5  11   0.6607   0.5683   1.8267   0.1826  -0.6065  -0.5055 6045.00    0.0
2018/11/10 01:41:00.000  -74.425547261  163.418470561    61.6781   5  11   0.6614   0.5695   1.8319   0.1840  -0.6107  -0.5062 6075.00    0.0
2018/11/10 01:41:30.000  -74.425547032  163.418462448    61.9839   5  10   0.6736   0.6296   2.0907   0.0410  -0.8018  -0.3668 6105.00    0.0
2018/11/10 01:42:00.000  -74.425548927  163.418468301    61.4689   5  10   0.6745   0.6320   2.1037   0.0472  -0.8090  -0.3672 6135.00    0.0
2018/11/10 01:42:30.000  -74.425544727  163.418467720    60.6004   5   9   0.7764   0.6877   2.6493   0.3225  -1.0432  -0.8623 6165.00    0.0
2018/11/10 01:43:00.000  -74.425545969  163.418475855    59.1203   5   9   0.7757   0.6894   2.6635   0.3266  -1.0514  -0.8682 6195.00    0.0
2018/11/10 01:43:30.000  -74.425550545  163.418474722    61.1557   5   9   0.7753   0.6914   2.6795   0.3308  -1.0603  -0.8744 6225.00    0.0
2018/11/10 01:44:00.000  -74.425549923  163.418471585    61.1628   5   9   0.7752   0.6938   2.6974   0.3351  -1.0699  -0.8810 6255.00    0.0
2018/11/10 01:44:30.000  -74.425549510  163.418470138    60.0822   5   9   0.7754   0.6965   2.7170   0.3395  -1.0800  -0.8880 6285.00    0.0
2018/11/10 01:45:00.000  -74.425550431  163.418466560    61.6492   5   9   0.7759   0.6996   2.7385   0.3440  -1.0909  -0.8954 6315.00    0.0
2018/11/10 01:45:30.000  -74.425552344  163.418466370    62.1501   5   9   0.7768   0.7031   2.7621   0.3486  -1.1024  -0.9032 6345.00    0.0
2018/11/10 01:46:00.000  -74.425548968  163.418469706    61.1995   5   9   0.7781   0.7069   2.7874   0.3533  -1.1146  -0.9114 6375.00    0.0
2018/11/10 01:46:30.000  -74.425548098  163.418470939    59.1108   5   9   0.7796   0.7111   2.8145   0.3581  -1.1274  -0.9200 6405.00    0.0
2018/11/10 01:47:00.000  -74.425549880  163.418463425    60.8274   5   9   0.7815   0.7156   2.8433   0.3630  -1.1409  -0.9290 6435.00    0.0
2018/11/10 01:47:30.000  -74.425549451  163.418461593    61.1956   5   9   0.7837   0.7205   2.8737   0.3680  -1.1549  -0.9383 6465.00    0.0
2018/11/10 01:48:00.000  -74.425547947  163.418471724    60.8293   5   9   0.7834   0.7220   2.8883   0.3719  -1.1623  -0.9448 6495.00    0.0
2018/11/10 01:48:30.000  -74.425551292  163.418461276    62.2364   5   9   0.7833   0.7238   2.9043   0.3758  -1.1702  -0.9516 6525.00    0.0
2018/11/10 01:49:00.000  -74.425550399  163.418470511    60.3750   5   9   0.7835   0.7259   2.9218   0.3798  -1.1787  -0.9588 6555.00    0.0
2018/11/10 01:49:30.000  -74.425553417  163.418471226    61.7668   5   9   0.7841   0.7284   2.9409   0.3838  -1.1876  -0.9662 6585.00    0.0
2018/11/10 01:50:00.000  -74.425548534  163.418466319    61.1797   5   9   0.7849   0.7311   2.9615   0.3879  -1.1971  -0.9740 6615.00    0.0
2018/11/10 01:50:30.000  -74.425547290  163.418474110    59.2405   5   9   0.7862   0.7342   2.9838   0.3922  -1.2071  -0.9821 6645.00    0.0
2018/11/10 01:51:00.000  -74.425547140  163.418476175    58.7358   5   9   0.7878   0.7376   3.0074   0.3965  -1.2176  -0.9905 6675.00    0.0
2018/11/10 01:51:30.000  -74.425547585  163.418468294    60.1291   5   9   0.7896   0.7412   3.0323   0.4008  -1.2286  -0.9991 6705.00    0.0
2018/11/10 01:52:00.000  -74.425545304  163.418482754    58.1407   5   9   0.7918   0.7452   3.0583   0.4052  -1.2399  -1.0080 6735.00    0.0
2018/11/10 01:52:30.000  -74.425548644  163.418465009    59.8852   5   9   0.7944   0.7494   3.0855   0.4097  -1.2516  -1.0171 6765.00    0.0
2018/11/10 01:53:00.000  -74.425547720  163.418461591    61.6364   5   9   0.7942   0.7501   3.0966   0.4128  -1.2565  -1.0232 6795.00    0.0
2018/11/10 01:53:30.000  -74.425550721  163.418469957    60.9214   5   9   0.7943   0.7510   3.1089   0.4159  -1.2617  -1.0295 6825.00    0.0
2018/11/10 01:54:00.000  -74.425550777  163.418460355    61.2138   5   9   0.7948   0.7522   3.1223   0.4191  -1.2672  -1.0360 6855.00    0.0
2018/11/10 01:54:30.000  -74.425550221  163.418468809    60.9207   5   8   0.9691   0.7709   4.0674   0.5179  -1.4286  -1.5874 6885.00    0.0
2018/11/10 01:55:00.000  -74.425550617  163.418474016    61.1318   5   8   0.9756   0.7748   4.1233   0.5278  -1.4478  -1.6120 6915.00    0.0
2018/11/10 01:55:30.000  -74.425552834  163.418465756    61.4576   5   9   0.7317   0.7322   2.9146   0.3385  -1.1644  -0.8450 6945.00    0.0
2018/11/10 01:56:00.000  -74.425552265  163.418466976    60.9849   5   9   0.7329   0.7345   2.9409   0.3437  -1.1741  -0.8551 6975.00    0.0
2018/11/10 01:56:30.000  -74.425551174  163.418465859    61.2965   5   9   0.7344   0.7370   2.9684   0.3489  -1.1842  -0.8654 7005.00    0.0
2018/11/10 01:57:00.000  -74.425553791  163.418464220    62.4930   5   9   0.7363   0.7398   2.9970   0.3541  -1.1947  -0.8759 7035.00    0.0
2018/11/10 01:57:30.000  -74.425553943  163.418458560    62.9205   5   9   0.7384   0.7429   3.0268   0.3593  -1.2055  -0.8867 7065.00    0.0
2018/11/10 01:58:00.000  -74.425553642  163.418469173    61.2422   5   9   0.7382   0.7427   3.0431   0.3638  -1.2105  -0.8959 7095.00    0.0
2018/11/10 01:58:30.000  -74.425551746  163.418461336    62.3903   5   9   0.7383   0.7428   3.0605   0.3682  -1.2159  -0.9053 7125.00    0.0
2018/11/10 01:59:00.000  -74.425553230  163.418470225    62.4614   5   9   0.7387   0.7431   3.0789   0.3726  -1.2215  -0.9148 7155.00    0.0
2018/11/10 01:59:30.000  -74.425554635  163.418456458    62.1204   5   9   0.7394   0.7437   3.0981   0.3770  -1.2274  -0.9244 7185.00    0.0
2018/11/10 02:00:00.000  -74.425551847  163.418471617    60.5778   5   9   0.7404   0.7445   3.1182   0.3814  -1.2335  -0.9341 7215.00    0.0
2018/11/10 02:00:30.000  -74.425555508  163.418466539    63.1722   5   9   0.7417   0.7456   3.1392   0.3858  -1.2399  -0.9438 7245.00    0.0
2018/11/10 02:01:00.000  -74.425554799  163.418471562    62.0060   5   9   0.7434   0.7469   3.1610   0.3902  -1.2465  -0.9537 7275.00    0.0
2018/11/10 02:01:30.000  -74.425555119  163.418456230    62.9560   5   9   0.7453   0.7484   3.1834   0.3945  -1.2533  -0.9637 7305.00    0.0
2018/11/10 02:02:00.000  -74.425557125  163.418457374    62.9111   5   9   0.7476   0.7501   3.2063   0.3989  -1.2602  -0.9738 7335.00    0.0
2018/11/10 02:02:30.000  -74.425554099  163.418458637    62.6922   5   9   0.7502   0.7520   3.2298   0.4033  -1.2672  -0.9839 7365.00    0.0
2018/11/10 02:03:00.000  -74.425553559  163.418481787    61.3231   5   9   0.7503   0.7506   3.2398   0.4065  -1.2683  -0.9919 7395.00    0.0
2018/11/10 02:03:30.000  -74.425554651  163.418466175    62.1616   5   9   0.7507   0.7494   3.2501   0.4097  -1.2695  -0.9999 7425.00    0.0
2018/11/10 02:04:00.000  -74.425552546  163.418468662    61.2031   5   9   0.7513   0.7484   3.2608   0.4128  -1.2708  -1.0078 7455.00    0.0
2018/11/10 02:04:30.000  -74.425552917  163.418473011    60.9555   5   9   0.7523   0.7475   3.2719   0.4159  -1.2721  -1.0157 7485.00    0.0
2018/11/10 02:05:00.000  -74.425552812  163.418477961    60.7603   5   9   0.7535   0.7469   3.2834   0.4190  -1.2735  -1.0236 7515.00    0.0
2018/11/10 02:05:30.000  -74.425553102  163.418473970    61.2682   5   9   0.7551   0.7465   3.2952   0.4220  -1.2750  -1.0314 7545.00    0.0
2018/11/10 02:06:00.000  -74.425555368  163.418472146    61.6282   5   9   0.7570   0.7462   3.3073   0.4250  -1.2764  -1.0393 7575.00    0.0
2018/11/10 02:06:30.000  -74.425552715  163.418477178    61.3068   5   9   0.7591   0.7462   3.3195   0.4279  -1.2779  -1.0471 7605.00    0.0
2018/11/10 02:07:00.000  -74.425556541  163.418463373    62.2585   5   9   0.7615   0.7464   3.3318   0.4309  -1.2795  -1.0548 7635.00    0.0
2018/11/10 02:07:30.000  -74.425555663  163.418466125    61.5049   5   9   0.7643   0.7467   3.3443   0.4338  -1.2810  -1.0625 7665.00    0.0
2018/11/10 02:08:00.000  -74.425555800  163.418452975    61.5966   5   9   0.7644   0.7437   3.3432   0.4353  -1.2765  -1.0675 7695.00    0.0
2018/11/10 02:08:30.000  -74.425557864  163.418460302    61.7198   5   9   0.7647   0.7408   3.3422   0.4367  -1.2720  -1.0723 7725.00    0.0
2018/11/10 02:09:00.000  -74.425554556  163.418457911    62.2690   5   9   0.7653   0.7382   3.3412   0.4381  -1.2675  -1.0770 7755.00    0.0
2018/11/10 02:09:30.000  -74.425555335  163.418451736    64.0072   5   9   0.7662   0.7358   3.3404   0.4394  -1.2630  -1.0815 7785.00    0.0
2018/11/10 02:10:00.000  -74.425554686  163.418470498    61.5913   5   9   0.7674   0.7335   3.3397   0.4407  -1.2586  -1.0860 7815.00    0.0
2018/11/10 02:10:30.000  -74.425558869  163.418448166    63.1571   5   9   0.7689   0.7316   3.3392   0.4420  -1.2542  -1.0905 7845.00    0.0
2018/11/10 02:11:00.000  -74.425557909  163.418443041    63.6125   5   9   0.7706   0.7298   3.3388   0.4433  -1.2499  -1.0949 7875.00    0.0
2018/11/10 02:11:30.000  -74.425557950  163.418460514    63.2961   5   9   0.7726   0.7283   3.3385   0.4446  -1.2456  -1.0992 7905.00    0.0
2018/11/10 02:12:00.000  -74.425558626  163.418457824    62.9641   5   9   0.7749   0.7271   3.3383   0.4459  -1.2413  -1.1035 7935.00    0.0
2018/11/10 02:12:30.000  -74.425556939  163.418461784    63.6816   5   9   0.7775   0.7261   3.3382   0.4472  -1.2372  -1.1078 7965.00    0.0
2018/11/10 02:13:00.000  -74.425558851  163.418444032    65.1567   5   9   0.7773   0.7217   3.3250   0.4468  -1.2272  -1.1088 7995.00    0.0
2018/11/10 02:13:30.000  -74.425556077  163.418457145    63.2295   5   9   0.7774   0.7176   3.3120   0.4464  -1.2172  -1.1096 8025.00    0.0
2018/11/10 02:14:00.000  -74.425556723  163.418462817    62.6087   5   9   0.7777   0.7138   3.2993   0.4460  -1.2074  -1.1105 8055.00    0.0
2018/11/10 02:14:30.000  -74.425559571  163.418459617    63.9142   5   9   0.7783   0.7103   3.2869   0.4457  -1.1978  -1.1113 8085.00    0.0
2018/11/10 02:15:00.000  -74.425556766  163.418465411    63.1822   5   9   0.7791   0.7071   3.2749   0.4453  -1.1883  -1.1121 8115.00    0.0
2018/11/10 02:15:30.000  -74.425558313  163.418460356    64.1181   5   9   0.7803   0.7042   3.2634   0.4451  -1.1791  -1.1129 8145.00    0.0
2018/11/10 02:16:00.000  -74.425558095  163.418463343    63.6339   5   9   0.7818   0.7016   3.2522   0.4449  -1.1702  -1.1139 8175.00    0.0
2018/11/10 02:16:30.000  -74.425556540  163.418466337    62.6624   5   9   0.7836   0.6994   3.2416   0.4448  -1.1615  -1.1149 8205.00    0.0
2018/11/10 02:17:00.000  -74.425557202  163.418454003    62.8367   5   9   0.7856   0.6975   3.2314   0.4449  -1.1530  -1.1160 8235.00    0.0
2018/11/10 02:17:30.000  -74.425557085  163.418459558    64.0082   5   9   0.7880   0.6959   3.2218   0.4450  -1.1449  -1.1172 8265.00    0.0
2018/11/10 02:18:00.000  -74.425559115  163.418452009    64.0487   5   9   0.7874   0.6911   3.1999   0.4432  -1.1312  -1.1149 8295.00    0.0
2018/11/10 02:18:30.000  -74.425555855  163.418445418    63.9913   5   9   0.7871   0.6866   3.1785   0.4415  -1.1177  -1.1125 8325.00    0.0
2018/11/10 02:19:00.000  -74.425557975  163.418455342    64.2043   5   9   0.7871   0.6825   3.1578   0.4399  -1.1045  -1.1102 8355.00    0.0
2018/11/10 02:19:30.000  -74.425556738  163.418457755    63.1934   5   9   0.7874   0.6788   3.1379   0.4384  -1.0918  -1.1081 8385.00    0.0
2018/11/10 02:20:00.000  -74.425557964  163.418457933    62.2612   5   9   0.7879   0.6754   3.1189   0.4371  -1.0794  -1.1062 8415.00    0.0
2018/11/10 02:20:30.000  -74.425555542  163.418456070    62.9390   5   9   0.7889   0.6725   3.1008   0.4359  -1.0677  -1.1046 8445.00    0.0
2018/11/10 02:21:00.000  -74.425560225  163.418447553    63.5642   5   9   0.7902   0.6700   3.0837   0.4350  -1.0563  -1.1032 8475.00    0.0
2018/11/10 02:21:30.000  -74.425556762  163.418449001    63.3604   5   9   0.7918   0.6679   3.0674   0.4342  -1.0455  -1.1021 8505.00    0.0
2018/11/10 02:22:00.000  -74.425554597  163.418456389    62.4156   5   9   0.7937   0.6662   3.0522   0.4336  -1.0351  -1.1013 8535.00    0.0
2018/11/10 02:22:30.000  -74.425557025  163.418450028    63.5621   5   9   0.7960   0.6649   3.0378   0.4331  -1.0252  -1.1008 8565.00    0.0
2018/11/10 02:23:00.000  -74.425558033  163.418449407    62.9820   5   9   0.7952   0.6605   3.0119   0.4307  -1.0099  -1.0963 8595.00    0.0
2018/11/10 02:23:30.000  -74.425554907  163.418460611    62.5112   5   9   0.7946   0.6564   2.9870   0.4284  -0.9951  -1.0920 8625.00    0.0
2018/11/10 02:24:00.000  -74.425558197  163.418442430    64.3556   5   9   0.7944   0.6528   2.9633   0.4262  -0.9808  -1.0881 8655.00    0.0
2018/11/10 02:24:30.000  -74.425557369  163.418454244    63.9765   5   9   0.7946   0.6496   2.9407   0.4243  -0.9671  -1.0846 8685.00    0.0
2018/11/10 02:25:00.000  -74.425556394  163.418457627    63.3999   5   9   0.7950   0.6468   2.9193   0.4226  -0.9540  -1.0813 8715.00    0.0
2018/11/10 02:25:30.000  -74.425558020  163.418454897    64.4044   5   9   0.7959   0.6445   2.8994   0.4212  -0.9416  -1.0786 8745.00    0.0
2018/11/10 02:26:00.000  -74.425555545  163.418463713    63.1488   5   8   0.8310   0.6526   3.4472   0.3870  -0.8058  -1.2660 8775.00    0.0
2018/11/10 02:26:30.000  -74.425556901  163.418450196    63.5551   5   8   0.8335   0.6515   3.4356   0.3850  -0.7902  -1.2672 8805.00    0.0
2018/11/10 02:27:00.000  -74.425558150  163.418450290    63.8542   5   8   0.8363   0.6509   3.4252   0.3831  -0.7749  -1.2688 8835.00    0.0
2018/11/10 02:27:30.000  -74.425560063  163.418447390    65.6252   5   8   0.8394   0.6507   3.4159   0.3814  -0.7600  -1.2708 8865.00    0.0
2018/11/10 02:28:00.000  -74.425556940  163.418454762    63.8616   5   8   0.8392   0.6475   3.3930   0.3778  -0.7400  -1.2676 8895.00    0.0
2018/11/10 02:28:30.000  -74.425561272  163.418455181    65.0549   5   8   0.8392   0.6446   3.3710   0.3742  -0.7203  -1.2648 8925.00    0.0
2018/11/10 02:29:00.000  -74.425556116  163.418454585    63.2260   5   8   0.8396   0.6423   3.3503   0.3710  -0.7010  -1.2623 8955.00    0.0
2018/11/10 02:29:30.000  -74.425557935  163.418453920    63.9071   5   8   0.8404   0.6404   3.3308   0.3679  -0.6821  -1.2603 8985.00    0.0
2018/11/10 02:30:00.000  -74.425558615  163.418449037    63.9134   5   8   0.8415   0.6389   3.3126   0.3650  -0.6636  -1.2587 9015.00    0.0
2018/11/10 02:30:30.000  -74.425559953  163.418445333    64.4452   5   8   0.8431   0.6380   3.2960   0.3625  -0.6456  -1.2577 9045.00    0.0
2018/11/10 02:31:00.000  -74.425554761  163.418449570    63.9517   5   8   0.8451   0.6375   3.2808   0.3601  -0.6280  -1.2573 9075.00    0.0
2018/11/10 02:31:30.000  -74.425556273  163.418453688    64.1936   5   8   0.8475   0.6374   3.2669   0.3580  -0.6108  -1.2573 9105.00    0.0
2018/11/10 02:32:00.000  -74.425555403  163.418449025    64.4886   5   8   0.8503   0.6378   3.2545   0.3562  -0.5938  -1.2579 9135.00    0.0
2018/11/10 02:32:30.000  -74.425557090  163.418443932    64.5938   5   8   0.8535   0.6386   3.2434   0.3545  -0.5772  -1.2590 9165.00    0.0
2018/11/10 02:33:00.000  -74.425558763  163.418444866    65.1145   5   9   0.8486   0.6362   2.9728   0.3487  -0.5749  -1.2965 9195.00    0.0
2018/11/10 02:33:30.000  -74.425557934  163.418444418    65.5273   5   9   0.8480   0.6343   2.9598   0.3447  -0.5584  -1.2938 9225.00    0.0
2018/11/10 02:34:00.000  -74.425561882  163.418440899    65.3520   5   9   0.8478   0.6328   2.9479   0.3408  -0.5422  -1.2916 9255.00    0.0
2018/11/10 02:34:30.000  -74.425562417  163.418439969    66.0656   5   9   0.8480   0.6317   2.9370   0.3372  -0.5262  -1.2899 9285.00    0.0
2018/11/10 02:35:00.000  -74.425555762  163.418444684    63.4991   5   9   0.8486   0.6311   2.9274   0.3337  -0.5104  -1.2888 9315.00    0.0
2018/11/10 02:35:30.000  -74.425561477  163.418438526    64.7177   5   8   0.8544   0.6603   3.1691   0.3563  -0.0663  -1.2442 9345.00    0.0
2018/11/10 02:36:00.000  -74.425556006  163.418447367    63.9053   5   8   0.8554   0.6612   3.1661   0.3528   0.1232  -1.2456 9375.00    0.0
2018/11/10 02:36:30.000  -74.425555897  163.418449414    63.1438   5   8   0.8568   0.6625   3.1645   0.3496   0.1856  -1.2476 9405.00    0.0
2018/11/10 02:37:00.000  -74.425555848  163.418447744    63.6421   5   8   0.8587   0.6642   3.1643   0.3465   0.2313  -1.2502 9435.00    0.0
2018/11/10 02:37:30.000  -74.425559286  163.418443285    65.6332   5   8   0.8609   0.6664   3.1654   0.3436   0.2690  -1.2533 9465.00    0.0
2018/11/10 02:38:00.000  -74.425556692  163.418442443    64.2432   5   8   0.8594   0.6654   3.1521   0.3387   0.3030  -1.2506 9495.00    0.0
2018/11/10 02:38:30.000  -74.425558988  163.418442328    64.8283   5   8   0.8583   0.6648   3.1400   0.3340   0.3327  -1.2484 9525.00    0.0
2018/11/10 02:39:00.000  -74.425558755  163.418446817    65.4569   5   8   0.8576   0.6646   3.1291   0.3295   0.3592  -1.2467 9555.00    0.0
2018/11/10 02:39:30.000  -74.425560593  163.418444498    66.1042   5   8   0.8573   0.6648   3.1196   0.3253   0.3834  -1.2455 9585.00    0.0
2018/11/10 02:40:00.000  -74.425557131  163.418451368    63.9713   5   8   0.8574   0.6654   3.1115   0.3212   0.4057  -1.2450 9615.00    0.0
2018/11/10 02:40:30.000  -74.425559353  163.418440594    65.3239   5   9   0.8119   0.6530   2.6078   0.2521   0.6385  -1.0403 9645.00    0.0
2018/11/10 02:41:00.000  -74.425559519  163.418453951    65.8947   5   9   0.8135   0.6548   2.6125   0.2486   0.6484  -1.0447 9675.00    0.0
2018/11/10 02:41:30.000  -74.425560716  163.418451568    65.4455   5   9   0.8155   0.6570   2.6184   0.2452   0.6584  -1.0496 9705.00    0.0
2018/11/10 02:42:00.000  -74.425561583  163.418442516    66.5420   5   9   0.8180   0.6595   2.6253   0.2419   0.6686  -1.0549 9735.00    0.0
2018/11/10 02:42:30.000  -74.425563748  163.418450038    66.3566   5   9   0.8208   0.6624   2.6335   0.2386   0.6790  -1.0607 9765.00    0.0
2018/11/10 02:43:00.000  -74.425561631  163.418448160    66.6207   5   9   0.8203   0.6623   2.6301   0.2342   0.6858  -1.0621 9795.00    0.0
2018/11/10 02:43:30.000  -74.425561908  163.418443870    65.6701   5   9   0.8201   0.6625   2.6277   0.2300   0.6927  -1.0639 9825.00    0.0
2018/11/10 02:44:00.000  -74.425561507  163.418445010    65.7320   5   9   0.8203   0.6630   2.6263   0.2259   0.6996  -1.0661 9855.00    0.0
2018/11/10 02:44:30.000  -74.425560206  163.418442703    66.1714   5   9   0.8209   0.6639   2.6260   0.2218   0.7067  -1.0687 9885.00    0.0
2018/11/10 02:45:00.000  -74.425561468  163.418436649    65.6599   5   9   0.8219   0.6652   2.6267   0.2178   0.7139  -1.0718 9915.00    0.0
2018/11/10 02:45:30.000  -74.425561224  163.418433362    65.9982   5   9   0.8234   0.6668   2.6288   0.2138   0.7214  -1.0754 9945.00    0.0
2018/11/10 02:46:00.000  -74.425560012  163.418444812    65.3073   5   9   0.8252   0.6689   2.6320   0.2099   0.7292  -1.0794 9975.00    0.0
2018/11/10 02:46:30.000  -74.425562513  163.418448277    66.6213   5   9   0.8274   0.6713   2.6364   0.2059   0.7372  -1.0840 10005.00    0.0
2018/11/10 02:47:00.000  -74.425559776  163.418438980    65.3053   5   9   0.8300   0.6740   2.6420   0.2019   0.7454  -1.0890 10035.00    0.0
2018/11/10 02:47:30.000  -74.425561490  163.418438513    64.6587   5   9   0.8330   0.6772   2.6489   0.1978   0.7540  -1.0945 10065.00    0.0
2018/11/10 02:48:00.000  -74.425561457  163.418432062    64.4450   5   9   0.8326   0.6771   2.6433   0.1935   0.7581  -1.0953 10095.00    0.0
2018/11/10 02:48:30.000  -74.425560803  163.418437164    65.1463   5   9   0.8326   0.6773   2.6385   0.1891   0.7624  -1.0964 10125.00    0.0
2018/11/10 02:49:00.000  -74.425558877  163.418447008    64.0829   5   9   0.8329   0.6779   2.6349   0.1847   0.7670  -1.0980 10155.00    0.0
2018/11/10 02:49:30.000  -74.425561013  163.418445866    64.6538   5   9   0.8336   0.6788   2.6325   0.1804   0.7717  -1.1000 10185.00    0.0
2018/11/10 02:50:00.000  -74.425559874  163.418447750    65.7935   5   9   0.8347   0.6801   2.6312   0.1761   0.7767  -1.1025 10215.00    0.0
2018/11/10 02:50:30.000  -74.425559645  163.418444125    65.1851   5   9   0.8362   0.6818   2.6314   0.1718   0.7821  -1.1055 10245.00    0.0
2018/11/10 02:51:00.000  -74.425561226  163.418445838    65.8674   5   9   0.8382   0.6839   2.6329   0.1674   0.7878  -1.1091 10275.00    0.0
2018/11/10 02:51:30.000  -74.425559897  163.418447395    65.4916   5   9   0.8405   0.6863   2.6357   0.1629   0.7939  -1.1131 10305.00    0.0
2018/11/10 02:52:00.000  -74.425560740  163.418435104    64.3433   5   9   0.8432   0.6891   2.6397   0.1583   0.8003  -1.1177 10335.00    0.0
2018/11/10 02:52:30.000  -74.425562025  163.418445478    65.2666   5   9   0.8463   0.6923   2.6451   0.1535   0.8072  -1.1228 10365.00    0.0
2018/11/10 02:53:00.000  -74.425562469  163.418445197    66.5639   5   9   0.8459   0.6920   2.6367   0.1493   0.8088  -1.1226 10395.00    0.0
2018/11/10 02:53:30.000  -74.425561035  163.418441042    65.0484   5   9   0.8459   0.6921   2.6297   0.1451   0.8107  -1.1230 10425.00    0.0
2018/11/10 02:54:00.000  -74.425563057  163.418435889    65.5287   5   9   0.8463   0.6926   2.6239   0.1408   0.8129  -1.1238 10455.00    0.0
2018/11/10 02:54:30.000  -74.425559124  163.418438584    65.2869   5   9   0.8470   0.6934   2.6193   0.1365   0.8154  -1.1251 10485.00    0.0
2018/11/10 02:55:00.000  -74.425564772  163.418441995    65.8035   5   9   0.8482   0.6945   2.6161   0.1321   0.8183  -1.1270 10515.00    0.0
2018/11/10 02:55:30.000  -74.425564734  163.418459422    67.0107   5   9   0.8497   0.6961   2.6143   0.1277   0.8217  -1.1293 10545.00    0.0
2018/11/10 02:56:00.000  -74.425565086  163.418441143    66.2821   5   9   0.8517   0.6980   2.6139   0.1230   0.8254  -1.1322 10575.00    0.0
2018/11/10 02:56:30.000  -74.425562278  163.418441756    65.4995   5   9   0.8540   0.7003   2.6148   0.1182   0.8296  -1.1356 10605.00    0.0
2018/11/10 02:57:00.000  -74.425563270  163.418447159    66.0043   5   9   0.8567   0.7030   2.6171   0.1130   0.8342  -1.1395 10635.00    0.0
2018/11/10 02:57:30.000  -74.425560699  163.418438454    64.5940   5   9   0.8598   0.7060   2.6206   0.1075   0.8392  -1.1439 10665.00    0.0
2018/11/10 02:58:00.000  -74.425564270  163.418446161    66.6491   5   9   0.8595   0.7055   2.6102   0.1040   0.8385  -1.1430 10695.00    0.0
2018/11/10 02:58:30.000  -74.425560868  163.418445918    65.0160   5   9   0.8595   0.7053   2.6011   0.1006   0.8382  -1.1426 10725.00    0.0
2018/11/10 02:59:00.000  -74.425564989  163.418437592    65.9486   5  10   0.8455   0.5830   2.1508   0.2676   0.3563  -1.0387 10755.00    0.0
2018/11/10 02:59:30.000  -74.425566276  163.418440348    65.9468   5  10   0.8463   0.5828   2.1483   0.2664   0.3591  -1.0403 10785.00    0.0
2018/11/10 03:00:00.000  -74.425562357  163.418438369    65.5562   5  10   0.8476   0.5827   2.1469   0.2652   0.3618  -1.0423 10815.00    0.0
2018/11/10 03:00:30.000  -74.425564355  163.418434932    65.8451   5  10   0.8492   0.5830   2.1466   0.2641   0.3646  -1.0449 10845.00    0.0
2018/11/10 03:01:00.000  -74.425562176  163.418438431    65.2327   5  10   0.8512   0.5836   2.1474   0.2632   0.3675  -1.0478 10875.00    0.0
2018/11/10 03:01:30.000  -74.425563832  163.418439147    65.0348   5  10   0.8536   0.5844   2.1492   0.2623   0.3705  -1.0512 10905.00    0.0
2018/11/10 03:02:00.000  -74.425565634  163.418444108    65.9095   5  10   0.8563   0.5854   2.1520   0.2615   0.3737  -1.0550 10935.00    0.0
2018/11/10 03:02:30.000  -74.425565738  163.418440577    66.3757   5  10   0.8594   0.5867   2.1558   0.2608   0.3769  -1.0592 10965.00    0.0
2018/11/10 03:03:00.000  -74.425563665  163.418440561    65.6824   5  10   0.8593   0.5857   2.1500   0.2594   0.3781  -1.0593 10995.00    0.0
2018/11/10 03:03:30.000  -74.425565626  163.418439036    66.0690   5  10   0.8595   0.5850   2.1453   0.2582   0.3793  -1.0599 11025.00    0.0
2018/11/10 03:04:00.000  -74.425567954  163.418443914    65.9719   5  10   0.8600   0.5845   2.1416   0.2571   0.3805  -1.0609 11055.00    0.0
2018/11/10 03:04:30.000  -74.425563788  163.418442546    65.1540   5  10   0.8609   0.5843   2.1390   0.2560   0.3819  -1.0623 11085.00    0.0
2018/11/10 03:05:00.000  -74.425565130  163.418439921    65.9915   5  10   0.8622   0.5843   2.1373   0.2551   0.3834  -1.0641 11115.00    0.0
2018/11/10 03:05:30.000  -74.425563086  163.418442993    65.6051   5  10   0.8639   0.5846   2.1368   0.2543   0.3850  -1.0664 11145.00    0.0
2018/11/10 03:06:00.000  -74.425563970  163.418450944    65.7864   5  10   0.8659   0.5852   2.1374   0.2535   0.3868  -1.0691 11175.00    0.0
2018/11/10 03:06:30.000  -74.425563770  163.418447525    65.7545   5  10   0.8683   0.5860   2.1389   0.2528   0.3889  -1.0722 11205.00    0.0
2018/11/10 03:07:00.000  -74.425564889  163.418446514    65.9089   5  10   0.8710   0.5870   2.1414   0.2521   0.3911  -1.0757 11235.00    0.0
2018/11/10 03:07:30.000  -74.425562154  163.418446985    65.2672   5  10   0.8741   0.5884   2.1449   0.2515   0.3936  -1.0796 11265.00    0.0
2018/11/10 03:08:00.000  -74.425561707  163.418447833    65.8118   5  10   0.8740   0.5874   2.1391   0.2505   0.3933  -1.0795 11295.00    0.0
2018/11/10 03:08:30.000  -74.425561372  163.418454284    65.7651   5  10   0.8742   0.5867   2.1342   0.2497   0.3931  -1.0798 11325.00    0.0
2018/11/10 03:09:00.000  -74.425564944  163.418446652    66.1278   5  10   0.8748   0.5862   2.1303   0.2489   0.3931  -1.0806 11355.00    0.0
2018/11/10 03:09:30.000  -74.425562225  163.418448296    65.2506   5  10   0.8757   0.5860   2.1274   0.2482   0.3933  -1.0817 11385.00    0.0
2018/11/10 03:10:00.000  -74.425560363  163.418448158    64.9344   5  10   0.8769   0.5860   2.1255   0.2475   0.3937  -1.0833 11415.00    0.0
2018/11/10 03:10:30.000  -74.425562701  163.418451098    65.5546   5  10   0.8786   0.5863   2.1247   0.2469   0.3944  -1.0853 11445.00    0.0
2018/11/10 03:11:00.000  -74.425562315  163.418446055    65.2376   5  10   0.8806   0.5869   2.1250   0.2464   0.3953  -1.0876 11475.00    0.0
2018/11/10 03:11:30.000  -74.425564351  163.418439693    65.6019   5  10   0.8829   0.5877   2.1262   0.2459   0.3966  -1.0903 11505.00    0.0
2018/11/10 03:12:00.000  -74.425559665  163.418446060    64.8428   5  10   0.8855   0.5888   2.1283   0.2454   0.3981  -1.0934 11535.00    0.0
2018/11/10 03:12:30.000  -74.425562933  163.418448293    65.0140   5  11   0.8429   0.5743   1.9532   0.1475   0.5254  -0.9816 11565.00    0.0
2018/11/10 03:13:00.000  -74.425562815  163.418452486    64.4277   5  11   0.8432   0.5731   1.9497   0.1465   0.5239  -0.9828 11595.00    0.0
2018/11/10 03:13:30.000  -74.425559741  163.418451518    64.4497   5  11   0.8438   0.5721   1.9471   0.1454   0.5226  -0.9843 11625.00    0.0
2018/11/10 03:14:00.000  -74.425559169  163.418451387    64.7568   5  11   0.8447   0.5714   1.9454   0.1444   0.5217  -0.9861 11655.00    0.0
2018/11/10 03:14:30.000  -74.425556058  163.418444538    63.6086   5  11   0.8459   0.5710   1.9445   0.1433   0.5210  -0.9883 11685.00    0.0
2018/11/10 03:15:00.000  -74.425554890  163.418447701    63.3610   5  11   0.8474   0.5708   1.9446   0.1422   0.5206  -0.9908 11715.00    0.0
2018/11/10 03:15:30.000  -74.425554240  163.418448471    63.8662   5  12   0.8238   0.5681   1.9347   0.0912   0.5094  -1.0148 11745.00    0.0
2018/11/10 03:16:00.000  -74.425557550  163.418451770    64.5820   5  12   0.8254   0.5684   1.9374   0.0883   0.5101  -1.0176 11775.00    0.0
2018/11/10 03:16:30.000  -74.425554561  163.418446102    63.8112   5  12   0.8272   0.5689   1.9409   0.0851   0.5112  -1.0206 11805.00    0.0
2018/11/10 03:17:00.000  -74.425558104  163.418448291    63.8577   5  12   0.8294   0.5697   1.9453   0.0816   0.5125  -1.0239 11835.00    0.0
2018/11/10 03:17:30.000  -74.425557159  163.418448402    64.7939   5  12   0.8318   0.5708   1.9505   0.0776   0.5143  -1.0275 11865.00    0.0
2018/11/10 03:18:00.000  -74.425557532  163.418451706    64.4129   5  12   0.8315   0.5696   1.9474   0.0769   0.5123  -1.0279 11895.00    0.0
2018/11/10 03:18:30.000  -74.425556081  163.418457371    64.2626   5  12   0.8316   0.5686   1.9452   0.0759   0.5106  -1.0285 11925.00    0.0
2018/11/10 03:19:00.000  -74.425558946  163.418444975    64.3040   5  12   0.8319   0.5678   1.9438   0.0748   0.5092  -1.0295 11955.00    0.0
2018/11/10 03:19:30.000  -74.425551845  163.418449430    63.8325   5  12   0.8325   0.5673   1.9433   0.0734   0.5081  -1.0308 11985.00    0.0
2018/11/10 03:20:00.000  -74.425552806  163.418448476    63.1538   5  12   0.8333   0.5670   1.9437   0.0717   0.5074  -1.0323 12015.00    0.0
2018/11/10 03:20:30.000  -74.425556632  163.418451075    64.1479   5  12   0.8345   0.5671   1.9450   0.0697   0.5071  -1.0343 12045.00    0.0
2018/11/10 03:21:00.000  -74.425554884  163.418448628    63.9223   5  12   0.8359   0.5673   1.9472   0.0672   0.5072  -1.0365 12075.00    0.0
2018/11/10 03:21:30.000  -74.425553958  163.418459053    63.7215   5  12   0.8376   0.5679   1.9501   0.0644   0.5076  -1.0390 12105.00    0.0
2018/11/10 03:22:00.000  -74.425558415  163.418456484    64.3394   5  12   0.8396   0.5686   1.9539   0.0611   0.5084  -1.0418 12135.00    0.0
2018/11/10 03:22:30.000  -74.425558010  163.418457895    64.2629   5  12   0.8418   0.5696   1.9585   0.0571   0.5096  -1.0449 12165.00    0.0
2018/11/10 03:23:00.000  -74.425558271  163.418448317    64.2036   5  12   0.8415   0.5684   1.9550   0.0581   0.5068  -1.0448 12195.00    0.0
2018/11/10 03:23:30.000  -74.425556558  163.418454844    63.7801   5  12   0.8414   0.5673   1.9524   0.0589   0.5043  -1.0450 12225.00    0.0
2018/11/10 03:24:00.000  -74.425559070  163.418458876    64.4929   5  12   0.8415   0.5665   1.9506   0.0593   0.5022  -1.0455 12255.00    0.0
2018/11/10 03:24:30.000  -74.425554181  163.418453740    63.9836   5  12   0.8420   0.5660   1.9496   0.0593   0.5004  -1.0463 12285.00    0.0
2018/11/10 03:25:00.000  -74.425554268  163.418455653    63.8416   5  12   0.8427   0.5657   1.9494   0.0589   0.4990  -1.0474 12315.00    0.0
2018/11/10 03:25:30.000  -74.425556853  163.418453741    64.1757   5  11   0.8504   0.5670   1.9680  -0.0272   0.4877  -1.0353 12345.00    0.0
2018/11/10 03:26:00.000  -74.425557906  163.418448989    64.9016   5  11   0.8513   0.5672   1.9705  -0.0270   0.4870  -1.0370 12375.00    0.0
2018/11/10 03:26:30.000  -74.425557721  163.418451807    65.0533   5  11   0.8525   0.5677   1.9738  -0.0277   0.4867  -1.0389 12405.00    0.0
