% program   : RTKLIB ver.2.4.3
% inp file  : _by_type/_obs/shirase/20181107.18o
% inp file  : _by_type/_obs/base/20181107.18o
% inp file  : _by_type/_sp3+clk/igs20263.clk
% inp file  : _by_type/_sp3+clk/igs20263.sp3
% inp file  : _by_type/_nav/shirase/20181107.18n
% obs start : 2018/11/07 00:00:00.0 GPST (week2026 259200.0s)
% obs end   : 2018/11/07 23:59:45.0 GPST (week2026 345585.0s)
% pos mode  : dgps
% freqs     : L1+L2
% solution  : combined
% elev mask : 15.0 deg
% dynamics  : off
% tidecorr  : off
% ionos opt : iono-free
% tropo opt : est ztd+grad
% ephemeris : precise
% navi sys  : gps glonass
% antenna1  :                       ( 0.0000  0.0000  0.0000)
% antenna2  :                       ( 0.0000  0.0000  0.0000)
% ref pos   : 90.000000000   0.000000000-6335367.6285
%
% (lat/lon/height=WGS84/ellipsoidal,Q=1:fix,2:float,3:sbas,4:dgps,5:single,6:ppp,ns=# of satellites)
%  GPST                  latitude(deg) longitude(deg)  height(m)   Q  ns   sdn(m)   sde(m)   sdu(m)  sdne(m)  sdeu(m)  sdun(m) age(s)  ratio
2018/11/07 00:00:00.000  -74.525919474  163.457799172    26.2082   5   9   0.6811   0.6134   2.0824  -0.1718   0.3613  -0.7348   0.00    0.0
2018/11/07 00:00:15.000  -74.525917802  163.457803721    25.5626   5   9   0.6808   0.6134   2.0869  -0.1726   0.3656  -0.7356   0.00    0.0
2018/11/07 00:00:30.000  -74.525915809  163.457805150    25.7650   5   9   0.6806   0.6135   2.0918  -0.1734   0.3699  -0.7366   0.00    0.0
2018/11/07 00:00:45.000  -74.525918265  163.457803833    26.1056   5   9   0.6805   0.6137   2.0970  -0.1742   0.3743  -0.7376   0.00    0.0
2018/11/07 00:01:00.000  -74.525917307  163.457799260    25.1391   5   9   0.6804   0.6140   2.1024  -0.1751   0.3788  -0.7387   0.00    0.0
2018/11/07 00:01:15.000  -74.525917565  163.457810591    25.4929   5   9   0.6804   0.6143   2.1081  -0.1761   0.3833  -0.7400   0.00    0.0
2018/11/07 00:01:30.000  -74.525919509  163.457805454    26.2729   5   9   0.6805   0.6148   2.1141  -0.1771   0.3880  -0.7413   0.00    0.0
2018/11/07 00:01:45.000  -74.525918974  163.457803545    25.2225   5   9   0.6807   0.6153   2.1204  -0.1781   0.3927  -0.7427   0.00    0.0
2018/11/07 00:02:00.000  -74.525917677  163.457803407    25.9182   5   9   0.6809   0.6159   2.1270  -0.1792   0.3975  -0.7441   0.00    0.0
2018/11/07 00:02:15.000  -74.525916058  163.457804504    24.9780   5   9   0.6812   0.6166   2.1339  -0.1804   0.4024  -0.7457   0.00    0.0
2018/11/07 00:02:30.000  -74.525918464  163.457812725    26.7764   5   9   0.6816   0.6174   2.1411  -0.1817   0.4073  -0.7474   0.00    0.0
2018/11/07 00:02:45.000  -74.525916432  163.457807201    25.6572   5   9   0.6807   0.6166   2.1433  -0.1820   0.4108  -0.7477   0.00    0.0
2018/11/07 00:03:00.000  -74.525915996  163.457806396    25.2629   5   9   0.6799   0.6159   2.1459  -0.1825   0.4143  -0.7481   0.00    0.0
2018/11/07 00:03:15.000  -74.525918478  163.457807509    26.9483   5   9   0.6791   0.6153   2.1488  -0.1830   0.4180  -0.7485   0.00    0.0
2018/11/07 00:03:30.000  -74.525918955  163.457803239    26.6848   5   9   0.6784   0.6147   2.1519  -0.1836   0.4217  -0.7491   0.00    0.0
2018/11/07 00:03:45.000  -74.525917224  163.457803783    26.2307   5   9   0.6777   0.6143   2.1553  -0.1842   0.4254  -0.7497   0.00    0.0
2018/11/07 00:04:00.000  -74.525918361  163.457812469    26.2551   5   9   0.6772   0.6139   2.1590  -0.1849   0.4292  -0.7505   0.00    0.0
2018/11/07 00:04:15.000  -74.525917901  163.457805137    26.2163   5   9   0.6767   0.6137   2.1629  -0.1856   0.4331  -0.7513   0.00    0.0
2018/11/07 00:04:30.000  -74.525914947  163.457798752    25.3871   5   9   0.6763   0.6135   2.1672  -0.1864   0.4371  -0.7522   0.00    0.0
2018/11/07 00:04:45.000  -74.525917369  163.457807057    25.6221   5   9   0.6760   0.6134   2.1717  -0.1872   0.4412  -0.7532   0.00    0.0
2018/11/07 00:05:00.000  -74.525916618  163.457809004    25.6817   5   9   0.6757   0.6134   2.1765  -0.1881   0.4453  -0.7543   0.00    0.0
2018/11/07 00:05:15.000  -74.525917739  163.457798026    26.6547   5   9   0.6756   0.6135   2.1817  -0.1891   0.4496  -0.7555   0.00    0.0
2018/11/07 00:05:30.000  -74.525915071  163.457810537    25.0404   5   9   0.6755   0.6137   2.1873  -0.1901   0.4539  -0.7569   0.00    0.0
2018/11/07 00:05:45.000  -74.525917504  163.457811978    25.5577   5   9   0.6755   0.6140   2.1931  -0.1911   0.4584  -0.7583   0.00    0.0
2018/11/07 00:06:00.000  -74.525919347  163.457809713    26.3504   5   9   0.6756   0.6144   2.1992  -0.1922   0.4629  -0.7598   0.00    0.0
2018/11/07 00:06:15.000  -74.525917909  163.457811755    25.4865   5   9   0.6758   0.6149   2.2057  -0.1934   0.4676  -0.7615   0.00    0.0
2018/11/07 00:06:30.000  -74.525917944  163.457807827    26.4971   5   9   0.6760   0.6155   2.2124  -0.1946   0.4723  -0.7632   0.00    0.0
2018/11/07 00:06:45.000  -74.525918042  163.457803283    26.1713   5   9   0.6763   0.6161   2.2195  -0.1959   0.4771  -0.7650   0.00    0.0
2018/11/07 00:07:00.000  -74.525915109  163.457804412    25.5891   5   9   0.6767   0.6169   2.2269  -0.1972   0.4821  -0.7669   0.00    0.0
2018/11/07 00:07:15.000  -74.525917612  163.457808703    26.0863   5   9   0.6772   0.6177   2.2345  -0.1986   0.4871  -0.7689   0.00    0.0
2018/11/07 00:07:30.000  -74.525917278  163.457799995    26.8307   5   9   0.6777   0.6187   2.2425  -0.2000   0.4923  -0.7711   0.00    0.0
2018/11/07 00:07:45.000  -74.525916333  163.457798846    25.9593   5   9   0.6769   0.6180   2.2453  -0.2007   0.4957  -0.7717   0.00    0.0
2018/11/07 00:08:00.000  -74.525919141  163.457809488    26.3763   5   9   0.6762   0.6174   2.2483  -0.2013   0.4992  -0.7724   0.00    0.0
2018/11/07 00:08:15.000  -74.525917540  163.457813876    26.2317   5   9   0.6756   0.6170   2.2516  -0.2019   0.5027  -0.7732   0.00    0.0
2018/11/07 00:08:30.000  -74.525921261  163.457808322    26.7777   5   9   0.6750   0.6165   2.2552  -0.2027   0.5063  -0.7741   0.00    0.0
2018/11/07 00:08:45.000  -74.525919812  163.457806309    25.9992   5   9   0.6745   0.6162   2.2591  -0.2034   0.5100  -0.7751   0.00    0.0
2018/11/07 00:09:00.000  -74.525919321  163.457808425    27.3006   5   9   0.6741   0.6160   2.2632  -0.2043   0.5138  -0.7761   0.00    0.0
2018/11/07 00:09:15.000  -74.525919286  163.457813049    26.6395   5   9   0.6738   0.6159   2.2677  -0.2052   0.5177  -0.7773   0.00    0.0
2018/11/07 00:09:30.000  -74.525920454  163.457817234    27.3981   5   9   0.6735   0.6158   2.2724  -0.2061   0.5217  -0.7786   0.00    0.0
2018/11/07 00:09:45.000  -74.525919942  163.457805782    26.5574   5   9   0.6733   0.6159   2.2775  -0.2071   0.5258  -0.7799   0.00    0.0
2018/11/07 00:10:00.000  -74.525920318  163.457811365    27.0861   5   9   0.6732   0.6160   2.2828  -0.2082   0.5300  -0.7814   0.00    0.0
2018/11/07 00:10:15.000  -74.525917704  163.457805276    26.5825   5   9   0.6732   0.6163   2.2887  -0.2093   0.5343  -0.7830   0.00    0.0
2018/11/07 00:10:30.000  -74.525919663  163.457810210    25.9623   5   9   0.6733   0.6167   2.2948  -0.2105   0.5387  -0.7847   0.00    0.0
2018/11/07 00:10:45.000  -74.525919368  163.457810680    26.6587   5   9   0.6734   0.6171   2.3012  -0.2117   0.5433  -0.7865   0.00    0.0
2018/11/07 00:11:00.000  -74.525920883  163.457809004    27.2150   5   9   0.6737   0.6177   2.3080  -0.2130   0.5480  -0.7884   0.00    0.0
2018/11/07 00:11:15.000  -74.525918238  163.457811258    27.4883   5   9   0.6740   0.6183   2.3150  -0.2144   0.5527  -0.7905   0.00    0.0
2018/11/07 00:11:30.000  -74.525921199  163.457811821    27.6102   5   9   0.6744   0.6191   2.3224  -0.2158   0.5576  -0.7926   0.00    0.0
2018/11/07 00:11:45.000  -74.525922131  163.457813361    26.9192   5   9   0.6748   0.6199   2.3301  -0.2173   0.5626  -0.7948   0.00    0.0
2018/11/07 00:12:00.000  -74.525918675  163.457811735    25.7437   5  10   0.6528   0.6114   2.0862  -0.2579   0.6604  -0.6730   0.00    0.0
2018/11/07 00:12:15.000  -74.525920675  163.457822632    26.3190   5  10   0.6534   0.6124   2.0945  -0.2592   0.6649  -0.6755   0.00    0.0
2018/11/07 00:12:30.000  -74.525919556  163.457821083    26.2568   5  10   0.6541   0.6136   2.1031  -0.2606   0.6696  -0.6782   0.00    0.0
2018/11/07 00:12:45.000  -74.525920355  163.457818553    26.4243   5  10   0.6535   0.6131   2.1067  -0.2610   0.6720  -0.6795   0.00    0.0
2018/11/07 00:13:00.000  -74.525919449  163.457816916    25.5926   5  10   0.6530   0.6127   2.1107  -0.2614   0.6745  -0.6809   0.00    0.0
2018/11/07 00:13:15.000  -74.525920163  163.457815867    25.7924   5  10   0.6526   0.6125   2.1149  -0.2619   0.6772  -0.6825   0.00    0.0
2018/11/07 00:13:30.000  -74.525918887  163.457813174    25.8596   5  10   0.6522   0.6123   2.1194  -0.2625   0.6800  -0.6841   0.00    0.0
2018/11/07 00:13:45.000  -74.525920062  163.457819344    26.0567   5  10   0.6519   0.6122   2.1242  -0.2632   0.6830  -0.6858   0.00    0.0
2018/11/07 00:14:00.000  -74.525920577  163.457816356    26.3682   5  10   0.6516   0.6121   2.1293  -0.2639   0.6860  -0.6876   0.00    0.0
2018/11/07 00:14:15.000  -74.525920065  163.457814229    25.4737   5  10   0.6515   0.6122   2.1347  -0.2646   0.6892  -0.6895   0.00    0.0
2018/11/07 00:14:30.000  -74.525920071  163.457820774    26.3543   5  10   0.6514   0.6124   2.1403  -0.2654   0.6925  -0.6915   0.00    0.0
2018/11/07 00:14:45.000  -74.525921324  163.457816833    26.1818   5  10   0.6514   0.6126   2.1463  -0.2663   0.6959  -0.6935   0.00    0.0
2018/11/07 00:15:00.000  -74.525919963  163.457824211    26.2092   5  10   0.6515   0.6130   2.1525  -0.2673   0.6994  -0.6957   0.00    0.0
2018/11/07 00:15:15.000  -74.525919845  163.457810294    25.7454   5  10   0.6516   0.6135   2.1592  -0.2683   0.7031  -0.6980   0.00    0.0
2018/11/07 00:15:30.000  -74.525922441  163.457812606    26.7950   5  10   0.6519   0.6140   2.1661  -0.2694   0.7070  -0.7004   0.00    0.0
2018/11/07 00:15:45.000  -74.525918106  163.457816667    25.8233   5  10   0.6522   0.6147   2.1734  -0.2705   0.7109  -0.7029   0.00    0.0
2018/11/07 00:16:00.000  -74.525919058  163.457811728    25.8805   5  10   0.6526   0.6155   2.1809  -0.2717   0.7150  -0.7054   0.00    0.0
2018/11/07 00:16:15.000  -74.525919182  163.457817770    25.8970   5  10   0.6531   0.6163   2.1888  -0.2730   0.7193  -0.7081   0.00    0.0
2018/11/07 00:16:30.000  -74.525921557  163.457807571    25.7789   5  10   0.6537   0.6173   2.1969  -0.2743   0.7236  -0.7109   0.00    0.0
2018/11/07 00:16:45.000  -74.525919138  163.457822421    25.6737   5  10   0.6543   0.6183   2.2054  -0.2757   0.7281  -0.7138   0.00    0.0
2018/11/07 00:17:00.000  -74.525918818  163.457816939    26.1217   5  10   0.6550   0.6194   2.2142  -0.2772   0.7328  -0.7168   0.00    0.0
2018/11/07 00:17:15.000  -74.525918232  163.457811925    26.3766   5  10   0.6558   0.6207   2.2233  -0.2787   0.7375  -0.7199   0.00    0.0
2018/11/07 00:17:30.000  -74.525921412  163.457819008    26.4514   5  10   0.6567   0.6220   2.2327  -0.2803   0.7424  -0.7231   0.00    0.0
2018/11/07 00:17:45.000  -74.525918491  163.457818602    25.6233   5  10   0.6562   0.6217   2.2369  -0.2809   0.7450  -0.7248   0.00    0.0
2018/11/07 00:18:00.000  -74.525921823  163.457815681    26.1835   5  10   0.6559   0.6214   2.2412  -0.2815   0.7476  -0.7267   0.00    0.0
2018/11/07 00:18:15.000  -74.525920732  163.457819481    26.9593   5  10   0.6556   0.6213   2.2459  -0.2822   0.7503  -0.7286   0.00    0.0
2018/11/07 00:18:30.000  -74.525921207  163.457813808    25.7328   5  10   0.6553   0.6212   2.2508  -0.2829   0.7532  -0.7306   0.00    0.0
2018/11/07 00:18:45.000  -74.525921138  163.457812357    26.4249   5  10   0.6552   0.6212   2.2560  -0.2837   0.7561  -0.7327   0.00    0.0
2018/11/07 00:19:00.000  -74.525919161  163.457807594    25.4879   5  10   0.6551   0.6213   2.2614  -0.2845   0.7592  -0.7349   0.00    0.0
2018/11/07 00:19:15.000  -74.525919965  163.457811339    26.1520   5  10   0.6551   0.6215   2.2672  -0.2855   0.7624  -0.7371   0.00    0.0
2018/11/07 00:19:30.000  -74.525920611  163.457808841    26.1149   5  10   0.6552   0.6218   2.2732  -0.2864   0.7658  -0.7395   0.00    0.0
2018/11/07 00:19:45.000  -74.525919879  163.457818961    25.6327   5  10   0.6554   0.6222   2.2796  -0.2875   0.7692  -0.7420   0.00    0.0
2018/11/07 00:20:00.000  -74.525920601  163.457812781    26.2511   5  10   0.6556   0.6227   2.2862  -0.2886   0.7728  -0.7445   0.00    0.0
2018/11/07 00:20:15.000  -74.525922406  163.457816432    25.7179   5  10   0.6560   0.6233   2.2933  -0.2898   0.7766  -0.7472   0.00    0.0
2018/11/07 00:20:30.000  -74.525920323  163.457815355    26.3223   5  10   0.6564   0.6240   2.3007  -0.2910   0.7805  -0.7500   0.00    0.0
2018/11/07 00:20:45.000  -74.525922176  163.457814265    25.6424   5  10   0.6569   0.6248   2.3083  -0.2923   0.7845  -0.7529   0.00    0.0
2018/11/07 00:21:00.000  -74.525921068  163.457819085    26.4018   5  10   0.6575   0.6257   2.3163  -0.2937   0.7887  -0.7559   0.00    0.0
2018/11/07 00:21:15.000  -74.525919956  163.457814043    25.7330   5  10   0.6581   0.6267   2.3245  -0.2951   0.7930  -0.7590   0.00    0.0
2018/11/07 00:21:30.000  -74.525919481  163.457814016    25.6593   5  10   0.6589   0.6278   2.3331  -0.2966   0.7974  -0.7622   0.00    0.0
2018/11/07 00:21:45.000  -74.525920818  163.457814662    26.2491   5  10   0.6597   0.6290   2.3419  -0.2981   0.8019  -0.7655   0.00    0.0
2018/11/07 00:22:00.000  -74.525920854  163.457813370    25.9193   5  10   0.6606   0.6302   2.3511  -0.2998   0.8066  -0.7689   0.00    0.0
2018/11/07 00:22:15.000  -74.525920067  163.457812574    25.9913   5  10   0.6615   0.6316   2.3605  -0.3014   0.8114  -0.7724   0.00    0.0
2018/11/07 00:22:30.000  -74.525919062  163.457821571    25.6618   5  10   0.6626   0.6330   2.3703  -0.3032   0.8164  -0.7760   0.00    0.0
2018/11/07 00:22:45.000  -74.525918892  163.457814238    25.8067   5  10   0.6623   0.6328   2.3743  -0.3038   0.8187  -0.7780   0.00    0.0
2018/11/07 00:23:00.000  -74.525919400  163.457807860    25.4676   5  10   0.6621   0.6326   2.3786  -0.3045   0.8211  -0.7800   0.00    0.0
2018/11/07 00:23:15.000  -74.525920597  163.457812030    25.8972   5  10   0.6619   0.6325   2.3831  -0.3053   0.8237  -0.7822   0.00    0.0
2018/11/07 00:23:30.000  -74.525919564  163.457808359    25.4144   5  10   0.6619   0.6325   2.3879  -0.3061   0.8264  -0.7844   0.00    0.0
2018/11/07 00:23:45.000  -74.525918220  163.457808718    25.1239   5  10   0.6619   0.6326   2.3930  -0.3070   0.8292  -0.7867   0.00    0.0
2018/11/07 00:24:00.000  -74.525921464  163.457814072    25.7632   5  10   0.6620   0.6328   2.3984  -0.3080   0.8321  -0.7891   0.00    0.0
2018/11/07 00:24:15.000  -74.525920500  163.457805595    26.0113   5  10   0.6622   0.6331   2.4040  -0.3090   0.8351  -0.7916   0.00    0.0
2018/11/07 00:24:30.000  -74.525921039  163.457808601    25.7375   5  10   0.6624   0.6335   2.4099  -0.3100   0.8383  -0.7942   0.00    0.0
2018/11/07 00:24:45.000  -74.525920653  163.457817628    26.1229   5  10   0.6627   0.6339   2.4161  -0.3112   0.8415  -0.7969   0.00    0.0
2018/11/07 00:25:00.000  -74.525919930  163.457813925    25.7960   5  10   0.6631   0.6345   2.4226  -0.3123   0.8449  -0.7997   0.00    0.0
2018/11/07 00:25:15.000  -74.525919647  163.457816375    26.1081   5  10   0.6637   0.6351   2.4294  -0.3136   0.8485  -0.8026   0.00    0.0
2018/11/07 00:25:30.000  -74.525918988  163.457811375    26.1293   5  11   0.6514   0.6359   2.3407  -0.3134   0.8550  -0.8584   0.00    0.0
2018/11/07 00:25:45.000  -74.525920578  163.457809617    25.4600   5  11   0.6520   0.6367   2.3485  -0.3148   0.8587  -0.8614   0.00    0.0
2018/11/07 00:26:00.000  -74.525916481  163.457805516    24.1692   5  11   0.6527   0.6377   2.3565  -0.3163   0.8625  -0.8646   0.00    0.0
2018/11/07 00:26:15.000  -74.525919165  163.457803619    24.6816   5  11   0.6534   0.6387   2.3648  -0.3178   0.8664  -0.8678   0.00    0.0
2018/11/07 00:26:30.000  -74.525920696  163.457806426    25.0441   5  11   0.6542   0.6399   2.3734  -0.3194   0.8704  -0.8712   0.00    0.0
2018/11/07 00:26:45.000  -74.525919358  163.457810524    24.5063   5  11   0.6551   0.6411   2.3822  -0.3210   0.8746  -0.8746   0.00    0.0
2018/11/07 00:27:00.000  -74.525918199  163.457811597    23.8389   5  11   0.6560   0.6424   2.3913  -0.3227   0.8788  -0.8782   0.00    0.0
2018/11/07 00:27:15.000  -74.525919522  163.457811011    24.8720   5  11   0.6570   0.6438   2.4006  -0.3245   0.8832  -0.8818   0.00    0.0
2018/11/07 00:27:30.000  -74.525918130  163.457813877    25.1832   5  11   0.6581   0.6453   2.4102  -0.3262   0.8877  -0.8855   0.00    0.0
2018/11/07 00:27:45.000  -74.525919349  163.457821829    25.6202   5  11   0.6579   0.6450   2.4141  -0.3269   0.8894  -0.8873   0.00    0.0
2018/11/07 00:28:00.000  -74.525919842  163.457814053    25.2119   5  11   0.6578   0.6448   2.4182  -0.3277   0.8914  -0.8892   0.00    0.0
2018/11/07 00:28:15.000  -74.525921278  163.457817255    25.0173   5  11   0.6577   0.6447   2.4226  -0.3284   0.8934  -0.8911   0.00    0.0
2018/11/07 00:28:30.000  -74.525917441  163.457805349    25.2796   5  11   0.6577   0.6447   2.4272  -0.3293   0.8955  -0.8932   0.00    0.0
2018/11/07 00:28:45.000  -74.525920078  163.457817619    24.8317   5  11   0.6578   0.6448   2.4320  -0.3301   0.8977  -0.8953   0.00    0.0
2018/11/07 00:29:00.000  -74.525918819  163.457810113    24.7636   5  11   0.6579   0.6450   2.4371  -0.3311   0.9000  -0.8975   0.00    0.0
2018/11/07 00:29:15.000  -74.525922228  163.457808374    25.5632   5  11   0.6581   0.6452   2.4424  -0.3320   0.9024  -0.8998   0.00    0.0
2018/11/07 00:29:30.000  -74.525920640  163.457814967    25.3418   5  11   0.6584   0.6455   2.4479  -0.3331   0.9049  -0.9022   0.00    0.0
2018/11/07 00:29:45.000  -74.525918880  163.457806717    24.5683   5  11   0.6588   0.6460   2.4536  -0.3341   0.9076  -0.9047   0.00    0.0
2018/11/07 00:30:00.000  -74.525919553  163.457810684    25.2149   5  11   0.6592   0.6465   2.4596  -0.3353   0.9103  -0.9073   0.00    0.0
2018/11/07 00:30:15.000  -74.525923121  163.457826668    26.1633   5  11   0.6597   0.6471   2.4659  -0.3364   0.9131  -0.9099   0.00    0.0
2018/11/07 00:30:30.000  -74.525919643  163.457809491    24.0505   5  11   0.6603   0.6478   2.4724  -0.3377   0.9161  -0.9127   0.00    0.0
2018/11/07 00:30:45.000  -74.525920163  163.457814794    25.0677   5  11   0.6610   0.6486   2.4792  -0.3389   0.9192  -0.9155   0.00    0.0
2018/11/07 00:31:00.000  -74.525919681  163.457817039    24.8019   5  11   0.6617   0.6494   2.4861  -0.3402   0.9223  -0.9184   0.00    0.0
2018/11/07 00:31:15.000  -74.525921024  163.457821298    25.6786   5  11   0.6625   0.6504   2.4933  -0.3416   0.9255  -0.9214   0.00    0.0
2018/11/07 00:31:30.000  -74.525922431  163.457819122    26.0268   5  11   0.6634   0.6514   2.5007  -0.3430   0.9289  -0.9244   0.00    0.0
2018/11/07 00:31:45.000  -74.525922036  163.457818055    24.9366   5  11   0.6643   0.6525   2.5083  -0.3444   0.9323  -0.9276   0.00    0.0
2018/11/07 00:32:00.000  -74.525920151  163.457812061    24.9721   5  11   0.6653   0.6537   2.5161  -0.3459   0.9358  -0.9308   0.00    0.0
2018/11/07 00:32:15.000  -74.525923342  163.457818142    25.8031   5  11   0.6663   0.6550   2.5240  -0.3474   0.9393  -0.9340   0.00    0.0
2018/11/07 00:32:30.000  -74.525922018  163.457818652    25.0821   5  11   0.6675   0.6563   2.5322  -0.3490   0.9430  -0.9374   0.00    0.0
2018/11/07 00:32:45.000  -74.525923049  163.457817764    25.3756   5  11   0.6673   0.6559   2.5345  -0.3494   0.9439  -0.9387   0.00    0.0
2018/11/07 00:33:00.000  -74.525923097  163.457811502    25.5254   5  11   0.6672   0.6556   2.5370  -0.3499   0.9450  -0.9402   0.00    0.0
2018/11/07 00:33:15.000  -74.525921222  163.457819892    24.2721   5  11   0.6671   0.6553   2.5397  -0.3504   0.9461  -0.9417   0.00    0.0
2018/11/07 00:33:30.000  -74.525924248  163.457822544    25.3104   5  11   0.6672   0.6552   2.5426  -0.3510   0.9473  -0.9432   0.00    0.0
2018/11/07 00:33:45.000  -74.525922695  163.457819349    24.0761   5  11   0.6672   0.6551   2.5457  -0.3516   0.9486  -0.9448   0.00    0.0
2018/11/07 00:34:00.000  -74.525922066  163.457823536    25.6975   5  11   0.6674   0.6550   2.5489  -0.3523   0.9499  -0.9465   0.00    0.0
2018/11/07 00:34:15.000  -74.525922948  163.457818888    25.0244   5  11   0.6676   0.6551   2.5523  -0.3529   0.9514  -0.9483   0.00    0.0
2018/11/07 00:34:30.000  -74.525924513  163.457816876    24.7083   5  11   0.6679   0.6552   2.5559  -0.3536   0.9529  -0.9501   0.00    0.0
2018/11/07 00:34:45.000  -74.525922186  163.457810996    24.4961   5  11   0.6682   0.6554   2.5596  -0.3544   0.9544  -0.9519   0.00    0.0
2018/11/07 00:35:00.000  -74.525922112  163.457815038    24.3595   5  11   0.6686   0.6557   2.5635  -0.3552   0.9561  -0.9539   0.00    0.0
2018/11/07 00:35:15.000  -74.525923259  163.457815972    25.1830   5  11   0.6691   0.6561   2.5677  -0.3560   0.9578  -0.9559   0.00    0.0
2018/11/07 00:35:30.000  -74.525922833  163.457810991    24.1733   5  11   0.6697   0.6566   2.5720  -0.3569   0.9596  -0.9579   0.00    0.0
2018/11/07 00:35:45.000  -74.525922397  163.457809383    23.9241   5  11   0.6703   0.6571   2.5765  -0.3577   0.9615  -0.9600   0.00    0.0
2018/11/07 00:36:00.000  -74.525920911  163.457813799    24.3558   5  11   0.6710   0.6577   2.5812  -0.3587   0.9634  -0.9622   0.00    0.0
2018/11/07 00:36:15.000  -74.525920019  163.457814467    24.3032   5  11   0.6718   0.6584   2.5859  -0.3596   0.9654  -0.9644   0.00    0.0
2018/11/07 00:36:30.000  -74.525920448  163.457808170    23.4588   5  11   0.6726   0.6592   2.5909  -0.3606   0.9674  -0.9667   0.00    0.0
2018/11/07 00:36:45.000  -74.525921746  163.457812384    23.9451   5  11   0.6734   0.6600   2.5959  -0.3616   0.9695  -0.9690   0.00    0.0
2018/11/07 00:37:00.000  -74.525922201  163.457805762    24.3666   5  11   0.6743   0.6609   2.6011  -0.3626   0.9717  -0.9713   0.00    0.0
2018/11/07 00:37:15.000  -74.525919488  163.457809307    23.8641   5  11   0.6753   0.6618   2.6064  -0.3636   0.9738  -0.9737   0.00    0.0
2018/11/07 00:37:30.000  -74.525921643  163.457814368    23.8785   5  11   0.6764   0.6628   2.6119  -0.3647   0.9761  -0.9762   0.00    0.0
2018/11/07 00:37:45.000  -74.525923604  163.457818192    25.1996   5  11   0.6761   0.6621   2.6115  -0.3647   0.9757  -0.9766   0.00    0.0
2018/11/07 00:38:00.000  -74.525922493  163.457811872    24.6963   5  11   0.6759   0.6615   2.6113  -0.3647   0.9754  -0.9772   0.00    0.0
2018/11/07 00:38:15.000  -74.525922528  163.457812824    24.5378   5  11   0.6758   0.6610   2.6112  -0.3648   0.9751  -0.9777   0.00    0.0
2018/11/07 00:38:30.000  -74.525923319  163.457807124    24.1649   5  11   0.6757   0.6605   2.6112  -0.3649   0.9749  -0.9783   0.00    0.0
2018/11/07 00:38:45.000  -74.525920930  163.457815758    24.3770   5  11   0.6757   0.6601   2.6114  -0.3651   0.9748  -0.9790   0.00    0.0
2018/11/07 00:39:00.000  -74.525919260  163.457816491    23.7010   5  11   0.6758   0.6597   2.6117  -0.3652   0.9747  -0.9797   0.00    0.0
2018/11/07 00:39:15.000  -74.525920923  163.457819626    24.6900   5  11   0.6759   0.6594   2.6121  -0.3654   0.9746  -0.9804   0.00    0.0
2018/11/07 00:39:30.000  -74.525919561  163.457814111    23.7366   5  11   0.6760   0.6592   2.6127  -0.3656   0.9746  -0.9812   0.00    0.0
2018/11/07 00:39:45.000  -74.525918711  163.457813371    24.6112   5  11   0.6763   0.6591   2.6133  -0.3658   0.9747  -0.9820   0.00    0.0
2018/11/07 00:40:00.000  -74.525922859  163.457830579    25.9446   5  11   0.6765   0.6590   2.6141  -0.3661   0.9747  -0.9829   0.00    0.0
2018/11/07 00:40:15.000  -74.525921637  163.457816202    25.2096   5  11   0.6769   0.6590   2.6151  -0.3663   0.9749  -0.9838   0.00    0.0
2018/11/07 00:40:30.000  -74.525922905  163.457821158    25.6479   5  11   0.6773   0.6591   2.6162  -0.3666   0.9751  -0.9847   0.00    0.0
2018/11/07 00:40:45.000  -74.525922058  163.457817618    24.9126   5  11   0.6778   0.6593   2.6174  -0.3669   0.9753  -0.9857   0.00    0.0
2018/11/07 00:41:00.000  -74.525918349  163.457821665    24.7661   5  11   0.6783   0.6595   2.6187  -0.3672   0.9756  -0.9867   0.00    0.0
2018/11/07 00:41:15.000  -74.525920297  163.457830207    25.1530   5  11   0.6789   0.6598   2.6201  -0.3676   0.9758  -0.9877   0.00    0.0
2018/11/07 00:41:30.000  -74.525920783  163.457823267    24.8797   5  11   0.6795   0.6601   2.6216  -0.3679   0.9762  -0.9887   0.00    0.0
2018/11/07 00:41:45.000  -74.525918817  163.457825795    24.2972   5  11   0.6802   0.6605   2.6233  -0.3683   0.9765  -0.9898   0.00    0.0
2018/11/07 00:42:00.000  -74.525921199  163.457825608    25.4694   5  11   0.6809   0.6609   2.6250  -0.3687   0.9769  -0.9909   0.00    0.0
2018/11/07 00:42:15.000  -74.525920335  163.457818485    24.0144   5  11   0.6817   0.6615   2.6268  -0.3690   0.9773  -0.9920   0.00    0.0
2018/11/07 00:42:30.000  -74.525919173  163.457824667    24.2567   5  11   0.6826   0.6620   2.6287  -0.3694   0.9777  -0.9932   0.00    0.0
2018/11/07 00:42:45.000  -74.525920087  163.457825644    24.8916   5  11   0.6822   0.6610   2.6251  -0.3689   0.9758  -0.9925   0.00    0.0
2018/11/07 00:43:00.000  -74.525921645  163.457831448    25.8510   5  11   0.6818   0.6600   2.6215  -0.3684   0.9738  -0.9918   0.00    0.0
2018/11/07 00:43:15.000  -74.525916381  163.457809502    23.3420   5  11   0.6815   0.6591   2.6180  -0.3679   0.9719  -0.9912   0.00    0.0
2018/11/07 00:43:30.000  -74.525919805  163.457822223    25.2784   5  11   0.6813   0.6582   2.6146  -0.3674   0.9701  -0.9906   0.00    0.0
2018/11/07 00:43:45.000  -74.525916789  163.457831373    24.8525   5  11   0.6811   0.6574   2.6114  -0.3669   0.9682  -0.9900   0.00    0.0
2018/11/07 00:44:00.000  -74.525918280  163.457822286    24.5740   5  11   0.6810   0.6567   2.6082  -0.3665   0.9665  -0.9895   0.00    0.0
2018/11/07 00:44:15.000  -74.525920915  163.457826645    26.1753   5  11   0.6809   0.6560   2.6052  -0.3660   0.9647  -0.9890   0.00    0.0
2018/11/07 00:44:30.000  -74.525919730  163.457827809    25.1166   5  11   0.6809   0.6554   2.6023  -0.3656   0.9630  -0.9885   0.00    0.0
2018/11/07 00:44:45.000  -74.525920955  163.457829041    25.9494   5  11   0.6809   0.6549   2.5995  -0.3652   0.9613  -0.9880   0.00    0.0
2018/11/07 00:45:00.000  -74.525922170  163.457826196    25.9301   5  11   0.6810   0.6544   2.5968  -0.3648   0.9597  -0.9876   0.00    0.0
2018/11/07 00:45:15.000  -74.525920144  163.457822181    24.9781   5  11   0.6811   0.6540   2.5943  -0.3644   0.9581  -0.9872   0.00    0.0
2018/11/07 00:45:30.000  -74.525919566  163.457828100    26.0906   5  11   0.6813   0.6537   2.5920  -0.3640   0.9565  -0.9869   0.00    0.0
2018/11/07 00:45:45.000  -74.525920108  163.457828116    25.7469   5  11   0.6816   0.6534   2.5897  -0.3637   0.9550  -0.9866   0.00    0.0
2018/11/07 00:46:00.000  -74.525917539  163.457821973    25.2651   5  11   0.6819   0.6532   2.5876  -0.3634   0.9535  -0.9863   0.00    0.0
2018/11/07 00:46:15.000  -74.525920470  163.457821586    25.5259   5  11   0.6823   0.6531   2.5856  -0.3630   0.9521  -0.9860   0.00    0.0
2018/11/07 00:46:30.000  -74.525918265  163.457812588    24.7019   5  11   0.6827   0.6530   2.5837  -0.3627   0.9507  -0.9858   0.00    0.0
2018/11/07 00:46:45.000  -74.525916809  163.457813700    24.0123   5  11   0.6832   0.6530   2.5820  -0.3624   0.9493  -0.9856   0.00    0.0
2018/11/07 00:47:00.000  -74.525916956  163.457816184    24.7552   5  11   0.6837   0.6531   2.5803  -0.3621   0.9479  -0.9854   0.00    0.0
2018/11/07 00:47:15.000  -74.525919423  163.457826191    24.9030   5  11   0.6843   0.6532   2.5787  -0.3619   0.9465  -0.9852   0.00    0.0
2018/11/07 00:47:30.000  -74.525920154  163.457814301    24.9141   5  11   0.6849   0.6534   2.5773  -0.3616   0.9452  -0.9850   0.00    0.0
2018/11/07 00:47:45.000  -74.525919515  163.457819745    25.5286   5  11   0.6844   0.6520   2.5705  -0.3605   0.9417  -0.9832   0.00    0.0
2018/11/07 00:48:00.000  -74.525919644  163.457826333    25.5565   5  11   0.6838   0.6507   2.5639  -0.3594   0.9383  -0.9814   0.00    0.0
2018/11/07 00:48:15.000  -74.525920291  163.457826345    25.2372   5  11   0.6833   0.6494   2.5573  -0.3583   0.9348  -0.9796   0.00    0.0
2018/11/07 00:48:30.000  -74.525918553  163.457817536    25.3559   5  11   0.6829   0.6483   2.5510  -0.3572   0.9315  -0.9779   0.00    0.0
2018/11/07 00:48:45.000  -74.525917514  163.457817174    24.6436   5  11   0.6826   0.6472   2.5447  -0.3562   0.9281  -0.9762   0.00    0.0
2018/11/07 00:49:00.000  -74.525918000  163.457817731    24.8311   5  11   0.6823   0.6461   2.5386  -0.3551   0.9249  -0.9745   0.00    0.0
2018/11/07 00:49:15.000  -74.525918663  163.457817222    25.0721   5  11   0.6820   0.6451   2.5327  -0.3541   0.9216  -0.9729   0.00    0.0
2018/11/07 00:49:30.000  -74.525919933  163.457818027    25.6453   5  11   0.6818   0.6442   2.5269  -0.3531   0.9184  -0.9713   0.00    0.0
2018/11/07 00:49:45.000  -74.525919782  163.457815495    24.6776   5  11   0.6817   0.6434   2.5213  -0.3521   0.9153  -0.9698   0.00    0.0
2018/11/07 00:50:00.000  -74.525919909  163.457819204    24.7819   5  11   0.6816   0.6426   2.5158  -0.3512   0.9122  -0.9683   0.00    0.0
2018/11/07 00:50:15.000  -74.525919512  163.457820869    24.4178   5  11   0.6816   0.6419   2.5106  -0.3502   0.9092  -0.9668   0.00    0.0
2018/11/07 00:50:30.000  -74.525915232  163.457813892    22.6403   5  10   0.9292   0.6739   3.5645  -0.5026   1.1600  -1.5916   0.00    0.0
2018/11/07 00:50:45.000  -74.525913584  163.457812371    23.6065   5  10   0.9289   0.6730   3.5580  -0.5012   1.1560  -1.5895   0.00    0.0
2018/11/07 00:51:00.000  -74.525913013  163.457805481    22.8582   5  10   0.9287   0.6722   3.5516  -0.4997   1.1521  -1.5874   0.00    0.0
2018/11/07 00:51:15.000  -74.525911097  163.457807669    22.2641   5  10   0.9285   0.6715   3.5453  -0.4982   1.1482  -1.5854   0.00    0.0
2018/11/07 00:51:30.000  -74.525913969  163.457808006    23.4165   5  10   0.9284   0.6708   3.5391  -0.4968   1.1442  -1.5834   0.00    0.0
2018/11/07 00:51:45.000  -74.525915706  163.457812689    23.2537   5  10   0.9283   0.6701   3.5330  -0.4953   1.1403  -1.5814   0.00    0.0
2018/11/07 00:52:00.000  -74.525912698  163.457816834    23.3086   5  10   0.9283   0.6696   3.5271  -0.4938   1.1364  -1.5795   0.00    0.0
2018/11/07 00:52:15.000  -74.525911951  163.457805096    21.4218   5  10   0.9283   0.6691   3.5213  -0.4924   1.1325  -1.5776   0.00    0.0
2018/11/07 00:52:30.000  -74.525910213  163.457810501    21.2428   5  10   0.9284   0.6686   3.5157  -0.4909   1.1286  -1.5758   0.00    0.0
2018/11/07 00:52:45.000  -74.525912007  163.457811421    22.4544   5  10   0.9263   0.6665   3.5002  -0.4879   1.1215  -1.5696   0.00    0.0
2018/11/07 00:53:00.000  -74.525913093  163.457816918    23.3246   5  10   0.9241   0.6645   3.4848  -0.4850   1.1145  -1.5635   0.00    0.0
2018/11/07 00:53:15.000  -74.525911016  163.457805712    21.2933   5  10   0.9221   0.6625   3.4696  -0.4821   1.1075  -1.5575   0.00    0.0
2018/11/07 00:53:30.000  -74.525914306  163.457817848    23.6733   5  10   0.9201   0.6607   3.4547  -0.4792   1.1005  -1.5515   0.00    0.0
2018/11/07 00:53:45.000  -74.525910930  163.457808411    22.1157   5  10   0.9182   0.6588   3.4399  -0.4763   1.0936  -1.5457   0.00    0.0
2018/11/07 00:54:00.000  -74.525910385  163.457807481    22.0906   5  10   0.9164   0.6571   3.4255  -0.4735   1.0868  -1.5399   0.00    0.0
2018/11/07 00:54:15.000  -74.525913696  163.457809898    23.3806   5  10   0.9146   0.6555   3.4113  -0.4706   1.0800  -1.5342   0.00    0.0
2018/11/07 00:54:30.000  -74.525914415  163.457818112    23.4394   5   9   0.9169   0.6540   3.6505  -0.4669   1.0668  -1.5655   0.00    0.0
2018/11/07 00:54:45.000  -74.525913876  163.457813803    23.0203   5   9   0.9154   0.6525   3.6385  -0.4641   1.0601  -1.5606   0.00    0.0
2018/11/07 00:55:00.000  -74.525918054  163.457817493    23.3850   5   9   0.9140   0.6510   3.6268  -0.4613   1.0534  -1.5558   0.00    0.0
2018/11/07 00:55:15.000  -74.525914098  163.457821679    23.1016   5   9   0.9126   0.6497   3.6156  -0.4586   1.0468  -1.5512   0.00    0.0
2018/11/07 00:55:30.000  -74.525915055  163.457812082    22.9464   5   9   0.9114   0.6485   3.6047  -0.4559   1.0403  -1.5467   0.00    0.0
2018/11/07 00:55:45.000  -74.525913374  163.457813495    22.0014   5   9   0.9103   0.6473   3.5941  -0.4532   1.0338  -1.5422   0.00    0.0
2018/11/07 00:56:00.000  -74.525914452  163.457819412    22.7511   5   9   0.9092   0.6463   3.5838  -0.4505   1.0273  -1.5380   0.00    0.0
2018/11/07 00:56:15.000  -74.525912477  163.457820190    22.7441   5   9   0.9082   0.6453   3.5738  -0.4478   1.0209  -1.5338   0.00    0.0
2018/11/07 00:56:30.000  -74.525913212  163.457818341    22.1339   5   9   0.9073   0.6443   3.5642  -0.4452   1.0145  -1.5297   0.00    0.0
2018/11/07 00:56:45.000  -74.525914757  163.457820681    23.4076   5   9   0.9065   0.6435   3.5548  -0.4426   1.0082  -1.5258   0.00    0.0
2018/11/07 00:57:00.000  -74.525917811  163.457825933    24.2403   5   9   0.9057   0.6427   3.5459  -0.4400   1.0019  -1.5220   0.00    0.0
2018/11/07 00:57:15.000  -74.525918108  163.457817670    25.1957   5  10   0.7463   0.6382   2.6844  -0.3942   0.9108  -1.0611   0.00    0.0
2018/11/07 00:57:30.000  -74.525918385  163.457828480    24.7958   5  10   0.7467   0.6379   2.6829  -0.3934   0.9081  -1.0604   0.00    0.0
2018/11/07 00:57:45.000  -74.525918474  163.457826778    25.3022   5  10   0.7457   0.6361   2.6749  -0.3916   0.9031  -1.0576   0.00    0.0
2018/11/07 00:58:00.000  -74.525915789  163.457827233    24.5335   5  10   0.7448   0.6344   2.6670  -0.3898   0.8982  -1.0548   0.00    0.0
2018/11/07 00:58:15.000  -74.525920066  163.457820950    25.0869   5  10   0.7439   0.6327   2.6594  -0.3881   0.8934  -1.0521   0.00    0.0
2018/11/07 00:58:30.000  -74.525918395  163.457819588    25.2132   5  10   0.7431   0.6312   2.6519  -0.3864   0.8886  -1.0495   0.00    0.0
2018/11/07 00:58:45.000  -74.525916036  163.457818071    24.0539   5  10   0.7423   0.6297   2.6447  -0.3847   0.8839  -1.0469   0.00    0.0
2018/11/07 00:59:00.000  -74.525917927  163.457821588    24.8623   5  10   0.7416   0.6282   2.6377  -0.3830   0.8792  -1.0444   0.00    0.0
2018/11/07 00:59:15.000  -74.525916071  163.457821525    24.4640   5  10   0.7410   0.6269   2.6309  -0.3814   0.8746  -1.0419   0.00    0.0
2018/11/07 00:59:30.000  -74.525920846  163.457831874    25.8388   5  10   0.7405   0.6256   2.6244  -0.3798   0.8700  -1.0395   0.00    0.0
2018/11/07 00:59:45.000  -74.525919899  163.457823370    24.7621   5  10   0.7400   0.6244   2.6181  -0.3783   0.8656  -1.0372   0.00    0.0
2018/11/07 01:00:00.000  -74.525916743  163.457818631    24.0032   5  10   0.7396   0.6233   2.6121  -0.3768   0.8611  -1.0350   0.00    0.0
2018/11/07 01:00:15.000  -74.525919130  163.457825899    25.3695   5  10   0.7393   0.6223   2.6065  -0.3753   0.8568  -1.0328   0.00    0.0
2018/11/07 01:00:30.000  -74.525916154  163.457819498    23.6669   5  10   0.7390   0.6214   2.6011  -0.3738   0.8525  -1.0308   0.00    0.0
2018/11/07 01:00:45.000  -74.525916983  163.457810683    24.0019   5  10   0.7388   0.6205   2.5960  -0.3724   0.8483  -1.0288   0.00    0.0
2018/11/07 01:01:00.000  -74.525917771  163.457815694    23.2529   5  10   0.7387   0.6197   2.5912  -0.3711   0.8442  -1.0269   0.00    0.0
2018/11/07 01:01:15.000  -74.525916927  163.457826297    24.5366   5  10   0.7386   0.6190   2.5867  -0.3697   0.8401  -1.0251   0.00    0.0
2018/11/07 01:01:30.000  -74.525913980  163.457813377    22.8504   5  10   0.7387   0.6184   2.5825  -0.3684   0.8361  -1.0233   0.00    0.0
2018/11/07 01:01:45.000  -74.525916355  163.457818097    23.8865   5  10   0.7387   0.6178   2.5785  -0.3671   0.8321  -1.0216   0.00    0.0
2018/11/07 01:02:00.000  -74.525917298  163.457826631    24.3849   5  10   0.7389   0.6173   2.5749  -0.3658   0.8282  -1.0200   0.00    0.0
2018/11/07 01:02:15.000  -74.525916552  163.457815831    23.7913   5  10   0.7391   0.6169   2.5715  -0.3646   0.8243  -1.0185   0.00    0.0
2018/11/07 01:02:30.000  -74.525916225  163.457817786    23.7864   5  10   0.7394   0.6165   2.5685  -0.3634   0.8205  -1.0171   0.00    0.0
2018/11/07 01:02:45.000  -74.525918370  163.457820676    24.5656   5  10   0.7383   0.6148   2.5587  -0.3613   0.8147  -1.0136   0.00    0.0
2018/11/07 01:03:00.000  -74.525917134  163.457830342    24.6567   5  10   0.7373   0.6132   2.5491  -0.3593   0.8090  -1.0101   0.00    0.0
2018/11/07 01:03:15.000  -74.525916559  163.457816487    24.4975   5  10   0.7363   0.6116   2.5398  -0.3573   0.8033  -1.0068   0.00    0.0
2018/11/07 01:03:30.000  -74.525918542  163.457823659    25.1259   5  10   0.7355   0.6101   2.5307  -0.3553   0.7977  -1.0035   0.00    0.0
2018/11/07 01:03:45.000  -74.525918345  163.457822735    23.9171   5  10   0.7347   0.6086   2.5220  -0.3533   0.7922  -1.0003   0.00    0.0
2018/11/07 01:04:00.000  -74.525917785  163.457818105    24.6657   5  10   0.7339   0.6073   2.5136  -0.3514   0.7868  -0.9972   0.00    0.0
2018/11/07 01:04:15.000  -74.525916713  163.457818881    23.8981   5  10   0.7333   0.6060   2.5055  -0.3496   0.7814  -0.9942   0.00    0.0
2018/11/07 01:04:30.000  -74.525917932  163.457810282    24.0696   5  10   0.7327   0.6048   2.4978  -0.3477   0.7761  -0.9913   0.00    0.0
2018/11/07 01:04:45.000  -74.525917866  163.457822991    24.4657   5  10   0.7321   0.6037   2.4903  -0.3459   0.7709  -0.9885   0.00    0.0
2018/11/07 01:05:00.000  -74.525918023  163.457817822    24.5292   5  10   0.7317   0.6027   2.4832  -0.3442   0.7657  -0.9858   0.00    0.0
2018/11/07 01:05:15.000  -74.525917137  163.457814429    23.8476   5  10   0.7313   0.6018   2.4766  -0.3425   0.7607  -0.9832   0.00    0.0
2018/11/07 01:05:30.000  -74.525918879  163.457818432    24.3452   5  10   0.7311   0.6009   2.4703  -0.3408   0.7557  -0.9807   0.00    0.0
2018/11/07 01:05:45.000  -74.525918331  163.457818772    25.4654   5  10   0.7308   0.6002   2.4644  -0.3392   0.7508  -0.9783   0.00    0.0
2018/11/07 01:06:00.000  -74.525916557  163.457804077    23.6710   5  10   0.7307   0.5995   2.4588  -0.3376   0.7460  -0.9760   0.00    0.0
2018/11/07 01:06:15.000  -74.525918291  163.457816208    23.8899   5  10   0.7306   0.5989   2.4535  -0.3360   0.7412  -0.9738   0.00    0.0
2018/11/07 01:06:30.000  -74.525914993  163.457814389    23.9334   5  10   0.7307   0.5983   2.4486  -0.3345   0.7365  -0.9717   0.00    0.0
2018/11/07 01:06:45.000  -74.525916784  163.457820940    24.1999   5  10   0.7307   0.5979   2.4441  -0.3330   0.7319  -0.9697   0.00    0.0
2018/11/07 01:07:00.000  -74.525916113  163.457821336    24.0068   5  10   0.7309   0.5975   2.4399  -0.3315   0.7273  -0.9678   0.00    0.0
2018/11/07 01:07:15.000  -74.525917422  163.457813879    24.7219   5  10   0.7311   0.5972   2.4360  -0.3301   0.7228  -0.9660   0.00    0.0
2018/11/07 01:07:30.000  -74.525916318  163.457816758    24.5345   5  10   0.7314   0.5969   2.4325  -0.3287   0.7183  -0.9643   0.00    0.0
2018/11/07 01:07:45.000  -74.525916770  163.457817949    24.2034   5  10   0.7303   0.5954   2.4221  -0.3265   0.7121  -0.9606   0.00    0.0
2018/11/07 01:08:00.000  -74.525916753  163.457821239    24.0742   5  10   0.7294   0.5939   2.4120  -0.3244   0.7060  -0.9569   0.00    0.0
2018/11/07 01:08:15.000  -74.525917941  163.457824776    23.3996   5  10   0.7284   0.5926   2.4023  -0.3223   0.6999  -0.9534   0.00    0.0
2018/11/07 01:08:30.000  -74.525915382  163.457822478    24.0239   5  10   0.7276   0.5913   2.3929  -0.3202   0.6940  -0.9499   0.00    0.0
2018/11/07 01:08:45.000  -74.525916806  163.457818229    25.0128   5  10   0.7268   0.5900   2.3839  -0.3182   0.6881  -0.9466   0.00    0.0
2018/11/07 01:09:00.000  -74.525917066  163.457819685    25.1232   5  10   0.7262   0.5889   2.3753  -0.3162   0.6822  -0.9434   0.00    0.0
2018/11/07 01:09:15.000  -74.525915848  163.457818444    23.9245   5  10   0.7255   0.5878   2.3671  -0.3142   0.6765  -0.9403   0.00    0.0
2018/11/07 01:09:30.000  -74.525918734  163.457823692    25.2066   5  10   0.7250   0.5868   2.3592  -0.3123   0.6708  -0.9373   0.00    0.0
2018/11/07 01:09:45.000  -74.525918539  163.457823274    23.9967   5  10   0.7245   0.5859   2.3517  -0.3104   0.6652  -0.9344   0.00    0.0
2018/11/07 01:10:00.000  -74.525915549  163.457827019    24.2336   5  10   0.7241   0.5851   2.3445  -0.3086   0.6597  -0.9316   0.00    0.0
2018/11/07 01:10:15.000  -74.525917941  163.457826170    24.0259   5  10   0.7239   0.5844   2.3379  -0.3068   0.6542  -0.9289   0.00    0.0
2018/11/07 01:10:30.000  -74.525915831  163.457821485    24.4350   5  10   0.7236   0.5837   2.3317  -0.3050   0.6489  -0.9264   0.00    0.0
2018/11/07 01:10:45.000  -74.525917341  163.457821511    23.7852   5  10   0.7235   0.5832   2.3259  -0.3033   0.6436  -0.9240   0.00    0.0
2018/11/07 01:11:00.000  -74.525917036  163.457819158    24.8848   5  10   0.7234   0.5827   2.3204  -0.3017   0.6383  -0.9217   0.00    0.0
2018/11/07 01:11:15.000  -74.525916761  163.457821423    24.3105   5  10   0.7234   0.5823   2.3153  -0.3000   0.6331  -0.9195   0.00    0.0
2018/11/07 01:11:30.000  -74.525914253  163.457820739    24.0549   5  10   0.7235   0.5820   2.3106  -0.2984   0.6280  -0.9174   0.00    0.0
2018/11/07 01:11:45.000  -74.525917636  163.457815835    25.4357   5  10   0.7236   0.5817   2.3062  -0.2968   0.6229  -0.9154   0.00    0.0
2018/11/07 01:12:00.000  -74.525918631  163.457830005    25.2979   5  10   0.7239   0.5815   2.3023  -0.2953   0.6179  -0.9135   0.00    0.0
2018/11/07 01:12:15.000  -74.525915407  163.457825001    24.3912   5  10   0.7241   0.5814   2.2987  -0.2937   0.6129  -0.9117   0.00    0.0
2018/11/07 01:12:30.000  -74.525920134  163.457829380    25.4007   5  10   0.7245   0.5814   2.2954  -0.2922   0.6079  -0.9100   0.00    0.0
2018/11/07 01:12:45.000  -74.525915962  163.457822753    23.9295   5  10   0.7236   0.5801   2.2855  -0.2901   0.6015  -0.9064   0.00    0.0
2018/11/07 01:13:00.000  -74.525916933  163.457818864    25.1926   5  10   0.7227   0.5789   2.2759  -0.2879   0.5952  -0.9029   0.00    0.0
2018/11/07 01:13:15.000  -74.525916663  163.457819109    24.3075   5  10   0.7219   0.5778   2.2666  -0.2858   0.5889  -0.8995   0.00    0.0
2018/11/07 01:13:30.000  -74.525915057  163.457815583    23.4504   5  10   0.7212   0.5768   2.2578  -0.2837   0.5827  -0.8962   0.00    0.0
2018/11/07 01:13:45.000  -74.525917444  163.457820121    25.6338   5  10   0.7205   0.5758   2.2493  -0.2817   0.5766  -0.8931   0.00    0.0
2018/11/07 01:14:00.000  -74.525917465  163.457823690    24.5365   5  10   0.7200   0.5749   2.2412  -0.2797   0.5706  -0.8900   0.00    0.0
2018/11/07 01:14:15.000  -74.525916847  163.457817217    24.2505   5  10   0.7195   0.5741   2.2336  -0.2778   0.5646  -0.8871   0.00    0.0
2018/11/07 01:14:30.000  -74.525919412  163.457820749    24.1956   5  10   0.7190   0.5734   2.2263  -0.2758   0.5586  -0.8843   0.00    0.0
2018/11/07 01:14:45.000  -74.525916666  163.457813830    24.4695   5  10   0.7187   0.5727   2.2194  -0.2739   0.5527  -0.8816   0.00    0.0
2018/11/07 01:15:00.000  -74.525917813  163.457815891    24.7118   5  10   0.7184   0.5722   2.2129  -0.2721   0.5468  -0.8790   0.00    0.0
2018/11/07 01:15:15.000  -74.525916506  163.457820181    25.0281   5  10   0.7182   0.5717   2.2069  -0.2703   0.5411  -0.8765   0.00    0.0
2018/11/07 01:15:30.000  -74.525918507  163.457821115    24.8157   5  10   0.7181   0.5713   2.2014  -0.2685   0.5353  -0.8742   0.00    0.0
2018/11/07 01:15:45.000  -74.525920330  163.457827539    26.3278   5  10   0.7181   0.5710   2.1962  -0.2668   0.5296  -0.8720   0.00    0.0
2018/11/07 01:16:00.000  -74.525916926  163.457824833    25.1973   5  10   0.7181   0.5707   2.1914  -0.2651   0.5239  -0.8699   0.00    0.0
2018/11/07 01:16:15.000  -74.525915767  163.457822512    24.7354   5  10   0.7182   0.5706   2.1870  -0.2634   0.5183  -0.8678   0.00    0.0
2018/11/07 01:16:30.000  -74.525918258  163.457821901    25.3460   5  10   0.7184   0.5705   2.1829  -0.2617   0.5126  -0.8659   0.00    0.0
2018/11/07 01:16:45.000  -74.525917760  163.457821579    25.3171   5  10   0.7186   0.5705   2.1793  -0.2601   0.5070  -0.8641   0.00    0.0
2018/11/07 01:17:00.000  -74.525918446  163.457816689    24.7119   5  10   0.7190   0.5705   2.1760  -0.2585   0.5014  -0.8624   0.00    0.0
2018/11/07 01:17:15.000  -74.525918957  163.457821767    24.4958   5  10   0.7193   0.5707   2.1731  -0.2569   0.4958  -0.8608   0.00    0.0
2018/11/07 01:17:30.000  -74.525917295  163.457819755    24.1157   5  10   0.7198   0.5709   2.1706  -0.2554   0.4901  -0.8593   0.00    0.0
2018/11/07 01:17:45.000  -74.525918067  163.457820522    24.9458   5  10   0.7190   0.5699   2.1615  -0.2532   0.4835  -0.8560   0.00    0.0
2018/11/07 01:18:00.000  -74.525918010  163.457818389    25.3638   5  10   0.7183   0.5690   2.1528  -0.2511   0.4769  -0.8529   0.00    0.0
2018/11/07 01:18:15.000  -74.525918963  163.457831952    24.7450   5  11   0.6194   0.5510   1.8015  -0.1085   0.2447  -0.5483   0.00    0.0
2018/11/07 01:18:30.000  -74.525918961  163.457820145    25.0512   5  11   0.6191   0.5505   1.7978  -0.1064   0.2376  -0.5474   0.00    0.0
2018/11/07 01:18:45.000  -74.525918584  163.457826890    25.3704   5  11   0.6189   0.5501   1.7943  -0.1042   0.2302  -0.5465   0.00    0.0
2018/11/07 01:19:00.000  -74.525918127  163.457819681    25.1704   5  11   0.6187   0.5497   1.7911  -0.1019   0.2226  -0.5456   0.00    0.0
2018/11/07 01:19:15.000  -74.525919218  163.457828925    24.8468   5  11   0.6186   0.5495   1.7882  -0.0996   0.2148  -0.5447   0.00    0.0
2018/11/07 01:19:30.000  -74.525916503  163.457825412    25.2533   5  11   0.6185   0.5493   1.7856  -0.0973   0.2066  -0.5439   0.00    0.0
2018/11/07 01:19:45.000  -74.525919464  163.457823205    25.3717   5  11   0.6185   0.5491   1.7833  -0.0949   0.1981  -0.5432   0.00    0.0
2018/11/07 01:20:00.000  -74.525917330  163.457825158    24.1772   5  11   0.6185   0.5491   1.7813  -0.0924   0.1892  -0.5424   0.00    0.0
2018/11/07 01:20:15.000  -74.525917098  163.457825570    24.9560   5  11   0.6186   0.5491   1.7797  -0.0899   0.1799  -0.5417   0.00    0.0
2018/11/07 01:20:30.000  -74.525919007  163.457823227    25.3977   5  11   0.6188   0.5492   1.7784  -0.0874   0.1700  -0.5411   0.00    0.0
2018/11/07 01:20:45.000  -74.525918498  163.457819845    25.5592   5  11   0.6190   0.5493   1.7774  -0.0847   0.1595  -0.5405   0.00    0.0
2018/11/07 01:21:00.000  -74.525919637  163.457827036    25.0691   5  11   0.6193   0.5496   1.7767  -0.0820   0.1481  -0.5399   0.00    0.0
2018/11/07 01:21:15.000  -74.525917894  163.457821503    25.3750   5  11   0.6196   0.5499   1.7762  -0.0792   0.1358  -0.5394   0.00    0.0
2018/11/07 01:21:30.000  -74.525919485  163.457821672    25.1243   5  11   0.6199   0.5502   1.7761  -0.0763   0.1221  -0.5389   0.00    0.0
2018/11/07 01:21:45.000  -74.525919345  163.457819524    24.5332   5  11   0.6204   0.5506   1.7763  -0.0732   0.1066  -0.5384   0.00    0.0
2018/11/07 01:22:00.000  -74.525921578  163.457824638    24.5007   5  12   0.6133   0.5284   1.7092  -0.1415  -0.2613  -0.5799   0.00    0.0
2018/11/07 01:22:15.000  -74.525921802  163.457822281    25.2456   5  12   0.6137   0.5289   1.7110  -0.1405  -0.2673  -0.5796   0.00    0.0
2018/11/07 01:22:30.000  -74.525919915  163.457823032    24.6429   5  12   0.6141   0.5295   1.7130  -0.1395  -0.2733  -0.5794   0.00    0.0
2018/11/07 01:22:45.000  -74.525920812  163.457824087    24.7491   5  12   0.6137   0.5290   1.7103  -0.1381  -0.2775  -0.5785   0.00    0.0
2018/11/07 01:23:00.000  -74.525921730  163.457816957    25.0165   5  12   0.6132   0.5286   1.7077  -0.1368  -0.2817  -0.5777   0.00    0.0
2018/11/07 01:23:15.000  -74.525921731  163.457828915    24.7987   5  12   0.6128   0.5282   1.7054  -0.1355  -0.2859  -0.5769   0.00    0.0
2018/11/07 01:23:30.000  -74.525920177  163.457818608    24.8108   5  12   0.6125   0.5279   1.7034  -0.1342  -0.2901  -0.5761   0.00    0.0
2018/11/07 01:23:45.000  -74.525920698  163.457818632    24.0167   5  12   0.6122   0.5276   1.7016  -0.1328  -0.2943  -0.5754   0.00    0.0
2018/11/07 01:24:00.000  -74.525919671  163.457825955    24.9273   5  12   0.6120   0.5275   1.7001  -0.1315  -0.2985  -0.5747   0.00    0.0
2018/11/07 01:24:15.000  -74.525920996  163.457820997    25.0445   5  12   0.6118   0.5273   1.6989  -0.1302  -0.3028  -0.5740   0.00    0.0
2018/11/07 01:24:30.000  -74.525917480  163.457821864    24.0409   5  12   0.6117   0.5273   1.6979  -0.1290  -0.3070  -0.5734   0.00    0.0
2018/11/07 01:24:45.000  -74.525918624  163.457819554    24.3336   5  12   0.6116   0.5273   1.6972  -0.1277  -0.3113  -0.5729   0.00    0.0
2018/11/07 01:25:00.000  -74.525921661  163.457823900    24.4065   5  12   0.6116   0.5273   1.6968  -0.1264  -0.3156  -0.5724   0.00    0.0
2018/11/07 01:25:15.000  -74.525919377  163.457815441    25.0690   5  12   0.6116   0.5275   1.6968  -0.1251  -0.3200  -0.5719   0.00    0.0
2018/11/07 01:25:30.000  -74.525922047  163.457818565    25.4130   5  12   0.6117   0.5277   1.6971  -0.1239  -0.3243  -0.5715   0.00    0.0
2018/11/07 01:25:45.000  -74.525920535  163.457825136    24.1997   5  12   0.6118   0.5280   1.6977  -0.1226  -0.3287  -0.5712   0.00    0.0
2018/11/07 01:26:00.000  -74.525919719  163.457825561    24.2699   5  12   0.6120   0.5283   1.6985  -0.1214  -0.3331  -0.5708   0.00    0.0
2018/11/07 01:26:15.000  -74.525919897  163.457820864    24.6042   5  12   0.6123   0.5287   1.6997  -0.1201  -0.3376  -0.5706   0.00    0.0
2018/11/07 01:26:30.000  -74.525921287  163.457821366    24.6026   5  12   0.6126   0.5291   1.7011  -0.1189  -0.3421  -0.5703   0.00    0.0
2018/11/07 01:26:45.000  -74.525919868  163.457823393    25.0229   5  12   0.6129   0.5297   1.7028  -0.1176  -0.3466  -0.5702   0.00    0.0
2018/11/07 01:27:00.000  -74.525918837  163.457822784    24.0646   5  12   0.6133   0.5302   1.7048  -0.1164  -0.3511  -0.5700   0.00    0.0
2018/11/07 01:27:15.000  -74.525920069  163.457819217    24.6886   5  12   0.6137   0.5309   1.7071  -0.1151  -0.3557  -0.5699   0.00    0.0
2018/11/07 01:27:30.000  -74.525919170  163.457826011    24.2906   5  12   0.6142   0.5316   1.7096  -0.1139  -0.3603  -0.5699   0.00    0.0
2018/11/07 01:27:45.000  -74.525920407  163.457825340    24.6680   5  12   0.6138   0.5312   1.7072  -0.1124  -0.3633  -0.5691   0.00    0.0
2018/11/07 01:28:00.000  -74.525919977  163.457820611    24.8931   5  12   0.6134   0.5309   1.7050  -0.1108  -0.3664  -0.5684   0.00    0.0
2018/11/07 01:28:15.000  -74.525920732  163.457824208    24.6885   5  12   0.6131   0.5306   1.7031  -0.1092  -0.3695  -0.5677   0.00    0.0
2018/11/07 01:28:30.000  -74.525922343  163.457824010    24.5693   5  12   0.6128   0.5304   1.7014  -0.1076  -0.3726  -0.5671   0.00    0.0
2018/11/07 01:28:45.000  -74.525919451  163.457820789    24.1412   5  12   0.6126   0.5303   1.7000  -0.1060  -0.3758  -0.5665   0.00    0.0
2018/11/07 01:29:00.000  -74.525918208  163.457817317    24.7886   5  12   0.6124   0.5302   1.6989  -0.1044  -0.3790  -0.5660   0.00    0.0
2018/11/07 01:29:15.000  -74.525920840  163.457823764    24.6211   5  12   0.6123   0.5302   1.6980  -0.1028  -0.3823  -0.5655   0.00    0.0
2018/11/07 01:29:30.000  -74.525920326  163.457820874    23.7651   5  12   0.6122   0.5302   1.6975  -0.1012  -0.3856  -0.5651   0.00    0.0
2018/11/07 01:29:45.000  -74.525919713  163.457822682    24.5566   5  12   0.6122   0.5303   1.6972  -0.0996  -0.3890  -0.5647   0.00    0.0
2018/11/07 01:30:00.000  -74.525918296  163.457814070    24.9583   5  12   0.6122   0.5305   1.6972  -0.0980  -0.3924  -0.5643   0.00    0.0
2018/11/07 01:30:15.000  -74.525920706  163.457823837    24.6148   5  12   0.6123   0.5307   1.6977  -0.0964  -0.3959  -0.5640   0.00    0.0
2018/11/07 01:30:30.000  -74.525918026  163.457826305    24.0999   5  12   0.6125   0.5311   1.6984  -0.0948  -0.3994  -0.5638   0.00    0.0
2018/11/07 01:30:45.000  -74.525919693  163.457823297    24.6447   5  12   0.6127   0.5314   1.6994  -0.0932  -0.4030  -0.5636   0.00    0.0
2018/11/07 01:31:00.000  -74.525920017  163.457819741    24.7097   5  12   0.6129   0.5319   1.7007  -0.0915  -0.4066  -0.5634   0.00    0.0
2018/11/07 01:31:15.000  -74.525920920  163.457820380    24.7356   5  12   0.6132   0.5324   1.7023  -0.0899  -0.4103  -0.5633   0.00    0.0
2018/11/07 01:31:30.000  -74.525919294  163.457816905    24.9809   5  12   0.6135   0.5329   1.7042  -0.0882  -0.4141  -0.5632   0.00    0.0
2018/11/07 01:31:45.000  -74.525919276  163.457824553    24.4510   5  12   0.6139   0.5336   1.7064  -0.0865  -0.4179  -0.5632   0.00    0.0
2018/11/07 01:32:00.000  -74.525920291  163.457823271    25.1392   5  12   0.6144   0.5342   1.7088  -0.0848  -0.4217  -0.5632   0.00    0.0
2018/11/07 01:32:15.000  -74.525920031  163.457823786    25.0878   5  12   0.6149   0.5350   1.7116  -0.0831  -0.4256  -0.5633   0.00    0.0
2018/11/07 01:32:30.000  -74.525920124  163.457819682    24.5490   5  12   0.6154   0.5358   1.7146  -0.0814  -0.4296  -0.5634   0.00    0.0
2018/11/07 01:32:45.000  -74.525918074  163.457824858    24.1067   5  12   0.6150   0.5355   1.7124  -0.0792  -0.4320  -0.5628   0.00    0.0
2018/11/07 01:33:00.000  -74.525920238  163.457820502    24.3781   5  12   0.6147   0.5353   1.7105  -0.0770  -0.4344  -0.5623   0.00    0.0
2018/11/07 01:33:15.000  -74.525921711  163.457814901    24.7856   5  12   0.6145   0.5351   1.7090  -0.0748  -0.4370  -0.5618   0.00    0.0
2018/11/07 01:33:30.000  -74.525918484  163.457827126    24.1514   5  12   0.6142   0.5350   1.7077  -0.0725  -0.4395  -0.5613   0.00    0.0
2018/11/07 01:33:45.000  -74.525920678  163.457821049    24.2567   5  12   0.6141   0.5350   1.7067  -0.0702  -0.4421  -0.5609   0.00    0.0
2018/11/07 01:34:00.000  -74.525921223  163.457821665    24.7923   5  12   0.6139   0.5350   1.7060  -0.0678  -0.4448  -0.5606   0.00    0.0
2018/11/07 01:34:15.000  -74.525921140  163.457822224    23.9265   5  12   0.6139   0.5351   1.7056  -0.0653  -0.4476  -0.5602   0.00    0.0
2018/11/07 01:34:30.000  -74.525920460  163.457823177    25.0452   5  12   0.6139   0.5352   1.7055  -0.0628  -0.4504  -0.5600   0.00    0.0
2018/11/07 01:34:45.000  -74.525922455  163.457816632    25.4885   5  12   0.6139   0.5354   1.7057  -0.0602  -0.4532  -0.5597   0.00    0.0
2018/11/07 01:35:00.000  -74.525921599  163.457819663    24.0049   5  12   0.6140   0.5357   1.7061  -0.0575  -0.4561  -0.5595   0.00    0.0
2018/11/07 01:35:15.000  -74.525919701  163.457822152    24.7497   5  12   0.6141   0.5360   1.7070  -0.0547  -0.4591  -0.5594   0.00    0.0
2018/11/07 01:35:30.000  -74.525920287  163.457818906    24.6574   5  12   0.6143   0.5364   1.7081  -0.0518  -0.4622  -0.5593   0.00    0.0
2018/11/07 01:35:45.000  -74.525920270  163.457823538    24.4442   5  12   0.6146   0.5369   1.7095  -0.0488  -0.4653  -0.5593   0.00    0.0
2018/11/07 01:36:00.000  -74.525920608  163.457829310    24.9792   5  12   0.6149   0.5374   1.7112  -0.0456  -0.4685  -0.5593   0.00    0.0
2018/11/07 01:36:15.000  -74.525921673  163.457822633    24.5199   5  12   0.6152   0.5380   1.7132  -0.0421  -0.4717  -0.5594   0.00    0.0
2018/11/07 01:36:30.000  -74.525920532  163.457823725    24.4407   5  12   0.6156   0.5387   1.7155  -0.0384  -0.4751  -0.5595   0.00    0.0
2018/11/07 01:36:45.000  -74.525920149  163.457822563    24.4465   5  12   0.6161   0.5394   1.7180  -0.0343  -0.4784  -0.5596   0.00    0.0
2018/11/07 01:37:00.000  -74.525920803  163.457831109    23.9779   5  12   0.6166   0.5401   1.7209  -0.0297  -0.4818  -0.5598   0.00    0.0
2018/11/07 01:37:15.000  -74.525920784  163.457817414    25.0884   5  12   0.6171   0.5410   1.7240  -0.0243  -0.4853  -0.5600   0.00    0.0
2018/11/07 01:37:30.000  -74.525920812  163.457830245    24.5122   5  12   0.6177   0.5418   1.7274  -0.0173  -0.4889  -0.5603   0.00    0.0
2018/11/07 01:37:45.000  -74.525920717  163.457823541    24.6094   5  12   0.6174   0.5417   1.7257   0.0065  -0.4909  -0.5599   0.00    0.0
2018/11/07 01:38:00.000  -74.525920917  163.457824188    24.5969   5  12   0.6171   0.5415   1.7242   0.0195  -0.4929  -0.5595   0.00    0.0
2018/11/07 01:38:15.000  -74.525920655  163.457824864    24.3590   5  12   0.6169   0.5414   1.7231   0.0268  -0.4951  -0.5592   0.00    0.0
2018/11/07 01:38:30.000  -74.525922455  163.457815199    24.6217   5  12   0.6168   0.5414   1.7222   0.0324  -0.4972  -0.5589   0.00    0.0
2018/11/07 01:38:45.000  -74.525920531  163.457828591    24.1383   5  12   0.6166   0.5415   1.7216   0.0372  -0.4995  -0.5587   0.00    0.0
2018/11/07 01:39:00.000  -74.525921605  163.457825742    24.5487   5  12   0.6166   0.5416   1.7213   0.0414  -0.5018  -0.5585   0.00    0.0
2018/11/07 01:39:15.000  -74.525919549  163.457819847    24.5967   5  12   0.6166   0.5417   1.7213   0.0451  -0.5042  -0.5584   0.00    0.0
2018/11/07 01:39:30.000  -74.525918587  163.457828850    24.5688   5  12   0.6166   0.5419   1.7216   0.0486  -0.5066  -0.5583   0.00    0.0
2018/11/07 01:39:45.000  -74.525920797  163.457823953    24.3788   5  12   0.6167   0.5422   1.7221   0.0518  -0.5091  -0.5582   0.00    0.0
2018/11/07 01:40:00.000  -74.525919925  163.457832157    23.8027   5  12   0.6168   0.5426   1.7230   0.0548  -0.5117  -0.5582   0.00    0.0
2018/11/07 01:40:15.000  -74.525918930  163.457823975    24.1002   5  12   0.6170   0.5430   1.7242   0.0576  -0.5144  -0.5583   0.00    0.0
2018/11/07 01:40:30.000  -74.525921483  163.457826423    24.8434   5  12   0.6173   0.5435   1.7257   0.0602  -0.5171  -0.5584   0.00    0.0
2018/11/07 01:40:45.000  -74.525920877  163.457826401    24.1478   5  12   0.6176   0.5440   1.7274   0.0628  -0.5199  -0.5585   0.00    0.0
2018/11/07 01:41:00.000  -74.525920646  163.457825282    25.0007   5  12   0.6179   0.5446   1.7295   0.0652  -0.5227  -0.5587   0.00    0.0
2018/11/07 01:41:15.000  -74.525919935  163.457824319    24.5992   5  12   0.6183   0.5453   1.7318   0.0675  -0.5256  -0.5589   0.00    0.0
2018/11/07 01:41:30.000  -74.525920026  163.457831944    24.1501   5  12   0.6188   0.5460   1.7344   0.0697  -0.5286  -0.5592   0.00    0.0
2018/11/07 01:41:45.000  -74.525920573  163.457830314    24.0351   5  12   0.6193   0.5467   1.7372   0.0718  -0.5316  -0.5595   0.00    0.0
2018/11/07 01:42:00.000  -74.525919762  163.457826702    24.1632   5  12   0.6199   0.5476   1.7404   0.0739  -0.5347  -0.5598   0.00    0.0
2018/11/07 01:42:15.000  -74.525919583  163.457826324    25.2363   5  12   0.6205   0.5485   1.7438   0.0759  -0.5379  -0.5602   0.00    0.0
2018/11/07 01:42:30.000  -74.525922360  163.457825767    24.1041   5  12   0.6211   0.5494   1.7474   0.0779  -0.5411  -0.5606   0.00    0.0
2018/11/07 01:42:45.000  -74.525919324  163.457830326    24.3486   5  12   0.6209   0.5493   1.7460   0.0801  -0.5428  -0.5604   0.00    0.0
2018/11/07 01:43:00.000  -74.525919000  163.457835428    23.9472   5  12   0.6206   0.5492   1.7450   0.0821  -0.5446  -0.5602   0.00    0.0
2018/11/07 01:43:15.000  -74.525921597  163.457831366    24.5104   5  12   0.6205   0.5492   1.7442   0.0842  -0.5464  -0.5601   0.00    0.0
2018/11/07 01:43:30.000  -74.525920878  163.457823443    24.5129   5  12   0.6204   0.5492   1.7437   0.0861  -0.5483  -0.5600   0.00    0.0
2018/11/07 01:43:45.000  -74.525922153  163.457827481    24.5544   5  12   0.6203   0.5493   1.7435   0.0880  -0.5503  -0.5600   0.00    0.0
2018/11/07 01:44:00.000  -74.525919781  163.457827737    23.9252   5  12   0.6203   0.5495   1.7436   0.0899  -0.5523  -0.5600   0.00    0.0
2018/11/07 01:44:15.000  -74.525922584  163.457824532    24.3098   5  12   0.6203   0.5497   1.7439   0.0917  -0.5544  -0.5600   0.00    0.0
