% program   : RTKLIB ver.2.4.3
% inp file  : _by_type/_obs/tuati/20181112.18o
% inp file  : _by_type/_obs/base/20181111.18o
% inp file  : _by_type/_sp3+clk/igs20271.clk
% inp file  : _by_type/_sp3+clk/igs20271.sp3
% inp file  : _by_type/_nav/tuati/20181112.18n
% obs start : 2018/11/12 00:00:00.0 GPST (week2027  86400.0s)
% obs end   : 2018/11/12 23:59:30.0 GPST (week2027 172770.0s)
% pos mode  : dgps
% freqs     : L1+L2
% solution  : combined
% elev mask : 15.0 deg
% dynamics  : off
% tidecorr  : off
% ionos opt : iono-free
% tropo opt : est ztd+grad
% ephemeris : precise
% navi sys  : gps glonass
% antenna1  :                       ( 0.0000  0.0000  0.0000)
% antenna2  :                       ( 0.0000  0.0000  0.0000)
% ref pos   : 90.000000000   0.000000000-6335367.6285
%
% (lat/lon/height=WGS84/ellipsoidal,Q=1:fix,2:float,3:sbas,4:dgps,5:single,6:ppp,ns=# of satellites)
%  GPST                  latitude(deg) longitude(deg)  height(m)   Q  ns   sdn(m)   sde(m)   sdu(m)  sdne(m)  sdeu(m)  sdun(m) age(s)  ratio
2018/11/12 00:00:00.000  -74.425549534  163.418426414    62.9959   5  10   0.6579   0.6232   2.2996  -0.2923   0.7801  -0.7537  15.00    0.0
2018/11/12 00:00:30.000  -74.425552485  163.418439306    63.1544   5  10   0.6588   0.6246   2.3141  -0.2948   0.7879  -0.7593  45.00    0.0
2018/11/12 00:01:00.000  -74.425549463  163.418432324    63.1383   5  10   0.6599   0.6263   2.3298  -0.2976   0.7961  -0.7654  75.00    0.0
2018/11/12 00:01:30.000  -74.425552545  163.418439280    63.0528   5  10   0.6614   0.6284   2.3468  -0.3005   0.8048  -0.7718 105.00    0.0
2018/11/12 00:02:00.000  -74.425553525  163.418438219    64.0417   5  10   0.6631   0.6308   2.3648  -0.3038   0.8141  -0.7787 135.00    0.0
2018/11/12 00:02:30.000  -74.425551048  163.418438420    63.9970   5  10   0.6652   0.6337   2.3841  -0.3073   0.8239  -0.7859 165.00    0.0
2018/11/12 00:03:00.000  -74.425553641  163.418443272    63.6310   5  10   0.6648   0.6332   2.3922  -0.3086   0.8285  -0.7899 195.00    0.0
2018/11/12 00:03:30.000  -74.425550339  163.418437335    62.9219   5  10   0.6646   0.6332   2.4016  -0.3102   0.8337  -0.7944 225.00    0.0
2018/11/12 00:04:00.000  -74.425552485  163.418431648    63.2605   5  10   0.6648   0.6335   2.4120  -0.3120   0.8393  -0.7992 255.00    0.0
2018/11/12 00:04:30.000  -74.425554494  163.418439691    64.2361   5  10   0.6652   0.6341   2.4235  -0.3141   0.8454  -0.8044 285.00    0.0
2018/11/12 00:05:00.000  -74.425552607  163.418441792    63.7831   5  10   0.6660   0.6352   2.4361  -0.3164   0.8520  -0.8100 315.00    0.0
2018/11/12 00:05:30.000  -74.425552545  163.418433424    63.0595   5  11   0.6544   0.6366   2.3548  -0.3178   0.8616  -0.8682 345.00    0.0
2018/11/12 00:06:00.000  -74.425552393  163.418432886    63.2086   5  11   0.6557   0.6384   2.3705  -0.3207   0.8690  -0.8744 375.00    0.0
2018/11/12 00:06:30.000  -74.425551790  163.418438152    63.4653   5  11   0.6573   0.6406   2.3873  -0.3238   0.8769  -0.8811 405.00    0.0
2018/11/12 00:07:00.000  -74.425550886  163.418430246    61.6912   5  11   0.6592   0.6431   2.4051  -0.3272   0.8853  -0.8882 435.00    0.0
2018/11/12 00:07:30.000  -74.425552529  163.418433389    63.3448   5  11   0.6613   0.6460   2.4240  -0.3307   0.8941  -0.8956 465.00    0.0
2018/11/12 00:08:00.000  -74.425552962  163.418444154    64.0215   5  11   0.6611   0.6456   2.4323  -0.3322   0.8979  -0.8995 495.00    0.0
2018/11/12 00:08:30.000  -74.425552000  163.418435317    62.9761   5  11   0.6610   0.6455   2.4410  -0.3338   0.9019  -0.9034 525.00    0.0
2018/11/12 00:09:00.000  -74.425553162  163.418438907    63.5852   5  11   0.6613   0.6457   2.4506  -0.3355   0.9062  -0.9078 555.00    0.0
2018/11/12 00:09:30.000  -74.425550314  163.418438157    62.9582   5  11   0.6618   0.6462   2.4611  -0.3375   0.9109  -0.9124 585.00    0.0
2018/11/12 00:10:00.000  -74.425549955  163.418432361    63.1590   5  11   0.6626   0.6471   2.4725  -0.3396   0.9161  -0.9173 615.00    0.0
2018/11/12 00:10:30.000  -74.425552678  163.418434012    63.4950   5  11   0.6638   0.6484   2.4852  -0.3420   0.9218  -0.9228 645.00    0.0
2018/11/12 00:11:00.000  -74.425554299  163.418427094    63.7067   5  11   0.6652   0.6501   2.4988  -0.3446   0.9279  -0.9286 675.00    0.0
2018/11/12 00:11:30.000  -74.425552685  163.418435669    63.5324   5  11   0.6669   0.6521   2.5132  -0.3474   0.9344  -0.9346 705.00    0.0
2018/11/12 00:12:00.000  -74.425551688  163.418429068    63.3359   5  11   0.6689   0.6544   2.5283  -0.3503   0.9412  -0.9410 735.00    0.0
2018/11/12 00:12:30.000  -74.425553742  163.418435536    63.2413   5  11   0.6711   0.6569   2.5442  -0.3533   0.9483  -0.9476 765.00    0.0
2018/11/12 00:13:00.000  -74.425551802  163.418430655    63.0261   5  11   0.6709   0.6561   2.5486  -0.3541   0.9500  -0.9503 795.00    0.0
2018/11/12 00:13:30.000  -74.425551041  163.418434312    62.4182   5  11   0.6708   0.6557   2.5536  -0.3551   0.9521  -0.9532 825.00    0.0
2018/11/12 00:14:00.000  -74.425551876  163.418425474    61.9966   5  11   0.6711   0.6555   2.5594  -0.3563   0.9544  -0.9563 855.00    0.0
2018/11/12 00:14:30.000  -74.425549045  163.418433691    62.2335   5  11   0.6716   0.6556   2.5658  -0.3576   0.9570  -0.9597 885.00    0.0
2018/11/12 00:15:00.000  -74.425551196  163.418440555    63.1001   5  11   0.6723   0.6560   2.5728  -0.3590   0.9599  -0.9633 915.00    0.0
2018/11/12 00:15:30.000  -74.425551074  163.418437410    62.9847   5  11   0.6734   0.6568   2.5810  -0.3606   0.9633  -0.9673 945.00    0.0
2018/11/12 00:16:00.000  -74.425552549  163.418433306    62.6192   5  11   0.6747   0.6579   2.5897  -0.3624   0.9669  -0.9715 975.00    0.0
2018/11/12 00:16:30.000  -74.425553291  163.418436402    63.8869   5  11   0.6763   0.6593   2.5989  -0.3642   0.9707  -0.9759 1005.00    0.0
2018/11/12 00:17:00.000  -74.425550709  163.418424217    61.4594   5  11   0.6781   0.6610   2.6087  -0.3662   0.9747  -0.9804 1035.00    0.0
2018/11/12 00:17:30.000  -74.425552621  163.418430818    62.6512   5  11   0.6801   0.6629   2.6190  -0.3682   0.9788  -0.9851 1065.00    0.0
2018/11/12 00:18:00.000  -74.425552632  163.418436019    62.7653   5  11   0.6797   0.6615   2.6177  -0.3682   0.9778  -0.9859 1095.00    0.0
2018/11/12 00:18:30.000  -74.425552855  163.418424575    61.8268   5  11   0.6794   0.6604   2.6169  -0.3682   0.9770  -0.9868 1125.00    0.0
2018/11/12 00:19:00.000  -74.425551900  163.418438942    61.7495   5  11   0.6794   0.6595   2.6166  -0.3683   0.9763  -0.9879 1155.00    0.0
2018/11/12 00:19:30.000  -74.425549958  163.418438695    61.5590   5  11   0.6797   0.6589   2.6168  -0.3685   0.9759  -0.9891 1185.00    0.0
2018/11/12 00:20:00.000  -74.425549365  163.418450433    63.5184   5  11   0.6801   0.6586   2.6175  -0.3688   0.9756  -0.9905 1215.00    0.0
2018/11/12 00:20:30.000  -74.425549373  163.418435524    61.8013   5  11   0.6809   0.6587   2.6190  -0.3693   0.9756  -0.9922 1245.00    0.0
2018/11/12 00:21:00.000  -74.425549571  163.418435333    62.3453   5  11   0.6819   0.6590   2.6209  -0.3698   0.9759  -0.9939 1275.00    0.0
2018/11/12 00:21:30.000  -74.425550079  163.418428741    61.1184   5  11   0.6831   0.6595   2.6232  -0.3704   0.9762  -0.9958 1305.00    0.0
2018/11/12 00:22:00.000  -74.425552977  163.418435266    61.9517   5  11   0.6845   0.6603   2.6260  -0.3711   0.9766  -0.9978 1335.00    0.0
2018/11/12 00:22:30.000  -74.425550841  163.418429597    62.0108   5  11   0.6861   0.6613   2.6291  -0.3718   0.9771  -0.9998 1365.00    0.0
2018/11/12 00:23:00.000  -74.425550673  163.418428588    62.0310   5  11   0.6853   0.6592   2.6211  -0.3705   0.9728  -0.9982 1395.00    0.0
2018/11/12 00:23:30.000  -74.425551617  163.418432687    61.8834   5  11   0.6847   0.6573   2.6134  -0.3693   0.9687  -0.9967 1425.00    0.0
2018/11/12 00:24:00.000  -74.425552457  163.418426542    61.9539   5  11   0.6844   0.6557   2.6063  -0.3682   0.9647  -0.9953 1455.00    0.0
2018/11/12 00:24:30.000  -74.425555065  163.418433232    62.7915   5  11   0.6842   0.6543   2.5996  -0.3672   0.9608  -0.9940 1485.00    0.0
2018/11/12 00:25:00.000  -74.425554761  163.418428341    62.5233   5  11   0.6843   0.6532   2.5933  -0.3662   0.9571  -0.9928 1515.00    0.0
2018/11/12 00:25:30.000  -74.425553122  163.418433684    61.9185   5  11   0.6846   0.6524   2.5879  -0.3654   0.9537  -0.9918 1545.00    0.0
2018/11/12 00:26:00.000  -74.425552970  163.418423971    61.9581   5  11   0.6852   0.6519   2.5830  -0.3646   0.9504  -0.9910 1575.00    0.0
2018/11/12 00:26:30.000  -74.425550830  163.418427301    62.4913   5  11   0.6859   0.6517   2.5785  -0.3638   0.9472  -0.9903 1605.00    0.0
2018/11/12 00:27:00.000  -74.425554464  163.418428757    62.3284   5  11   0.6869   0.6517   2.5745  -0.3631   0.9442  -0.9897 1635.00    0.0
2018/11/12 00:27:30.000  -74.425552981  163.418431194    62.7769   5  11   0.6881   0.6519   2.5710  -0.3624   0.9412  -0.9891 1665.00    0.0
2018/11/12 00:28:00.000  -74.425550363  163.418430038    61.8875   5  11   0.6869   0.6491   2.5569  -0.3601   0.9339  -0.9852 1695.00    0.0
2018/11/12 00:28:30.000  -74.425553227  163.418432840    62.5460   5  11   0.6860   0.6467   2.5434  -0.3578   0.9268  -0.9814 1725.00    0.0
2018/11/12 00:29:00.000  -74.425553374  163.418442469    63.0612   5  11   0.6852   0.6444   2.5305  -0.3555   0.9199  -0.9778 1755.00    0.0
2018/11/12 00:29:30.000  -74.425551586  163.418434463    62.5934   5  11   0.6847   0.6425   2.5182  -0.3534   0.9132  -0.9743 1785.00    0.0
2018/11/12 00:30:00.000  -74.425546183  163.418430861    59.2060   5  10   0.9368   0.6738   3.5772  -0.5065   1.1633  -1.6048 1815.00    0.0
2018/11/12 00:30:30.000  -74.425548978  163.418434778    60.1883   5  10   0.9358   0.6718   3.5621  -0.5032   1.1548  -1.5997 1845.00    0.0
2018/11/12 00:31:00.000  -74.425546322  163.418425885    59.3196   5  10   0.9350   0.6700   3.5475  -0.5000   1.1462  -1.5947 1875.00    0.0
2018/11/12 00:31:30.000  -74.425546171  163.418428872    59.5381   5  10   0.9344   0.6685   3.5334  -0.4967   1.1377  -1.5899 1905.00    0.0
2018/11/12 00:32:00.000  -74.425549865  163.418429591    60.3449   5  10   0.9341   0.6672   3.5199  -0.4934   1.1293  -1.5852 1935.00    0.0
2018/11/12 00:32:30.000  -74.425549214  163.418433822    59.7163   5  10   0.9340   0.6661   3.5070  -0.4902   1.1209  -1.5808 1965.00    0.0
2018/11/12 00:33:00.000  -74.425548170  163.418437204    59.7520   5  10   0.9293   0.6619   3.4744  -0.4839   1.1061  -1.5677 1995.00    0.0
2018/11/12 00:33:30.000  -74.425550568  163.418433783    61.3073   5  10   0.9250   0.6580   3.4428  -0.4778   1.0915  -1.5549 2025.00    0.0
2018/11/12 00:34:00.000  -74.425546890  163.418431600    58.5600   5   9   0.9251   0.6545   3.6651  -0.4708   1.0709  -1.5801 2055.00    0.0
2018/11/12 00:34:30.000  -74.425555222  163.418440851    62.0499   5   9   0.9216   0.6512   3.6387  -0.4648   1.0567  -1.5691 2085.00    0.0
2018/11/12 00:35:00.000  -74.425549506  163.418429326    60.6467   5   9   0.9184   0.6482   3.6133  -0.4589   1.0427  -1.5586 2115.00    0.0
2018/11/12 00:35:30.000  -74.425549393  163.418438665    60.1305   5   9   0.9156   0.6456   3.5898  -0.4532   1.0291  -1.5488 2145.00    0.0
2018/11/12 00:36:00.000  -74.425551404  163.418438473    60.3978   5   9   0.9131   0.6434   3.5676  -0.4476   1.0156  -1.5395 2175.00    0.0
2018/11/12 00:36:30.000  -74.425554138  163.418437878    62.2675   5   9   0.9110   0.6414   3.5467  -0.4421   1.0023  -1.5307 2205.00    0.0
2018/11/12 00:37:00.000  -74.425553066  163.418441134    61.9622   5  10   0.7492   0.6362   2.6789  -0.3945   0.9071  -1.0655 2235.00    0.0
2018/11/12 00:37:30.000  -74.425552416  163.418438878    61.0626   5  10   0.7499   0.6355   2.6752  -0.3927   0.9012  -1.0638 2265.00    0.0
2018/11/12 00:38:00.000  -74.425553732  163.418435796    62.4407   5  10   0.7478   0.6319   2.6587  -0.3890   0.8911  -1.0579 2295.00    0.0
2018/11/12 00:38:30.000  -74.425551995  163.418440746    62.5995   5  10   0.7461   0.6287   2.6429  -0.3854   0.8812  -1.0523 2325.00    0.0
2018/11/12 00:39:00.000  -74.425551093  163.418428751    61.5898   5  10   0.7446   0.6258   2.6281  -0.3819   0.8716  -1.0469 2355.00    0.0
2018/11/12 00:39:30.000  -74.425552306  163.418442304    61.6155   5  10   0.7433   0.6232   2.6143  -0.3786   0.8622  -1.0418 2385.00    0.0
2018/11/12 00:40:00.000  -74.425552256  163.418440621    62.1417   5  10   0.7424   0.6208   2.6015  -0.3754   0.8530  -1.0370 2415.00    0.0
2018/11/12 00:40:30.000  -74.425551943  163.418442837    60.6693   5  10   0.7418   0.6189   2.5902  -0.3724   0.8442  -1.0326 2445.00    0.0
2018/11/12 00:41:00.000  -74.425549477  163.418450373    60.5584   5  10   0.7414   0.6173   2.5800  -0.3695   0.8356  -1.0285 2475.00    0.0
2018/11/12 00:41:30.000  -74.425550895  163.418435437    61.2300   5  10   0.7413   0.6159   2.5709  -0.3667   0.8273  -1.0248 2505.00    0.0
2018/11/12 00:42:00.000  -74.425550921  163.418428091    61.4205   5  10   0.7415   0.6148   2.5631  -0.3641   0.8193  -1.0214 2535.00    0.0
2018/11/12 00:42:30.000  -74.425550986  163.418426966    61.0754   5  10   0.7420   0.6141   2.5564  -0.3615   0.8114  -1.0183 2565.00    0.0
2018/11/12 00:43:00.000  -74.425550854  163.418438390    60.8499   5  10   0.7399   0.6107   2.5365  -0.3573   0.7997  -1.0111 2595.00    0.0
2018/11/12 00:43:30.000  -74.425553046  163.418434690    61.7166   5  10   0.7380   0.6076   2.5178  -0.3532   0.7883  -1.0043 2625.00    0.0
2018/11/12 00:44:00.000  -74.425552109  163.418430249    61.3985   5  10   0.7364   0.6049   2.5005  -0.3492   0.7771  -0.9978 2655.00    0.0
2018/11/12 00:44:30.000  -74.425552600  163.418440079    62.3745   5  10   0.7351   0.6024   2.4844  -0.3455   0.7663  -0.9918 2685.00    0.0
2018/11/12 00:45:00.000  -74.425554018  163.418437696    62.6666   5  10   0.7341   0.6003   2.4696  -0.3418   0.7558  -0.9861 2715.00    0.0
2018/11/12 00:45:30.000  -74.425552811  163.418434710    61.7573   5  10   0.7334   0.5986   2.4565  -0.3384   0.7457  -0.9809 2745.00    0.0
2018/11/12 00:46:00.000  -74.425553060  163.418434048    62.3667   5  10   0.7330   0.5972   2.4449  -0.3350   0.7358  -0.9761 2775.00    0.0
2018/11/12 00:46:30.000  -74.425553435  163.418436037    62.0221   5  10   0.7330   0.5960   2.4346  -0.3319   0.7262  -0.9717 2805.00    0.0
2018/11/12 00:47:00.000  -74.425552425  163.418431789    61.0480   5  10   0.7332   0.5952   2.4257  -0.3288   0.7169  -0.9677 2835.00    0.0
2018/11/12 00:47:30.000  -74.425556849  163.418444007    62.5154   5  10   0.7336   0.5947   2.4182  -0.3259   0.7078  -0.9641 2865.00    0.0
2018/11/12 00:48:00.000  -74.425555720  163.418444026    62.0201   5  10   0.7316   0.5918   2.3977  -0.3215   0.6953  -0.9566 2895.00    0.0
2018/11/12 00:48:30.000  -74.425555152  163.418445051    61.9331   5  10   0.7298   0.5891   2.3785  -0.3173   0.6832  -0.9495 2925.00    0.0
2018/11/12 00:49:00.000  -74.425553755  163.418436913    62.5783   5  10   0.7283   0.5868   2.3609  -0.3132   0.6714  -0.9429 2955.00    0.0
2018/11/12 00:49:30.000  -74.425552438  163.418439733    62.7140   5  10   0.7272   0.5848   2.3447  -0.3092   0.6599  -0.9367 2985.00    0.0
2018/11/12 00:50:00.000  -74.425554158  163.418441411    63.1945   5  10   0.7263   0.5831   2.3300  -0.3054   0.6487  -0.9310 3015.00    0.0
2018/11/12 00:50:30.000  -74.425551072  163.418434406    61.8717   5  10   0.7258   0.5818   2.3172  -0.3018   0.6378  -0.9257 3045.00    0.0
2018/11/12 00:51:00.000  -74.425551911  163.418442067    62.1682   5  10   0.7255   0.5808   2.3059  -0.2983   0.6272  -0.9209 3075.00    0.0
2018/11/12 00:51:30.000  -74.425556185  163.418440057    62.6414   5  10   0.7256   0.5801   2.2962  -0.2950   0.6167  -0.9166 3105.00    0.0
2018/11/12 00:52:00.000  -74.425553048  163.418433119    61.6036   5  10   0.7259   0.5797   2.2879  -0.2918   0.6065  -0.9126 3135.00    0.0
2018/11/12 00:52:30.000  -74.425554790  163.418438073    62.5990   5  10   0.7266   0.5796   2.2811  -0.2887   0.5964  -0.9091 3165.00    0.0
2018/11/12 00:53:00.000  -74.425552811  163.418442794    61.7407   5  10   0.7247   0.5772   2.2615  -0.2843   0.5836  -0.9020 3195.00    0.0
2018/11/12 00:53:30.000  -74.425554019  163.418443687    61.9575   5  10   0.7232   0.5751   2.2435  -0.2801   0.5711  -0.8953 3225.00    0.0
2018/11/12 00:54:00.000  -74.425553051  163.418438407    62.1070   5  10   0.7220   0.5733   2.2271  -0.2760   0.5589  -0.8891 3255.00    0.0
2018/11/12 00:54:30.000  -74.425555050  163.418444414    62.6256   5  10   0.7210   0.5718   2.2122  -0.2720   0.5468  -0.8833 3285.00    0.0
2018/11/12 00:55:00.000  -74.425554765  163.418442422    62.9046   5  10   0.7204   0.5707   2.1989  -0.2682   0.5350  -0.8780 3315.00    0.0
2018/11/12 00:55:30.000  -74.425552687  163.418437802    62.2448   5  10   0.7201   0.5699   2.1875  -0.2646   0.5233  -0.8732 3345.00    0.0
2018/11/12 00:56:00.000  -74.425553172  163.418432532    62.7595   5  10   0.7201   0.5694   2.1776  -0.2610   0.5118  -0.8688 3375.00    0.0
2018/11/12 00:56:30.000  -74.425551864  163.418445151    62.4713   5  10   0.7204   0.5692   2.1693  -0.2576   0.5003  -0.8649 3405.00    0.0
2018/11/12 00:57:00.000  -74.425553584  163.418437194    63.1454   5  10   0.7209   0.5693   2.1625  -0.2543   0.4889  -0.8614 3435.00    0.0
2018/11/12 00:57:30.000  -74.425554151  163.418448784    63.8678   5  11   0.6218   0.5522   1.8084  -0.1085   0.2519  -0.5528 3465.00    0.0
2018/11/12 00:58:00.000  -74.425553897  163.418442912    63.0848   5  11   0.6210   0.5510   1.7996  -0.1040   0.2378  -0.5508 3495.00    0.0
2018/11/12 00:58:30.000  -74.425555204  163.418441244    62.5477   5  11   0.6204   0.5500   1.7919  -0.0993   0.2229  -0.5489 3525.00    0.0
2018/11/12 00:59:00.000  -74.425556957  163.418446837    63.2473   5  11   0.6199   0.5493   1.7853  -0.0944   0.2071  -0.5471 3555.00    0.0
2018/11/12 00:59:30.000  -74.425554763  163.418446467    63.4499   5  11   0.6197   0.5488   1.7799  -0.0893   0.1899  -0.5455 3585.00    0.0
2018/11/12 01:00:00.000  -74.425554111  163.418444387    63.3595   5  11   0.6198   0.5487   1.7756  -0.0840   0.1710  -0.5440 3615.00    0.0
2018/11/12 01:00:30.000  -74.425555762  163.418443196    63.4775   5  11   0.6200   0.5488   1.7728  -0.0783   0.1496  -0.5427 3645.00    0.0
2018/11/12 01:01:00.000  -74.425554241  163.418447301    63.6166   5  11   0.6205   0.5492   1.7712  -0.0721   0.1242  -0.5416 3675.00    0.0
2018/11/12 01:01:30.000  -74.425555858  163.418442984    63.5338   5  12   0.6137   0.5271   1.7040  -0.1392  -0.2590  -0.5820 3705.00    0.0
2018/11/12 01:02:00.000  -74.425556227  163.418448045    63.9688   5  12   0.6143   0.5280   1.7068  -0.1370  -0.2706  -0.5814 3735.00    0.0
2018/11/12 01:02:30.000  -74.425558103  163.418443055    63.3277   5  12   0.6151   0.5292   1.7108  -0.1348  -0.2822  -0.5810 3765.00    0.0
2018/11/12 01:03:00.000  -74.425558003  163.418446258    64.0621   5  12   0.6142   0.5283   1.7054  -0.1320  -0.2903  -0.5793 3795.00    0.0
2018/11/12 01:03:30.000  -74.425556509  163.418440224    63.5255   5  12   0.6135   0.5276   1.7011  -0.1293  -0.2984  -0.5777 3825.00    0.0
2018/11/12 01:04:00.000  -74.425555377  163.418441212    63.0194   5  12   0.6130   0.5272   1.6979  -0.1266  -0.3065  -0.5763 3855.00    0.0
2018/11/12 01:04:30.000  -74.425556288  163.418446937    63.4582   5  12   0.6127   0.5271   1.6958  -0.1238  -0.3147  -0.5750 3885.00    0.0
2018/11/12 01:05:00.000  -74.425557453  163.418438638    63.2167   5  12   0.6126   0.5271   1.6947  -0.1211  -0.3231  -0.5740 3915.00    0.0
2018/11/12 01:05:30.000  -74.425557630  163.418440814    62.6794   5  12   0.6127   0.5275   1.6951  -0.1184  -0.3316  -0.5732 3945.00    0.0
2018/11/12 01:06:00.000  -74.425559794  163.418446582    63.4037   5  12   0.6130   0.5281   1.6966  -0.1158  -0.3402  -0.5725 3975.00    0.0
2018/11/12 01:06:30.000  -74.425556639  163.418450195    62.1990   5  12   0.6136   0.5290   1.6992  -0.1131  -0.3490  -0.5721 4005.00    0.0
2018/11/12 01:07:00.000  -74.425555782  163.418443125    62.6696   5  12   0.6143   0.5301   1.7030  -0.1104  -0.3578  -0.5718 4035.00    0.0
2018/11/12 01:07:30.000  -74.425558555  163.418440911    62.3231   5  12   0.6152   0.5315   1.7079  -0.1077  -0.3669  -0.5717 4065.00    0.0
2018/11/12 01:08:00.000  -74.425555465  163.418439254    62.6235   5  12   0.6144   0.5308   1.7033  -0.1044  -0.3728  -0.5702 4095.00    0.0
2018/11/12 01:08:30.000  -74.425556480  163.418446993    62.7105   5  12   0.6138   0.5304   1.6997  -0.1010  -0.3788  -0.5689 4125.00    0.0
2018/11/12 01:09:00.000  -74.425557441  163.418446583    62.2263   5  12   0.6134   0.5302   1.6972  -0.0975  -0.3851  -0.5678 4155.00    0.0
2018/11/12 01:09:30.000  -74.425557790  163.418449986    62.6288   5  12   0.6132   0.5303   1.6959  -0.0941  -0.3915  -0.5669 4185.00    0.0
2018/11/12 01:10:00.000  -74.425556985  163.418446451    62.4098   5  12   0.6132   0.5305   1.6957  -0.0906  -0.3982  -0.5662 4215.00    0.0
2018/11/12 01:10:30.000  -74.425558048  163.418450269    63.1817   5  12   0.6135   0.5311   1.6969  -0.0870  -0.4051  -0.5657 4245.00    0.0
2018/11/12 01:11:00.000  -74.425556491  163.418440709    62.4166   5  12   0.6139   0.5320   1.6993  -0.0833  -0.4122  -0.5654 4275.00    0.0
2018/11/12 01:11:30.000  -74.425558670  163.418444159    62.9904   5  12   0.6146   0.5331   1.7029  -0.0796  -0.4196  -0.5652 4305.00    0.0
2018/11/12 01:12:00.000  -74.425557625  163.418437098    62.3741   5  12   0.6154   0.5344   1.7075  -0.0757  -0.4272  -0.5653 4335.00    0.0
2018/11/12 01:12:30.000  -74.425558693  163.418437763    63.3395   5  12   0.6165   0.5359   1.7133  -0.0717  -0.4349  -0.5655 4365.00    0.0
2018/11/12 01:13:00.000  -74.425559776  163.418434051    63.3909   5  12   0.6158   0.5355   1.7094  -0.0667  -0.4396  -0.5644 4395.00    0.0
2018/11/12 01:13:30.000  -74.425560360  163.418437923    63.6927   5  12   0.6153   0.5352   1.7066  -0.0614  -0.4446  -0.5634 4425.00    0.0
2018/11/12 01:14:00.000  -74.425557955  163.418444857    62.8749   5  12   0.6150   0.5352   1.7050  -0.0557  -0.4498  -0.5627 4455.00    0.0
2018/11/12 01:14:30.000  -74.425557746  163.418447216    63.6282   5  12   0.6149   0.5355   1.7045  -0.0495  -0.4553  -0.5621 4485.00    0.0
2018/11/12 01:15:00.000  -74.425556339  163.418435805    63.6115   5  12   0.6150   0.5359   1.7051  -0.0424  -0.4610  -0.5617 4515.00    0.0
2018/11/12 01:15:30.000  -74.425557229  163.418433222    63.8147   5  12   0.6154   0.5367   1.7072  -0.0342  -0.4669  -0.5615 4545.00    0.0
2018/11/12 01:16:00.000  -74.425556781  163.418441251    63.4668   5  12   0.6159   0.5377   1.7103  -0.0233  -0.4732  -0.5615 4575.00    0.0
2018/11/12 01:16:30.000  -74.425557101  163.418439204    63.1632   5  12   0.6167   0.5390   1.7146   0.0086  -0.4797  -0.5617 4605.00    0.0
2018/11/12 01:17:00.000  -74.425558008  163.418435646    63.0572   5  12   0.6176   0.5405   1.7201   0.0261  -0.4864  -0.5621 4635.00    0.0
2018/11/12 01:17:30.000  -74.425557819  163.418444061    62.9653   5  12   0.6188   0.5422   1.7266   0.0358  -0.4933  -0.5627 4665.00    0.0
2018/11/12 01:18:00.000  -74.425557316  163.418449720    62.7681   5  12   0.6182   0.5419   1.7235   0.0444  -0.4973  -0.5619 4695.00    0.0
2018/11/12 01:18:30.000  -74.425557332  163.418448633    63.5746   5  12   0.6178   0.5418   1.7215   0.0514  -0.5016  -0.5613 4725.00    0.0
2018/11/12 01:19:00.000  -74.425558031  163.418444490    62.6690   5  12   0.6177   0.5420   1.7207   0.0575  -0.5061  -0.5609 4755.00    0.0
2018/11/12 01:19:30.000  -74.425558993  163.418433144    63.2388   5  12   0.6177   0.5424   1.7210   0.0629  -0.5108  -0.5607 4785.00    0.0
2018/11/12 01:20:00.000  -74.425559325  163.418440862    63.0414   5  12   0.6179   0.5430   1.7224   0.0679  -0.5158  -0.5607 4815.00    0.0
2018/11/12 01:20:30.000  -74.425559527  163.418443068    62.8106   5  12   0.6184   0.5439   1.7251   0.0725  -0.5211  -0.5609 4845.00    0.0
2018/11/12 01:21:00.000  -74.425559753  163.418434554    63.8421   5  12   0.6190   0.5451   1.7289   0.0767  -0.5267  -0.5612 4875.00    0.0
2018/11/12 01:21:30.000  -74.425559349  163.418439507    64.4232   5  12   0.6199   0.5465   1.7339   0.0807  -0.5325  -0.5617 4905.00    0.0
2018/11/12 01:22:00.000  -74.425559214  163.418446774    63.1341   5  12   0.6210   0.5481   1.7399   0.0845  -0.5386  -0.5625 4935.00    0.0
2018/11/12 01:22:30.000  -74.425560370  163.418436532    63.2413   5  12   0.6223   0.5499   1.7469   0.0880  -0.5449  -0.5633 4965.00    0.0
2018/11/12 01:23:00.000  -74.425557783  163.418449212    63.1420   5  12   0.6218   0.5497   1.7446   0.0918  -0.5483  -0.5629 4995.00    0.0
2018/11/12 01:23:30.000  -74.425557501  163.418443660    62.6827   5  12   0.6215   0.5498   1.7434   0.0954  -0.5520  -0.5627 5025.00    0.0
2018/11/12 01:24:00.000  -74.425558623  163.418445110    63.0568   5  12   0.6215   0.5501   1.7432   0.0988  -0.5559  -0.5627 5055.00    0.0
2018/11/12 01:24:30.000  -74.425559276  163.418441132    63.2987   5  12   0.6216   0.5506   1.7441   0.1021  -0.5601  -0.5629 5085.00    0.0
2018/11/12 01:25:00.000  -74.425560250  163.418444891    63.5262   5  12   0.6219   0.5513   1.7461   0.1053  -0.5645  -0.5632 5115.00    0.0
2018/11/12 01:25:30.000  -74.425559039  163.418446023    62.7309   5  12   0.6225   0.5523   1.7494   0.1083  -0.5692  -0.5637 5145.00    0.0
2018/11/12 01:26:00.000  -74.425559919  163.418442451    62.6194   5  12   0.6233   0.5536   1.7537   0.1113  -0.5742  -0.5644 5175.00    0.0
2018/11/12 01:26:30.000  -74.425559821  163.418447319    62.5490   5  12   0.6243   0.5550   1.7590   0.1141  -0.5794  -0.5653 5205.00    0.0
2018/11/12 01:27:00.000  -74.425560177  163.418446087    62.8824   5  12   0.6255   0.5567   1.7653   0.1168  -0.5849  -0.5663 5235.00    0.0
2018/11/12 01:27:30.000  -74.425561134  163.418457066    62.3873   5  12   0.6269   0.5586   1.7726   0.1195  -0.5905  -0.5674 5265.00    0.0
2018/11/12 01:28:00.000  -74.425560536  163.418452331    62.9179   5  12   0.6265   0.5585   1.7709   0.1224  -0.5934  -0.5674 5295.00    0.0
2018/11/12 01:28:30.000  -74.425560148  163.418444329    63.4094   5  12   0.6264   0.5586   1.7702   0.1251  -0.5966  -0.5676 5325.00    0.0
2018/11/12 01:29:00.000  -74.425560345  163.418442439    63.6062   5  12   0.6264   0.5590   1.7706   0.1278  -0.5999  -0.5680 5355.00    0.0
2018/11/12 01:29:30.000  -74.425558797  163.418441014    63.2080   5  12   0.6267   0.5595   1.7720   0.1304  -0.6036  -0.5685 5385.00    0.0
2018/11/12 01:30:00.000  -74.425559328  163.418444146    62.8720   5  12   0.6271   0.5603   1.7743   0.1329  -0.6074  -0.5692 5415.00    0.0
2018/11/12 01:30:30.000  -74.425558873  163.418448068    63.3600   5  12   0.6278   0.5613   1.7779   0.1354  -0.6115  -0.5700 5445.00    0.0
2018/11/12 01:31:00.000  -74.425558692  163.418449958    63.5944   5  12   0.6287   0.5626   1.7823   0.1377  -0.6159  -0.5710 5475.00    0.0
2018/11/12 01:31:30.000  -74.425560831  163.418444309    62.6279   5  11   0.6611   0.5678   1.8242   0.1808  -0.6011  -0.5044 5505.00    0.0
2018/11/12 01:32:00.000  -74.425560328  163.418449345    62.8517   5  11   0.6622   0.5694   1.8312   0.1823  -0.6059  -0.5051 5535.00    0.0
2018/11/12 01:32:30.000  -74.425560040  163.418440466    63.4717   5  11   0.6635   0.5713   1.8392   0.1837  -0.6108  -0.5060 5565.00    0.0
2018/11/12 01:33:00.000  -74.425558399  163.418449024    63.1921   5  11   0.6628   0.5711   1.8384   0.1850  -0.6133  -0.5066 5595.00    0.0
2018/11/12 01:33:30.000  -74.425560106  163.418444894    62.1142   5  10   0.6736   0.6300   2.0930   0.0469  -0.8033  -0.3674 5625.00    0.0
2018/11/12 01:34:00.000  -74.425561095  163.418450789    61.5602   5  10   0.6730   0.6307   2.0984   0.0554  -0.8077  -0.3695 5655.00    0.0
2018/11/12 01:34:30.000  -74.425559476  163.418456337    62.1274   5   9   0.7731   0.6845   2.6348   0.3232  -1.0383  -0.8612 5685.00    0.0
2018/11/12 01:35:00.000  -74.425556032  163.418456699    60.1563   5   9   0.7735   0.6875   2.6557   0.3277  -1.0492  -0.8682 5715.00    0.0
2018/11/12 01:35:30.000  -74.425558299  163.418454548    61.0117   5   9   0.7743   0.6910   2.6789   0.3323  -1.0609  -0.8756 5745.00    0.0
2018/11/12 01:36:00.000  -74.425559960  163.418457254    61.3746   5   9   0.7754   0.6948   2.7039   0.3371  -1.0733  -0.8835 5775.00    0.0
2018/11/12 01:36:30.000  -74.425565757  163.418454775    63.4250   5   9   0.7768   0.6990   2.7307   0.3419  -1.0863  -0.8918 5805.00    0.0
2018/11/12 01:37:00.000  -74.425560096  163.418461468    60.0656   5   9   0.7785   0.7036   2.7594   0.3469  -1.1001  -0.9005 5835.00    0.0
2018/11/12 01:37:30.000  -74.425558685  163.418454271    60.7091   5   9   0.7806   0.7085   2.7899   0.3520  -1.1144  -0.9095 5865.00    0.0
2018/11/12 01:38:00.000  -74.425558889  163.418458576    60.1661   5   9   0.7801   0.7101   2.8045   0.3560  -1.1222  -0.9159 5895.00    0.0
2018/11/12 01:38:30.000  -74.425559176  163.418462962    60.8162   5   9   0.7799   0.7121   2.8207   0.3600  -1.1306  -0.9226 5925.00    0.0
2018/11/12 01:39:00.000  -74.425560107  163.418460369    60.1550   5   9   0.7800   0.7143   2.8386   0.3641  -1.1395  -0.9296 5955.00    0.0
2018/11/12 01:39:30.000  -74.425558936  163.418459727    60.9574   5   9   0.7805   0.7169   2.8581   0.3683  -1.1491  -0.9369 5985.00    0.0
2018/11/12 01:40:00.000  -74.425557834  163.418457178    59.9861   5   9   0.7812   0.7198   2.8793   0.3726  -1.1591  -0.9446 6015.00    0.0
2018/11/12 01:40:30.000  -74.425557152  163.418457544    59.8926   5   9   0.7824   0.7232   2.9024   0.3770  -1.1699  -0.9528 6045.00    0.0
2018/11/12 01:41:00.000  -74.425562703  163.418456802    62.2693   5   9   0.7838   0.7268   2.9271   0.3815  -1.1813  -0.9612 6075.00    0.0
2018/11/12 01:41:30.000  -74.425557289  163.418461204    60.0243   5   9   0.7856   0.7307   2.9533   0.3861  -1.1931  -0.9700 6105.00    0.0
2018/11/12 01:42:00.000  -74.425556689  163.418457029    60.1251   5   9   0.7877   0.7350   2.9808   0.3907  -1.2054  -0.9790 6135.00    0.0
2018/11/12 01:42:30.000  -74.425555085  163.418461225    60.5509   5   9   0.7901   0.7395   3.0097   0.3955  -1.2182  -0.9884 6165.00    0.0
2018/11/12 01:43:00.000  -74.425555490  163.418455633    60.2758   5   9   0.7899   0.7406   3.0224   0.3989  -1.2241  -0.9947 6195.00    0.0
2018/11/12 01:43:30.000  -74.425558499  163.418456297    60.9802   5   9   0.7900   0.7419   3.0364   0.4023  -1.2305  -1.0013 6225.00    0.0
2018/11/12 01:44:00.000  -74.425559098  163.418446404    62.4870   5   9   0.7904   0.7435   3.0516   0.4058  -1.2372  -1.0082 6255.00    0.0
2018/11/12 01:44:30.000  -74.425556330  163.418455410    59.8990   5   9   0.7911   0.7453   3.0681   0.4094  -1.2444  -1.0152 6285.00    0.0
2018/11/12 01:45:00.000  -74.425557486  163.418459995    60.2466   5   9   0.7921   0.7474   3.0857   0.4130  -1.2519  -1.0225 6315.00    0.0
2018/11/12 01:45:30.000  -74.425556892  163.418470964    59.7688   5   9   0.7935   0.7498   3.1047   0.4166  -1.2599  -1.0301 6345.00    0.0
2018/11/12 01:46:00.000  -74.425556925  163.418472412    58.9861   5   9   0.7951   0.7525   3.1246   0.4203  -1.2681  -1.0378 6375.00    0.0
2018/11/12 01:46:30.000  -74.425560745  163.418457639    61.1648   5   8   0.9728   0.7735   4.0918   0.5221  -1.4371  -1.5978 6405.00    0.0
2018/11/12 01:47:00.000  -74.425566197  163.418463847    62.3427   5   9   0.7331   0.7335   2.9081   0.3361  -1.1623  -0.8396 6435.00    0.0
2018/11/12 01:47:30.000  -74.425561207  163.418461751    61.9748   5   9   0.7351   0.7368   2.9388   0.3415  -1.1739  -0.8501 6465.00    0.0
2018/11/12 01:48:00.000  -74.425564528  163.418451885    62.6447   5   9   0.7347   0.7370   2.9560   0.3463  -1.1799  -0.8594 6495.00    0.0
2018/11/12 01:48:30.000  -74.425563470  163.418450863    63.7590   5   9   0.7346   0.7373   2.9746   0.3510  -1.1862  -0.8688 6525.00    0.0
2018/11/12 01:49:00.000  -74.425565299  163.418453908    62.1198   5   9   0.7349   0.7380   2.9942   0.3557  -1.1928  -0.8784 6555.00    0.0
2018/11/12 01:49:30.000  -74.425560783  163.418450176    62.6765   5   9   0.7354   0.7389   3.0150   0.3604  -1.1998  -0.8881 6585.00    0.0
2018/11/12 01:50:00.000  -74.425564848  163.418447523    63.2994   5   9   0.7363   0.7400   3.0368   0.3651  -1.2071  -0.8979 6615.00    0.0
2018/11/12 01:50:30.000  -74.425563221  163.418450202    63.0432   5   9   0.7375   0.7415   3.0598   0.3698  -1.2148  -0.9079 6645.00    0.0
2018/11/12 01:51:00.000  -74.425562472  163.418453720    63.5117   5   9   0.7390   0.7432   3.0838   0.3745  -1.2227  -0.9181 6675.00    0.0
2018/11/12 01:51:30.000  -74.425562704  163.418452180    62.9858   5   9   0.7408   0.7452   3.1086   0.3793  -1.2309  -0.9284 6705.00    0.0
2018/11/12 01:52:00.000  -74.425564292  163.418440821    65.6257   5   9   0.7430   0.7474   3.1342   0.3840  -1.2394  -0.9389 6735.00    0.0
2018/11/12 01:52:30.000  -74.425565365  163.418437002    64.4764   5   9   0.7454   0.7499   3.1606   0.3888  -1.2480  -0.9495 6765.00    0.0
2018/11/12 01:53:00.000  -74.425565099  163.418441242    64.8867   5   9   0.7454   0.7489   3.1734   0.3925  -1.2507  -0.9581 6795.00    0.0
2018/11/12 01:53:30.000  -74.425565752  163.418435920    65.8170   5   9   0.7457   0.7482   3.1868   0.3962  -1.2536  -0.9668 6825.00    0.0
2018/11/12 01:54:00.000  -74.425567960  163.418431737    65.7561   5   9   0.7463   0.7477   3.2007   0.3998  -1.2567  -0.9755 6855.00    0.0
2018/11/12 01:54:30.000  -74.425564364  163.418443088    63.4256   5   9   0.7472   0.7474   3.2152   0.4034  -1.2598  -0.9842 6885.00    0.0
2018/11/12 01:55:00.000  -74.425561711  163.418446109    63.1339   5   9   0.7484   0.7473   3.2303   0.4070  -1.2631  -0.9929 6915.00    0.0
2018/11/12 01:55:30.000  -74.425560965  163.418452423    63.6138   5   9   0.7499   0.7475   3.2460   0.4106  -1.2665  -1.0017 6945.00    0.0
2018/11/12 01:56:00.000  -74.425563894  163.418441989    63.9367   5   9   0.7518   0.7479   3.2621   0.4141  -1.2700  -1.0104 6975.00    0.0
2018/11/12 01:56:30.000  -74.425563746  163.418451495    63.3173   5   9   0.7539   0.7485   3.2785   0.4177  -1.2736  -1.0192 7005.00    0.0
2018/11/12 01:57:00.000  -74.425568115  163.418439570    65.2198   5   9   0.7563   0.7492   3.2951   0.4212  -1.2772  -1.0280 7035.00    0.0
2018/11/12 01:57:30.000  -74.425565672  163.418441293    64.6631   5   9   0.7590   0.7502   3.3120   0.4247  -1.2809  -1.0369 7065.00    0.0
2018/11/12 01:58:00.000  -74.425561051  163.418443481    64.5311   5   9   0.7592   0.7477   3.3151   0.4269  -1.2785  -1.0430 7095.00    0.0
2018/11/12 01:58:30.000  -74.425563045  163.418449229    63.1838   5   9   0.7596   0.7455   3.3184   0.4289  -1.2761  -1.0491 7125.00    0.0
2018/11/12 01:59:00.000  -74.425566920  163.418432720    65.3767   5   9   0.7602   0.7434   3.3219   0.4310  -1.2737  -1.0551 7155.00    0.0
2018/11/12 01:59:30.000  -74.425564964  163.418439823    64.9634   5   9   0.7612   0.7415   3.3256   0.4329  -1.2714  -1.0610 7185.00    0.0
2018/11/12 02:00:00.000  -74.425568348  163.418432532    66.4361   5   9   0.7624   0.7398   3.3294   0.4349  -1.2690  -1.0668 7215.00    0.0
2018/11/12 02:00:30.000  -74.425569020  163.418431531    66.1811   5   9   0.7640   0.7384   3.3335   0.4368  -1.2668  -1.0726 7245.00    0.0
2018/11/12 02:01:00.000  -74.425566263  163.418429871    65.9343   5   9   0.7658   0.7372   3.3377   0.4387  -1.2645  -1.0784 7275.00    0.0
2018/11/12 02:01:30.000  -74.425569523  163.418431041    67.2301   5   9   0.7679   0.7361   3.3419   0.4406  -1.2623  -1.0840 7305.00    0.0
2018/11/12 02:02:00.000  -74.425565599  163.418433068    65.4090   5   9   0.7703   0.7354   3.3462   0.4425  -1.2601  -1.0897 7335.00    0.0
2018/11/12 02:02:30.000  -74.425567525  163.418428169    65.6994   5   9   0.7729   0.7348   3.3506   0.4444  -1.2579  -1.0953 7365.00    0.0
2018/11/12 02:03:00.000  -74.425569351  163.418433188    65.7369   5   9   0.7729   0.7309   3.3417   0.4447  -1.2498  -1.0977 7395.00    0.0
2018/11/12 02:03:30.000  -74.425567798  163.418438274    65.4826   5   9   0.7731   0.7271   3.3328   0.4449  -1.2417  -1.1000 7425.00    0.0
2018/11/12 02:04:00.000  -74.425566269  163.418445689    65.3858   5   9   0.7735   0.7236   3.3241   0.4451  -1.2336  -1.1022 7455.00    0.0
2018/11/12 02:04:30.000  -74.425570349  163.418433776    67.1156   5   9   0.7742   0.7204   3.3155   0.4453  -1.2256  -1.1043 7485.00    0.0
2018/11/12 02:05:00.000  -74.425569389  163.418433059    66.9051   5   9   0.7752   0.7174   3.3072   0.4455  -1.2178  -1.1064 7515.00    0.0
2018/11/12 02:05:30.000  -74.425567413  163.418428508    66.5523   5   9   0.7765   0.7148   3.2994   0.4458  -1.2102  -1.1085 7545.00    0.0
2018/11/12 02:06:00.000  -74.425570188  163.418441752    65.9529   5   9   0.7781   0.7125   3.2918   0.4461  -1.2027  -1.1106 7575.00    0.0
2018/11/12 02:06:30.000  -74.425573168  163.418428999    67.7355   5   9   0.7800   0.7104   3.2845   0.4464  -1.1954  -1.1128 7605.00    0.0
2018/11/12 02:07:00.000  -74.425569170  163.418436139    65.9013   5   9   0.7821   0.7087   3.2775   0.4469  -1.1883  -1.1150 7635.00    0.0
2018/11/12 02:07:30.000  -74.425568861  163.418444699    65.0912   5   9   0.7846   0.7072   3.2710   0.4474  -1.1814  -1.1173 7665.00    0.0
2018/11/12 02:08:00.000  -74.425570947  163.418443499    66.1238   5   9   0.7842   0.7025   3.2517   0.4460  -1.1687  -1.1159 7695.00    0.0
2018/11/12 02:08:30.000  -74.425570564  163.418437615    65.7754   5   9   0.7840   0.6980   3.2328   0.4447  -1.1562  -1.1146 7725.00    0.0
2018/11/12 02:09:00.000  -74.425567009  163.418433679    66.6416   5   9   0.7840   0.6939   3.2145   0.4435  -1.1440  -1.1133 7755.00    0.0
2018/11/12 02:09:30.000  -74.425566194  163.418439849    65.9114   5   9   0.7844   0.6902   3.1968   0.4423  -1.1322  -1.1121 7785.00    0.0
2018/11/12 02:10:00.000  -74.425567354  163.418436442    66.4580   5   9   0.7851   0.6868   3.1797   0.4413  -1.1206  -1.1111 7815.00    0.0
2018/11/12 02:10:30.000  -74.425567548  163.418432743    65.8134   5   9   0.7861   0.6838   3.1636   0.4404  -1.1096  -1.1102 7845.00    0.0
2018/11/12 02:11:00.000  -74.425568718  163.418433062    66.1051   5   9   0.7875   0.6812   3.1482   0.4396  -1.0989  -1.1095 7875.00    0.0
2018/11/12 02:11:30.000  -74.425566768  163.418432583    65.5765   5   9   0.7891   0.6790   3.1335   0.4390  -1.0886  -1.1091 7905.00    0.0
2018/11/12 02:12:00.000  -74.425568096  163.418435405    65.2417   5   9   0.7911   0.6771   3.1196   0.4385  -1.0787  -1.1088 7935.00    0.0
2018/11/12 02:12:30.000  -74.425570166  163.418442964    64.5134   5   9   0.7934   0.6757   3.1066   0.4383  -1.0693  -1.1088 7965.00    0.0
2018/11/12 02:13:00.000  -74.425570197  163.418428679    66.1177   5   9   0.7926   0.6710   3.0816   0.4359  -1.0543  -1.1049 7995.00    0.0
2018/11/12 02:13:30.000  -74.425567913  163.418432936    65.1421   5   9   0.7922   0.6667   3.0575   0.4338  -1.0397  -1.1012 8025.00    0.0
2018/11/12 02:14:00.000  -74.425567001  163.418431284    65.8053   5   9   0.7920   0.6629   3.0345   0.4318  -1.0257  -1.0978 8055.00    0.0
2018/11/12 02:14:30.000  -74.425567028  163.418438628    65.4181   5   9   0.7922   0.6594   3.0124   0.4300  -1.0122  -1.0946 8085.00    0.0
2018/11/12 02:15:00.000  -74.425564600  163.418445730    64.3393   5   9   0.7927   0.6564   2.9915   0.4284  -0.9992  -1.0918 8115.00    0.0
2018/11/12 02:15:30.000  -74.425569086  163.418441941    65.3822   5   9   0.7936   0.6539   2.9719   0.4270  -0.9869  -1.0893 8145.00    0.0
2018/11/12 02:16:00.000  -74.425565813  163.418435840    65.0024   5   9   0.7948   0.6517   2.9534   0.4258  -0.9751  -1.0872 8175.00    0.0
2018/11/12 02:16:30.000  -74.425568353  163.418438962    65.0611   5   9   0.7964   0.6500   2.9361   0.4249  -0.9639  -1.0854 8205.00    0.0
2018/11/12 02:17:00.000  -74.425567780  163.418433112    65.1312   5   9   0.7984   0.6487   2.9199   0.4242  -0.9533  -1.0840 8235.00    0.0
2018/11/12 02:17:30.000  -74.425567316  163.418443038    64.4187   5   9   0.8007   0.6479   2.9048   0.4237  -0.9432  -1.0830 8265.00    0.0
2018/11/12 02:18:00.000  -74.425566082  163.418438463    65.7385   5   8   0.8345   0.6540   3.4520   0.3875  -0.8021  -1.2710 8295.00    0.0
2018/11/12 02:18:30.000  -74.425565152  163.418439465    64.5783   5   8   0.8346   0.6508   3.4313   0.3841  -0.7831  -1.2688 8325.00    0.0
2018/11/12 02:19:00.000  -74.425567771  163.418435577    66.1914   5   8   0.8351   0.6480   3.4117   0.3809  -0.7644  -1.2670 8355.00    0.0
2018/11/12 02:19:30.000  -74.425570960  163.418435434    66.5722   5   8   0.8359   0.6457   3.3932   0.3778  -0.7460  -1.2655 8385.00    0.0
2018/11/12 02:20:00.000  -74.425570002  163.418440197    66.4704   5   8   0.8371   0.6439   3.3758   0.3750  -0.7281  -1.2644 8415.00    0.0
2018/11/12 02:20:30.000  -74.425570159  163.418442181    66.1951   5   8   0.8387   0.6426   3.3600   0.3724  -0.7107  -1.2639 8445.00    0.0
2018/11/12 02:21:00.000  -74.425566969  163.418435985    65.7276   5   8   0.8408   0.6418   3.3455   0.3701  -0.6936  -1.2638 8475.00    0.0
2018/11/12 02:21:30.000  -74.425568585  163.418438059    65.7538   5   8   0.8432   0.6414   3.3323   0.3679  -0.6769  -1.2642 8505.00    0.0
2018/11/12 02:22:00.000  -74.425567766  163.418436300    65.9574   5   8   0.8460   0.6414   3.3203   0.3660  -0.6606  -1.2650 8535.00    0.0
2018/11/12 02:22:30.000  -74.425570097  163.418444050    66.4866   5   8   0.8492   0.6418   3.3097   0.3643  -0.6447  -1.2664 8565.00    0.0
2018/11/12 02:23:00.000  -74.425565807  163.418446781    65.6369   5   8   0.8488   0.6393   3.2854   0.3606  -0.6237  -1.2624 8595.00    0.0
2018/11/12 02:23:30.000  -74.425568059  163.418439269    65.5221   5   8   0.8487   0.6372   3.2622   0.3572  -0.6031  -1.2587 8625.00    0.0
2018/11/12 02:24:00.000  -74.425567349  163.418425285    65.7424   5   8   0.8490   0.6355   3.2405   0.3539  -0.5829  -1.2556 8655.00    0.0
2018/11/12 02:24:30.000  -74.425566317  163.418431412    64.6497   5   9   0.8457   0.6341   2.9687   0.3492  -0.5796  -1.2934 8685.00    0.0
2018/11/12 02:25:00.000  -74.425566964  163.418438293    64.4789   5   9   0.8464   0.6332   2.9598   0.3458  -0.5647  -1.2926 8715.00    0.0
2018/11/12 02:25:30.000  -74.425567117  163.418438504    64.2459   5   9   0.8475   0.6327   2.9524   0.3427  -0.5502  -1.2926 8745.00    0.0
2018/11/12 02:26:00.000  -74.425565772  163.418437278    64.8133   5   9   0.8490   0.6327   2.9461   0.3397  -0.5359  -1.2931 8775.00    0.0
2018/11/12 02:26:30.000  -74.425569531  163.418437164    65.2625   5   9   0.8509   0.6330   2.9410   0.3370  -0.5219  -1.2941 8805.00    0.0
2018/11/12 02:27:00.000  -74.425569299  163.418436123    65.2257   5   9   0.8531   0.6338   2.9371   0.3344  -0.5081  -1.2957 8835.00    0.0
2018/11/12 02:27:30.000  -74.425565904  163.418442719    64.5703   5   8   0.8605   0.6650   3.1878   0.3577   0.0449  -1.2541 8865.00    0.0
2018/11/12 02:28:00.000  -74.425568176  163.418440960    65.5905   5   8   0.8589   0.6637   3.1755   0.3528   0.1509  -1.2517 8895.00    0.0
2018/11/12 02:28:30.000  -74.425570731  163.418447698    66.9420   5   8   0.8578   0.6629   3.1644   0.3481   0.2072  -1.2498 8925.00    0.0
2018/11/12 02:29:00.000  -74.425564786  163.418444967    64.2050   5   8   0.8571   0.6624   3.1545   0.3437   0.2501  -1.2485 8955.00    0.0
2018/11/12 02:29:30.000  -74.425567094  163.418440785    66.0513   5   8   0.8568   0.6624   3.1458   0.3395   0.2858  -1.2476 8985.00    0.0
2018/11/12 02:30:00.000  -74.425565284  163.418441724    64.8893   5   8   0.8569   0.6628   3.1384   0.3354   0.3168  -1.2473 9015.00    0.0
2018/11/12 02:30:30.000  -74.425567677  163.418432379    65.2177   5   8   0.8576   0.6637   3.1328   0.3316   0.3446  -1.2478 9045.00    0.0
2018/11/12 02:31:00.000  -74.425566907  163.418434135    65.6244   5   8   0.8586   0.6651   3.1285   0.3280   0.3700  -1.2488 9075.00    0.0
2018/11/12 02:31:30.000  -74.425564904  163.418439199    65.0354   5   8   0.8601   0.6668   3.1257   0.3246   0.3935  -1.2503 9105.00    0.0
2018/11/12 02:32:00.000  -74.425564607  163.418448478    64.6878   5   8   0.8620   0.6690   3.1243   0.3214   0.4155  -1.2525 9135.00    0.0
2018/11/12 02:32:30.000  -74.425571282  163.418439256    67.7047   5   9   0.8175   0.6578   2.6255   0.2519   0.6472  -1.0493 9165.00    0.0
2018/11/12 02:33:00.000  -74.425568724  163.418440753    67.2099   5   9   0.8169   0.6576   2.6230   0.2477   0.6549  -1.0509 9195.00    0.0
2018/11/12 02:33:30.000  -74.425570254  163.418430804    67.0969   5   9   0.8167   0.6577   2.6213   0.2436   0.6627  -1.0529 9225.00    0.0
2018/11/12 02:34:00.000  -74.425569911  163.418433133    66.8986   5   9   0.8169   0.6582   2.6206   0.2396   0.6705  -1.0553 9255.00    0.0
2018/11/12 02:34:30.000  -74.425570308  163.418444184    67.4919   5   9   0.8174   0.6590   2.6209   0.2356   0.6784  -1.0581 9285.00    0.0
2018/11/12 02:35:00.000  -74.425568598  163.418433143    65.6795   5   9   0.8184   0.6602   2.6222   0.2317   0.6864  -1.0613 9315.00    0.0
2018/11/12 02:35:30.000  -74.425567258  163.418442640    65.6654   5   9   0.8198   0.6618   2.6250   0.2279   0.6948  -1.0651 9345.00    0.0
2018/11/12 02:36:00.000  -74.425570340  163.418437148    67.6023   5   9   0.8216   0.6638   2.6290   0.2241   0.7033  -1.0694 9375.00    0.0
2018/11/12 02:36:30.000  -74.425569492  163.418435261    66.7334   5   9   0.8237   0.6662   2.6341   0.2203   0.7121  -1.0741 9405.00    0.0
2018/11/12 02:37:00.000  -74.425572116  163.418438427    67.3111   5   9   0.8263   0.6689   2.6404   0.2165   0.7211  -1.0793 9435.00    0.0
2018/11/12 02:37:30.000  -74.425571567  163.418432924    66.5931   5   9   0.8293   0.6720   2.6479   0.2127   0.7303  -1.0850 9465.00    0.0
2018/11/12 02:38:00.000  -74.425571262  163.418430738    66.3291   5   9   0.8288   0.6719   2.6429   0.2083   0.7353  -1.0859 9495.00    0.0
2018/11/12 02:38:30.000  -74.425572087  163.418439777    66.5405   5   9   0.8287   0.6721   2.6389   0.2039   0.7405  -1.0873 9525.00    0.0
2018/11/12 02:39:00.000  -74.425569683  163.418446612    67.3661   5   9   0.8290   0.6727   2.6360   0.1997   0.7458  -1.0891 9555.00    0.0
2018/11/12 02:39:30.000  -74.425567535  163.418434877    65.8902   5   9   0.8297   0.6736   2.6342   0.1954   0.7513  -1.0913 9585.00    0.0
2018/11/12 02:40:00.000  -74.425571045  163.418442967    66.7056   5   9   0.8307   0.6749   2.6336   0.1912   0.7571  -1.0940 9615.00    0.0
2018/11/12 02:40:30.000  -74.425569675  163.418441962    66.8566   5   9   0.8323   0.6766   2.6346   0.1869   0.7633  -1.0973 9645.00    0.0
2018/11/12 02:41:00.000  -74.425570477  163.418443906    67.0785   5   9   0.8342   0.6787   2.6369   0.1826   0.7697  -1.1011 9675.00    0.0
2018/11/12 02:41:30.000  -74.425572293  163.418447930    67.6765   5   9   0.8365   0.6812   2.6404   0.1783   0.7765  -1.1054 9705.00    0.0
2018/11/12 02:42:00.000  -74.425570508  163.418442209    66.8953   5   9   0.8392   0.6840   2.6452   0.1738   0.7837  -1.1102 9735.00    0.0
2018/11/12 02:42:30.000  -74.425568507  163.418443426    67.4199   5   9   0.8423   0.6872   2.6512   0.1692   0.7912  -1.1154 9765.00    0.0
2018/11/12 02:43:00.000  -74.425568480  163.418445305    66.7249   5   9   0.8419   0.6870   2.6437   0.1648   0.7936  -1.1156 9795.00    0.0
2018/11/12 02:43:30.000  -74.425568529  163.418441717    66.4157   5   9   0.8419   0.6872   2.6374   0.1605   0.7963  -1.1162 9825.00    0.0
2018/11/12 02:44:00.000  -74.425571196  163.418439985    67.2843   5   9   0.8422   0.6877   2.6322   0.1563   0.7993  -1.1173 9855.00    0.0
2018/11/12 02:44:30.000  -74.425569038  163.418441666    66.6105   5   9   0.8430   0.6885   2.6283   0.1519   0.8025  -1.1188 9885.00    0.0
2018/11/12 02:45:00.000  -74.425570307  163.418440496    66.7697   5   9   0.8441   0.6897   2.6256   0.1476   0.8061  -1.1208 9915.00    0.0
2018/11/12 02:45:30.000  -74.425572450  163.418439058    67.6559   5   9   0.8457   0.6914   2.6247   0.1430   0.8102  -1.1235 9945.00    0.0
2018/11/12 02:46:00.000  -74.425574305  163.418445663    67.9895   5   9   0.8476   0.6934   2.6251   0.1384   0.8147  -1.1267 9975.00    0.0
2018/11/12 02:46:30.000  -74.425571429  163.418437057    66.7527   5   9   0.8500   0.6958   2.6268   0.1335   0.8196  -1.1304 10005.00    0.0
2018/11/12 02:47:00.000  -74.425571126  163.418428657    66.6936   5   9   0.8528   0.6985   2.6298   0.1284   0.8249  -1.1346 10035.00    0.0
2018/11/12 02:47:30.000  -74.425570908  163.418432823    66.4904   5   9   0.8559   0.7016   2.6341   0.1231   0.8307  -1.1393 10065.00    0.0
2018/11/12 02:48:00.000  -74.425574149  163.418435482    67.6216   5   9   0.8554   0.7012   2.6242   0.1194   0.8307  -1.1385 10095.00    0.0
2018/11/12 02:48:30.000  -74.425570057  163.418447328    67.0626   5   9   0.8554   0.7011   2.6157   0.1156   0.8311  -1.1384 10125.00    0.0
2018/11/12 02:49:00.000  -74.425570339  163.418426402    66.4284   5   9   0.8558   0.7014   2.6084   0.1118   0.8318  -1.1387 10155.00    0.0
2018/11/12 02:49:30.000  -74.425569398  163.418443756    66.2266   5   9   0.8565   0.7020   2.6025   0.1078   0.8329  -1.1395 10185.00    0.0
2018/11/12 02:50:00.000  -74.425570194  163.418429830    66.5955   5   9   0.8577   0.7030   2.5979   0.1037   0.8344  -1.1408 10215.00    0.0
2018/11/12 02:50:30.000  -74.425571438  163.418435886    66.6487   5   9   0.8592   0.7044   2.5950   0.0994   0.8366  -1.1427 10245.00    0.0
2018/11/12 02:51:00.000  -74.425574080  163.418429037    67.2493   5  10   0.8467   0.5834   2.1510   0.2676   0.3570  -1.0408 10275.00    0.0
2018/11/12 02:51:30.000  -74.425569862  163.418431713    66.2892   5  10   0.8491   0.5841   2.1529   0.2667   0.3604  -1.0443 10305.00    0.0
2018/11/12 02:52:00.000  -74.425568155  163.418426468    65.6669   5  10   0.8518   0.5852   2.1558   0.2659   0.3639  -1.0482 10335.00    0.0
2018/11/12 02:52:30.000  -74.425569569  163.418426424    66.1861   5  10   0.8549   0.5864   2.1597   0.2651   0.3675  -1.0525 10365.00    0.0
2018/11/12 02:53:00.000  -74.425572821  163.418431955    67.2118   5  10   0.8547   0.5855   2.1540   0.2637   0.3691  -1.0527 10395.00    0.0
2018/11/12 02:53:30.000  -74.425572949  163.418431260    66.1320   5  10   0.8549   0.5847   2.1493   0.2623   0.3708  -1.0533 10425.00    0.0
2018/11/12 02:54:00.000  -74.425574327  163.418430761    67.3287   5  10   0.8554   0.5842   2.1456   0.2611   0.3726  -1.0543 10455.00    0.0
2018/11/12 02:54:30.000  -74.425572064  163.418424187    66.0262   5  10   0.8563   0.5840   2.1430   0.2600   0.3743  -1.0557 10485.00    0.0
2018/11/12 02:55:00.000  -74.425574055  163.418426670    66.7166   5  10   0.8575   0.5840   2.1413   0.2589   0.3762  -1.0576 10515.00    0.0
2018/11/12 02:55:30.000  -74.425572274  163.418435096    65.7183   5  10   0.8592   0.5843   2.1410   0.2580   0.3782  -1.0600 10545.00    0.0
2018/11/12 02:56:00.000  -74.425573779  163.418424119    66.3606   5  10   0.8612   0.5848   2.1416   0.2572   0.3804  -1.0628 10575.00    0.0
2018/11/12 02:56:30.000  -74.425575516  163.418423388    67.0205   5  10   0.8636   0.5857   2.1433   0.2564   0.3828  -1.0660 10605.00    0.0
2018/11/12 02:57:00.000  -74.425574780  163.418425870    67.2480   5  10   0.8664   0.5867   2.1459   0.2557   0.3853  -1.0696 10635.00    0.0
2018/11/12 02:57:30.000  -74.425573279  163.418437306    66.1696   5  10   0.8694   0.5880   2.1496   0.2550   0.3881  -1.0736 10665.00    0.0
2018/11/12 02:58:00.000  -74.425572709  163.418420781    66.2293   5  10   0.8693   0.5871   2.1438   0.2540   0.3882  -1.0737 10695.00    0.0
2018/11/12 02:58:30.000  -74.425575833  163.418429918    66.6010   5  10   0.8695   0.5863   2.1389   0.2530   0.3885  -1.0740 10725.00    0.0
2018/11/12 02:59:00.000  -74.425574176  163.418424051    66.5124   5  10   0.8701   0.5859   2.1349   0.2521   0.3888  -1.0748 10755.00    0.0
2018/11/12 02:59:30.000  -74.425573211  163.418436329    66.4146   5  10   0.8710   0.5856   2.1320   0.2513   0.3894  -1.0760 10785.00    0.0
2018/11/12 03:00:00.000  -74.425573555  163.418432524    66.4525   5  10   0.8722   0.5856   2.1301   0.2505   0.3901  -1.0776 10815.00    0.0
2018/11/12 03:00:30.000  -74.425570028  163.418436134    66.9148   5  10   0.8739   0.5860   2.1295   0.2498   0.3911  -1.0797 10845.00    0.0
2018/11/12 03:01:00.000  -74.425572868  163.418434186    66.7419   5  10   0.8759   0.5866   2.1299   0.2492   0.3924  -1.0823 10875.00    0.0
2018/11/12 03:01:30.000  -74.425572988  163.418433799    66.1980   5  10   0.8783   0.5874   2.1313   0.2486   0.3939  -1.0851 10905.00    0.0
2018/11/12 03:02:00.000  -74.425574416  163.418429751    66.9858   5  10   0.8809   0.5885   2.1337   0.2480   0.3957  -1.0884 10935.00    0.0
2018/11/12 03:02:30.000  -74.425570833  163.418428504    66.2524   5  10   0.8840   0.5898   2.1369   0.2475   0.3977  -1.0920 10965.00    0.0
2018/11/12 03:03:00.000  -74.425573567  163.418431158    66.6653   5  10   0.8838   0.5888   2.1309   0.2469   0.3965  -1.0918 10995.00    0.0
2018/11/12 03:03:30.000  -74.425573870  163.418429162    66.9855   5  10   0.8840   0.5881   2.1257   0.2463   0.3955  -1.0919 11025.00    0.0
2018/11/12 03:04:00.000  -74.425572103  163.418426299    66.6821   5  10   0.8845   0.5876   2.1216   0.2457   0.3948  -1.0924 11055.00    0.0
2018/11/12 03:04:30.000  -74.425569289  163.418436939    65.5155   5  11   0.8402   0.5714   1.9422   0.1488   0.5202  -0.9793 11085.00    0.0
2018/11/12 03:05:00.000  -74.425571255  163.418434473    65.5561   5  11   0.8417   0.5712   1.9423   0.1475   0.5200  -0.9818 11115.00    0.0
2018/11/12 03:05:30.000  -74.425570810  163.418433457    65.1899   5  11   0.8436   0.5713   1.9435   0.1461   0.5203  -0.9847 11145.00    0.0
2018/11/12 03:06:00.000  -74.425569916  163.418433060    66.0723   5  11   0.8458   0.5716   1.9456   0.1447   0.5209  -0.9880 11175.00    0.0
2018/11/12 03:06:30.000  -74.425569961  163.418440819    65.8025   5  11   0.8483   0.5722   1.9486   0.1432   0.5218  -0.9916 11205.00    0.0
2018/11/12 03:07:00.000  -74.425569140  163.418435575    65.3283   5  12   0.8258   0.5702   1.9411   0.0917   0.5116  -1.0170 11235.00    0.0
2018/11/12 03:07:30.000  -74.425565666  163.418437353    65.1066   5  12   0.8282   0.5713   1.9465   0.0879   0.5135  -1.0208 11265.00    0.0
2018/11/12 03:08:00.000  -74.425569049  163.418435839    65.6667   5  12   0.8280   0.5700   1.9435   0.0868   0.5118  -1.0213 11295.00    0.0
2018/11/12 03:08:30.000  -74.425568487  163.418435601    65.3498   5  12   0.8280   0.5691   1.9414   0.0855   0.5103  -1.0220 11325.00    0.0
2018/11/12 03:09:00.000  -74.425568834  163.418438741    66.0325   5  12   0.8284   0.5683   1.9401   0.0840   0.5092  -1.0231 11355.00    0.0
2018/11/12 03:09:30.000  -74.425568490  163.418433744    66.1067   5  12   0.8290   0.5678   1.9397   0.0823   0.5083  -1.0245 11385.00    0.0
2018/11/12 03:10:00.000  -74.425567899  163.418431326    65.3457   5  12   0.8299   0.5676   1.9402   0.0804   0.5078  -1.0262 11415.00    0.0
2018/11/12 03:10:30.000  -74.425568634  163.418434752    65.0857   5  12   0.8311   0.5676   1.9417   0.0782   0.5078  -1.0283 11445.00    0.0
2018/11/12 03:11:00.000  -74.425568623  163.418433091    65.6339   5  12   0.8326   0.5679   1.9441   0.0756   0.5081  -1.0307 11475.00    0.0
2018/11/12 03:11:30.000  -74.425566747  163.418440925    65.1098   5  12   0.8344   0.5684   1.9473   0.0726   0.5087  -1.0334 11505.00    0.0
2018/11/12 03:12:00.000  -74.425565699  163.418433438    65.0511   5  12   0.8364   0.5692   1.9514   0.0693   0.5097  -1.0364 11535.00    0.0
2018/11/12 03:12:30.000  -74.425567330  163.418428900    64.9624   5  12   0.8387   0.5703   1.9562   0.0654   0.5111  -1.0397 11565.00    0.0
2018/11/12 03:13:00.000  -74.425567136  163.418431554    65.4229   5  12   0.8384   0.5690   1.9528   0.0657   0.5085  -1.0397 11595.00    0.0
2018/11/12 03:13:30.000  -74.425566800  163.418431207    64.8983   5  12   0.8383   0.5679   1.9503   0.0658   0.5063  -1.0401 11625.00    0.0
2018/11/12 03:14:00.000  -74.425567656  163.418433374    64.8580   5  12   0.8385   0.5672   1.9485   0.0656   0.5044  -1.0407 11655.00    0.0
2018/11/12 03:14:30.000  -74.425566255  163.418438180    64.8564   5  12   0.8390   0.5666   1.9476   0.0651   0.5028  -1.0416 11685.00    0.0
2018/11/12 03:15:00.000  -74.425570018  163.418434214    65.5554   5  12   0.8397   0.5663   1.9476   0.0643   0.5016  -1.0428 11715.00    0.0
2018/11/12 03:15:30.000  -74.425568979  163.418428551    66.3057   5  12   0.8408   0.5663   1.9486   0.0630   0.5009  -1.0444 11745.00    0.0
2018/11/12 03:16:00.000  -74.425570874  163.418435538    66.0511   5  12   0.8421   0.5666   1.9504   0.0613   0.5006  -1.0463 11775.00    0.0
2018/11/12 03:16:30.000  -74.425566931  163.418432975    65.0778   5  12   0.8436   0.5671   1.9530   0.0592   0.5006  -1.0485 11805.00    0.0
2018/11/12 03:17:00.000  -74.425571307  163.418441181    65.9971   5  12   0.8455   0.5679   1.9564   0.0566   0.5011  -1.0509 11835.00    0.0
2018/11/12 03:17:30.000  -74.425568498  163.418423282    66.1861   5  11   0.8542   0.5702   1.9789  -0.0350   0.4915  -1.0399 11865.00    0.0
2018/11/12 03:18:00.000  -74.425565669  163.418429758    65.1835   5  11   0.8533   0.5688   1.9760  -0.0279   0.4880  -1.0396 11895.00    0.0
2018/11/12 03:18:30.000  -74.425568753  163.418428891    65.9068   5  11   0.8527   0.5677   1.9739  -0.0196   0.4849  -1.0396 11925.00    0.0
2018/11/12 03:19:00.000  -74.425567631  163.418440443    65.6254   5  11   0.8524   0.5669   1.9727  -0.0065   0.4821  -1.0399 11955.00    0.0
2018/11/12 03:19:30.000  -74.425565389  163.418437215    65.5203   5  11   0.8524   0.5663   1.9723   0.0156   0.4797  -1.0404 11985.00    0.0
2018/11/12 03:20:00.000  -74.425568235  163.418432016    66.2610   5  11   0.8526   0.5659   1.9727   0.0218   0.4778  -1.0413 12015.00    0.0
2018/11/12 03:20:30.000  -74.425564535  163.418431389    65.6121   5  11   0.8532   0.5659   1.9742   0.0252   0.4763  -1.0424 12045.00    0.0
2018/11/12 03:21:00.000  -74.425566627  163.418437223    66.0391   5   9   1.2480   0.6009   3.0245   0.4007  -0.4631  -1.7686 12075.00    0.0
2018/11/12 03:21:30.000  -74.425565969  163.418434508    64.6652   5   9   1.2551   0.6014   3.0498   0.4033  -0.4705  -1.7831 12105.00    0.0
2018/11/12 03:22:00.000  -74.425562819  163.418431779    64.5096   5  10   0.7562   0.5951   1.8630   0.2690  -0.0673  -0.8706 12135.00    0.0
2018/11/12 03:22:30.000  -74.425563257  163.418438546    65.0883   5  10   0.7566   0.5959   1.8717   0.2689  -0.0739  -0.8730 12165.00    0.0
2018/11/12 03:23:00.000  -74.425562406  163.418438823    63.9070   5  10   0.7551   0.5943   1.8735   0.2685  -0.0896  -0.8740 12195.00    0.0
2018/11/12 03:23:30.000  -74.425559700  163.418441117    63.2960   5  10   0.7538   0.5929   1.8760   0.2681  -0.1023  -0.8752 12225.00    0.0
2018/11/12 03:24:00.000  -74.425563942  163.418444681    64.4832   5  10   0.7527   0.5918   1.8793   0.2678  -0.1128  -0.8765 12255.00    0.0
2018/11/12 03:24:30.000  -74.425563076  163.418435234    64.3954   5  10   0.7519   0.5910   1.8833   0.2676  -0.1217  -0.8780 12285.00    0.0
2018/11/12 03:25:00.000  -74.425559673  163.418433529    63.6960   5  10   0.7512   0.5905   1.8882   0.2673  -0.1293  -0.8796 12315.00    0.0
2018/11/12 03:25:30.000  -74.425559674  163.418439346    64.5802   5  10   0.7508   0.5902   1.8941   0.2671  -0.1357  -0.8814 12345.00    0.0
2018/11/12 03:26:00.000  -74.425560246  163.418441761    63.9189   5  10   0.7507   0.5903   1.9008   0.2669  -0.1412  -0.8834 12375.00    0.0
2018/11/12 03:26:30.000  -74.425561955  163.418438249    63.9913   5  10   0.7508   0.5906   1.9083   0.2667  -0.1460  -0.8856 12405.00    0.0
