% program   : RTKLIB ver.2.4.3
% inp file  : _by_type/_obs/hillary/20181108_20181110.18o
% inp file  : _by_type/_obs/base/20181107_GPS.18o
% inp file  : _by_type/_sp3+clk/igs20264.clk
% inp file  : _by_type/_sp3+clk/igs20264.sp3
% inp file  : _by_type/_nav/hillary/20181108_20181110.18n
% obs start : 2018/11/08 00:00:00.0 GPST (week2026 345600.0s)
% obs end   : 2018/11/10 23:59:45.0 GPST (week2026 604785.0s)
% pos mode  : dgps
% freqs     : L1+L2
% solution  : combined
% elev mask : 15.0 deg
% dynamics  : off
% tidecorr  : off
% ionos opt : iono-free
% tropo opt : est ztd+grad
% ephemeris : precise
% navi sys  : gps glonass
% antenna1  :                       ( 0.0000  0.0000  0.0000)
% antenna2  :                       ( 0.0000  0.0000  0.0000)
% ref pos   : 90.000000000   0.000000000-6335367.6285
%
% (lat/lon/height=WGS84/ellipsoidal,Q=1:fix,2:float,3:sbas,4:dgps,5:single,6:ppp,ns=# of satellites)
%  GPST                  latitude(deg) longitude(deg)  height(m)   Q  ns   sdn(m)   sde(m)   sdu(m)  sdne(m)  sdeu(m)  sdun(m) age(s)  ratio
2018/11/08 00:00:00.000  -74.393402147  163.452924057    96.5679   5   9   0.6783   0.6131   2.1552  -0.1864   0.4308  -0.7543  15.00    0.0
2018/11/08 00:00:15.000  -74.393404748  163.452917623    97.7177   5   9   0.6782   0.6132   2.1603  -0.1873   0.4351  -0.7555  30.00    0.0
2018/11/08 00:00:30.000  -74.393401776  163.452929035    96.8495   5   9   0.6781   0.6134   2.1658  -0.1884   0.4395  -0.7568  45.00    0.0
2018/11/08 00:00:45.000  -74.393404106  163.452926413    97.5909   5   9   0.6781   0.6137   2.1715  -0.1894   0.4440  -0.7582  60.00    0.0
2018/11/08 00:01:00.000  -74.393406324  163.452924521    97.3900   5   9   0.6781   0.6141   2.1775  -0.1905   0.4485  -0.7597  75.00    0.0
2018/11/08 00:01:15.000  -74.393402029  163.452914096    97.2191   5   9   0.6783   0.6146   2.1839  -0.1917   0.4532  -0.7612  90.00    0.0
2018/11/08 00:01:30.000  -74.393402159  163.452918548    97.1062   5   9   0.6785   0.6151   2.1905  -0.1929   0.4579  -0.7629 105.00    0.0
2018/11/08 00:01:45.000  -74.393401628  163.452919546    98.3827   5   9   0.6788   0.6157   2.1974  -0.1942   0.4628  -0.7647 120.00    0.0
2018/11/08 00:02:00.000  -74.393404525  163.452919605    97.2669   5   9   0.6792   0.6165   2.2047  -0.1956   0.4677  -0.7666 135.00    0.0
2018/11/08 00:02:15.000  -74.393403014  163.452934400    96.6137   5   9   0.6796   0.6173   2.2122  -0.1970   0.4728  -0.7686 150.00    0.0
2018/11/08 00:02:30.000  -74.393403313  163.452916867    97.2275   5   9   0.6801   0.6182   2.2201  -0.1984   0.4779  -0.7707 165.00    0.0
2018/11/08 00:02:45.000  -74.393402941  163.452917541    97.7171   5   9   0.6793   0.6175   2.2227  -0.1989   0.4812  -0.7712 180.00    0.0
2018/11/08 00:03:00.000  -74.393401464  163.452919626    96.5739   5   9   0.6786   0.6169   2.2256  -0.1995   0.4846  -0.7719 195.00    0.0
2018/11/08 00:03:15.000  -74.393402704  163.452923572    97.8046   5   9   0.6779   0.6164   2.2288  -0.2001   0.4881  -0.7726 210.00    0.0
2018/11/08 00:03:30.000  -74.393402069  163.452916042    95.7865   5   9   0.6773   0.6159   2.2323  -0.2008   0.4917  -0.7735 225.00    0.0
2018/11/08 00:03:45.000  -74.393402991  163.452922744    97.0640   5   9   0.6768   0.6156   2.2361  -0.2015   0.4954  -0.7744 240.00    0.0
2018/11/08 00:04:00.000  -74.393401577  163.452919842    96.9361   5   9   0.6764   0.6154   2.2402  -0.2023   0.4992  -0.7755 255.00    0.0
2018/11/08 00:04:15.000  -74.393403720  163.452931512    97.5377   5   9   0.6760   0.6152   2.2446  -0.2032   0.5030  -0.7766 270.00    0.0
2018/11/08 00:04:30.000  -74.393403377  163.452926752    96.7766   5   9   0.6758   0.6151   2.2493  -0.2041   0.5070  -0.7778 285.00    0.0
2018/11/08 00:04:45.000  -74.393400391  163.452917857    96.3755   5   9   0.6756   0.6152   2.2542  -0.2051   0.5111  -0.7792 300.00    0.0
2018/11/08 00:05:00.000  -74.393405356  163.452919774    96.9920   5   9   0.6754   0.6153   2.2595  -0.2061   0.5152  -0.7806 315.00    0.0
2018/11/08 00:05:15.000  -74.393403370  163.452936589    97.2637   5   9   0.6754   0.6155   2.2652  -0.2072   0.5196  -0.7822 330.00    0.0
2018/11/08 00:05:30.000  -74.393402714  163.452924086    97.6279   5   9   0.6755   0.6159   2.2712  -0.2084   0.5240  -0.7839 345.00    0.0
2018/11/08 00:05:45.000  -74.393404034  163.452924061    97.7028   5   9   0.6756   0.6163   2.2776  -0.2097   0.5286  -0.7856 360.00    0.0
2018/11/08 00:06:00.000  -74.393401559  163.452921620    96.0440   5   9   0.6758   0.6168   2.2842  -0.2110   0.5332  -0.7875 375.00    0.0
2018/11/08 00:06:15.000  -74.393403305  163.452917558    96.9294   5   9   0.6761   0.6174   2.2912  -0.2123   0.5380  -0.7895 390.00    0.0
2018/11/08 00:06:30.000  -74.393405043  163.452926117    96.5376   5   9   0.6765   0.6181   2.2985  -0.2137   0.5429  -0.7916 405.00    0.0
2018/11/08 00:06:45.000  -74.393401331  163.452929510    96.4568   5   9   0.6769   0.6189   2.3061  -0.2152   0.5479  -0.7938 420.00    0.0
2018/11/08 00:07:00.000  -74.393404155  163.452926864    96.9581   5   9   0.6774   0.6198   2.3140  -0.2168   0.5530  -0.7961 435.00    0.0
2018/11/08 00:07:15.000  -74.393402919  163.452922717    95.8984   5   9   0.6780   0.6208   2.3223  -0.2184   0.5583  -0.7985 450.00    0.0
2018/11/08 00:07:30.000  -74.393405725  163.452928531    97.3395   5   9   0.6787   0.6219   2.3308  -0.2200   0.5636  -0.8010 465.00    0.0
2018/11/08 00:07:45.000  -74.393399635  163.452927987    94.9913   5  10   0.6552   0.6119   2.0825  -0.2600   0.6598  -0.6776 480.00    0.0
2018/11/08 00:08:00.000  -74.393400245  163.452930939    95.1070   5  10   0.6547   0.6115   2.0863  -0.2604   0.6623  -0.6790 495.00    0.0
2018/11/08 00:08:15.000  -74.393399358  163.452925733    94.2632   5  10   0.6542   0.6112   2.0904  -0.2609   0.6650  -0.6805 510.00    0.0
2018/11/08 00:08:30.000  -74.393398819  163.452934467    95.1259   5  10   0.6538   0.6110   2.0948  -0.2614   0.6677  -0.6820 525.00    0.0
2018/11/08 00:08:45.000  -74.393400477  163.452945567    94.9785   5  10   0.6535   0.6108   2.0995  -0.2620   0.6706  -0.6837 540.00    0.0
2018/11/08 00:09:00.000  -74.393400149  163.452928984    95.5312   5  10   0.6532   0.6108   2.1045  -0.2627   0.6736  -0.6854 555.00    0.0
2018/11/08 00:09:15.000  -74.393400658  163.452929728    94.5673   5  10   0.6530   0.6108   2.1097  -0.2634   0.6767  -0.6873 570.00    0.0
2018/11/08 00:09:30.000  -74.393402791  163.452931404    96.5753   5  10   0.6529   0.6110   2.1152  -0.2642   0.6799  -0.6892 585.00    0.0
2018/11/08 00:09:45.000  -74.393400538  163.452934749    95.6066   5  10   0.6529   0.6112   2.1211  -0.2651   0.6833  -0.6912 600.00    0.0
2018/11/08 00:10:00.000  -74.393399989  163.452924844    95.0338   5  10   0.6530   0.6115   2.1272  -0.2660   0.6868  -0.6933 615.00    0.0
2018/11/08 00:10:15.000  -74.393401565  163.452924817    94.9066   5  10   0.6531   0.6120   2.1337  -0.2670   0.6905  -0.6956 630.00    0.0
2018/11/08 00:10:30.000  -74.393402754  163.452928057    95.6325   5  10   0.6534   0.6126   2.1406  -0.2681   0.6944  -0.6979 645.00    0.0
2018/11/08 00:10:45.000  -74.393399728  163.452931331    95.4213   5  10   0.6537   0.6132   2.1478  -0.2692   0.6983  -0.7004 660.00    0.0
2018/11/08 00:11:00.000  -74.393398971  163.452932205    95.0695   5  10   0.6541   0.6139   2.1552  -0.2704   0.7024  -0.7029 675.00    0.0
2018/11/08 00:11:15.000  -74.393399827  163.452929802    96.0873   5  10   0.6545   0.6148   2.1630  -0.2717   0.7067  -0.7055 690.00    0.0
2018/11/08 00:11:30.000  -74.393399498  163.452923549    96.0019   5  10   0.6551   0.6157   2.1711  -0.2730   0.7110  -0.7083 705.00    0.0
2018/11/08 00:11:45.000  -74.393400032  163.452934924    95.6492   5  10   0.6557   0.6167   2.1795  -0.2744   0.7155  -0.7111 720.00    0.0
2018/11/08 00:12:00.000  -74.393397472  163.452928015    95.9448   5  10   0.6564   0.6178   2.1882  -0.2759   0.7202  -0.7141 735.00    0.0
2018/11/08 00:12:15.000  -74.393401103  163.452933217    96.2202   5  10   0.6571   0.6190   2.1972  -0.2774   0.7249  -0.7171 750.00    0.0
2018/11/08 00:12:30.000  -74.393402961  163.452940295    96.6297   5  10   0.6580   0.6203   2.2065  -0.2790   0.7299  -0.7203 765.00    0.0
2018/11/08 00:12:45.000  -74.393401111  163.452929452    96.4287   5  10   0.6575   0.6200   2.2105  -0.2796   0.7323  -0.7220 780.00    0.0
2018/11/08 00:13:00.000  -74.393403314  163.452928221    95.8794   5  10   0.6572   0.6197   2.2148  -0.2801   0.7349  -0.7238 795.00    0.0
2018/11/08 00:13:15.000  -74.393399160  163.452931386    95.6892   5  10   0.6568   0.6195   2.2194  -0.2808   0.7376  -0.7257 810.00    0.0
2018/11/08 00:13:30.000  -74.393399284  163.452926443    95.3794   5  10   0.6566   0.6194   2.2243  -0.2815   0.7405  -0.7276 825.00    0.0
2018/11/08 00:13:45.000  -74.393398832  163.452941167    95.4581   5  10   0.6564   0.6194   2.2294  -0.2823   0.7434  -0.7297 840.00    0.0
2018/11/08 00:14:00.000  -74.393397360  163.452922858    94.4726   5  10   0.6564   0.6195   2.2348  -0.2831   0.7465  -0.7318 855.00    0.0
2018/11/08 00:14:15.000  -74.393401692  163.452941353    96.4808   5  10   0.6563   0.6197   2.2405  -0.2840   0.7497  -0.7340 870.00    0.0
2018/11/08 00:14:30.000  -74.393397694  163.452926404    94.8869   5  10   0.6564   0.6200   2.2465  -0.2849   0.7530  -0.7364 885.00    0.0
2018/11/08 00:14:45.000  -74.393398263  163.452922702    94.8888   5  10   0.6566   0.6203   2.2528  -0.2859   0.7564  -0.7388 900.00    0.0
2018/11/08 00:15:00.000  -74.393399716  163.452928354    95.5523   5  10   0.6568   0.6208   2.2594  -0.2870   0.7600  -0.7413 915.00    0.0
2018/11/08 00:15:15.000  -74.393402130  163.452932022    95.1371   5  10   0.6571   0.6214   2.2664  -0.2882   0.7638  -0.7440 930.00    0.0
2018/11/08 00:15:30.000  -74.393399562  163.452944198    95.9651   5  10   0.6575   0.6221   2.2738  -0.2894   0.7677  -0.7468 945.00    0.0
2018/11/08 00:15:45.000  -74.393401151  163.452933372    95.0011   5  10   0.6580   0.6229   2.2814  -0.2908   0.7718  -0.7497 960.00    0.0
2018/11/08 00:16:00.000  -74.393400883  163.452932428    94.6226   5  10   0.6586   0.6238   2.2894  -0.2921   0.7760  -0.7527 975.00    0.0
2018/11/08 00:16:15.000  -74.393396263  163.452926106    94.4737   5  10   0.6592   0.6247   2.2976  -0.2936   0.7803  -0.7557 990.00    0.0
2018/11/08 00:16:30.000  -74.393401396  163.452931636    95.5106   5  10   0.6599   0.6258   2.3062  -0.2951   0.7848  -0.7589 1005.00    0.0
2018/11/08 00:16:45.000  -74.393403448  163.452933889    95.9167   5  10   0.6607   0.6270   2.3150  -0.2966   0.7894  -0.7622 1020.00    0.0
2018/11/08 00:17:00.000  -74.393402319  163.452923129    95.4003   5  10   0.6616   0.6282   2.3242  -0.2983   0.7941  -0.7656 1035.00    0.0
2018/11/08 00:17:15.000  -74.393400708  163.452935220    96.0015   5  10   0.6626   0.6296   2.3336  -0.3000   0.7989  -0.7691 1050.00    0.0
2018/11/08 00:17:30.000  -74.393400029  163.452935418    95.3025   5  10   0.6636   0.6310   2.3434  -0.3017   0.8039  -0.7727 1065.00    0.0
2018/11/08 00:17:45.000  -74.393400411  163.452934983    95.4525   5  10   0.6633   0.6307   2.3474  -0.3023   0.8062  -0.7746 1080.00    0.0
2018/11/08 00:18:00.000  -74.393400719  163.452926015    95.2792   5  10   0.6631   0.6305   2.3517  -0.3030   0.8086  -0.7766 1095.00    0.0
2018/11/08 00:18:15.000  -74.393398622  163.452935019    95.6020   5  10   0.6629   0.6305   2.3563  -0.3038   0.8112  -0.7788 1110.00    0.0
2018/11/08 00:18:30.000  -74.393398963  163.452934585    95.8156   5  10   0.6628   0.6305   2.3612  -0.3046   0.8140  -0.7810 1125.00    0.0
2018/11/08 00:18:45.000  -74.393399688  163.452931699    95.6611   5  10   0.6628   0.6305   2.3664  -0.3055   0.8168  -0.7833 1140.00    0.0
2018/11/08 00:19:00.000  -74.393401225  163.452937674    96.1852   5  10   0.6629   0.6307   2.3718  -0.3064   0.8198  -0.7857 1155.00    0.0
2018/11/08 00:19:15.000  -74.393399091  163.452935711    94.6616   5  10   0.6631   0.6310   2.3775  -0.3074   0.8228  -0.7882 1170.00    0.0
2018/11/08 00:19:30.000  -74.393400744  163.452934222    95.6295   5  10   0.6633   0.6314   2.3835  -0.3085   0.8260  -0.7908 1185.00    0.0
2018/11/08 00:19:45.000  -74.393399345  163.452917368    95.7011   5  10   0.6636   0.6318   2.3897  -0.3096   0.8293  -0.7935 1200.00    0.0
2018/11/08 00:20:00.000  -74.393401357  163.452934168    95.3057   5  10   0.6640   0.6324   2.3963  -0.3107   0.8328  -0.7963 1215.00    0.0
2018/11/08 00:20:15.000  -74.393401966  163.452932570    94.9072   5  10   0.6645   0.6330   2.4032  -0.3120   0.8364  -0.7992 1230.00    0.0
2018/11/08 00:20:30.000  -74.393401379  163.452931927    95.3654   5  10   0.6651   0.6338   2.4105  -0.3134   0.8402  -0.8022 1245.00    0.0
2018/11/08 00:20:45.000  -74.393398289  163.452925394    93.7473   5  10   0.6657   0.6347   2.4180  -0.3148   0.8440  -0.8053 1260.00    0.0
2018/11/08 00:21:00.000  -74.393400939  163.452933381    95.2955   5  10   0.6665   0.6356   2.4258  -0.3162   0.8480  -0.8085 1275.00    0.0
2018/11/08 00:21:15.000  -74.393400605  163.452931694    94.8888   5  10   0.6673   0.6367   2.4338  -0.3177   0.8521  -0.8118 1290.00    0.0
2018/11/08 00:21:30.000  -74.393401585  163.452932801    95.7678   5  10   0.6682   0.6378   2.4421  -0.3193   0.8563  -0.8152 1305.00    0.0
2018/11/08 00:21:45.000  -74.393400875  163.452928305    95.4046   5  11   0.6564   0.6390   2.3556  -0.3196   0.8633  -0.8706 1320.00    0.0
2018/11/08 00:22:00.000  -74.393399483  163.452927103    94.5035   5  11   0.6574   0.6403   2.3648  -0.3213   0.8677  -0.8742 1335.00    0.0
2018/11/08 00:22:15.000  -74.393399159  163.452929422    95.0948   5  11   0.6584   0.6417   2.3742  -0.3231   0.8721  -0.8779 1350.00    0.0
2018/11/08 00:22:30.000  -74.393397881  163.452924850    93.9842   5  11   0.6595   0.6432   2.3840  -0.3249   0.8767  -0.8817 1365.00    0.0
2018/11/08 00:22:45.000  -74.393401752  163.452926788    95.8273   5  11   0.6593   0.6430   2.3882  -0.3256   0.8787  -0.8836 1380.00    0.0
2018/11/08 00:23:00.000  -74.393398668  163.452924957    94.3639   5  11   0.6591   0.6428   2.3925  -0.3264   0.8807  -0.8855 1395.00    0.0
2018/11/08 00:23:15.000  -74.393402414  163.452931206    95.0392   5  11   0.6591   0.6427   2.3970  -0.3272   0.8828  -0.8875 1410.00    0.0
2018/11/08 00:23:30.000  -74.393401523  163.452933295    96.0064   5  11   0.6591   0.6427   2.4017  -0.3280   0.8850  -0.8896 1425.00    0.0
2018/11/08 00:23:45.000  -74.393398930  163.452927203    94.3550   5  11   0.6591   0.6428   2.4067  -0.3289   0.8872  -0.8918 1440.00    0.0
2018/11/08 00:24:00.000  -74.393400124  163.452932263    94.8496   5  11   0.6593   0.6430   2.4119  -0.3299   0.8897  -0.8941 1455.00    0.0
2018/11/08 00:24:15.000  -74.393398228  163.452934296    94.9544   5  11   0.6595   0.6433   2.4174  -0.3309   0.8922  -0.8964 1470.00    0.0
2018/11/08 00:24:30.000  -74.393402991  163.452925637    95.3934   5  11   0.6598   0.6436   2.4231  -0.3319   0.8948  -0.8989 1485.00    0.0
2018/11/08 00:24:45.000  -74.393399133  163.452924242    94.7502   5  11   0.6601   0.6440   2.4290  -0.3330   0.8975  -0.9014 1500.00    0.0
2018/11/08 00:25:00.000  -74.393399296  163.452933683    94.9856   5  11   0.6606   0.6445   2.4352  -0.3342   0.9003  -0.9040 1515.00    0.0
2018/11/08 00:25:15.000  -74.393401487  163.452934801    94.7904   5  11   0.6611   0.6452   2.4418  -0.3354   0.9034  -0.9068 1530.00    0.0
2018/11/08 00:25:30.000  -74.393399271  163.452928575    94.2572   5  11   0.6617   0.6459   2.4486  -0.3367   0.9065  -0.9097 1545.00    0.0
2018/11/08 00:25:45.000  -74.393400892  163.452931458    95.2844   5  11   0.6624   0.6468   2.4556  -0.3380   0.9097  -0.9126 1560.00    0.0
2018/11/08 00:26:00.000  -74.393403490  163.452940540    96.3692   5  11   0.6631   0.6477   2.4629  -0.3394   0.9131  -0.9156 1575.00    0.0
2018/11/08 00:26:15.000  -74.393400578  163.452924541    95.1177   5  11   0.6639   0.6486   2.4704  -0.3409   0.9165  -0.9187 1590.00    0.0
2018/11/08 00:26:30.000  -74.393401972  163.452930355    94.9874   5  11   0.6648   0.6497   2.4781  -0.3423   0.9200  -0.9219 1605.00    0.0
2018/11/08 00:26:45.000  -74.393401807  163.452931564    96.0746   5  11   0.6658   0.6509   2.4860  -0.3438   0.9236  -0.9252 1620.00    0.0
2018/11/08 00:27:00.000  -74.393397630  163.452934122    95.6403   5  11   0.6668   0.6521   2.4942  -0.3454   0.9273  -0.9285 1635.00    0.0
2018/11/08 00:27:15.000  -74.393400028  163.452933533    95.4996   5  11   0.6679   0.6534   2.5025  -0.3470   0.9311  -0.9320 1650.00    0.0
2018/11/08 00:27:30.000  -74.393399988  163.452936647    95.0937   5  11   0.6690   0.6548   2.5111  -0.3486   0.9350  -0.9355 1665.00    0.0
2018/11/08 00:27:45.000  -74.393399417  163.452926807    95.0887   5  11   0.6688   0.6544   2.5137  -0.3491   0.9361  -0.9369 1680.00    0.0
2018/11/08 00:28:00.000  -74.393399815  163.452940907    96.4459   5  11   0.6687   0.6541   2.5165  -0.3496   0.9373  -0.9384 1695.00    0.0
2018/11/08 00:28:15.000  -74.393400284  163.452941505    95.3912   5  11   0.6687   0.6539   2.5196  -0.3502   0.9386  -0.9400 1710.00    0.0
2018/11/08 00:28:30.000  -74.393399176  163.452935248    95.2213   5  11   0.6687   0.6538   2.5228  -0.3508   0.9399  -0.9417 1725.00    0.0
2018/11/08 00:28:45.000  -74.393401099  163.452938221    96.0067   5  11   0.6688   0.6537   2.5262  -0.3515   0.9414  -0.9435 1740.00    0.0
2018/11/08 00:29:00.000  -74.393400287  163.452934768    95.6164   5  11   0.6690   0.6537   2.5298  -0.3522   0.9429  -0.9453 1755.00    0.0
2018/11/08 00:29:15.000  -74.393398875  163.452935628    95.1393   5  11   0.6692   0.6538   2.5336  -0.3529   0.9445  -0.9471 1770.00    0.0
2018/11/08 00:29:30.000  -74.393399405  163.452937991    95.0897   5  11   0.6695   0.6540   2.5376  -0.3537   0.9462  -0.9491 1785.00    0.0
2018/11/08 00:29:45.000  -74.393399898  163.452929121    95.1247   5  11   0.6699   0.6543   2.5417  -0.3545   0.9480  -0.9511 1800.00    0.0
2018/11/08 00:30:00.000  -74.393399865  163.452942760    95.6760   5  11   0.6703   0.6546   2.5461  -0.3554   0.9499  -0.9532 1815.00    0.0
2018/11/08 00:30:15.000  -74.393399295  163.452927932    94.4375   5  11   0.6709   0.6550   2.5507  -0.3563   0.9519  -0.9553 1830.00    0.0
2018/11/08 00:30:30.000  -74.393400228  163.452932200    94.6046   5  11   0.6714   0.6556   2.5556  -0.3573   0.9539  -0.9576 1845.00    0.0
2018/11/08 00:30:45.000  -74.393400914  163.452924952    94.9504   5  11   0.6721   0.6562   2.5606  -0.3583   0.9561  -0.9599 1860.00    0.0
2018/11/08 00:31:00.000  -74.393400565  163.452933490    94.3406   5  11   0.6728   0.6568   2.5657  -0.3593   0.9583  -0.9623 1875.00    0.0
2018/11/08 00:31:15.000  -74.393400674  163.452922043    94.6259   5  11   0.6736   0.6576   2.5710  -0.3603   0.9606  -0.9647 1890.00    0.0
2018/11/08 00:31:30.000  -74.393401631  163.452921403    94.0382   5  11   0.6744   0.6584   2.5765  -0.3614   0.9629  -0.9672 1905.00    0.0
2018/11/08 00:31:45.000  -74.393402369  163.452926777    94.0779   5  11   0.6753   0.6593   2.5821  -0.3625   0.9653  -0.9697 1920.00    0.0
2018/11/08 00:32:00.000  -74.393400100  163.452923461    93.2054   5  11   0.6763   0.6602   2.5879  -0.3637   0.9677  -0.9722 1935.00    0.0
2018/11/08 00:32:15.000  -74.393398783  163.452926789    93.7352   5  11   0.6773   0.6613   2.5938  -0.3648   0.9702  -0.9748 1950.00    0.0
2018/11/08 00:32:30.000  -74.393398735  163.452921470    93.3087   5  11   0.6784   0.6623   2.5998  -0.3660   0.9727  -0.9775 1965.00    0.0
2018/11/08 00:32:45.000  -74.393399416  163.452916605    94.3750   5  11   0.6782   0.6617   2.5999  -0.3661   0.9726  -0.9781 1980.00    0.0
2018/11/08 00:33:00.000  -74.393399145  163.452927804    93.9215   5  11   0.6780   0.6612   2.6002  -0.3662   0.9725  -0.9788 1995.00    0.0
2018/11/08 00:33:15.000  -74.393399060  163.452918748    93.6041   5  11   0.6779   0.6607   2.6007  -0.3664   0.9725  -0.9796 2010.00    0.0
2018/11/08 00:33:30.000  -74.393399926  163.452926413    93.8750   5  11   0.6779   0.6603   2.6012  -0.3665   0.9726  -0.9804 2025.00    0.0
2018/11/08 00:33:45.000  -74.393397654  163.452925779    94.6697   5  11   0.6779   0.6599   2.6019  -0.3668   0.9727  -0.9812 2040.00    0.0
2018/11/08 00:34:00.000  -74.393400433  163.452925487    94.4249   5  11   0.6779   0.6596   2.6027  -0.3670   0.9728  -0.9821 2055.00    0.0
2018/11/08 00:34:15.000  -74.393397795  163.452922464    94.6257   5  11   0.6781   0.6594   2.6037  -0.3672   0.9730  -0.9830 2070.00    0.0
2018/11/08 00:34:30.000  -74.393399384  163.452924783    94.8017   5  11   0.6783   0.6592   2.6048  -0.3675   0.9733  -0.9840 2085.00    0.0
2018/11/08 00:34:45.000  -74.393400425  163.452934503    95.6417   5  11   0.6785   0.6592   2.6060  -0.3678   0.9736  -0.9850 2100.00    0.0
2018/11/08 00:35:00.000  -74.393400234  163.452933499    94.1462   5  11   0.6788   0.6591   2.6073  -0.3682   0.9739  -0.9860 2115.00    0.0
2018/11/08 00:35:15.000  -74.393399007  163.452921729    93.3520   5  11   0.6792   0.6592   2.6089  -0.3686   0.9744  -0.9871 2130.00    0.0
2018/11/08 00:35:30.000  -74.393396091  163.452919842    92.7567   5  11   0.6797   0.6594   2.6107  -0.3690   0.9749  -0.9883 2145.00    0.0
2018/11/08 00:35:45.000  -74.393400099  163.452931274    95.2404   5  11   0.6802   0.6596   2.6125  -0.3694   0.9755  -0.9895 2160.00    0.0
2018/11/08 00:36:00.000  -74.393396934  163.452936952    94.3193   5  11   0.6808   0.6599   2.6145  -0.3699   0.9761  -0.9908 2175.00    0.0
2018/11/08 00:36:15.000  -74.393400771  163.452930179    94.3740   5  11   0.6814   0.6603   2.6166  -0.3703   0.9767  -0.9920 2190.00    0.0
2018/11/08 00:36:30.000  -74.393399204  163.452926312    94.3874   5  11   0.6821   0.6607   2.6187  -0.3708   0.9774  -0.9933 2205.00    0.0
2018/11/08 00:36:45.000  -74.393400575  163.452930077    94.7679   5  11   0.6828   0.6612   2.6210  -0.3713   0.9780  -0.9946 2220.00    0.0
2018/11/08 00:37:00.000  -74.393398903  163.452926087    94.4516   5  11   0.6836   0.6617   2.6234  -0.3718   0.9788  -0.9960 2235.00    0.0
2018/11/08 00:37:15.000  -74.393400560  163.452926063    94.4699   5  11   0.6844   0.6623   2.6259  -0.3723   0.9795  -0.9974 2250.00    0.0
2018/11/08 00:37:30.000  -74.393400634  163.452933587    95.0100   5  11   0.6853   0.6630   2.6284  -0.3729   0.9803  -0.9988 2265.00    0.0
2018/11/08 00:37:45.000  -74.393401264  163.452930893    95.1607   5  11   0.6849   0.6620   2.6253  -0.3724   0.9785  -0.9982 2280.00    0.0
2018/11/08 00:38:00.000  -74.393400494  163.452941076    96.1142   5  11   0.6846   0.6610   2.6222  -0.3719   0.9769  -0.9977 2295.00    0.0
2018/11/08 00:38:15.000  -74.393401761  163.452933329    95.5536   5  11   0.6843   0.6602   2.6193  -0.3715   0.9752  -0.9973 2310.00    0.0
2018/11/08 00:38:30.000  -74.393400380  163.452927772    93.7180   5  11   0.6841   0.6594   2.6165  -0.3711   0.9736  -0.9969 2325.00    0.0
2018/11/08 00:38:45.000  -74.393400675  163.452935838    95.5624   5  11   0.6840   0.6586   2.6138  -0.3707   0.9721  -0.9965 2340.00    0.0
2018/11/08 00:39:00.000  -74.393401295  163.452932018    94.8227   5  11   0.6838   0.6580   2.6112  -0.3704   0.9706  -0.9961 2355.00    0.0
2018/11/08 00:39:15.000  -74.393401235  163.452923646    94.6282   5  11   0.6838   0.6573   2.6087  -0.3700   0.9691  -0.9958 2370.00    0.0
2018/11/08 00:39:30.000  -74.393400398  163.452932656    94.2985   5  11   0.6838   0.6568   2.6064  -0.3697   0.9676  -0.9955 2385.00    0.0
2018/11/08 00:39:45.000  -74.393399814  163.452927401    94.6528   5  11   0.6839   0.6563   2.6041  -0.3693   0.9662  -0.9953 2400.00    0.0
2018/11/08 00:40:00.000  -74.393398917  163.452925739    94.4066   5  11   0.6840   0.6559   2.6020  -0.3690   0.9649  -0.9950 2415.00    0.0
2018/11/08 00:40:15.000  -74.393400997  163.452933971    95.0679   5  11   0.6842   0.6556   2.6001  -0.3688   0.9636  -0.9949 2430.00    0.0
2018/11/08 00:40:30.000  -74.393398801  163.452922812    94.1368   5  11   0.6844   0.6553   2.5984  -0.3685   0.9624  -0.9947 2445.00    0.0
2018/11/08 00:40:45.000  -74.393399550  163.452927344    94.7325   5  11   0.6847   0.6552   2.5967  -0.3683   0.9611  -0.9946 2460.00    0.0
2018/11/08 00:41:00.000  -74.393401706  163.452936358    95.4057   5  11   0.6851   0.6550   2.5951  -0.3681   0.9600  -0.9946 2475.00    0.0
2018/11/08 00:41:15.000  -74.393402782  163.452931226    95.1086   5  11   0.6855   0.6550   2.5937  -0.3679   0.9588  -0.9945 2490.00    0.0
2018/11/08 00:41:30.000  -74.393401888  163.452937033    95.9926   5  11   0.6859   0.6550   2.5924  -0.3677   0.9577  -0.9945 2505.00    0.0
2018/11/08 00:41:45.000  -74.393399610  163.452929853    94.2791   5  11   0.6864   0.6550   2.5911  -0.3675   0.9566  -0.9945 2520.00    0.0
2018/11/08 00:42:00.000  -74.393400518  163.452927792    95.0440   5  11   0.6870   0.6551   2.5900  -0.3673   0.9555  -0.9945 2535.00    0.0
2018/11/08 00:42:15.000  -74.393401677  163.452931631    94.8841   5  11   0.6876   0.6553   2.5890  -0.3671   0.9544  -0.9945 2550.00    0.0
2018/11/08 00:42:30.000  -74.393400568  163.452926508    94.8910   5  11   0.6883   0.6555   2.5881  -0.3670   0.9534  -0.9945 2565.00    0.0
2018/11/08 00:42:45.000  -74.393399867  163.452925246    93.4221   5  11   0.6877   0.6542   2.5818  -0.3659   0.9501  -0.9928 2580.00    0.0
2018/11/08 00:43:00.000  -74.393401682  163.452935109    95.4254   5  11   0.6872   0.6529   2.5755  -0.3649   0.9468  -0.9912 2595.00    0.0
2018/11/08 00:43:15.000  -74.393402018  163.452940429    95.4833   5  11   0.6867   0.6517   2.5695  -0.3639   0.9437  -0.9895 2610.00    0.0
2018/11/08 00:43:30.000  -74.393400832  163.452930092    95.3925   5  11   0.6863   0.6506   2.5635  -0.3629   0.9405  -0.9879 2625.00    0.0
2018/11/08 00:43:45.000  -74.393400312  163.452935350    95.2262   5  11   0.6860   0.6495   2.5577  -0.3619   0.9374  -0.9864 2640.00    0.0
2018/11/08 00:44:00.000  -74.393402468  163.452933157    95.5044   5  11   0.6857   0.6485   2.5520  -0.3609   0.9343  -0.9849 2655.00    0.0
2018/11/08 00:44:15.000  -74.393400594  163.452938420    94.4694   5  11   0.6854   0.6476   2.5465  -0.3600   0.9313  -0.9834 2670.00    0.0
2018/11/08 00:44:30.000  -74.393398571  163.452931750    94.5949   5  11   0.6852   0.6467   2.5411  -0.3590   0.9283  -0.9819 2685.00    0.0
2018/11/08 00:44:45.000  -74.393398328  163.452933537    95.1904   5  11   0.6851   0.6459   2.5359  -0.3581   0.9254  -0.9805 2700.00    0.0
2018/11/08 00:45:00.000  -74.393397951  163.452932224    94.2923   5  11   0.6850   0.6452   2.5308  -0.3572   0.9225  -0.9791 2715.00    0.0
2018/11/08 00:45:15.000  -74.393398471  163.452933933    95.0326   5  11   0.6850   0.6446   2.5260  -0.3564   0.9197  -0.9778 2730.00    0.0
2018/11/08 00:45:30.000  -74.393400867  163.452938916    95.5445   5  11   0.6851   0.6440   2.5213  -0.3555   0.9169  -0.9765 2745.00    0.0
2018/11/08 00:45:45.000  -74.393400118  163.452930696    94.2773   5  11   0.6852   0.6435   2.5168  -0.3547   0.9142  -0.9753 2760.00    0.0
2018/11/08 00:46:00.000  -74.393402080  163.452932096    95.2284   5  11   0.6854   0.6430   2.5124  -0.3539   0.9115  -0.9741 2775.00    0.0
2018/11/08 00:46:15.000  -74.393399921  163.452940800    95.3957   5  11   0.6856   0.6427   2.5082  -0.3531   0.9089  -0.9729 2790.00    0.0
2018/11/08 00:46:30.000  -74.393397417  163.452931748    92.9890   5  10   0.9387   0.6752   3.5711  -0.5073   1.1621  -1.6050 2805.00    0.0
2018/11/08 00:46:45.000  -74.393393502  163.452926316    91.9281   5  10   0.9389   0.6746   3.5663  -0.5061   1.1588  -1.6037 2820.00    0.0
2018/11/08 00:47:00.000  -74.393398445  163.452928624    93.3310   5  10   0.9390   0.6741   3.5617  -0.5048   1.1554  -1.6024 2835.00    0.0
2018/11/08 00:47:15.000  -74.393394800  163.452928467    92.0583   5  10   0.9393   0.6737   3.5572  -0.5036   1.1520  -1.6011 2850.00    0.0
2018/11/08 00:47:30.000  -74.393396779  163.452925580    92.0608   5  10   0.9396   0.6733   3.5528  -0.5024   1.1486  -1.5999 2865.00    0.0
2018/11/08 00:47:45.000  -74.393393796  163.452921315    91.4607   5  10   0.9375   0.6713   3.5384  -0.4996   1.1419  -1.5942 2880.00    0.0
2018/11/08 00:48:00.000  -74.393394664  163.452927863    92.8931   5  10   0.9355   0.6693   3.5241  -0.4968   1.1353  -1.5885 2895.00    0.0
2018/11/08 00:48:15.000  -74.393398535  163.452925553    93.7688   5  10   0.9336   0.6674   3.5099  -0.4941   1.1286  -1.5829 2910.00    0.0
2018/11/08 00:48:30.000  -74.393399395  163.452929223    93.6619   5  10   0.9317   0.6655   3.4959  -0.4914   1.1221  -1.5773 2925.00    0.0
2018/11/08 00:48:45.000  -74.393397313  163.452931240    93.0919   5  10   0.9299   0.6638   3.4821  -0.4886   1.1155  -1.5718 2940.00    0.0
2018/11/08 00:49:00.000  -74.393398813  163.452935273    92.9026   5  10   0.9282   0.6621   3.4685  -0.4859   1.1090  -1.5665 2955.00    0.0
2018/11/08 00:49:15.000  -74.393396650  163.452931242    93.2742   5  10   0.9265   0.6604   3.4551  -0.4832   1.1026  -1.5611 2970.00    0.0
2018/11/08 00:49:30.000  -74.393396784  163.452929272    93.0924   5  10   0.9250   0.6589   3.4419  -0.4806   1.0962  -1.5559 2985.00    0.0
2018/11/08 00:49:45.000  -74.393399491  163.452936681    93.6160   5  10   0.9234   0.6574   3.4290  -0.4779   1.0898  -1.5508 3000.00    0.0
2018/11/08 00:50:00.000  -74.393397396  163.452928687    92.0321   5   9   0.9260   0.6561   3.6645  -0.4744   1.0772  -1.5821 3015.00    0.0
2018/11/08 00:50:15.000  -74.393399426  163.452936571    94.2444   5   9   0.9248   0.6548   3.6543  -0.4718   1.0710  -1.5779 3030.00    0.0
2018/11/08 00:50:30.000  -74.393400280  163.452936094    92.7072   5   9   0.9236   0.6535   3.6444  -0.4692   1.0649  -1.5738 3045.00    0.0
2018/11/08 00:50:45.000  -74.393397379  163.452928842    93.8335   5   9   0.9226   0.6524   3.6348  -0.4667   1.0587  -1.5698 3060.00    0.0
2018/11/08 00:51:00.000  -74.393399165  163.452925865    93.7851   5   9   0.9216   0.6513   3.6255  -0.4641   1.0526  -1.5659 3075.00    0.0
2018/11/08 00:51:15.000  -74.393393622  163.452923820    91.8775   5   9   0.9207   0.6503   3.6164  -0.4616   1.0466  -1.5621 3090.00    0.0
2018/11/08 00:51:30.000  -74.393400913  163.452930322    94.8396   5   9   0.9199   0.6494   3.6076  -0.4591   1.0405  -1.5584 3105.00    0.0
2018/11/08 00:51:45.000  -74.393401282  163.452935579    94.9979   5   9   0.9191   0.6485   3.5991  -0.4566   1.0345  -1.5548 3120.00    0.0
2018/11/08 00:52:00.000  -74.393400277  163.452932891    93.7777   5   9   0.9185   0.6477   3.5909  -0.4542   1.0286  -1.5513 3135.00    0.0
2018/11/08 00:52:15.000  -74.393397793  163.452928357    93.5505   5   9   0.9179   0.6470   3.5831  -0.4517   1.0226  -1.5480 3150.00    0.0
2018/11/08 00:52:30.000  -74.393397066  163.452934321    94.4058   5   9   0.9174   0.6464   3.5755  -0.4493   1.0167  -1.5447 3165.00    0.0
2018/11/08 00:52:45.000  -74.393396104  163.452926576    93.0171   5   9   0.9146   0.6443   3.5566  -0.4455   1.0080  -1.5368 3180.00    0.0
2018/11/08 00:53:00.000  -74.393398145  163.452927736    94.0381   5  10   0.7500   0.6382   2.6810  -0.3973   0.9121  -1.0680 3195.00    0.0
2018/11/08 00:53:15.000  -74.393399148  163.452929542    94.0311   5  10   0.7491   0.6365   2.6738  -0.3956   0.9075  -1.0655 3210.00    0.0
2018/11/08 00:53:30.000  -74.393396407  163.452936926    93.7959   5  10   0.7483   0.6350   2.6667  -0.3939   0.9029  -1.0630 3225.00    0.0
2018/11/08 00:53:45.000  -74.393395776  163.452934724    92.9598   5  10   0.7476   0.6335   2.6599  -0.3923   0.8984  -1.0605 3240.00    0.0
2018/11/08 00:54:00.000  -74.393399040  163.452925366    93.4451   5  10   0.7469   0.6321   2.6533  -0.3906   0.8939  -1.0581 3255.00    0.0
2018/11/08 00:54:15.000  -74.393398898  163.452936825    93.2906   5  10   0.7463   0.6307   2.6468  -0.3891   0.8895  -1.0558 3270.00    0.0
2018/11/08 00:54:30.000  -74.393396518  163.452933480    93.5572   5  10   0.7457   0.6295   2.6407  -0.3875   0.8851  -1.0535 3285.00    0.0
2018/11/08 00:54:45.000  -74.393397457  163.452939677    95.9526   5  10   0.7452   0.6283   2.6347  -0.3860   0.8808  -1.0513 3300.00    0.0
2018/11/08 00:55:00.000  -74.393398990  163.452930779    94.5624   5  10   0.7448   0.6272   2.6290  -0.3845   0.8765  -1.0491 3315.00    0.0
2018/11/08 00:55:15.000  -74.393401713  163.452937609    95.2977   5  10   0.7445   0.6261   2.6237  -0.3831   0.8724  -1.0471 3330.00    0.0
2018/11/08 00:55:30.000  -74.393397963  163.452935786    94.3401   5  10   0.7442   0.6252   2.6186  -0.3817   0.8683  -1.0451 3345.00    0.0
2018/11/08 00:55:45.000  -74.393399288  163.452936274    94.5207   5  10   0.7441   0.6243   2.6138  -0.3803   0.8642  -1.0432 3360.00    0.0
2018/11/08 00:56:00.000  -74.393398302  163.452938963    94.6750   5  10   0.7439   0.6235   2.6092  -0.3790   0.8602  -1.0414 3375.00    0.0
2018/11/08 00:56:15.000  -74.393399461  163.452936756    94.1562   5  10   0.7439   0.6228   2.6050  -0.3777   0.8563  -1.0397 3390.00    0.0
2018/11/08 00:56:30.000  -74.393405619  163.452946030    95.4491   5  10   0.7439   0.6222   2.6010  -0.3764   0.8524  -1.0380 3405.00    0.0
2018/11/08 00:56:45.000  -74.393397326  163.452932560    93.1253   5  10   0.7440   0.6216   2.5972  -0.3751   0.8486  -1.0364 3420.00    0.0
2018/11/08 00:57:00.000  -74.393401378  163.452939110    94.4723   5  10   0.7442   0.6211   2.5938  -0.3739   0.8448  -1.0349 3435.00    0.0
2018/11/08 00:57:15.000  -74.393402101  163.452935316    94.5868   5  10   0.7444   0.6207   2.5906  -0.3727   0.8411  -1.0335 3450.00    0.0
2018/11/08 00:57:30.000  -74.393400242  163.452939207    94.7458   5  10   0.7447   0.6203   2.5878  -0.3716   0.8375  -1.0321 3465.00    0.0
2018/11/08 00:57:45.000  -74.393403238  163.452937380    95.6452   5  10   0.7435   0.6185   2.5781  -0.3695   0.8318  -1.0286 3480.00    0.0
2018/11/08 00:58:00.000  -74.393399492  163.452936662    93.1171   5  10   0.7425   0.6169   2.5687  -0.3674   0.8261  -1.0252 3495.00    0.0
2018/11/08 00:58:15.000  -74.393396233  163.452931129    92.6732   5  10   0.7415   0.6152   2.5596  -0.3654   0.8206  -1.0219 3510.00    0.0
2018/11/08 00:58:30.000  -74.393396595  163.452940664    92.3189   5  10   0.7406   0.6137   2.5507  -0.3634   0.8151  -1.0187 3525.00    0.0
2018/11/08 00:58:45.000  -74.393400017  163.452934894    94.5678   5  10   0.7398   0.6123   2.5422  -0.3615   0.8097  -1.0155 3540.00    0.0
2018/11/08 00:59:00.000  -74.393400776  163.452933182    93.9577   5  10   0.7390   0.6109   2.5339  -0.3596   0.8043  -1.0124 3555.00    0.0
2018/11/08 00:59:15.000  -74.393400831  163.452937718    93.4765   5  10   0.7384   0.6096   2.5260  -0.3577   0.7990  -1.0095 3570.00    0.0
2018/11/08 00:59:30.000  -74.393398629  163.452935069    93.3169   5  10   0.7377   0.6084   2.5183  -0.3559   0.7938  -1.0066 3585.00    0.0
2018/11/08 00:59:45.000  -74.393396905  163.452935070    93.0787   5  10   0.7372   0.6072   2.5110  -0.3541   0.7887  -1.0038 3600.00    0.0
2018/11/08 01:00:00.000  -74.393399638  163.452926815    93.8634   5  10   0.7367   0.6062   2.5040  -0.3524   0.7837  -1.0011 3615.00    0.0
2018/11/08 01:00:15.000  -74.393398459  163.452938389    92.7696   5  10   0.7364   0.6052   2.4975  -0.3507   0.7787  -0.9985 3630.00    0.0
2018/11/08 01:00:30.000  -74.393400805  163.452938185    94.3859   5  10   0.7361   0.6044   2.4912  -0.3490   0.7738  -0.9960 3645.00    0.0
2018/11/08 01:00:45.000  -74.393399034  163.452930956    94.3564   5  10   0.7358   0.6036   2.4854  -0.3474   0.7690  -0.9936 3660.00    0.0
2018/11/08 01:01:00.000  -74.393399679  163.452931897    93.7782   5  10   0.7357   0.6028   2.4798  -0.3458   0.7643  -0.9914 3675.00    0.0
2018/11/08 01:01:15.000  -74.393399212  163.452928803    93.7842   5  10   0.7356   0.6022   2.4746  -0.3442   0.7596  -0.9892 3690.00    0.0
2018/11/08 01:01:30.000  -74.393399961  163.452938631    94.3945   5  10   0.7356   0.6016   2.4697  -0.3427   0.7550  -0.9871 3705.00    0.0
2018/11/08 01:01:45.000  -74.393401308  163.452931799    94.5883   5  10   0.7356   0.6011   2.4652  -0.3412   0.7504  -0.9851 3720.00    0.0
2018/11/08 01:02:00.000  -74.393398454  163.452933173    93.1771   5  10   0.7357   0.6007   2.4610  -0.3397   0.7459  -0.9832 3735.00    0.0
2018/11/08 01:02:15.000  -74.393400995  163.452934840    94.0258   5  10   0.7359   0.6004   2.4571  -0.3383   0.7415  -0.9814 3750.00    0.0
2018/11/08 01:02:30.000  -74.393400411  163.452930469    93.2873   5  10   0.7362   0.6001   2.4536  -0.3369   0.7371  -0.9797 3765.00    0.0
2018/11/08 01:02:45.000  -74.393399386  163.452933732    92.6916   5  10   0.7351   0.5985   2.4431  -0.3347   0.7310  -0.9758 3780.00    0.0
2018/11/08 01:03:00.000  -74.393404378  163.452921457    93.9842   5  10   0.7341   0.5970   2.4331  -0.3325   0.7249  -0.9722 3795.00    0.0
2018/11/08 01:03:15.000  -74.393402510  163.452931437    93.9683   5  10   0.7331   0.5956   2.4234  -0.3304   0.7189  -0.9686 3810.00    0.0
2018/11/08 01:03:30.000  -74.393401595  163.452934441    93.9788   5  10   0.7323   0.5942   2.4140  -0.3283   0.7129  -0.9651 3825.00    0.0
2018/11/08 01:03:45.000  -74.393400954  163.452931896    93.7705   5  10   0.7315   0.5930   2.4050  -0.3263   0.7071  -0.9617 3840.00    0.0
2018/11/08 01:04:00.000  -74.393402786  163.452929598    94.6532   5  10   0.7308   0.5918   2.3964  -0.3242   0.7013  -0.9585 3855.00    0.0
2018/11/08 01:04:15.000  -74.393402852  163.452936766    94.9857   5  10   0.7301   0.5907   2.3881  -0.3223   0.6956  -0.9553 3870.00    0.0
2018/11/08 01:04:30.000  -74.393398827  163.452931108    92.7825   5  10   0.7295   0.5897   2.3802  -0.3203   0.6900  -0.9523 3885.00    0.0
2018/11/08 01:04:45.000  -74.393401819  163.452936145    94.3585   5  10   0.7290   0.5887   2.3726  -0.3184   0.6844  -0.9493 3900.00    0.0
2018/11/08 01:05:00.000  -74.393401712  163.452939319    95.4910   5  10   0.7286   0.5878   2.3655  -0.3166   0.6790  -0.9465 3915.00    0.0
2018/11/08 01:05:15.000  -74.393403008  163.452934142    94.0875   5  10   0.7283   0.5871   2.3588  -0.3148   0.6736  -0.9438 3930.00    0.0
2018/11/08 01:05:30.000  -74.393400674  163.452936239    94.7781   5  10   0.7280   0.5864   2.3525  -0.3130   0.6683  -0.9412 3945.00    0.0
2018/11/08 01:05:45.000  -74.393401757  163.452927374    94.4334   5  10   0.7278   0.5858   2.3465  -0.3113   0.6630  -0.9388 3960.00    0.0
2018/11/08 01:06:00.000  -74.393401583  163.452936408    93.3037   5  10   0.7277   0.5853   2.3410  -0.3096   0.6578  -0.9364 3975.00    0.0
2018/11/08 01:06:15.000  -74.393399763  163.452926833    93.1202   5  10   0.7277   0.5848   2.3358  -0.3079   0.6527  -0.9341 3990.00    0.0
2018/11/08 01:06:30.000  -74.393401776  163.452938184    94.1965   5  10   0.7277   0.5844   2.3310  -0.3063   0.6476  -0.9320 4005.00    0.0
2018/11/08 01:06:45.000  -74.393404294  163.452943179    94.4941   5  10   0.7279   0.5841   2.3265  -0.3047   0.6426  -0.9299 4020.00    0.0
2018/11/08 01:07:00.000  -74.393402471  163.452938933    95.5615   5  10   0.7280   0.5839   2.3224  -0.3031   0.6376  -0.9280 4035.00    0.0
2018/11/08 01:07:15.000  -74.393404654  163.452935756    94.8396   5  10   0.7283   0.5837   2.3187  -0.3016   0.6327  -0.9262 4050.00    0.0
2018/11/08 01:07:30.000  -74.393401241  163.452939779    95.1127   5  10   0.7286   0.5837   2.3154  -0.3001   0.6278  -0.9244 4065.00    0.0
2018/11/08 01:07:45.000  -74.393399339  163.452939779    95.3485   5  10   0.7276   0.5824   2.3053  -0.2979   0.6215  -0.9207 4080.00    0.0
2018/11/08 01:08:00.000  -74.393403164  163.452937415    95.7784   5  10   0.7267   0.5811   2.2956  -0.2957   0.6152  -0.9172 4095.00    0.0
2018/11/08 01:08:15.000  -74.393399976  163.452937163    94.7957   5  10   0.7259   0.5800   2.2862  -0.2936   0.6090  -0.9137 4110.00    0.0
2018/11/08 01:08:30.000  -74.393403469  163.452942986    95.3205   5  10   0.7251   0.5789   2.2773  -0.2915   0.6028  -0.9103 4125.00    0.0
2018/11/08 01:08:45.000  -74.393401922  163.452943538    94.6407   5  10   0.7244   0.5779   2.2687  -0.2894   0.5968  -0.9071 4140.00    0.0
2018/11/08 01:09:00.000  -74.393401886  163.452934677    95.8325   5  10   0.7238   0.5769   2.2605  -0.2874   0.5908  -0.9040 4155.00    0.0
2018/11/08 01:09:15.000  -74.393402275  163.452942952    93.8977   5  10   0.7233   0.5761   2.2527  -0.2854   0.5848  -0.9010 4170.00    0.0
2018/11/08 01:09:30.000  -74.393403797  163.452936604    95.2053   5  10   0.7228   0.5753   2.2453  -0.2834   0.5789  -0.8981 4185.00    0.0
2018/11/08 01:09:45.000  -74.393402862  163.452947520    93.9190   5  10   0.7224   0.5746   2.2382  -0.2815   0.5731  -0.8953 4200.00    0.0
2018/11/08 01:10:00.000  -74.393402937  163.452940204    94.4370   5  10   0.7221   0.5740   2.2316  -0.2796   0.5673  -0.8926 4215.00    0.0
2018/11/08 01:10:15.000  -74.393402086  163.452949657    94.4592   5  10   0.7219   0.5735   2.2255  -0.2778   0.5616  -0.8901 4230.00    0.0
2018/11/08 01:10:30.000  -74.393401195  163.452943775    94.0981   5  10   0.7217   0.5730   2.2198  -0.2760   0.5559  -0.8877 4245.00    0.0
2018/11/08 01:10:45.000  -74.393402482  163.452944891    94.7889   5  10   0.7216   0.5727   2.2144  -0.2742   0.5503  -0.8854 4260.00    0.0
2018/11/08 01:11:00.000  -74.393403118  163.452935768    95.0038   5  10   0.7216   0.5724   2.2095  -0.2725   0.5447  -0.8832 4275.00    0.0
2018/11/08 01:11:15.000  -74.393402887  163.452943959    96.1698   5  10   0.7217   0.5722   2.2049  -0.2708   0.5391  -0.8811 4290.00    0.0
2018/11/08 01:11:30.000  -74.393400354  163.452936536    94.1497   5  10   0.7219   0.5720   2.2007  -0.2691   0.5336  -0.8791 4305.00    0.0
2018/11/08 01:11:45.000  -74.393404038  163.452930222    95.0070   5  10   0.7221   0.5720   2.1969  -0.2675   0.5281  -0.8772 4320.00    0.0
2018/11/08 01:12:00.000  -74.393401680  163.452937492    94.2467   5  10   0.7223   0.5720   2.1935  -0.2659   0.5226  -0.8754 4335.00    0.0
2018/11/08 01:12:15.000  -74.393403471  163.452937258    94.6949   5  10   0.7227   0.5721   2.1904  -0.2643   0.5171  -0.8738 4350.00    0.0
2018/11/08 01:12:30.000  -74.393406616  163.452937186    95.5655   5  10   0.7231   0.5722   2.1877  -0.2627   0.5116  -0.8722 4365.00    0.0
2018/11/08 01:12:45.000  -74.393404403  163.452937187    96.0363   5  10   0.7223   0.5712   2.1785  -0.2605   0.5050  -0.8688 4380.00    0.0
2018/11/08 01:13:00.000  -74.393401742  163.452937425    94.4374   5  10   0.7215   0.5702   2.1696  -0.2584   0.4985  -0.8656 4395.00    0.0
2018/11/08 01:13:15.000  -74.393402598  163.452927884    95.7796   5  10   0.7208   0.5693   2.1611  -0.2563   0.4920  -0.8624 4410.00    0.0
2018/11/08 01:13:30.000  -74.393402462  163.452937411    94.2948   5  10   0.7202   0.5685   2.1531  -0.2542   0.4856  -0.8594 4425.00    0.0
2018/11/08 01:13:45.000  -74.393402692  163.452935036    95.0824   5  10   0.7197   0.5678   2.1454  -0.2521   0.4792  -0.8565 4440.00    0.0
2018/11/08 01:14:00.000  -74.393406321  163.452936123    95.8902   5  11   0.6198   0.5498   1.7945  -0.1087   0.2485  -0.5520 4455.00    0.0
2018/11/08 01:14:15.000  -74.393406925  163.452935557    95.8593   5  11   0.6196   0.5495   1.7915  -0.1065   0.2415  -0.5511 4470.00    0.0
2018/11/08 01:14:30.000  -74.393407328  163.452939696    95.4965   5  11   0.6195   0.5493   1.7888  -0.1042   0.2342  -0.5502 4485.00    0.0
2018/11/08 01:14:45.000  -74.393407450  163.452944189    95.9523   5  11   0.6195   0.5491   1.7865  -0.1020   0.2267  -0.5494 4500.00    0.0
2018/11/08 01:15:00.000  -74.393407605  163.452946430    95.5542   5  11   0.6195   0.5490   1.7844  -0.0996   0.2190  -0.5486 4515.00    0.0
2018/11/08 01:15:15.000  -74.393406289  163.452948876    95.2629   5  11   0.6196   0.5490   1.7827  -0.0973   0.2109  -0.5479 4530.00    0.0
2018/11/08 01:15:30.000  -74.393407588  163.452943845    95.0415   5  11   0.6197   0.5491   1.7813  -0.0949   0.2025  -0.5472 4545.00    0.0
2018/11/08 01:15:45.000  -74.393403570  163.452942577    96.0534   5  11   0.6199   0.5492   1.7802  -0.0924   0.1938  -0.5465 4560.00    0.0
2018/11/08 01:16:00.000  -74.393403795  163.452955621    95.3666   5  11   0.6202   0.5494   1.7794  -0.0899   0.1845  -0.5459 4575.00    0.0
2018/11/08 01:16:15.000  -74.393402099  163.452935417    95.3871   5  11   0.6205   0.5497   1.7788  -0.0873   0.1748  -0.5453 4590.00    0.0
2018/11/08 01:16:30.000  -74.393403443  163.452945733    95.3117   5  11   0.6208   0.5500   1.7786  -0.0846   0.1644  -0.5448 4605.00    0.0
2018/11/08 01:16:45.000  -74.393405054  163.452940190    94.9536   5  11   0.6212   0.5504   1.7787  -0.0819   0.1533  -0.5443 4620.00    0.0
2018/11/08 01:17:00.000  -74.393405648  163.452948382    94.9509   5  11   0.6217   0.5508   1.7791  -0.0790   0.1412  -0.5438 4635.00    0.0
2018/11/08 01:17:15.000  -74.393405329  163.452946744    95.4968   5  11   0.6222   0.5514   1.7798  -0.0760   0.1278  -0.5434 4650.00    0.0
2018/11/08 01:17:30.000  -74.393404518  163.452943010    96.1996   5  11   0.6228   0.5520   1.7807  -0.0729   0.1128  -0.5430 4665.00    0.0
2018/11/08 01:17:45.000  -74.393405307  163.452951627    94.1110   5  11   0.6224   0.5515   1.7766  -0.0696   0.0974  -0.5422 4680.00    0.0
2018/11/08 01:18:00.000  -74.393405152  163.452938823    95.2991   5  12   0.6145   0.5283   1.7060  -0.1396  -0.2630  -0.5827 4695.00    0.0
2018/11/08 01:18:15.000  -74.393406293  163.452943012    95.3760   5  12   0.6141   0.5279   1.7036  -0.1383  -0.2675  -0.5818 4710.00    0.0
2018/11/08 01:18:30.000  -74.393403346  163.452952574    94.9993   5  12   0.6138   0.5276   1.7015  -0.1369  -0.2721  -0.5810 4725.00    0.0
2018/11/08 01:18:45.000  -74.393403244  163.452941163    94.6895   5  12   0.6135   0.5273   1.6997  -0.1356  -0.2766  -0.5803 4740.00    0.0
2018/11/08 01:19:00.000  -74.393404433  163.452946328    95.2753   5  12   0.6132   0.5271   1.6981  -0.1343  -0.2811  -0.5796 4755.00    0.0
2018/11/08 01:19:15.000  -74.393406326  163.452944014    94.9748   5  12   0.6130   0.5270   1.6969  -0.1330  -0.2856  -0.5789 4770.00    0.0
2018/11/08 01:19:30.000  -74.393406300  163.452946928    95.1068   5  12   0.6129   0.5269   1.6958  -0.1317  -0.2901  -0.5783 4785.00    0.0
2018/11/08 01:19:45.000  -74.393405308  163.452941921    96.1690   5  12   0.6128   0.5269   1.6951  -0.1304  -0.2947  -0.5777 4800.00    0.0
2018/11/08 01:20:00.000  -74.393405782  163.452944026    95.6857   5  12   0.6127   0.5269   1.6946  -0.1291  -0.2992  -0.5772 4815.00    0.0
2018/11/08 01:20:15.000  -74.393406526  163.452944816    95.1648   5  12   0.6128   0.5270   1.6946  -0.1278  -0.3038  -0.5767 4830.00    0.0
2018/11/08 01:20:30.000  -74.393405577  163.452945806    95.1570   5  12   0.6128   0.5272   1.6948  -0.1266  -0.3084  -0.5763 4845.00    0.0
2018/11/08 01:20:45.000  -74.393407777  163.452942062    96.0655   5  12   0.6130   0.5275   1.6953  -0.1253  -0.3130  -0.5759 4860.00    0.0
2018/11/08 01:21:00.000  -74.393403715  163.452950114    95.3268   5  12   0.6132   0.5278   1.6960  -0.1241  -0.3176  -0.5755 4875.00    0.0
2018/11/08 01:21:15.000  -74.393405519  163.452943516    95.0688   5  12   0.6134   0.5282   1.6971  -0.1228  -0.3223  -0.5752 4890.00    0.0
2018/11/08 01:21:30.000  -74.393406785  163.452940769    96.0160   5  12   0.6137   0.5286   1.6984  -0.1216  -0.3269  -0.5750 4905.00    0.0
2018/11/08 01:21:45.000  -74.393404015  163.452939693    95.3362   5  12   0.6140   0.5291   1.7000  -0.1203  -0.3316  -0.5748 4920.00    0.0
2018/11/08 01:22:00.000  -74.393404829  163.452935721    96.3044   5  12   0.6144   0.5296   1.7019  -0.1191  -0.3363  -0.5746 4935.00    0.0
2018/11/08 01:22:15.000  -74.393404130  163.452939923    95.3553   5  12   0.6148   0.5303   1.7041  -0.1179  -0.3411  -0.5745 4950.00    0.0
2018/11/08 01:22:30.000  -74.393405931  163.452935200    96.1743   5  12   0.6153   0.5309   1.7066  -0.1166  -0.3459  -0.5745 4965.00    0.0
2018/11/08 01:22:45.000  -74.393404734  163.452934025    95.2309   5  12   0.6148   0.5305   1.7040  -0.1150  -0.3490  -0.5737 4980.00    0.0
2018/11/08 01:23:00.000  -74.393408308  163.452941980    95.6943   5  12   0.6144   0.5302   1.7018  -0.1134  -0.3522  -0.5729 4995.00    0.0
2018/11/08 01:23:15.000  -74.393404947  163.452934960    95.5482   5  12   0.6141   0.5299   1.6997  -0.1118  -0.3555  -0.5722 5010.00    0.0
2018/11/08 01:23:30.000  -74.393405202  163.452939415    95.3833   5  12   0.6138   0.5297   1.6980  -0.1103  -0.3588  -0.5716 5025.00    0.0
2018/11/08 01:23:45.000  -74.393405415  163.452946814    95.9251   5  12   0.6136   0.5296   1.6966  -0.1087  -0.3621  -0.5710 5040.00    0.0
2018/11/08 01:24:00.000  -74.393407969  163.452943961    95.9881   5  12   0.6134   0.5295   1.6954  -0.1071  -0.3654  -0.5704 5055.00    0.0
2018/11/08 01:24:15.000  -74.393407065  163.452943399    95.3260   5  12   0.6132   0.5294   1.6945  -0.1055  -0.3688  -0.5699 5070.00    0.0
2018/11/08 01:24:30.000  -74.393405655  163.452943371    96.3396   5  12   0.6132   0.5295   1.6939  -0.1039  -0.3723  -0.5694 5085.00    0.0
2018/11/08 01:24:45.000  -74.393404969  163.452939629    95.6642   5  12   0.6131   0.5296   1.6936  -0.1023  -0.3758  -0.5690 5100.00    0.0
2018/11/08 01:25:00.000  -74.393404948  163.452933109    95.7541   5  12   0.6131   0.5297   1.6935  -0.1007  -0.3793  -0.5686 5115.00    0.0
2018/11/08 01:25:15.000  -74.393407807  163.452942626    96.0874   5  12   0.6132   0.5299   1.6939  -0.0991  -0.3829  -0.5683 5130.00    0.0
2018/11/08 01:25:30.000  -74.393405826  163.452941749    96.0191   5  12   0.6133   0.5302   1.6945  -0.0975  -0.3866  -0.5680 5145.00    0.0
2018/11/08 01:25:45.000  -74.393406793  163.452931711    96.5656   5  12   0.6135   0.5306   1.6955  -0.0959  -0.3903  -0.5678 5160.00    0.0
2018/11/08 01:26:00.000  -74.393405633  163.452935120    96.0029   5  12   0.6138   0.5310   1.6967  -0.0942  -0.3940  -0.5676 5175.00    0.0
2018/11/08 01:26:15.000  -74.393408656  163.452927214    95.8603   5  12   0.6140   0.5315   1.6982  -0.0926  -0.3978  -0.5675 5190.00    0.0
2018/11/08 01:26:30.000  -74.393408033  163.452942899    95.3605   5  12   0.6144   0.5320   1.7000  -0.0909  -0.4017  -0.5674 5205.00    0.0
2018/11/08 01:26:45.000  -74.393404987  163.452939563    95.1550   5  12   0.6148   0.5326   1.7020  -0.0893  -0.4056  -0.5673 5220.00    0.0
2018/11/08 01:27:00.000  -74.393403983  163.452939935    95.1925   5  12   0.6152   0.5333   1.7044  -0.0876  -0.4095  -0.5673 5235.00    0.0
2018/11/08 01:27:15.000  -74.393405243  163.452942490    95.1146   5  12   0.6157   0.5340   1.7070  -0.0859  -0.4135  -0.5674 5250.00    0.0
2018/11/08 01:27:30.000  -74.393406155  163.452939107    95.2115   5  12   0.6162   0.5348   1.7100  -0.0841  -0.4176  -0.5675 5265.00    0.0
2018/11/08 01:27:45.000  -74.393406846  163.452936243    95.5716   5  12   0.6158   0.5345   1.7079  -0.0820  -0.4201  -0.5669 5280.00    0.0
2018/11/08 01:28:00.000  -74.393405976  163.452938016    96.3214   5  12   0.6155   0.5343   1.7060  -0.0799  -0.4226  -0.5663 5295.00    0.0
2018/11/08 01:28:15.000  -74.393407615  163.452932644    95.7866   5  12   0.6152   0.5341   1.7044  -0.0777  -0.4252  -0.5657 5310.00    0.0
2018/11/08 01:28:30.000  -74.393402348  163.452944067    95.1241   5  12   0.6150   0.5340   1.7030  -0.0755  -0.4279  -0.5652 5325.00    0.0
2018/11/08 01:28:45.000  -74.393405311  163.452936835    95.1885   5  12   0.6148   0.5339   1.7020  -0.0732  -0.4306  -0.5648 5340.00    0.0
2018/11/08 01:29:00.000  -74.393408099  163.452933038    95.9067   5  12   0.6147   0.5339   1.7012  -0.0708  -0.4333  -0.5644 5355.00    0.0
2018/11/08 01:29:15.000  -74.393405091  163.452934392    96.1902   5  12   0.6146   0.5340   1.7007  -0.0685  -0.4361  -0.5640 5370.00    0.0
2018/11/08 01:29:30.000  -74.393406262  163.452936385    96.1417   5  12   0.6145   0.5341   1.7005  -0.0660  -0.4390  -0.5637 5385.00    0.0
2018/11/08 01:29:45.000  -74.393408222  163.452944795    96.9677   5  12   0.6146   0.5343   1.7006  -0.0635  -0.4419  -0.5635 5400.00    0.0
2018/11/08 01:30:00.000  -74.393408193  163.452944836    95.0298   5  12   0.6146   0.5346   1.7010  -0.0609  -0.4449  -0.5633 5415.00    0.0
2018/11/08 01:30:15.000  -74.393406384  163.452944447    95.4128   5  12   0.6148   0.5349   1.7017  -0.0582  -0.4480  -0.5631 5430.00    0.0
2018/11/08 01:30:30.000  -74.393406048  163.452943772    95.1037   5  12   0.6150   0.5353   1.7028  -0.0554  -0.4511  -0.5630 5445.00    0.0
2018/11/08 01:30:45.000  -74.393404751  163.452940383    96.0098   5  12   0.6152   0.5357   1.7042  -0.0525  -0.4543  -0.5630 5460.00    0.0
2018/11/08 01:31:00.000  -74.393408496  163.452942020    96.0323   5  12   0.6155   0.5363   1.7058  -0.0495  -0.4576  -0.5629 5475.00    0.0
2018/11/08 01:31:15.000  -74.393406948  163.452936591    96.0476   5  12   0.6158   0.5368   1.7078  -0.0462  -0.4609  -0.5630 5490.00    0.0
2018/11/08 01:31:30.000  -74.393404869  163.452935944    95.2965   5  12   0.6162   0.5375   1.7100  -0.0428  -0.4643  -0.5631 5505.00    0.0
2018/11/08 01:31:45.000  -74.393403872  163.452931490    96.1478   5  12   0.6166   0.5382   1.7125  -0.0391  -0.4677  -0.5632 5520.00    0.0
2018/11/08 01:32:00.000  -74.393407674  163.452941938    95.6068   5  12   0.6171   0.5389   1.7153  -0.0350  -0.4712  -0.5634 5535.00    0.0
2018/11/08 01:32:15.000  -74.393405613  163.452934990    96.7858   5  12   0.6177   0.5397   1.7183  -0.0304  -0.4748  -0.5636 5550.00    0.0
2018/11/08 01:32:30.000  -74.393405116  163.452945210    95.5943   5  12   0.6183   0.5406   1.7216  -0.0250  -0.4784  -0.5639 5565.00    0.0
2018/11/08 01:32:45.000  -74.393405681  163.452937005    95.9650   5  12   0.6179   0.5404   1.7198  -0.0166  -0.4804  -0.5634 5580.00    0.0
2018/11/08 01:33:00.000  -74.393408358  163.452941518    96.4784   5  12   0.6177   0.5402   1.7183   0.0082  -0.4826  -0.5630 5595.00    0.0
2018/11/08 01:33:15.000  -74.393406852  163.452943241    96.3436   5  12   0.6174   0.5401   1.7171   0.0202  -0.4847  -0.5626 5610.00    0.0
2018/11/08 01:33:30.000  -74.393406732  163.452941096    95.6381   5  12   0.6173   0.5401   1.7161   0.0273  -0.4870  -0.5623 5625.00    0.0
2018/11/08 01:33:45.000  -74.393403629  163.452945483    95.3964   5  12   0.6171   0.5401   1.7155   0.0329  -0.4893  -0.5620 5640.00    0.0
2018/11/08 01:34:00.000  -74.393406410  163.452942995    95.6284   5  12   0.6170   0.5402   1.7151   0.0376  -0.4917  -0.5618 5655.00    0.0
2018/11/08 01:34:15.000  -74.393405819  163.452936560    95.5758   5  12   0.6170   0.5404   1.7150   0.0418  -0.4941  -0.5617 5670.00    0.0
2018/11/08 01:34:30.000  -74.393406724  163.452940546    95.3410   5  12   0.6170   0.5406   1.7152   0.0456  -0.4966  -0.5615 5685.00    0.0
2018/11/08 01:34:45.000  -74.393405839  163.452940348    95.8007   5  12   0.6171   0.5409   1.7157   0.0490  -0.4991  -0.5614 5700.00    0.0
2018/11/08 01:35:00.000  -74.393406690  163.452937116    96.2276   5  12   0.6172   0.5412   1.7165   0.0522  -0.5018  -0.5614 5715.00    0.0
2018/11/08 01:35:15.000  -74.393406740  163.452936450    96.1407   5  12   0.6174   0.5416   1.7176   0.0552  -0.5045  -0.5614 5730.00    0.0
2018/11/08 01:35:30.000  -74.393407135  163.452944813    95.4818   5  12   0.6177   0.5421   1.7190   0.0580  -0.5073  -0.5615 5745.00    0.0
2018/11/08 01:35:45.000  -74.393406026  163.452942209    95.7684   5  12   0.6180   0.5426   1.7208   0.0607  -0.5101  -0.5616 5760.00    0.0
2018/11/08 01:36:00.000  -74.393405103  163.452942311    96.3785   5  12   0.6183   0.5432   1.7228   0.0632  -0.5130  -0.5618 5775.00    0.0
2018/11/08 01:36:15.000  -74.393407760  163.452931239    96.2211   5  12   0.6187   0.5438   1.7250   0.0657  -0.5160  -0.5620 5790.00    0.0
2018/11/08 01:36:30.000  -74.393404961  163.452928980    96.0016   5  12   0.6192   0.5445   1.7276   0.0680  -0.5190  -0.5622 5805.00    0.0
2018/11/08 01:36:45.000  -74.393406354  163.452939485    96.6006   5  12   0.6196   0.5453   1.7304   0.0703  -0.5221  -0.5625 5820.00    0.0
2018/11/08 01:37:00.000  -74.393408570  163.452932514    96.0971   5  12   0.6202   0.5461   1.7335   0.0724  -0.5253  -0.5629 5835.00    0.0
2018/11/08 01:37:15.000  -74.393406635  163.452933551    96.1955   5  12   0.6208   0.5470   1.7368   0.0745  -0.5285  -0.5633 5850.00    0.0
2018/11/08 01:37:30.000  -74.393404241  163.452941926    95.5702   5  12   0.6214   0.5479   1.7404   0.0765  -0.5318  -0.5637 5865.00    0.0
2018/11/08 01:37:45.000  -74.393405367  163.452937618    95.9904   5  12   0.6212   0.5478   1.7391   0.0788  -0.5335  -0.5634 5880.00    0.0
2018/11/08 01:38:00.000  -74.393406604  163.452937506    96.3915   5  12   0.6209   0.5477   1.7380   0.0809  -0.5353  -0.5632 5895.00    0.0
2018/11/08 01:38:15.000  -74.393407400  163.452942812    95.8303   5  12   0.6208   0.5477   1.7371   0.0830  -0.5372  -0.5630 5910.00    0.0
2018/11/08 01:38:30.000  -74.393409281  163.452945207    96.1278   5  12   0.6206   0.5478   1.7366   0.0850  -0.5392  -0.5629 5925.00    0.0
2018/11/08 01:38:45.000  -74.393407244  163.452932486    95.7682   5  12   0.6206   0.5478   1.7363   0.0870  -0.5412  -0.5628 5940.00    0.0
2018/11/08 01:39:00.000  -74.393406738  163.452935935    95.8661   5  12   0.6206   0.5480   1.7362   0.0889  -0.5432  -0.5628 5955.00    0.0
2018/11/08 01:39:15.000  -74.393407473  163.452941438    95.9017   5  12   0.6206   0.5482   1.7365   0.0907  -0.5454  -0.5628 5970.00    0.0
2018/11/08 01:39:30.000  -74.393407214  163.452935437    95.8971   5  12   0.6207   0.5485   1.7370   0.0925  -0.5476  -0.5629 5985.00    0.0
2018/11/08 01:39:45.000  -74.393408336  163.452938518    96.0398   5  12   0.6208   0.5488   1.7378   0.0943  -0.5498  -0.5630 6000.00    0.0
2018/11/08 01:40:00.000  -74.393408346  163.452936708    96.0068   5  12   0.6210   0.5492   1.7389   0.0960  -0.5522  -0.5631 6015.00    0.0
2018/11/08 01:40:15.000  -74.393405544  163.452935576    95.6229   5  12   0.6212   0.5497   1.7404   0.0977  -0.5546  -0.5633 6030.00    0.0
2018/11/08 01:40:30.000  -74.393409687  163.452942869    96.0041   5  12   0.6215   0.5502   1.7421   0.0994  -0.5571  -0.5635 6045.00    0.0
2018/11/08 01:40:45.000  -74.393407778  163.452934232    95.9567   5  12   0.6219   0.5508   1.7441   0.1010  -0.5596  -0.5638 6060.00    0.0
2018/11/08 01:41:00.000  -74.393405972  163.452937447    95.9441   5  12   0.6223   0.5514   1.7463   0.1025  -0.5622  -0.5642 6075.00    0.0
2018/11/08 01:41:15.000  -74.393407923  163.452941607    96.1231   5  12   0.6227   0.5521   1.7489   0.1041  -0.5649  -0.5645 6090.00    0.0
2018/11/08 01:41:30.000  -74.393407900  163.452938753    95.8659   5  12   0.6232   0.5528   1.7516   0.1056  -0.5676  -0.5649 6105.00    0.0
2018/11/08 01:41:45.000  -74.393407038  163.452939213    96.4100   5  12   0.6238   0.5537   1.7546   0.1071  -0.5704  -0.5654 6120.00    0.0
2018/11/08 01:42:00.000  -74.393408885  163.452943480    95.6423   5  12   0.6244   0.5545   1.7579   0.1086  -0.5733  -0.5659 6135.00    0.0
2018/11/08 01:42:15.000  -74.393408277  163.452943544    96.2197   5  12   0.6251   0.5554   1.7614   0.1100  -0.5762  -0.5664 6150.00    0.0
2018/11/08 01:42:30.000  -74.393408048  163.452942305    95.9408   5  12   0.6258   0.5564   1.7652   0.1114  -0.5791  -0.5670 6165.00    0.0
2018/11/08 01:42:45.000  -74.393409474  163.452947960    96.7271   5  12   0.6255   0.5563   1.7641   0.1129  -0.5806  -0.5669 6180.00    0.0
2018/11/08 01:43:00.000  -74.393408390  163.452944886    96.3966   5  12   0.6254   0.5563   1.7633   0.1145  -0.5821  -0.5669 6195.00    0.0
2018/11/08 01:43:15.000  -74.393409988  163.452942840    96.2754   5  12   0.6253   0.5563   1.7628   0.1160  -0.5838  -0.5669 6210.00    0.0
2018/11/08 01:43:30.000  -74.393408146  163.452943892    96.1394   5  12   0.6252   0.5564   1.7626   0.1174  -0.5854  -0.5670 6225.00    0.0
