% program   : RTKLIB ver.2.4.3
% inp file  : _by_type/_obs/hillary/20181109_20181111.18o
% inp file  : _by_type/_obs/base/20181108.18o
% inp file  : _by_type/_sp3+clk/igs20265.clk
% inp file  : _by_type/_sp3+clk/igs20265.sp3
% inp file  : _by_type/_nav/hillary/20181109_20181111.18n
% obs start : 2018/11/09 00:00:00.0 GPST (week2026 432000.0s)
% obs end   : 2018/11/11 23:59:45.0 GPST (week2027  86385.0s)
% pos mode  : dgps
% freqs     : L1+L2
% solution  : combined
% elev mask : 15.0 deg
% dynamics  : off
% tidecorr  : off
% ionos opt : iono-free
% tropo opt : est ztd+grad
% ephemeris : precise
% navi sys  : gps glonass
% antenna1  :                       ( 0.0000  0.0000  0.0000)
% antenna2  :                       ( 0.0000  0.0000  0.0000)
% ref pos   : 90.000000000   0.000000000-6335367.6285
%
% (lat/lon/height=WGS84/ellipsoidal,Q=1:fix,2:float,3:sbas,4:dgps,5:single,6:ppp,ns=# of satellites)
%  GPST                  latitude(deg) longitude(deg)  height(m)   Q  ns   sdn(m)   sde(m)   sdu(m)  sdne(m)  sdeu(m)  sdun(m) age(s)  ratio
2018/11/09 00:00:00.000  -74.393409858  163.452919116    96.7343   5   9   0.6757   0.6145   2.2398  -0.2022   0.4996  -0.7748  15.00    0.0
2018/11/09 00:00:15.000  -74.393411249  163.452928875    97.1840   5   9   0.6756   0.6148   2.2454  -0.2033   0.5039  -0.7764  30.00    0.0
2018/11/09 00:00:30.000  -74.393411725  163.452926816    96.9525   5   9   0.6757   0.6151   2.2514  -0.2045   0.5083  -0.7780  45.00    0.0
2018/11/09 00:00:45.000  -74.393408584  163.452915440    97.1138   5   9   0.6758   0.6155   2.2576  -0.2057   0.5129  -0.7797  60.00    0.0
2018/11/09 00:01:00.000  -74.393411475  163.452925519    97.4022   5   9   0.6760   0.6160   2.2642  -0.2070   0.5175  -0.7815  75.00    0.0
2018/11/09 00:01:15.000  -74.393409876  163.452926180    97.3424   5   9   0.6762   0.6166   2.2711  -0.2083   0.5223  -0.7834  90.00    0.0
2018/11/09 00:01:30.000  -74.393409544  163.452914034    97.5334   5   9   0.6766   0.6172   2.2783  -0.2097   0.5272  -0.7854 105.00    0.0
2018/11/09 00:01:45.000  -74.393410424  163.452920663    97.7589   5   9   0.6770   0.6180   2.2858  -0.2111   0.5321  -0.7876 120.00    0.0
2018/11/09 00:02:00.000  -74.393409658  163.452926364    97.8075   5   9   0.6775   0.6189   2.2936  -0.2126   0.5372  -0.7898 135.00    0.0
2018/11/09 00:02:15.000  -74.393411534  163.452917339    97.2357   5   9   0.6781   0.6198   2.3017  -0.2142   0.5424  -0.7921 150.00    0.0
2018/11/09 00:02:30.000  -74.393408608  163.452918588    97.2349   5   9   0.6787   0.6209   2.3102  -0.2158   0.5478  -0.7946 165.00    0.0
2018/11/09 00:02:45.000  -74.393407143  163.452918663    95.9784   5   9   0.6780   0.6203   2.3130  -0.2164   0.5510  -0.7954 180.00    0.0
2018/11/09 00:03:00.000  -74.393408724  163.452919522    95.8485   5   9   0.6774   0.6198   2.3162  -0.2171   0.5544  -0.7963 195.00    0.0
2018/11/09 00:03:15.000  -74.393409709  163.452923559    96.2342   5   9   0.6768   0.6194   2.3197  -0.2179   0.5579  -0.7973 210.00    0.0
2018/11/09 00:03:30.000  -74.393407899  163.452934580    96.2741   5  10   0.6536   0.6096   2.0730  -0.2581   0.6547  -0.6745 225.00    0.0
2018/11/09 00:03:45.000  -74.393410393  163.452930282    96.6038   5  10   0.6533   0.6094   2.0776  -0.2587   0.6576  -0.6761 240.00    0.0
2018/11/09 00:04:00.000  -74.393410465  163.452927057    95.7630   5  10   0.6530   0.6094   2.0824  -0.2593   0.6605  -0.6777 255.00    0.0
2018/11/09 00:04:15.000  -74.393406612  163.452927328    96.7187   5  10   0.6528   0.6094   2.0875  -0.2600   0.6636  -0.6795 270.00    0.0
2018/11/09 00:04:30.000  -74.393407322  163.452927337    95.0905   5  10   0.6527   0.6095   2.0930  -0.2608   0.6668  -0.6813 285.00    0.0
2018/11/09 00:04:45.000  -74.393406992  163.452938359    95.5595   5  10   0.6526   0.6097   2.0987  -0.2616   0.6702  -0.6833 300.00    0.0
2018/11/09 00:05:00.000  -74.393406875  163.452926939    95.2853   5  10   0.6526   0.6100   2.1047  -0.2625   0.6737  -0.6853 315.00    0.0
2018/11/09 00:05:15.000  -74.393409602  163.452926115    96.4160   5  10   0.6528   0.6104   2.1111  -0.2634   0.6773  -0.6874 330.00    0.0
2018/11/09 00:05:30.000  -74.393410456  163.452935872    96.2830   5  10   0.6530   0.6110   2.1178  -0.2645   0.6811  -0.6897 345.00    0.0
2018/11/09 00:05:45.000  -74.393410071  163.452926801    96.5770   5  10   0.6532   0.6116   2.1249  -0.2656   0.6851  -0.6921 360.00    0.0
2018/11/09 00:06:00.000  -74.393409410  163.452932395    95.2441   5  10   0.6536   0.6123   2.1322  -0.2668   0.6891  -0.6945 375.00    0.0
2018/11/09 00:06:15.000  -74.393408934  163.452927521    95.5482   5  10   0.6540   0.6131   2.1399  -0.2680   0.6933  -0.6971 390.00    0.0
2018/11/09 00:06:30.000  -74.393409070  163.452931980    95.3981   5  10   0.6545   0.6140   2.1478  -0.2693   0.6976  -0.6997 405.00    0.0
2018/11/09 00:06:45.000  -74.393407966  163.452922145    96.5951   5  10   0.6551   0.6150   2.1561  -0.2706   0.7021  -0.7025 420.00    0.0
2018/11/09 00:07:00.000  -74.393406154  163.452925867    95.4832   5  10   0.6558   0.6160   2.1647  -0.2721   0.7067  -0.7053 435.00    0.0
2018/11/09 00:07:15.000  -74.393409193  163.452934045    96.6033   5  10   0.6565   0.6172   2.1735  -0.2736   0.7114  -0.7083 450.00    0.0
2018/11/09 00:07:30.000  -74.393409195  163.452935319    96.9096   5  10   0.6573   0.6185   2.1827  -0.2751   0.7163  -0.7113 465.00    0.0
2018/11/09 00:07:45.000  -74.393410299  163.452933318    96.3422   5  10   0.6568   0.6181   2.1868  -0.2756   0.7188  -0.7130 480.00    0.0
2018/11/09 00:08:00.000  -74.393408779  163.452929189    95.6699   5  10   0.6564   0.6178   2.1910  -0.2762   0.7214  -0.7147 495.00    0.0
2018/11/09 00:08:15.000  -74.393410442  163.452938415    95.4532   5  10   0.6561   0.6176   2.1955  -0.2768   0.7241  -0.7165 510.00    0.0
2018/11/09 00:08:30.000  -74.393410524  163.452935949    96.2566   5  10   0.6558   0.6175   2.2003  -0.2775   0.7269  -0.7184 525.00    0.0
2018/11/09 00:08:45.000  -74.393410275  163.452939465    96.5593   5  10   0.6556   0.6175   2.2054  -0.2782   0.7299  -0.7204 540.00    0.0
2018/11/09 00:09:00.000  -74.393411315  163.452930502    95.8609   5  10   0.6555   0.6176   2.2107  -0.2790   0.7329  -0.7225 555.00    0.0
2018/11/09 00:09:15.000  -74.393408386  163.452932628    94.6164   5  10   0.6555   0.6177   2.2164  -0.2799   0.7361  -0.7247 570.00    0.0
2018/11/09 00:09:30.000  -74.393409103  163.452922280    94.8503   5  10   0.6555   0.6180   2.2223  -0.2808   0.7395  -0.7269 585.00    0.0
2018/11/09 00:09:45.000  -74.393409609  163.452934298    96.5194   5  10   0.6556   0.6183   2.2286  -0.2818   0.7429  -0.7293 600.00    0.0
2018/11/09 00:10:00.000  -74.393408970  163.452926940    96.3172   5  10   0.6558   0.6188   2.2351  -0.2828   0.7465  -0.7318 615.00    0.0
2018/11/09 00:10:15.000  -74.393409244  163.452926179    96.0677   5  10   0.6561   0.6193   2.2421  -0.2840   0.7503  -0.7344 630.00    0.0
2018/11/09 00:10:30.000  -74.393410394  163.452939224    96.4384   5  10   0.6565   0.6200   2.2494  -0.2852   0.7542  -0.7371 645.00    0.0
2018/11/09 00:10:45.000  -74.393411677  163.452932467    97.2832   5  10   0.6569   0.6208   2.2570  -0.2865   0.7583  -0.7399 660.00    0.0
2018/11/09 00:11:00.000  -74.393409683  163.452940292    96.5637   5  10   0.6575   0.6216   2.2649  -0.2879   0.7625  -0.7428 675.00    0.0
2018/11/09 00:11:15.000  -74.393410346  163.452933315    96.4956   5  10   0.6581   0.6226   2.2731  -0.2893   0.7668  -0.7458 690.00    0.0
2018/11/09 00:11:30.000  -74.393409693  163.452933096    96.7880   5  10   0.6588   0.6236   2.2817  -0.2907   0.7713  -0.7489 705.00    0.0
2018/11/09 00:11:45.000  -74.393412195  163.452938039    95.7336   5  10   0.6595   0.6248   2.2905  -0.2923   0.7758  -0.7522 720.00    0.0
2018/11/09 00:12:00.000  -74.393411150  163.452934640    95.9196   5  10   0.6604   0.6260   2.2996  -0.2939   0.7806  -0.7555 735.00    0.0
2018/11/09 00:12:15.000  -74.393411545  163.452931582    96.4362   5  10   0.6613   0.6273   2.3090  -0.2955   0.7854  -0.7589 750.00    0.0
2018/11/09 00:12:30.000  -74.393411986  163.452928378    95.7693   5  10   0.6623   0.6287   2.3188  -0.2973   0.7904  -0.7624 765.00    0.0
2018/11/09 00:12:45.000  -74.393412485  163.452930299    96.0342   5  10   0.6620   0.6284   2.3229  -0.2979   0.7928  -0.7644 780.00    0.0
2018/11/09 00:13:00.000  -74.393409748  163.452931689    96.5403   5  10   0.6617   0.6283   2.3272  -0.2986   0.7953  -0.7664 795.00    0.0
2018/11/09 00:13:15.000  -74.393407220  163.452935151    95.2492   5  10   0.6615   0.6282   2.3319  -0.2993   0.7980  -0.7685 810.00    0.0
2018/11/09 00:13:30.000  -74.393410953  163.452937981    96.0753   5  10   0.6614   0.6282   2.3368  -0.3001   0.8007  -0.7707 825.00    0.0
2018/11/09 00:13:45.000  -74.393410786  163.452932156    96.5332   5  10   0.6614   0.6282   2.3420  -0.3010   0.8036  -0.7730 840.00    0.0
2018/11/09 00:14:00.000  -74.393408607  163.452934666    96.3202   5  10   0.6615   0.6284   2.3475  -0.3019   0.8066  -0.7753 855.00    0.0
2018/11/09 00:14:15.000  -74.393413242  163.452940734    97.0004   5  10   0.6616   0.6287   2.3532  -0.3029   0.8097  -0.7778 870.00    0.0
2018/11/09 00:14:30.000  -74.393412812  163.452941723    96.8625   5  10   0.6618   0.6290   2.3592  -0.3039   0.8129  -0.7804 885.00    0.0
2018/11/09 00:14:45.000  -74.393411263  163.452938880    96.4259   5  10   0.6621   0.6295   2.3656  -0.3050   0.8163  -0.7830 900.00    0.0
2018/11/09 00:15:00.000  -74.393413510  163.452945424    96.5314   5  10   0.6624   0.6300   2.3721  -0.3062   0.8198  -0.7858 915.00    0.0
2018/11/09 00:15:15.000  -74.393410514  163.452932644    96.7806   5  10   0.6629   0.6307   2.3792  -0.3075   0.8235  -0.7887 930.00    0.0
2018/11/09 00:15:30.000  -74.393411339  163.452935888    96.3651   5  10   0.6634   0.6314   2.3865  -0.3088   0.8273  -0.7917 945.00    0.0
2018/11/09 00:15:45.000  -74.393411647  163.452934805    96.3743   5  10   0.6641   0.6323   2.3941  -0.3102   0.8312  -0.7948 960.00    0.0
2018/11/09 00:16:00.000  -74.393409157  163.452936094    96.8262   5  10   0.6648   0.6332   2.4020  -0.3116   0.8353  -0.7980 975.00    0.0
2018/11/09 00:16:15.000  -74.393411272  163.452934395    96.5248   5  10   0.6656   0.6343   2.4102  -0.3131   0.8395  -0.8012 990.00    0.0
2018/11/09 00:16:30.000  -74.393409788  163.452926374    95.5677   5  10   0.6664   0.6354   2.4187  -0.3147   0.8438  -0.8046 1005.00    0.0
2018/11/09 00:16:45.000  -74.393409786  163.452924249    95.3983   5  10   0.6674   0.6366   2.4274  -0.3163   0.8482  -0.8081 1020.00    0.0
2018/11/09 00:17:00.000  -74.393409860  163.452943676    96.4707   5  10   0.6684   0.6379   2.4364  -0.3180   0.8527  -0.8117 1035.00    0.0
2018/11/09 00:17:15.000  -74.393411769  163.452929766    96.1570   5  10   0.6695   0.6393   2.4457  -0.3198   0.8574  -0.8153 1050.00    0.0
2018/11/09 00:17:30.000  -74.393411930  163.452938104    95.9728   5  10   0.6707   0.6408   2.4552  -0.3216   0.8621  -0.8191 1065.00    0.0
2018/11/09 00:17:45.000  -74.393409142  163.452930529    94.5548   5  11   0.6577   0.6405   2.3635  -0.3209   0.8668  -0.8733 1080.00    0.0
2018/11/09 00:18:00.000  -74.393412890  163.452936879    96.3526   5  11   0.6575   0.6404   2.3679  -0.3217   0.8688  -0.8752 1095.00    0.0
2018/11/09 00:18:15.000  -74.393407030  163.452926199    94.8545   5  11   0.6574   0.6403   2.3726  -0.3225   0.8710  -0.8772 1110.00    0.0
2018/11/09 00:18:30.000  -74.393409563  163.452931782    95.0406   5  11   0.6574   0.6403   2.3775  -0.3234   0.8733  -0.8794 1125.00    0.0
2018/11/09 00:18:45.000  -74.393411519  163.452935468    96.5816   5  11   0.6575   0.6404   2.3826  -0.3243   0.8757  -0.8816 1140.00    0.0
2018/11/09 00:19:00.000  -74.393413163  163.452936512    96.3268   5  11   0.6576   0.6406   2.3881  -0.3252   0.8782  -0.8839 1155.00    0.0
2018/11/09 00:19:15.000  -74.393411441  163.452923427    95.2099   5  11   0.6578   0.6409   2.3937  -0.3263   0.8809  -0.8863 1170.00    0.0
2018/11/09 00:19:30.000  -74.393412206  163.452933572    95.9870   5  11   0.6581   0.6413   2.3996  -0.3273   0.8836  -0.8888 1185.00    0.0
2018/11/09 00:19:45.000  -74.393408191  163.452935911    95.6500   5  11   0.6584   0.6417   2.4058  -0.3285   0.8865  -0.8914 1200.00    0.0
2018/11/09 00:20:00.000  -74.393410731  163.452937117    95.4732   5  11   0.6588   0.6422   2.4122  -0.3297   0.8894  -0.8941 1215.00    0.0
2018/11/09 00:20:15.000  -74.393411844  163.452928856    95.4032   5  11   0.6594   0.6429   2.4190  -0.3309   0.8926  -0.8969 1230.00    0.0
2018/11/09 00:20:30.000  -74.393412374  163.452941412    96.4094   5  11   0.6599   0.6437   2.4260  -0.3323   0.8958  -0.8998 1245.00    0.0
2018/11/09 00:20:45.000  -74.393412236  163.452930379    95.7379   5  11   0.6606   0.6445   2.4333  -0.3336   0.8992  -0.9028 1260.00    0.0
2018/11/09 00:21:00.000  -74.393411198  163.452937694    95.5313   5  11   0.6613   0.6454   2.4408  -0.3350   0.9026  -0.9059 1275.00    0.0
2018/11/09 00:21:15.000  -74.393412114  163.452931493    95.6994   5  11   0.6621   0.6464   2.4485  -0.3365   0.9062  -0.9091 1290.00    0.0
2018/11/09 00:21:30.000  -74.393413261  163.452928867    95.7620   5  11   0.6630   0.6475   2.4565  -0.3380   0.9099  -0.9124 1305.00    0.0
2018/11/09 00:21:45.000  -74.393412322  163.452934434    96.2463   5  11   0.6640   0.6487   2.4647  -0.3396   0.9136  -0.9157 1320.00    0.0
2018/11/09 00:22:00.000  -74.393410283  163.452936433    95.9600   5  11   0.6650   0.6499   2.4731  -0.3412   0.9175  -0.9191 1335.00    0.0
2018/11/09 00:22:15.000  -74.393413916  163.452928683    96.0745   5  11   0.6661   0.6513   2.4817  -0.3428   0.9214  -0.9226 1350.00    0.0
2018/11/09 00:22:30.000  -74.393412812  163.452932808    95.8642   5  11   0.6672   0.6527   2.4906  -0.3445   0.9255  -0.9262 1365.00    0.0
2018/11/09 00:22:45.000  -74.393409432  163.452929899    95.8823   5  11   0.6670   0.6523   2.4935  -0.3450   0.9267  -0.9277 1380.00    0.0
2018/11/09 00:23:00.000  -74.393411442  163.452933370    96.7039   5  11   0.6669   0.6521   2.4967  -0.3456   0.9281  -0.9294 1395.00    0.0
2018/11/09 00:23:15.000  -74.393412456  163.452936479    96.4253   5  11   0.6669   0.6519   2.5002  -0.3463   0.9296  -0.9311 1410.00    0.0
2018/11/09 00:23:30.000  -74.393411880  163.452936080    95.7696   5  11   0.6669   0.6518   2.5038  -0.3470   0.9312  -0.9329 1425.00    0.0
2018/11/09 00:23:45.000  -74.393410920  163.452938760    95.4224   5  11   0.6671   0.6518   2.5076  -0.3477   0.9328  -0.9348 1440.00    0.0
2018/11/09 00:24:00.000  -74.393415112  163.452937566    96.8034   5  11   0.6672   0.6519   2.5116  -0.3485   0.9346  -0.9367 1455.00    0.0
2018/11/09 00:24:15.000  -74.393413625  163.452945628    97.3054   5  11   0.6675   0.6520   2.5158  -0.3493   0.9364  -0.9387 1470.00    0.0
2018/11/09 00:24:30.000  -74.393412847  163.452944815    96.7634   5  11   0.6678   0.6522   2.5202  -0.3501   0.9383  -0.9408 1485.00    0.0
2018/11/09 00:24:45.000  -74.393414065  163.452947566    98.0956   5  11   0.6682   0.6525   2.5248  -0.3510   0.9403  -0.9430 1500.00    0.0
2018/11/09 00:25:00.000  -74.393415105  163.452939343    98.1161   5  11   0.6686   0.6529   2.5296  -0.3519   0.9424  -0.9452 1515.00    0.0
2018/11/09 00:25:15.000  -74.393413532  163.452936425    97.1140   5  11   0.6691   0.6534   2.5347  -0.3529   0.9447  -0.9475 1530.00    0.0
2018/11/09 00:25:30.000  -74.393415518  163.452933273    96.8037   5  11   0.6697   0.6540   2.5400  -0.3539   0.9470  -0.9499 1545.00    0.0
2018/11/09 00:25:45.000  -74.393413113  163.452929328    97.0470   5  11   0.6704   0.6546   2.5454  -0.3550   0.9493  -0.9524 1560.00    0.0
2018/11/09 00:26:00.000  -74.393412577  163.452932611    96.0539   5  11   0.6711   0.6554   2.5511  -0.3561   0.9518  -0.9549 1575.00    0.0
2018/11/09 00:26:15.000  -74.393412968  163.452934910    96.3621   5  11   0.6719   0.6562   2.5569  -0.3572   0.9543  -0.9575 1590.00    0.0
2018/11/09 00:26:30.000  -74.393409941  163.452927630    95.9099   5  11   0.6728   0.6570   2.5628  -0.3584   0.9569  -0.9601 1605.00    0.0
2018/11/09 00:26:45.000  -74.393413050  163.452925610    96.3385   5  11   0.6737   0.6580   2.5689  -0.3596   0.9595  -0.9628 1620.00    0.0
2018/11/09 00:27:00.000  -74.393412462  163.452927333    96.0723   5  11   0.6747   0.6590   2.5752  -0.3608   0.9622  -0.9655 1635.00    0.0
2018/11/09 00:27:15.000  -74.393412630  163.452928589    96.4201   5  11   0.6757   0.6601   2.5816  -0.3621   0.9649  -0.9683 1650.00    0.0
2018/11/09 00:27:30.000  -74.393408716  163.452930830    94.8761   5  11   0.6768   0.6612   2.5882  -0.3634   0.9677  -0.9711 1665.00    0.0
2018/11/09 00:27:45.000  -74.393413315  163.452927449    96.2404   5  11   0.6766   0.6606   2.5889  -0.3635   0.9679  -0.9720 1680.00    0.0
2018/11/09 00:28:00.000  -74.393410295  163.452930089    96.2213   5  11   0.6765   0.6601   2.5898  -0.3638   0.9681  -0.9729 1695.00    0.0
2018/11/09 00:28:15.000  -74.393409298  163.452923991    95.5092   5  11   0.6764   0.6597   2.5908  -0.3640   0.9684  -0.9738 1710.00    0.0
2018/11/09 00:28:30.000  -74.393412148  163.452935749    95.3169   5  11   0.6764   0.6594   2.5919  -0.3643   0.9687  -0.9748 1725.00    0.0
2018/11/09 00:28:45.000  -74.393411888  163.452933977    96.0219   5  11   0.6764   0.6591   2.5932  -0.3646   0.9691  -0.9759 1740.00    0.0
2018/11/09 00:29:00.000  -74.393412091  163.452936455    96.4037   5  11   0.6765   0.6589   2.5946  -0.3650   0.9696  -0.9770 1755.00    0.0
2018/11/09 00:29:15.000  -74.393411760  163.452934453    96.2366   5  11   0.6767   0.6587   2.5962  -0.3653   0.9701  -0.9781 1770.00    0.0
2018/11/09 00:29:30.000  -74.393411244  163.452936524    96.4671   5  11   0.6769   0.6586   2.5979  -0.3657   0.9706  -0.9793 1785.00    0.0
2018/11/09 00:29:45.000  -74.393409556  163.452938191    95.2311   5  11   0.6772   0.6586   2.5997  -0.3661   0.9713  -0.9805 1800.00    0.0
2018/11/09 00:30:00.000  -74.393410878  163.452934884    96.2357   5  11   0.6775   0.6587   2.6017  -0.3666   0.9719  -0.9818 1815.00    0.0
2018/11/09 00:30:15.000  -74.393411938  163.452940665    95.5431   5  11   0.6780   0.6589   2.6039  -0.3671   0.9727  -0.9831 1830.00    0.0
2018/11/09 00:30:30.000  -74.393412721  163.452944919    96.5669   5  11   0.6784   0.6591   2.6062  -0.3676   0.9735  -0.9845 1845.00    0.0
2018/11/09 00:30:45.000  -74.393410424  163.452942455    95.1092   5  11   0.6790   0.6594   2.6087  -0.3681   0.9744  -0.9860 1860.00    0.0
2018/11/09 00:31:00.000  -74.393410464  163.452939780    95.3404   5  11   0.6796   0.6598   2.6113  -0.3687   0.9753  -0.9874 1875.00    0.0
2018/11/09 00:31:15.000  -74.393411026  163.452935345    95.4670   5  11   0.6802   0.6602   2.6140  -0.3693   0.9762  -0.9889 1890.00    0.0
2018/11/09 00:31:30.000  -74.393410494  163.452943842    96.2229   5  11   0.6810   0.6607   2.6168  -0.3699   0.9772  -0.9904 1905.00    0.0
2018/11/09 00:31:45.000  -74.393414784  163.452938452    97.2999   5  11   0.6817   0.6612   2.6197  -0.3705   0.9782  -0.9920 1920.00    0.0
2018/11/09 00:32:00.000  -74.393408439  163.452941459    95.3293   5  11   0.6826   0.6618   2.6227  -0.3711   0.9792  -0.9936 1935.00    0.0
2018/11/09 00:32:15.000  -74.393411141  163.452940667    95.7129   5  11   0.6834   0.6625   2.6259  -0.3717   0.9803  -0.9952 1950.00    0.0
2018/11/09 00:32:30.000  -74.393410210  163.452938702    95.6504   5  11   0.6844   0.6633   2.6291  -0.3724   0.9814  -0.9968 1965.00    0.0
2018/11/09 00:32:45.000  -74.393411416  163.452936575    95.7373   5  11   0.6840   0.6624   2.6267  -0.3721   0.9800  -0.9966 1980.00    0.0
2018/11/09 00:33:00.000  -74.393412149  163.452938285    96.5314   5  11   0.6837   0.6615   2.6242  -0.3718   0.9786  -0.9963 1995.00    0.0
2018/11/09 00:33:15.000  -74.393408855  163.452933545    94.4981   5  11   0.6835   0.6607   2.6220  -0.3714   0.9773  -0.9961 2010.00    0.0
2018/11/09 00:33:30.000  -74.393411394  163.452938793    96.1632   5  11   0.6833   0.6600   2.6198  -0.3711   0.9760  -0.9959 2025.00    0.0
2018/11/09 00:33:45.000  -74.393410486  163.452936900    95.1823   5  11   0.6832   0.6593   2.6177  -0.3709   0.9748  -0.9958 2040.00    0.0
2018/11/09 00:34:00.000  -74.393411323  163.452936600    95.8132   5  11   0.6831   0.6587   2.6158  -0.3706   0.9736  -0.9957 2055.00    0.0
2018/11/09 00:34:15.000  -74.393410479  163.452939038    95.7118   5  11   0.6831   0.6582   2.6139  -0.3704   0.9724  -0.9956 2070.00    0.0
2018/11/09 00:34:30.000  -74.393411773  163.452932504    94.9972   5  11   0.6832   0.6577   2.6122  -0.3702   0.9713  -0.9955 2085.00    0.0
2018/11/09 00:34:45.000  -74.393408813  163.452933613    95.4733   5  11   0.6833   0.6573   2.6106  -0.3700   0.9702  -0.9955 2100.00    0.0
2018/11/09 00:35:00.000  -74.393412484  163.452934685    96.2725   5  11   0.6834   0.6570   2.6090  -0.3698   0.9691  -0.9955 2115.00    0.0
2018/11/09 00:35:15.000  -74.393412507  163.452938729    96.1177   5  11   0.6836   0.6567   2.6078  -0.3696   0.9682  -0.9956 2130.00    0.0
2018/11/09 00:35:30.000  -74.393410156  163.452933614    95.3311   5  11   0.6839   0.6565   2.6066  -0.3695   0.9673  -0.9957 2145.00    0.0
2018/11/09 00:35:45.000  -74.393410934  163.452930684    96.4411   5  11   0.6843   0.6564   2.6056  -0.3694   0.9663  -0.9958 2160.00    0.0
2018/11/09 00:36:00.000  -74.393412135  163.452926480    95.2450   5  11   0.6847   0.6564   2.6047  -0.3693   0.9655  -0.9960 2175.00    0.0
2018/11/09 00:36:15.000  -74.393409733  163.452927933    95.2744   5  11   0.6851   0.6564   2.6038  -0.3692   0.9646  -0.9962 2190.00    0.0
2018/11/09 00:36:30.000  -74.393410585  163.452936488    96.1088   5  11   0.6856   0.6564   2.6031  -0.3691   0.9638  -0.9964 2205.00    0.0
2018/11/09 00:36:45.000  -74.393409180  163.452934699    95.3982   5  11   0.6862   0.6566   2.6025  -0.3691   0.9630  -0.9966 2220.00    0.0
2018/11/09 00:37:00.000  -74.393411433  163.452937423    95.7828   5  11   0.6868   0.6567   2.6019  -0.3690   0.9622  -0.9968 2235.00    0.0
2018/11/09 00:37:15.000  -74.393410334  163.452937804    96.3183   5  11   0.6874   0.6570   2.6015  -0.3689   0.9615  -0.9971 2250.00    0.0
2018/11/09 00:37:30.000  -74.393410793  163.452937938    96.3256   5  11   0.6881   0.6573   2.6012  -0.3689   0.9607  -0.9974 2265.00    0.0
2018/11/09 00:37:45.000  -74.393410958  163.452929268    95.3708   5  11   0.6876   0.6560   2.5953  -0.3679   0.9577  -0.9959 2280.00    0.0
2018/11/09 00:38:00.000  -74.393410016  163.452934429    94.7713   5  11   0.6871   0.6548   2.5896  -0.3670   0.9547  -0.9944 2295.00    0.0
2018/11/09 00:38:15.000  -74.393412157  163.452937960    95.9726   5  11   0.6867   0.6536   2.5841  -0.3661   0.9518  -0.9930 2310.00    0.0
2018/11/09 00:38:30.000  -74.393409323  163.452937512    95.7640   5  11   0.6863   0.6525   2.5786  -0.3652   0.9489  -0.9916 2325.00    0.0
2018/11/09 00:38:45.000  -74.393408930  163.452931285    95.5120   5  11   0.6860   0.6515   2.5733  -0.3643   0.9461  -0.9902 2340.00    0.0
2018/11/09 00:39:00.000  -74.393411655  163.452936489    95.8782   5  11   0.6857   0.6506   2.5681  -0.3634   0.9433  -0.9889 2355.00    0.0
2018/11/09 00:39:15.000  -74.393410575  163.452937014    95.6526   5  11   0.6855   0.6497   2.5631  -0.3626   0.9405  -0.9876 2370.00    0.0
2018/11/09 00:39:30.000  -74.393409950  163.452932832    95.1336   5  11   0.6853   0.6489   2.5582  -0.3618   0.9378  -0.9863 2385.00    0.0
2018/11/09 00:39:45.000  -74.393410479  163.452937414    96.1791   5  11   0.6852   0.6481   2.5534  -0.3610   0.9351  -0.9851 2400.00    0.0
2018/11/09 00:40:00.000  -74.393409020  163.452928715    94.1147   5  11   0.6852   0.6474   2.5488  -0.3602   0.9324  -0.9839 2415.00    0.0
2018/11/09 00:40:15.000  -74.393409199  163.452937553    95.9021   5  11   0.6852   0.6469   2.5444  -0.3594   0.9299  -0.9828 2430.00    0.0
2018/11/09 00:40:30.000  -74.393410100  163.452943167    95.9474   5  11   0.6853   0.6463   2.5402  -0.3587   0.9274  -0.9817 2445.00    0.0
2018/11/09 00:40:45.000  -74.393409353  163.452940337    95.9933   5  11   0.6855   0.6459   2.5361  -0.3579   0.9249  -0.9806 2460.00    0.0
2018/11/09 00:41:00.000  -74.393411523  163.452937272    95.8604   5  11   0.6857   0.6455   2.5322  -0.3572   0.9224  -0.9796 2475.00    0.0
2018/11/09 00:41:15.000  -74.393408122  163.452934952    95.5610   5  11   0.6859   0.6451   2.5284  -0.3565   0.9200  -0.9786 2490.00    0.0
2018/11/09 00:41:30.000  -74.393408784  163.452944079    95.5749   5  11   0.6862   0.6449   2.5247  -0.3558   0.9176  -0.9776 2505.00    0.0
2018/11/09 00:41:45.000  -74.393408618  163.452936433    95.1736   5  11   0.6866   0.6447   2.5212  -0.3551   0.9152  -0.9767 2520.00    0.0
2018/11/09 00:42:00.000  -74.393409844  163.452932436    95.2336   5  11   0.6870   0.6445   2.5178  -0.3544   0.9129  -0.9758 2535.00    0.0
2018/11/09 00:42:15.000  -74.393409809  163.452931749    95.2699   5  11   0.6874   0.6444   2.5146  -0.3537   0.9106  -0.9749 2550.00    0.0
2018/11/09 00:42:30.000  -74.393407796  163.452934086    94.5475   5  10   0.9428   0.6774   3.5874  -0.5093   1.1663  -1.6125 2565.00    0.0
2018/11/09 00:42:45.000  -74.393404716  163.452937566    93.9774   5  10   0.9410   0.6755   3.5744  -0.5068   1.1602  -1.6075 2580.00    0.0
2018/11/09 00:43:00.000  -74.393405033  163.452919769    92.7652   5  10   0.9392   0.6736   3.5614  -0.5042   1.1540  -1.6024 2595.00    0.0
2018/11/09 00:43:15.000  -74.393401829  163.452927659    90.7001   5  10   0.9375   0.6717   3.5485  -0.5017   1.1479  -1.5974 2610.00    0.0
2018/11/09 00:43:30.000  -74.393404872  163.452933934    93.1187   5  10   0.9358   0.6700   3.5357  -0.4992   1.1418  -1.5925 2625.00    0.0
2018/11/09 00:43:45.000  -74.393404859  163.452931251    92.0705   5  10   0.9342   0.6683   3.5230  -0.4968   1.1357  -1.5876 2640.00    0.0
2018/11/09 00:44:00.000  -74.393407673  163.452937416    94.4991   5  10   0.9327   0.6666   3.5105  -0.4943   1.1296  -1.5827 2655.00    0.0
2018/11/09 00:44:15.000  -74.393403748  163.452930910    91.8262   5  10   0.9312   0.6650   3.4982  -0.4918   1.1236  -1.5779 2670.00    0.0
2018/11/09 00:44:30.000  -74.393406731  163.452934972    93.2819   5  10   0.9298   0.6635   3.4861  -0.4894   1.1176  -1.5732 2685.00    0.0
2018/11/09 00:44:45.000  -74.393405211  163.452917333    91.9471   5  10   0.9284   0.6621   3.4741  -0.4869   1.1117  -1.5685 2700.00    0.0
2018/11/09 00:45:00.000  -74.393405301  163.452931653    93.2519   5  10   0.9271   0.6607   3.4624  -0.4845   1.1058  -1.5640 2715.00    0.0
2018/11/09 00:45:15.000  -74.393407824  163.452937304    94.0753   5  10   0.9260   0.6595   3.4511  -0.4821   1.1000  -1.5596 2730.00    0.0
2018/11/09 00:45:30.000  -74.393405995  163.452935163    92.8500   5  10   0.9249   0.6583   3.4400  -0.4797   1.0943  -1.5553 2745.00    0.0
2018/11/09 00:45:45.000  -74.393405095  163.452933782    93.3799   5  10   0.9239   0.6571   3.4292  -0.4774   1.0886  -1.5511 2760.00    0.0
2018/11/09 00:46:00.000  -74.393402827  163.452936503    92.6606   5   9   0.9270   0.6562   3.6685  -0.4741   1.0766  -1.5838 2775.00    0.0
2018/11/09 00:46:15.000  -74.393406290  163.452931485    94.3629   5   9   0.9262   0.6552   3.6605  -0.4718   1.0709  -1.5805 2790.00    0.0
2018/11/09 00:46:30.000  -74.393407818  163.452931348    93.7446   5   9   0.9256   0.6543   3.6528  -0.4695   1.0653  -1.5773 2805.00    0.0
2018/11/09 00:46:45.000  -74.393404794  163.452935786    93.1924   5   9   0.9249   0.6534   3.6454  -0.4671   1.0597  -1.5742 2820.00    0.0
2018/11/09 00:47:00.000  -74.393404358  163.452934430    92.7506   5   9   0.9244   0.6527   3.6382  -0.4648   1.0541  -1.5711 2835.00    0.0
2018/11/09 00:47:15.000  -74.393407970  163.452940876    93.8436   5   9   0.9240   0.6520   3.6314  -0.4626   1.0486  -1.5682 2850.00    0.0
2018/11/09 00:47:30.000  -74.393408207  163.452937926    93.3612   5   9   0.9236   0.6513   3.6248  -0.4603   1.0431  -1.5654 2865.00    0.0
2018/11/09 00:47:45.000  -74.393412067  163.452941185    95.5152   5   9   0.9208   0.6491   3.6064  -0.4566   1.0345  -1.5578 2880.00    0.0
2018/11/09 00:48:00.000  -74.393408630  163.452932308    93.1928   5   9   0.9183   0.6471   3.5886  -0.4530   1.0261  -1.5504 2895.00    0.0
2018/11/09 00:48:15.000  -74.393405244  163.452933215    92.6251   5   9   0.9157   0.6451   3.5712  -0.4495   1.0177  -1.5431 2910.00    0.0
2018/11/09 00:48:30.000  -74.393406030  163.452933804    93.0186   5   9   0.9133   0.6432   3.5541  -0.4460   1.0094  -1.5360 2925.00    0.0
2018/11/09 00:48:45.000  -74.393402307  163.452933048    92.2568   5   9   0.9110   0.6414   3.5373  -0.4425   1.0012  -1.5291 2940.00    0.0
2018/11/09 00:49:00.000  -74.393407789  163.452935775    94.0017   5  10   0.7482   0.6357   2.6719  -0.3954   0.9080  -1.0651 2955.00    0.0
2018/11/09 00:49:15.000  -74.393406748  163.452931825    93.1597   5  10   0.7476   0.6344   2.6659  -0.3939   0.9038  -1.0629 2970.00    0.0
2018/11/09 00:49:30.000  -74.393413089  163.452940130    95.0906   5  10   0.7471   0.6331   2.6601  -0.3925   0.8996  -1.0608 2985.00    0.0
2018/11/09 00:49:45.000  -74.393407253  163.452945368    94.7485   5  10   0.7466   0.6320   2.6546  -0.3910   0.8955  -1.0587 3000.00    0.0
2018/11/09 00:50:00.000  -74.393408259  163.452941539    93.5794   5  10   0.7462   0.6309   2.6492  -0.3896   0.8914  -1.0567 3015.00    0.0
2018/11/09 00:50:15.000  -74.393407439  163.452943824    94.5141   5  10   0.7459   0.6299   2.6442  -0.3882   0.8875  -1.0549 3030.00    0.0
2018/11/09 00:50:30.000  -74.393408623  163.452941457    94.9492   5  10   0.7457   0.6289   2.6395  -0.3869   0.8835  -1.0530 3045.00    0.0
2018/11/09 00:50:45.000  -74.393408424  163.452935661    95.3305   5  10   0.7455   0.6281   2.6350  -0.3856   0.8797  -1.0513 3060.00    0.0
2018/11/09 00:51:00.000  -74.393410629  163.452936424    94.7976   5  10   0.7454   0.6273   2.6308  -0.3843   0.8759  -1.0496 3075.00    0.0
2018/11/09 00:51:15.000  -74.393409266  163.452935044    93.7232   5  10   0.7454   0.6265   2.6268  -0.3831   0.8721  -1.0480 3090.00    0.0
2018/11/09 00:51:30.000  -74.393407371  163.452942427    94.4027   5  10   0.7455   0.6259   2.6231  -0.3818   0.8684  -1.0465 3105.00    0.0
2018/11/09 00:51:45.000  -74.393409184  163.452936383    94.9884   5  10   0.7456   0.6253   2.6197  -0.3806   0.8648  -1.0450 3120.00    0.0
2018/11/09 00:52:00.000  -74.393412383  163.452939277    94.9676   5  10   0.7457   0.6248   2.6165  -0.3795   0.8612  -1.0436 3135.00    0.0
2018/11/09 00:52:15.000  -74.393408889  163.452940624    94.1085   5  10   0.7460   0.6244   2.6136  -0.3783   0.8576  -1.0423 3150.00    0.0
2018/11/09 00:52:30.000  -74.393411193  163.452943299    95.8776   5  10   0.7463   0.6240   2.6109  -0.3772   0.8541  -1.0410 3165.00    0.0
2018/11/09 00:52:45.000  -74.393409370  163.452938271    95.2173   5  10   0.7452   0.6223   2.6016  -0.3752   0.8486  -1.0377 3180.00    0.0
2018/11/09 00:53:00.000  -74.393409630  163.452944360    93.5408   5  10   0.7441   0.6206   2.5924  -0.3732   0.8431  -1.0344 3195.00    0.0
2018/11/09 00:53:15.000  -74.393406797  163.452942622    94.0547   5  10   0.7432   0.6189   2.5835  -0.3712   0.8376  -1.0311 3210.00    0.0
2018/11/09 00:53:30.000  -74.393407977  163.452944450    94.8430   5  10   0.7423   0.6174   2.5748  -0.3693   0.8323  -1.0280 3225.00    0.0
2018/11/09 00:53:45.000  -74.393409799  163.452938456    94.8369   5  10   0.7414   0.6159   2.5665  -0.3674   0.8270  -1.0249 3240.00    0.0
2018/11/09 00:54:00.000  -74.393409804  163.452944441    93.8673   5  10   0.7407   0.6145   2.5584  -0.3655   0.8217  -1.0219 3255.00    0.0
2018/11/09 00:54:15.000  -74.393406168  163.452938389    93.5787   5  10   0.7400   0.6132   2.5506  -0.3637   0.8166  -1.0190 3270.00    0.0
2018/11/09 00:54:30.000  -74.393410301  163.452944909    94.6912   5  10   0.7394   0.6120   2.5431  -0.3619   0.8115  -1.0162 3285.00    0.0
2018/11/09 00:54:45.000  -74.393410258  163.452937933    95.1034   5  10   0.7388   0.6108   2.5359  -0.3602   0.8065  -1.0134 3300.00    0.0
2018/11/09 00:55:00.000  -74.393411175  163.452947991    95.8402   5  10   0.7384   0.6097   2.5290  -0.3585   0.8015  -1.0108 3315.00    0.0
2018/11/09 00:55:15.000  -74.393412206  163.452938995    96.3277   5  10   0.7380   0.6088   2.5226  -0.3568   0.7967  -1.0083 3330.00    0.0
2018/11/09 00:55:30.000  -74.393407215  163.452934893    93.5717   5  10   0.7377   0.6079   2.5165  -0.3552   0.7919  -1.0059 3345.00    0.0
2018/11/09 00:55:45.000  -74.393410012  163.452941454    94.5434   5  10   0.7375   0.6071   2.5107  -0.3536   0.7872  -1.0035 3360.00    0.0
2018/11/09 00:56:00.000  -74.393409224  163.452930406    94.9957   5  10   0.7373   0.6063   2.5053  -0.3520   0.7826  -1.0013 3375.00    0.0
2018/11/09 00:56:15.000  -74.393408981  163.452939104    94.1786   5  10   0.7372   0.6056   2.5002  -0.3505   0.7780  -0.9992 3390.00    0.0
2018/11/09 00:56:30.000  -74.393411867  163.452935667    95.3136   5  10   0.7372   0.6050   2.4954  -0.3490   0.7735  -0.9971 3405.00    0.0
2018/11/09 00:56:45.000  -74.393408409  163.452940894    95.7606   5  10   0.7373   0.6045   2.4909  -0.3475   0.7690  -0.9952 3420.00    0.0
2018/11/09 00:57:00.000  -74.393406185  163.452934061    94.5384   5  10   0.7374   0.6041   2.4868  -0.3461   0.7646  -0.9933 3435.00    0.0
2018/11/09 00:57:15.000  -74.393407099  163.452934672    93.9976   5  10   0.7376   0.6037   2.4830  -0.3447   0.7603  -0.9915 3450.00    0.0
2018/11/09 00:57:30.000  -74.393410964  163.452943182    94.7471   5  10   0.7378   0.6034   2.4795  -0.3433   0.7560  -0.9898 3465.00    0.0
2018/11/09 00:57:45.000  -74.393409248  163.452935904    94.6591   5  10   0.7367   0.6018   2.4690  -0.3411   0.7499  -0.9860 3480.00    0.0
2018/11/09 00:58:00.000  -74.393411929  163.452947302    95.4804   5  10   0.7357   0.6002   2.4589  -0.3389   0.7438  -0.9824 3495.00    0.0
2018/11/09 00:58:15.000  -74.393408749  163.452941494    94.8231   5  10   0.7347   0.5988   2.4492  -0.3368   0.7379  -0.9788 3510.00    0.0
2018/11/09 00:58:30.000  -74.393410935  163.452942444    94.7906   5  10   0.7338   0.5974   2.4399  -0.3347   0.7320  -0.9753 3525.00    0.0
2018/11/09 00:58:45.000  -74.393411059  163.452943562    95.0709   5  10   0.7330   0.5961   2.4308  -0.3327   0.7262  -0.9720 3540.00    0.0
2018/11/09 00:59:00.000  -74.393409449  163.452932661    94.6981   5  10   0.7323   0.5948   2.4222  -0.3307   0.7205  -0.9687 3555.00    0.0
2018/11/09 00:59:15.000  -74.393408195  163.452935906    94.3262   5  10   0.7316   0.5937   2.4139  -0.3287   0.7149  -0.9656 3570.00    0.0
2018/11/09 00:59:30.000  -74.393408652  163.452938810    93.8657   5  10   0.7311   0.5926   2.4059  -0.3268   0.7093  -0.9625 3585.00    0.0
2018/11/09 00:59:45.000  -74.393410601  163.452943170    94.6264   5  10   0.7305   0.5916   2.3983  -0.3249   0.7038  -0.9596 3600.00    0.0
2018/11/09 01:00:00.000  -74.393409738  163.452946166    94.8252   5  10   0.7301   0.5907   2.3911  -0.3231   0.6984  -0.9567 3615.00    0.0
2018/11/09 01:00:15.000  -74.393409491  163.452942532    95.2860   5  10   0.7298   0.5899   2.3844  -0.3213   0.6931  -0.9540 3630.00    0.0
2018/11/09 01:00:30.000  -74.393411831  163.452943066    95.2589   5  10   0.7295   0.5892   2.3780  -0.3195   0.6878  -0.9514 3645.00    0.0
2018/11/09 01:00:45.000  -74.393411589  163.452952458    95.7460   5  10   0.7293   0.5886   2.3720  -0.3178   0.6826  -0.9490 3660.00    0.0
2018/11/09 01:01:00.000  -74.393411060  163.452939307    94.9313   5  10   0.7292   0.5880   2.3664  -0.3161   0.6775  -0.9466 3675.00    0.0
2018/11/09 01:01:15.000  -74.393412125  163.452944648    96.2958   5  10   0.7291   0.5875   2.3612  -0.3144   0.6724  -0.9443 3690.00    0.0
2018/11/09 01:01:30.000  -74.393406879  163.452937258    94.2931   5  10   0.7291   0.5871   2.3563  -0.3128   0.6674  -0.9421 3705.00    0.0
2018/11/09 01:01:45.000  -74.393410611  163.452950731    94.7331   5  10   0.7292   0.5867   2.3518  -0.3112   0.6625  -0.9401 3720.00    0.0
2018/11/09 01:02:00.000  -74.393408691  163.452952386    92.9535   5  10   0.7294   0.5865   2.3476  -0.3096   0.6576  -0.9381 3735.00    0.0
2018/11/09 01:02:15.000  -74.393411345  163.452947747    94.8556   5  10   0.7296   0.5863   2.3438  -0.3081   0.6527  -0.9363 3750.00    0.0
2018/11/09 01:02:30.000  -74.393411946  163.452955925    95.3304   5  10   0.7299   0.5862   2.3404  -0.3066   0.6479  -0.9345 3765.00    0.0
2018/11/09 01:02:45.000  -74.393411329  163.452947193    94.1134   5  10   0.7290   0.5848   2.3303  -0.3044   0.6416  -0.9308 3780.00    0.0
2018/11/09 01:03:00.000  -74.393413900  163.452949365    95.8500   5  10   0.7280   0.5835   2.3204  -0.3022   0.6353  -0.9272 3795.00    0.0
2018/11/09 01:03:15.000  -74.393411462  163.452951231    94.1893   5  10   0.7271   0.5823   2.3109  -0.3001   0.6292  -0.9237 3810.00    0.0
2018/11/09 01:03:30.000  -74.393407525  163.452950888    94.7953   5  10   0.7264   0.5811   2.3018  -0.2980   0.6231  -0.9203 3825.00    0.0
2018/11/09 01:03:45.000  -74.393412620  163.452948293    95.6636   5  10   0.7256   0.5801   2.2931  -0.2959   0.6170  -0.9170 3840.00    0.0
2018/11/09 01:04:00.000  -74.393409189  163.452948008    94.8799   5  10   0.7250   0.5791   2.2847  -0.2939   0.6111  -0.9138 3855.00    0.0
2018/11/09 01:04:15.000  -74.393413762  163.452951493    96.4970   5  10   0.7244   0.5782   2.2768  -0.2919   0.6052  -0.9107 3870.00    0.0
2018/11/09 01:04:30.000  -74.393413902  163.452941564    95.5285   5  10   0.7239   0.5774   2.2692  -0.2899   0.5993  -0.9078 3885.00    0.0
2018/11/09 01:04:45.000  -74.393411816  163.452957704    95.3784   5  10   0.7235   0.5767   2.2620  -0.2880   0.5935  -0.9050 3900.00    0.0
2018/11/09 01:05:00.000  -74.393411937  163.452955765    94.4524   5  10   0.7232   0.5760   2.2552  -0.2861   0.5878  -0.9023 3915.00    0.0
2018/11/09 01:05:15.000  -74.393412344  163.452943420    95.0177   5  10   0.7229   0.5754   2.2490  -0.2843   0.5822  -0.8997 3930.00    0.0
2018/11/09 01:05:30.000  -74.393410420  163.452950522    95.3858   5  10   0.7228   0.5750   2.2431  -0.2825   0.5766  -0.8972 3945.00    0.0
2018/11/09 01:05:45.000  -74.393411567  163.452947299    95.8040   5  10   0.7227   0.5745   2.2376  -0.2807   0.5710  -0.8949 3960.00    0.0
2018/11/09 01:06:00.000  -74.393410692  163.452945317    94.8005   5  10   0.7227   0.5742   2.2326  -0.2790   0.5655  -0.8926 3975.00    0.0
2018/11/09 01:06:15.000  -74.393410230  163.452953877    95.5138   5  10   0.7227   0.5740   2.2279  -0.2773   0.5600  -0.8905 3990.00    0.0
2018/11/09 01:06:30.000  -74.393410952  163.452943916    95.3037   5  10   0.7228   0.5738   2.2235  -0.2756   0.5545  -0.8885 4005.00    0.0
2018/11/09 01:06:45.000  -74.393409240  163.452941731    94.2698   5  10   0.7230   0.5737   2.2196  -0.2740   0.5491  -0.8866 4020.00    0.0
2018/11/09 01:07:00.000  -74.393410261  163.452942166    95.1607   5  10   0.7233   0.5736   2.2160  -0.2724   0.5437  -0.8848 4035.00    0.0
2018/11/09 01:07:15.000  -74.393409107  163.452945741    94.4730   5  10   0.7236   0.5737   2.2128  -0.2708   0.5384  -0.8830 4050.00    0.0
2018/11/09 01:07:30.000  -74.393409224  163.452943935    95.3818   5  10   0.7240   0.5738   2.2100  -0.2692   0.5330  -0.8814 4065.00    0.0
2018/11/09 01:07:45.000  -74.393409420  163.452945496    94.6104   5  10   0.7231   0.5727   2.2006  -0.2670   0.5265  -0.8780 4080.00    0.0
2018/11/09 01:08:00.000  -74.393409601  163.452948011    94.7646   5  10   0.7224   0.5717   2.1915  -0.2649   0.5200  -0.8747 4095.00    0.0
2018/11/09 01:08:15.000  -74.393410639  163.452950389    95.2490   5  10   0.7216   0.5708   2.1828  -0.2628   0.5136  -0.8714 4110.00    0.0
2018/11/09 01:08:30.000  -74.393412045  163.452943518    94.6776   5  10   0.7210   0.5699   2.1746  -0.2607   0.5073  -0.8683 4125.00    0.0
2018/11/09 01:08:45.000  -74.393410629  163.452947650    94.9274   5  10   0.7204   0.5691   2.1667  -0.2586   0.5010  -0.8654 4140.00    0.0
2018/11/09 01:09:00.000  -74.393410579  163.452943011    95.2740   5  10   0.7199   0.5684   2.1592  -0.2566   0.4947  -0.8625 4155.00    0.0
2018/11/09 01:09:15.000  -74.393408881  163.452945087    94.4004   5  10   0.7195   0.5678   2.1521  -0.2547   0.4884  -0.8597 4170.00    0.0
2018/11/09 01:09:30.000  -74.393410389  163.452938252    95.4767   5  10   0.7191   0.5672   2.1454  -0.2527   0.4822  -0.8571 4185.00    0.0
2018/11/09 01:09:45.000  -74.393410799  163.452950291    95.4199   5  11   0.6194   0.5493   1.7937  -0.1095   0.2529  -0.5524 4200.00    0.0
2018/11/09 01:10:00.000  -74.393409687  163.452949182    95.3105   5  11   0.6194   0.5492   1.7915  -0.1074   0.2459  -0.5516 4215.00    0.0
2018/11/09 01:10:15.000  -74.393410798  163.452947222    95.5021   5  11   0.6195   0.5492   1.7898  -0.1052   0.2387  -0.5508 4230.00    0.0
2018/11/09 01:10:30.000  -74.393411268  163.452952884    95.5560   5  11   0.6196   0.5492   1.7883  -0.1030   0.2313  -0.5500 4245.00    0.0
2018/11/09 01:10:45.000  -74.393410613  163.452959167    94.7495   5  11   0.6198   0.5493   1.7871  -0.1007   0.2236  -0.5493 4260.00    0.0
2018/11/09 01:11:00.000  -74.393412252  163.452952696    95.4078   5  11   0.6200   0.5494   1.7862  -0.0984   0.2156  -0.5486 4275.00    0.0
2018/11/09 01:11:15.000  -74.393410209  163.452949707    95.2760   5  11   0.6203   0.5497   1.7856  -0.0960   0.2072  -0.5480 4290.00    0.0
2018/11/09 01:11:30.000  -74.393410336  163.452949248    95.0416   5  11   0.6206   0.5500   1.7852  -0.0936   0.1985  -0.5474 4305.00    0.0
2018/11/09 01:11:45.000  -74.393410125  163.452953137    95.1267   5  11   0.6210   0.5503   1.7852  -0.0911   0.1894  -0.5468 4320.00    0.0
2018/11/09 01:12:00.000  -74.393411626  163.452958148    95.5000   5  11   0.6215   0.5508   1.7855  -0.0885   0.1797  -0.5463 4335.00    0.0
2018/11/09 01:12:15.000  -74.393409785  163.452949832    95.6309   5  11   0.6220   0.5513   1.7861  -0.0859   0.1694  -0.5459 4350.00    0.0
2018/11/09 01:12:30.000  -74.393409845  163.452953642    94.7746   5  11   0.6225   0.5518   1.7870  -0.0831   0.1584  -0.5454 4365.00    0.0
2018/11/09 01:12:45.000  -74.393410418  163.452945941    95.7655   5  11   0.6221   0.5513   1.7828  -0.0803   0.1477  -0.5445 4380.00    0.0
2018/11/09 01:13:00.000  -74.393410508  163.452954739    95.2026   5  11   0.6218   0.5508   1.7787  -0.0772   0.1361  -0.5437 4395.00    0.0
2018/11/09 01:13:15.000  -74.393410437  163.452950406    96.0462   5  11   0.6215   0.5504   1.7750  -0.0741   0.1235  -0.5428 4410.00    0.0
2018/11/09 01:13:30.000  -74.393412250  163.452944632    95.9451   5  11   0.6212   0.5500   1.7716  -0.0709   0.1094  -0.5420 4425.00    0.0
2018/11/09 01:13:45.000  -74.393409239  163.452954132    94.9857   5  11   0.6210   0.5497   1.7684  -0.0675   0.0932  -0.5413 4440.00    0.0
2018/11/09 01:14:00.000  -74.393412884  163.452951683    95.7715   5  12   0.6134   0.5268   1.6998  -0.1384  -0.2629  -0.5816 4455.00    0.0
2018/11/09 01:14:15.000  -74.393410975  163.452958534    94.8121   5  12   0.6131   0.5267   1.6984  -0.1372  -0.2678  -0.5810 4470.00    0.0
2018/11/09 01:14:30.000  -74.393412687  163.452948307    95.9979   5  12   0.6130   0.5266   1.6973  -0.1359  -0.2726  -0.5803 4485.00    0.0
2018/11/09 01:14:45.000  -74.393410533  163.452947080    94.9373   5  12   0.6129   0.5265   1.6965  -0.1347  -0.2774  -0.5797 4500.00    0.0
2018/11/09 01:15:00.000  -74.393411857  163.452946506    95.1605   5  12   0.6128   0.5266   1.6959  -0.1334  -0.2822  -0.5791 4515.00    0.0
2018/11/09 01:15:15.000  -74.393412476  163.452952770    95.7696   5  12   0.6128   0.5267   1.6958  -0.1322  -0.2871  -0.5786 4530.00    0.0
2018/11/09 01:15:30.000  -74.393410235  163.452946492    95.2342   5  12   0.6129   0.5268   1.6959  -0.1309  -0.2920  -0.5782 4545.00    0.0
2018/11/09 01:15:45.000  -74.393411885  163.452953477    95.6603   5  12   0.6130   0.5271   1.6963  -0.1297  -0.2968  -0.5778 4560.00    0.0
2018/11/09 01:16:00.000  -74.393411385  163.452954147    95.1412   5  12   0.6132   0.5274   1.6970  -0.1285  -0.3017  -0.5774 4575.00    0.0
2018/11/09 01:16:15.000  -74.393412066  163.452954336    95.1648   5  12   0.6134   0.5277   1.6980  -0.1273  -0.3066  -0.5771 4590.00    0.0
2018/11/09 01:16:30.000  -74.393413228  163.452949552    95.1152   5  12   0.6137   0.5281   1.6993  -0.1261  -0.3115  -0.5768 4605.00    0.0
2018/11/09 01:16:45.000  -74.393410714  163.452952945    94.9849   5  12   0.6140   0.5286   1.7008  -0.1248  -0.3164  -0.5766 4620.00    0.0
2018/11/09 01:17:00.000  -74.393411927  163.452948692    95.6198   5  12   0.6144   0.5291   1.7026  -0.1236  -0.3214  -0.5764 4635.00    0.0
2018/11/09 01:17:15.000  -74.393413519  163.452950720    95.4075   5  12   0.6148   0.5297   1.7048  -0.1224  -0.3263  -0.5763 4650.00    0.0
2018/11/09 01:17:30.000  -74.393412774  163.452948137    96.0545   5  12   0.6152   0.5304   1.7072  -0.1212  -0.3313  -0.5762 4665.00    0.0
2018/11/09 01:17:45.000  -74.393412712  163.452955904    95.8820   5  12   0.6148   0.5300   1.7045  -0.1197  -0.3346  -0.5753 4680.00    0.0
2018/11/09 01:18:00.000  -74.393410516  163.452948048    95.6161   5  12   0.6144   0.5296   1.7021  -0.1182  -0.3380  -0.5746 4695.00    0.0
2018/11/09 01:18:15.000  -74.393411307  163.452951765    96.1537   5  12   0.6141   0.5293   1.7000  -0.1167  -0.3413  -0.5738 4710.00    0.0
2018/11/09 01:18:30.000  -74.393412140  163.452942815    95.9628   5  12   0.6138   0.5291   1.6982  -0.1152  -0.3448  -0.5731 4725.00    0.0
2018/11/09 01:18:45.000  -74.393412477  163.452945713    95.3054   5  12   0.6135   0.5289   1.6967  -0.1137  -0.3482  -0.5725 4740.00    0.0
2018/11/09 01:19:00.000  -74.393410550  163.452954273    95.8002   5  12   0.6133   0.5288   1.6954  -0.1121  -0.3517  -0.5719 4755.00    0.0
2018/11/09 01:19:15.000  -74.393409927  163.452962425    95.5561   5  12   0.6132   0.5288   1.6944  -0.1106  -0.3553  -0.5714 4770.00    0.0
2018/11/09 01:19:30.000  -74.393412424  163.452955237    95.2326   5  12   0.6131   0.5288   1.6937  -0.1091  -0.3589  -0.5709 4785.00    0.0
2018/11/09 01:19:45.000  -74.393413745  163.452947223    95.7814   5  12   0.6130   0.5288   1.6933  -0.1076  -0.3625  -0.5704 4800.00    0.0
2018/11/09 01:20:00.000  -74.393413786  163.452956210    95.7067   5  12   0.6130   0.5290   1.6932  -0.1060  -0.3661  -0.5700 4815.00    0.0
2018/11/09 01:20:15.000  -74.393410566  163.452957264    94.7806   5  12   0.6131   0.5292   1.6935  -0.1045  -0.3699  -0.5696 4830.00    0.0
2018/11/09 01:20:30.000  -74.393410014  163.452947279    95.6571   5  12   0.6132   0.5295   1.6941  -0.1030  -0.3737  -0.5693 4845.00    0.0
2018/11/09 01:20:45.000  -74.393413049  163.452951633    95.4879   5  12   0.6134   0.5298   1.6949  -0.1014  -0.3775  -0.5691 4860.00    0.0
2018/11/09 01:21:00.000  -74.393414260  163.452950493    96.1250   5  12   0.6136   0.5302   1.6961  -0.0999  -0.3814  -0.5689 4875.00    0.0
2018/11/09 01:21:15.000  -74.393412976  163.452946949    95.1943   5  12   0.6139   0.5307   1.6975  -0.0983  -0.3853  -0.5687 4890.00    0.0
2018/11/09 01:21:30.000  -74.393410947  163.452937804    96.0305   5  12   0.6142   0.5312   1.6992  -0.0968  -0.3893  -0.5686 4905.00    0.0
2018/11/09 01:21:45.000  -74.393410365  163.452945907    95.4525   5  12   0.6146   0.5318   1.7012  -0.0952  -0.3933  -0.5685 4920.00    0.0
2018/11/09 01:22:00.000  -74.393411764  163.452952981    95.5327   5  12   0.6150   0.5324   1.7035  -0.0936  -0.3973  -0.5685 4935.00    0.0
2018/11/09 01:22:15.000  -74.393413120  163.452949948    95.2297   5  12   0.6155   0.5331   1.7061  -0.0920  -0.4014  -0.5685 4950.00    0.0
2018/11/09 01:22:30.000  -74.393413928  163.452952412    94.8181   5  12   0.6160   0.5339   1.7089  -0.0904  -0.4056  -0.5686 4965.00    0.0
2018/11/09 01:22:45.000  -74.393412130  163.452951238    95.5515   5  12   0.6156   0.5336   1.7067  -0.0884  -0.4082  -0.5679 4980.00    0.0
2018/11/09 01:23:00.000  -74.393411759  163.452960957    94.9627   5  12   0.6152   0.5333   1.7047  -0.0864  -0.4108  -0.5673 4995.00    0.0
2018/11/09 01:23:15.000  -74.393410951  163.452950670    95.4037   5  12   0.6150   0.5331   1.7030  -0.0844  -0.4135  -0.5667 5010.00    0.0
2018/11/09 01:23:30.000  -74.393413196  163.452955414    94.9618   5  12   0.6147   0.5330   1.7016  -0.0823  -0.4162  -0.5662 5025.00    0.0
2018/11/09 01:23:45.000  -74.393413007  163.452957399    94.8538   5  12   0.6145   0.5329   1.7005  -0.0803  -0.4190  -0.5657 5040.00    0.0
2018/11/09 01:24:00.000  -74.393411375  163.452958238    95.5082   5  12   0.6144   0.5329   1.6996  -0.0781  -0.4219  -0.5653 5055.00    0.0
2018/11/09 01:24:15.000  -74.393410949  163.452957772    94.5608   5  12   0.6143   0.5330   1.6990  -0.0760  -0.4248  -0.5649 5070.00    0.0
2018/11/09 01:24:30.000  -74.393410299  163.452955906    94.7958   5  12   0.6142   0.5331   1.6987  -0.0738  -0.4277  -0.5646 5085.00    0.0
2018/11/09 01:24:45.000  -74.393409834  163.452947137    94.8284   5  12   0.6142   0.5333   1.6987  -0.0715  -0.4307  -0.5643 5100.00    0.0
2018/11/09 01:25:00.000  -74.393411091  163.452951406    95.5801   5  12   0.6143   0.5335   1.6990  -0.0692  -0.4338  -0.5641 5115.00    0.0
2018/11/09 01:25:15.000  -74.393412390  163.452956480    95.0049   5  12   0.6144   0.5338   1.6997  -0.0669  -0.4369  -0.5639 5130.00    0.0
2018/11/09 01:25:30.000  -74.393411860  163.452955627    94.7881   5  12   0.6146   0.5342   1.7007  -0.0645  -0.4401  -0.5637 5145.00    0.0
2018/11/09 01:25:45.000  -74.393411051  163.452949231    94.9825   5  12   0.6148   0.5346   1.7020  -0.0620  -0.4434  -0.5636 5160.00    0.0
2018/11/09 01:26:00.000  -74.393412820  163.452951981    95.6024   5  12   0.6151   0.5351   1.7036  -0.0594  -0.4468  -0.5636 5175.00    0.0
2018/11/09 01:26:15.000  -74.393412145  163.452956020    95.2936   5  12   0.6154   0.5357   1.7055  -0.0568  -0.4501  -0.5636 5190.00    0.0
2018/11/09 01:26:30.000  -74.393411364  163.452957601    95.6002   5  12   0.6158   0.5363   1.7076  -0.0540  -0.4536  -0.5636 5205.00    0.0
2018/11/09 01:26:45.000  -74.393409787  163.452960492    95.5778   5  12   0.6162   0.5370   1.7100  -0.0511  -0.4571  -0.5637 5220.00    0.0
2018/11/09 01:27:00.000  -74.393412186  163.452953306    95.4692   5  12   0.6167   0.5377   1.7127  -0.0481  -0.4607  -0.5639 5235.00    0.0
2018/11/09 01:27:15.000  -74.393412104  163.452954643    94.7838   5  12   0.6172   0.5385   1.7157  -0.0448  -0.4643  -0.5641 5250.00    0.0
2018/11/09 01:27:30.000  -74.393411023  163.452947347    95.1635   5  12   0.6178   0.5394   1.7190  -0.0414  -0.4680  -0.5643 5265.00    0.0
2018/11/09 01:27:45.000  -74.393411273  163.452958659    95.4878   5  12   0.6175   0.5391   1.7171  -0.0369  -0.4701  -0.5638 5280.00    0.0
2018/11/09 01:28:00.000  -74.393411768  163.452952210    95.3221   5  12   0.6172   0.5390   1.7155  -0.0319  -0.4723  -0.5634 5295.00    0.0
2018/11/09 01:28:15.000  -74.393413717  163.452956477    95.4473   5  12   0.6170   0.5389   1.7142  -0.0261  -0.4745  -0.5630 5310.00    0.0
2018/11/09 01:28:30.000  -74.393412818  163.452954558    95.2412   5  12   0.6168   0.5388   1.7132  -0.0184  -0.4768  -0.5626 5325.00    0.0
2018/11/09 01:28:45.000  -74.393412305  163.452946431    95.1452   5  12   0.6166   0.5388   1.7124  -0.0021  -0.4792  -0.5623 5340.00    0.0
2018/11/09 01:29:00.000  -74.393411483  163.452954408    95.0392   5  12   0.6165   0.5389   1.7120   0.0181  -0.4816  -0.5621 5355.00    0.0
2018/11/09 01:29:15.000  -74.393412362  163.452950197    95.5350   5  12   0.6165   0.5391   1.7118   0.0257  -0.4841  -0.5619 5370.00    0.0
2018/11/09 01:29:30.000  -74.393413231  163.452952333    95.9332   5  12   0.6165   0.5393   1.7120   0.0314  -0.4867  -0.5617 5385.00    0.0
2018/11/09 01:29:45.000  -74.393412954  163.452954773    95.6965   5  12   0.6166   0.5395   1.7124   0.0363  -0.4893  -0.5616 5400.00    0.0
2018/11/09 01:30:00.000  -74.393411006  163.452959121    94.9841   5  12   0.6167   0.5398   1.7131   0.0405  -0.4920  -0.5615 5415.00    0.0
2018/11/09 01:30:15.000  -74.393411144  163.452956522    95.4913   5  12   0.6169   0.5402   1.7142   0.0443  -0.4947  -0.5615 5430.00    0.0
2018/11/09 01:30:30.000  -74.393411207  163.452960181    94.6184   5  12   0.6171   0.5407   1.7155   0.0477  -0.4976  -0.5616 5445.00    0.0
2018/11/09 01:30:45.000  -74.393413170  163.452948318    96.2388   5  12   0.6174   0.5412   1.7172   0.0509  -0.5005  -0.5616 5460.00    0.0
2018/11/09 01:31:00.000  -74.393413462  163.452966893    96.2270   5  12   0.6177   0.5418   1.7191   0.0539  -0.5034  -0.5618 5475.00    0.0
2018/11/09 01:31:15.000  -74.393411565  163.452955823    96.0498   5  12   0.6181   0.5424   1.7213   0.0568  -0.5065  -0.5620 5490.00    0.0
2018/11/09 01:31:30.000  -74.393411784  163.452950437    95.3989   5  12   0.6185   0.5431   1.7238   0.0594  -0.5096  -0.5622 5505.00    0.0
2018/11/09 01:31:45.000  -74.393411440  163.452957422    95.8109   5  12   0.6190   0.5439   1.7266   0.0620  -0.5127  -0.5624 5520.00    0.0
2018/11/09 01:32:00.000  -74.393410427  163.452958895    95.2846   5  12   0.6196   0.5447   1.7296   0.0644  -0.5159  -0.5627 5535.00    0.0
2018/11/09 01:32:15.000  -74.393409731  163.452952489    95.4533   5  12   0.6201   0.5455   1.7329   0.0668  -0.5192  -0.5631 5550.00    0.0
2018/11/09 01:32:30.000  -74.393412052  163.452950204    95.3633   5  12   0.6208   0.5465   1.7365   0.0690  -0.5225  -0.5635 5565.00    0.0
2018/11/09 01:32:45.000  -74.393415827  163.452960533    96.5248   5  12   0.6205   0.5463   1.7350   0.0715  -0.5243  -0.5632 5580.00    0.0
2018/11/09 01:33:00.000  -74.393411598  163.452955077    95.4781   5  12   0.6203   0.5462   1.7338   0.0738  -0.5262  -0.5630 5595.00    0.0
2018/11/09 01:33:15.000  -74.393412928  163.452950880    95.8263   5  12   0.6201   0.5462   1.7329   0.0761  -0.5281  -0.5627 5610.00    0.0
2018/11/09 01:33:30.000  -74.393410521  163.452957113    95.6021   5  12   0.6200   0.5462   1.7323   0.0783  -0.5301  -0.5626 5625.00    0.0
2018/11/09 01:33:45.000  -74.393414028  163.452953875    96.0408   5  12   0.6199   0.5463   1.7319   0.0804  -0.5322  -0.5625 5640.00    0.0
2018/11/09 01:34:00.000  -74.393412480  163.452949740    94.9826   5  12   0.6198   0.5465   1.7319   0.0825  -0.5343  -0.5624 5655.00    0.0
2018/11/09 01:34:15.000  -74.393411155  163.452952671    94.4593   5  12   0.6199   0.5467   1.7321   0.0845  -0.5365  -0.5624 5670.00    0.0
2018/11/09 01:34:30.000  -74.393413041  163.452949586    95.7980   5  12   0.6199   0.5469   1.7325   0.0864  -0.5387  -0.5624 5685.00    0.0
2018/11/09 01:34:45.000  -74.393412314  163.452949087    95.3620   5  12   0.6200   0.5472   1.7333   0.0883  -0.5410  -0.5625 5700.00    0.0
2018/11/09 01:35:00.000  -74.393410223  163.452946861    95.8380   5  12   0.6202   0.5476   1.7343   0.0901  -0.5434  -0.5626 5715.00    0.0
2018/11/09 01:35:15.000  -74.393410790  163.452950739    95.1491   5  12   0.6205   0.5481   1.7357   0.0919  -0.5459  -0.5627 5730.00    0.0
2018/11/09 01:35:30.000  -74.393411596  163.452943928    96.1714   5  12   0.6207   0.5486   1.7374   0.0936  -0.5484  -0.5629 5745.00    0.0
2018/11/09 01:35:45.000  -74.393413095  163.452944739    95.8029   5  12   0.6211   0.5492   1.7393   0.0953  -0.5510  -0.5632 5760.00    0.0
2018/11/09 01:36:00.000  -74.393411381  163.452943578    95.6757   5  12   0.6215   0.5498   1.7415   0.0970  -0.5537  -0.5635 5775.00    0.0
2018/11/09 01:36:15.000  -74.393412281  163.452942776    95.3898   5  12   0.6219   0.5505   1.7440   0.0986  -0.5564  -0.5638 5790.00    0.0
2018/11/09 01:36:30.000  -74.393411540  163.452947434    95.3686   5  12   0.6224   0.5512   1.7467   0.1002  -0.5592  -0.5642 5805.00    0.0
2018/11/09 01:36:45.000  -74.393412886  163.452954081    95.3375   5  12   0.6230   0.5520   1.7497   0.1018  -0.5620  -0.5647 5820.00    0.0
2018/11/09 01:37:00.000  -74.393411841  163.452956157    95.3620   5  12   0.6236   0.5529   1.7530   0.1033  -0.5649  -0.5651 5835.00    0.0
2018/11/09 01:37:15.000  -74.393411562  163.452950640    95.4706   5  12   0.6242   0.5538   1.7565   0.1048  -0.5679  -0.5656 5850.00    0.0
2018/11/09 01:37:30.000  -74.393412707  163.452956460    95.1023   5  12   0.6249   0.5548   1.7602   0.1063  -0.5709  -0.5662 5865.00    0.0
2018/11/09 01:37:45.000  -74.393412999  163.452957750    95.8141   5  12   0.6247   0.5547   1.7592   0.1079  -0.5725  -0.5661 5880.00    0.0
2018/11/09 01:38:00.000  -74.393412595  163.452955409    95.2853   5  12   0.6245   0.5546   1.7583   0.1095  -0.5741  -0.5660 5895.00    0.0
2018/11/09 01:38:15.000  -74.393413540  163.452949497    95.8390   5  12   0.6244   0.5547   1.7577   0.1111  -0.5757  -0.5660 5910.00    0.0
2018/11/09 01:38:30.000  -74.393412763  163.452959973    94.4956   5  12   0.6243   0.5547   1.7574   0.1126  -0.5774  -0.5660 5925.00    0.0
2018/11/09 01:38:45.000  -74.393412377  163.452956162    95.0875   5  12   0.6243   0.5549   1.7574   0.1141  -0.5792  -0.5661 5940.00    0.0
2018/11/09 01:39:00.000  -74.393415364  163.452956585    95.0915   5  12   0.6243   0.5551   1.7576   0.1156  -0.5811  -0.5662 5955.00    0.0
2018/11/09 01:39:15.000  -74.393412498  163.452951208    95.5115   5  12   0.6244   0.5553   1.7581   0.1170  -0.5830  -0.5664 5970.00    0.0
2018/11/09 01:39:30.000  -74.393415010  163.452955018    95.3024   5  12   0.6245   0.5556   1.7588   0.1184  -0.5849  -0.5666 5985.00    0.0
2018/11/09 01:39:45.000  -74.393410421  163.452952681    94.5370   5  12   0.6247   0.5560   1.7598   0.1198  -0.5870  -0.5668 6000.00    0.0
2018/11/09 01:40:00.000  -74.393412195  163.452954183    94.5452   5  12   0.6249   0.5564   1.7610   0.1212  -0.5891  -0.5671 6015.00    0.0
2018/11/09 01:40:15.000  -74.393411979  163.452947898    94.9060   5  12   0.6252   0.5569   1.7627   0.1226  -0.5912  -0.5674 6030.00    0.0
2018/11/09 01:40:30.000  -74.393411324  163.452958814    94.5264   5  12   0.6255   0.5574   1.7645   0.1239  -0.5935  -0.5678 6045.00    0.0
2018/11/09 01:40:45.000  -74.393414540  163.452956340    95.7257   5  12   0.6259   0.5580   1.7666   0.1252  -0.5958  -0.5682 6060.00    0.0
2018/11/09 01:41:00.000  -74.393413102  163.452955597    95.3479   5  12   0.6264   0.5587   1.7690   0.1265  -0.5981  -0.5687 6075.00    0.0
2018/11/09 01:41:15.000  -74.393412621  163.452955460    94.6649   5  12   0.6269   0.5594   1.7716   0.1278  -0.6006  -0.5692 6090.00    0.0
2018/11/09 01:41:30.000  -74.393414123  163.452949615    95.3102   5  12   0.6275   0.5601   1.7744   0.1290  -0.6030  -0.5697 6105.00    0.0
2018/11/09 01:41:45.000  -74.393413201  163.452949162    95.1476   5  12   0.6281   0.5609   1.7775   0.1303  -0.6055  -0.5703 6120.00    0.0
2018/11/09 01:42:00.000  -74.393414249  163.452951855    95.6650   5  12   0.6287   0.5618   1.7808   0.1315  -0.6081  -0.5709 6135.00    0.0
2018/11/09 01:42:15.000  -74.393411826  163.452955092    95.4316   5  12   0.6294   0.5628   1.7843   0.1327  -0.6107  -0.5715 6150.00    0.0
2018/11/09 01:42:30.000  -74.393414640  163.452952107    95.7648   5  12   0.6302   0.5637   1.7880   0.1339  -0.6134  -0.5722 6165.00    0.0
2018/11/09 01:42:45.000  -74.393411888  163.452957744    94.6685   5  12   0.6301   0.5637   1.7873   0.1352  -0.6147  -0.5723 6180.00    0.0
2018/11/09 01:43:00.000  -74.393412807  163.452958069    94.8393   5  12   0.6299   0.5637   1.7867   0.1365  -0.6160  -0.5724 6195.00    0.0
2018/11/09 01:43:15.000  -74.393413979  163.452950364    95.9856   5  12   0.6299   0.5637   1.7864   0.1377  -0.6174  -0.5726 6210.00    0.0
2018/11/09 01:43:30.000  -74.393413802  163.452957113    95.0750   5  12   0.6298   0.5638   1.7863   0.1390  -0.6189  -0.5728 6225.00    0.0
