% program   : RTKLIB ver.2.4.3
% inp file  : _by_type/_obs/hillary/20181111_20181113.18o
% inp file  : _by_type/_obs/base/20181110.18o
% inp file  : _by_type/_sp3+clk/igs20270.clk
% inp file  : _by_type/_sp3+clk/igs20270.sp3
% inp file  : _by_type/_nav/hillary/20181111_20181113.18n
% obs start : 2018/11/11 00:00:00.0 GPST (week2027      0.0s)
% obs end   : 2018/11/13 23:59:45.0 GPST (week2027 259185.0s)
% pos mode  : dgps
% freqs     : L1+L2
% solution  : combined
% elev mask : 15.0 deg
% dynamics  : off
% tidecorr  : off
% ionos opt : iono-free
% tropo opt : est ztd+grad
% ephemeris : precise
% navi sys  : gps glonass
% antenna1  :                       ( 0.0000  0.0000  0.0000)
% antenna2  :                       ( 0.0000  0.0000  0.0000)
% ref pos   : 90.000000000   0.000000000-6335367.6285
%
% (lat/lon/height=WGS84/ellipsoidal,Q=1:fix,2:float,3:sbas,4:dgps,5:single,6:ppp,ns=# of satellites)
%  GPST                  latitude(deg) longitude(deg)  height(m)   Q  ns   sdn(m)   sde(m)   sdu(m)  sdne(m)  sdeu(m)  sdun(m) age(s)  ratio
2018/11/11 00:00:00.000  -74.393419508  163.452925001    95.9144   5  10   0.6542   0.6149   2.1872  -0.2748   0.7195  -0.7133  15.00    0.0
2018/11/11 00:00:15.000  -74.393419219  163.452935630    96.3845   5  10   0.6545   0.6155   2.1941  -0.2759   0.7233  -0.7158  30.00    0.0
2018/11/11 00:00:30.000  -74.393422420  163.452934212    97.0196   5  10   0.6548   0.6161   2.2012  -0.2770   0.7272  -0.7183  45.00    0.0
2018/11/11 00:00:45.000  -74.393423186  163.452933274    96.9705   5  10   0.6552   0.6168   2.2087  -0.2783   0.7313  -0.7210  60.00    0.0
2018/11/11 00:01:00.000  -74.393419866  163.452933646    96.0079   5  10   0.6556   0.6176   2.2165  -0.2795   0.7354  -0.7237  75.00    0.0
2018/11/11 00:01:15.000  -74.393420299  163.452932536    96.2425   5  10   0.6562   0.6185   2.2245  -0.2809   0.7397  -0.7266  90.00    0.0
2018/11/11 00:01:30.000  -74.393422251  163.452937185    96.4442   5  10   0.6568   0.6195   2.2329  -0.2823   0.7442  -0.7296 105.00    0.0
2018/11/11 00:01:45.000  -74.393421214  163.452933559    97.4030   5  10   0.6575   0.6206   2.2416  -0.2838   0.7487  -0.7326 120.00    0.0
2018/11/11 00:02:00.000  -74.393420799  163.452934483    97.4170   5  10   0.6583   0.6218   2.2506  -0.2853   0.7534  -0.7358 135.00    0.0
2018/11/11 00:02:15.000  -74.393420901  163.452937518    96.9182   5  10   0.6592   0.6230   2.2599  -0.2869   0.7583  -0.7391 150.00    0.0
2018/11/11 00:02:30.000  -74.393420701  163.452931750    97.1655   5  10   0.6601   0.6244   2.2695  -0.2886   0.7632  -0.7425 165.00    0.0
2018/11/11 00:02:45.000  -74.393422676  163.452941985    96.9285   5  10   0.6597   0.6241   2.2736  -0.2892   0.7657  -0.7443 180.00    0.0
2018/11/11 00:03:00.000  -74.393420977  163.452937995    95.6290   5  10   0.6594   0.6239   2.2780  -0.2898   0.7683  -0.7462 195.00    0.0
2018/11/11 00:03:15.000  -74.393420904  163.452938467    95.5988   5  10   0.6591   0.6237   2.2826  -0.2905   0.7710  -0.7483 210.00    0.0
2018/11/11 00:03:30.000  -74.393423032  163.452934758    96.0393   5  10   0.6590   0.6237   2.2876  -0.2913   0.7738  -0.7504 225.00    0.0
2018/11/11 00:03:45.000  -74.393421798  163.452934468    96.2259   5  10   0.6589   0.6237   2.2928  -0.2921   0.7767  -0.7526 240.00    0.0
2018/11/11 00:04:00.000  -74.393422179  163.452927927    97.1379   5  10   0.6589   0.6239   2.2983  -0.2930   0.7798  -0.7549 255.00    0.0
2018/11/11 00:04:15.000  -74.393419933  163.452938123    96.1986   5  10   0.6589   0.6241   2.3042  -0.2940   0.7829  -0.7573 270.00    0.0
2018/11/11 00:04:30.000  -74.393418162  163.452933542    95.1716   5  10   0.6591   0.6244   2.3102  -0.2950   0.7863  -0.7598 285.00    0.0
2018/11/11 00:04:45.000  -74.393419663  163.452929904    96.4555   5  10   0.6593   0.6249   2.3166  -0.2961   0.7897  -0.7624 300.00    0.0
2018/11/11 00:05:00.000  -74.393420742  163.452934582    97.1581   5  10   0.6596   0.6254   2.3233  -0.2972   0.7932  -0.7650 315.00    0.0
2018/11/11 00:05:15.000  -74.393419092  163.452930212    96.6944   5  10   0.6600   0.6260   2.3304  -0.2984   0.7970  -0.7679 330.00    0.0
2018/11/11 00:05:30.000  -74.393422142  163.452938443    96.6935   5  10   0.6605   0.6268   2.3378  -0.2997   0.8009  -0.7708 345.00    0.0
2018/11/11 00:05:45.000  -74.393422692  163.452946474    96.8418   5  10   0.6611   0.6276   2.3455  -0.3011   0.8049  -0.7738 360.00    0.0
2018/11/11 00:06:00.000  -74.393417491  163.452931481    96.4310   5  10   0.6617   0.6285   2.3535  -0.3025   0.8091  -0.7769 375.00    0.0
2018/11/11 00:06:15.000  -74.393422278  163.452951262    98.4398   5  10   0.6624   0.6295   2.3618  -0.3040   0.8134  -0.7802 390.00    0.0
2018/11/11 00:06:30.000  -74.393421957  163.452943142    97.8138   5  10   0.6632   0.6306   2.3704  -0.3055   0.8178  -0.7835 405.00    0.0
2018/11/11 00:06:45.000  -74.393420003  163.452938410    98.1169   5  10   0.6641   0.6318   2.3793  -0.3071   0.8223  -0.7869 420.00    0.0
2018/11/11 00:07:00.000  -74.393418991  163.452947629    96.3570   5  10   0.6651   0.6331   2.3884  -0.3088   0.8269  -0.7904 435.00    0.0
2018/11/11 00:07:15.000  -74.393420311  163.452939214    97.7455   5  10   0.6661   0.6345   2.3979  -0.3105   0.8317  -0.7940 450.00    0.0
2018/11/11 00:07:30.000  -74.393419626  163.452936342    96.5034   5  10   0.6672   0.6360   2.4076  -0.3123   0.8366  -0.7978 465.00    0.0
2018/11/11 00:07:45.000  -74.393419320  163.452936283    96.7682   5  10   0.6670   0.6357   2.4115  -0.3130   0.8388  -0.7998 480.00    0.0
2018/11/11 00:08:00.000  -74.393419111  163.452934746    97.3293   5  10   0.6668   0.6356   2.4157  -0.3137   0.8412  -0.8019 495.00    0.0
2018/11/11 00:08:15.000  -74.393418420  163.452937533    96.6536   5  10   0.6668   0.6355   2.4201  -0.3145   0.8436  -0.8041 510.00    0.0
2018/11/11 00:08:30.000  -74.393420286  163.452937951    96.8238   5  10   0.6668   0.6355   2.4248  -0.3153   0.8462  -0.8064 525.00    0.0
2018/11/11 00:08:45.000  -74.393417529  163.452948080    96.7413   5  10   0.6668   0.6356   2.4297  -0.3162   0.8489  -0.8087 540.00    0.0
2018/11/11 00:09:00.000  -74.393417986  163.452929961    96.1883   5  10   0.6670   0.6358   2.4349  -0.3172   0.8517  -0.8112 555.00    0.0
2018/11/11 00:09:15.000  -74.393417359  163.452934969    96.3089   5  10   0.6672   0.6361   2.4404  -0.3182   0.8546  -0.8137 570.00    0.0
2018/11/11 00:09:30.000  -74.393420234  163.452937973    96.0606   5  11   0.6548   0.6364   2.3510  -0.3179   0.8602  -0.8683 585.00    0.0
2018/11/11 00:09:45.000  -74.393421762  163.452934048    95.5925   5  11   0.6551   0.6369   2.3574  -0.3191   0.8632  -0.8710 600.00    0.0
2018/11/11 00:10:00.000  -74.393421370  163.452952153    96.8828   5  11   0.6555   0.6375   2.3641  -0.3203   0.8664  -0.8737 615.00    0.0
2018/11/11 00:10:15.000  -74.393418596  163.452941222    95.6260   5  11   0.6560   0.6382   2.3713  -0.3216   0.8697  -0.8766 630.00    0.0
2018/11/11 00:10:30.000  -74.393421611  163.452942172    95.7789   5  11   0.6566   0.6389   2.3786  -0.3230   0.8732  -0.8796 645.00    0.0
2018/11/11 00:10:45.000  -74.393421626  163.452937510    96.8487   5  11   0.6572   0.6398   2.3863  -0.3244   0.8767  -0.8827 660.00    0.0
2018/11/11 00:11:00.000  -74.393419953  163.452939115    96.5353   5  11   0.6579   0.6407   2.3941  -0.3259   0.8804  -0.8859 675.00    0.0
2018/11/11 00:11:15.000  -74.393419713  163.452941988    95.3620   5  11   0.6587   0.6418   2.4023  -0.3274   0.8842  -0.8891 690.00    0.0
2018/11/11 00:11:30.000  -74.393420461  163.452955886    96.6630   5  11   0.6595   0.6429   2.4107  -0.3290   0.8881  -0.8925 705.00    0.0
2018/11/11 00:11:45.000  -74.393418253  163.452936597    95.6578   5  11   0.6605   0.6441   2.4193  -0.3306   0.8922  -0.8959 720.00    0.0
2018/11/11 00:12:00.000  -74.393421080  163.452944253    96.5000   5  11   0.6615   0.6454   2.4282  -0.3323   0.8963  -0.8995 735.00    0.0
2018/11/11 00:12:15.000  -74.393420868  163.452943706    95.9030   5  11   0.6625   0.6468   2.4373  -0.3340   0.9005  -0.9031 750.00    0.0
2018/11/11 00:12:30.000  -74.393421812  163.452937306    96.0223   5  11   0.6637   0.6482   2.4467  -0.3358   0.9048  -0.9069 765.00    0.0
2018/11/11 00:12:45.000  -74.393421770  163.452947357    97.0261   5  11   0.6635   0.6479   2.4501  -0.3364   0.9064  -0.9085 780.00    0.0
2018/11/11 00:13:00.000  -74.393421247  163.452943149    96.5509   5  11   0.6634   0.6477   2.4539  -0.3371   0.9081  -0.9103 795.00    0.0
2018/11/11 00:13:15.000  -74.393421331  163.452947891    96.7157   5  11   0.6633   0.6476   2.4580  -0.3378   0.9099  -0.9122 810.00    0.0
2018/11/11 00:13:30.000  -74.393418231  163.452946399    95.8721   5  11   0.6634   0.6476   2.4622  -0.3386   0.9118  -0.9142 825.00    0.0
2018/11/11 00:13:45.000  -74.393420077  163.452948099    96.1098   5  11   0.6635   0.6476   2.4667  -0.3394   0.9138  -0.9163 840.00    0.0
2018/11/11 00:14:00.000  -74.393420064  163.452949480    96.8258   5  11   0.6636   0.6478   2.4714  -0.3403   0.9159  -0.9184 855.00    0.0
2018/11/11 00:14:15.000  -74.393421565  163.452958938    97.3592   5  11   0.6639   0.6480   2.4763  -0.3412   0.9181  -0.9207 870.00    0.0
2018/11/11 00:14:30.000  -74.393419250  163.452942484    95.6629   5  11   0.6642   0.6483   2.4814  -0.3422   0.9204  -0.9230 885.00    0.0
2018/11/11 00:14:45.000  -74.393420542  163.452946852    96.6284   5  11   0.6646   0.6487   2.4868  -0.3432   0.9228  -0.9254 900.00    0.0
2018/11/11 00:15:00.000  -74.393419994  163.452952435    96.3825   5  11   0.6650   0.6491   2.4923  -0.3442   0.9253  -0.9278 915.00    0.0
2018/11/11 00:15:15.000  -74.393420569  163.452956825    96.6398   5  11   0.6656   0.6497   2.4981  -0.3454   0.9279  -0.9304 930.00    0.0
2018/11/11 00:15:30.000  -74.393418702  163.452949722    95.9553   5  11   0.6662   0.6503   2.5042  -0.3465   0.9306  -0.9330 945.00    0.0
2018/11/11 00:15:45.000  -74.393423122  163.452952789    97.5269   5  11   0.6668   0.6511   2.5105  -0.3477   0.9334  -0.9357 960.00    0.0
2018/11/11 00:16:00.000  -74.393420631  163.452953414    97.4927   5  11   0.6676   0.6519   2.5169  -0.3490   0.9363  -0.9385 975.00    0.0
2018/11/11 00:16:15.000  -74.393419480  163.452956202    96.2446   5  11   0.6684   0.6528   2.5236  -0.3502   0.9392  -0.9414 990.00    0.0
2018/11/11 00:16:30.000  -74.393424181  163.452949553    97.5545   5  11   0.6693   0.6537   2.5304  -0.3515   0.9423  -0.9443 1005.00    0.0
2018/11/11 00:16:45.000  -74.393423187  163.452954661    97.1639   5  11   0.6702   0.6548   2.5374  -0.3529   0.9454  -0.9473 1020.00    0.0
2018/11/11 00:17:00.000  -74.393418782  163.452951292    95.8965   5  11   0.6712   0.6559   2.5446  -0.3543   0.9486  -0.9504 1035.00    0.0
2018/11/11 00:17:15.000  -74.393420508  163.452941648    96.7986   5  11   0.6723   0.6571   2.5520  -0.3557   0.9518  -0.9535 1050.00    0.0
2018/11/11 00:17:30.000  -74.393422190  163.452952555    97.5865   5  11   0.6734   0.6584   2.5596  -0.3571   0.9551  -0.9566 1065.00    0.0
2018/11/11 00:17:45.000  -74.393420815  163.452951937    97.2619   5  11   0.6733   0.6579   2.5614  -0.3575   0.9558  -0.9579 1080.00    0.0
2018/11/11 00:18:00.000  -74.393420496  163.452949735    97.9165   5  11   0.6732   0.6575   2.5632  -0.3579   0.9565  -0.9591 1095.00    0.0
2018/11/11 00:18:15.000  -74.393422014  163.452943845    96.3344   5  11   0.6731   0.6572   2.5653  -0.3583   0.9573  -0.9604 1110.00    0.0
2018/11/11 00:18:30.000  -74.393420639  163.452948390    96.6545   5  11   0.6731   0.6570   2.5674  -0.3588   0.9582  -0.9617 1125.00    0.0
2018/11/11 00:18:45.000  -74.393421707  163.452947575    96.1661   5  11   0.6732   0.6568   2.5698  -0.3593   0.9591  -0.9631 1140.00    0.0
2018/11/11 00:19:00.000  -74.393418961  163.452945167    96.2813   5  11   0.6734   0.6567   2.5723  -0.3598   0.9601  -0.9646 1155.00    0.0
2018/11/11 00:19:15.000  -74.393421579  163.452948299    96.4309   5  11   0.6736   0.6567   2.5750  -0.3604   0.9611  -0.9661 1170.00    0.0
2018/11/11 00:19:30.000  -74.393419676  163.452957611    96.7008   5  11   0.6738   0.6568   2.5778  -0.3609   0.9622  -0.9677 1185.00    0.0
2018/11/11 00:19:45.000  -74.393416952  163.452945106    95.0488   5  11   0.6742   0.6569   2.5807  -0.3616   0.9634  -0.9693 1200.00    0.0
2018/11/11 00:20:00.000  -74.393419704  163.452940238    96.3007   5  11   0.6746   0.6571   2.5839  -0.3622   0.9646  -0.9710 1215.00    0.0
2018/11/11 00:20:15.000  -74.393417238  163.452944995    95.2092   5  11   0.6751   0.6574   2.5872  -0.3629   0.9660  -0.9727 1230.00    0.0
2018/11/11 00:20:30.000  -74.393421458  163.452952782    96.8432   5  11   0.6756   0.6577   2.5908  -0.3636   0.9674  -0.9745 1245.00    0.0
2018/11/11 00:20:45.000  -74.393420078  163.452949332    97.6107   5  11   0.6762   0.6582   2.5944  -0.3644   0.9689  -0.9764 1260.00    0.0
2018/11/11 00:21:00.000  -74.393418351  163.452946478    96.0099   5  11   0.6769   0.6587   2.5982  -0.3652   0.9704  -0.9783 1275.00    0.0
2018/11/11 00:21:15.000  -74.393420041  163.452945001    96.8191   5  11   0.6776   0.6593   2.6022  -0.3660   0.9719  -0.9802 1290.00    0.0
2018/11/11 00:21:30.000  -74.393418277  163.452956040    96.9312   5  11   0.6784   0.6599   2.6062  -0.3668   0.9735  -0.9822 1305.00    0.0
2018/11/11 00:21:45.000  -74.393420201  163.452957798    97.1474   5  11   0.6792   0.6606   2.6104  -0.3676   0.9752  -0.9842 1320.00    0.0
2018/11/11 00:22:00.000  -74.393419581  163.452954609    96.5218   5  11   0.6801   0.6614   2.6147  -0.3685   0.9769  -0.9863 1335.00    0.0
2018/11/11 00:22:15.000  -74.393418474  163.452951648    96.1052   5  11   0.6811   0.6622   2.6191  -0.3694   0.9786  -0.9884 1350.00    0.0
2018/11/11 00:22:30.000  -74.393418438  163.452955691    97.0992   5  11   0.6821   0.6631   2.6236  -0.3703   0.9803  -0.9905 1365.00    0.0
2018/11/11 00:22:45.000  -74.393421559  163.452961873    97.9668   5  11   0.6818   0.6623   2.6224  -0.3701   0.9795  -0.9907 1380.00    0.0
2018/11/11 00:23:00.000  -74.393418968  163.452953691    96.1358   5  11   0.6816   0.6616   2.6213  -0.3700   0.9788  -0.9909 1395.00    0.0
2018/11/11 00:23:15.000  -74.393419359  163.452951996    97.2191   5  11   0.6814   0.6610   2.6202  -0.3699   0.9781  -0.9911 1410.00    0.0
2018/11/11 00:23:30.000  -74.393417721  163.452944493    95.2946   5  11   0.6813   0.6604   2.6193  -0.3699   0.9774  -0.9914 1425.00    0.0
2018/11/11 00:23:45.000  -74.393418817  163.452961591    96.5727   5  11   0.6812   0.6599   2.6185  -0.3698   0.9768  -0.9917 1440.00    0.0
2018/11/11 00:24:00.000  -74.393420073  163.452953566    97.4629   5  11   0.6812   0.6594   2.6178  -0.3698   0.9762  -0.9921 1455.00    0.0
2018/11/11 00:24:15.000  -74.393421796  163.452955006    97.4367   5  11   0.6813   0.6590   2.6173  -0.3698   0.9757  -0.9925 1470.00    0.0
2018/11/11 00:24:30.000  -74.393419205  163.452952747    96.5703   5  11   0.6814   0.6587   2.6168  -0.3698   0.9752  -0.9929 1485.00    0.0
2018/11/11 00:24:45.000  -74.393420221  163.452960625    97.5160   5  11   0.6816   0.6584   2.6165  -0.3698   0.9747  -0.9933 1500.00    0.0
2018/11/11 00:25:00.000  -74.393417589  163.452958287    97.1403   5  11   0.6818   0.6582   2.6163  -0.3699   0.9743  -0.9938 1515.00    0.0
2018/11/11 00:25:15.000  -74.393422047  163.452948380    98.0213   5  11   0.6821   0.6582   2.6163  -0.3700   0.9740  -0.9944 1530.00    0.0
2018/11/11 00:25:30.000  -74.393419815  163.452947702    97.0764   5  11   0.6825   0.6581   2.6164  -0.3701   0.9737  -0.9950 1545.00    0.0
2018/11/11 00:25:45.000  -74.393420394  163.452953451    96.8752   5  11   0.6829   0.6582   2.6166  -0.3702   0.9734  -0.9956 1560.00    0.0
2018/11/11 00:26:00.000  -74.393420224  163.452949221    96.6982   5  11   0.6834   0.6582   2.6170  -0.3704   0.9732  -0.9962 1575.00    0.0
2018/11/11 00:26:15.000  -74.393420708  163.452945584    96.0323   5  11   0.6839   0.6584   2.6174  -0.3705   0.9730  -0.9969 1590.00    0.0
2018/11/11 00:26:30.000  -74.393422596  163.452949987    97.5409   5  11   0.6845   0.6586   2.6179  -0.3707   0.9728  -0.9976 1605.00    0.0
2018/11/11 00:26:45.000  -74.393421399  163.452946991    96.7026   5  11   0.6852   0.6589   2.6186  -0.3709   0.9726  -0.9983 1620.00    0.0
2018/11/11 00:27:00.000  -74.393420607  163.452954175    96.7853   5  11   0.6858   0.6592   2.6193  -0.3711   0.9725  -0.9990 1635.00    0.0
2018/11/11 00:27:15.000  -74.393418866  163.452947557    96.8454   5  11   0.6866   0.6596   2.6201  -0.3713   0.9724  -0.9998 1650.00    0.0
2018/11/11 00:27:30.000  -74.393418900  163.452948830    96.9596   5  11   0.6874   0.6601   2.6210  -0.3715   0.9723  -1.0005 1665.00    0.0
2018/11/11 00:27:45.000  -74.393420471  163.452957867    97.3001   5  11   0.6869   0.6589   2.6163  -0.3707   0.9698  -0.9994 1680.00    0.0
2018/11/11 00:28:00.000  -74.393419145  163.452954558    97.3615   5  11   0.6865   0.6578   2.6117  -0.3700   0.9674  -0.9984 1695.00    0.0
2018/11/11 00:28:15.000  -74.393418368  163.452954459    96.6590   5  11   0.6861   0.6568   2.6073  -0.3693   0.9650  -0.9974 1710.00    0.0
2018/11/11 00:28:30.000  -74.393422532  163.452957787    97.1540   5  11   0.6858   0.6558   2.6030  -0.3686   0.9627  -0.9964 1725.00    0.0
2018/11/11 00:28:45.000  -74.393420960  163.452956084    97.8780   5  11   0.6856   0.6549   2.5988  -0.3680   0.9604  -0.9955 1740.00    0.0
2018/11/11 00:29:00.000  -74.393418836  163.452951208    97.3053   5  11   0.6854   0.6541   2.5947  -0.3673   0.9582  -0.9946 1755.00    0.0
2018/11/11 00:29:15.000  -74.393419760  163.452957237    97.3875   5  11   0.6852   0.6533   2.5907  -0.3667   0.9560  -0.9937 1770.00    0.0
2018/11/11 00:29:30.000  -74.393419776  163.452946733    97.2732   5  11   0.6851   0.6526   2.5869  -0.3661   0.9538  -0.9929 1785.00    0.0
2018/11/11 00:29:45.000  -74.393421066  163.452956940    97.6267   5  11   0.6851   0.6520   2.5832  -0.3655   0.9517  -0.9921 1800.00    0.0
2018/11/11 00:30:00.000  -74.393417959  163.452950053    96.2980   5  11   0.6851   0.6514   2.5796  -0.3649   0.9495  -0.9913 1815.00    0.0
2018/11/11 00:30:15.000  -74.393419198  163.452951445    96.9083   5  11   0.6852   0.6509   2.5762  -0.3643   0.9475  -0.9906 1830.00    0.0
2018/11/11 00:30:30.000  -74.393418845  163.452956376    96.9268   5  11   0.6854   0.6505   2.5730  -0.3638   0.9455  -0.9899 1845.00    0.0
2018/11/11 00:30:45.000  -74.393419850  163.452965186    97.9761   5  11   0.6856   0.6502   2.5699  -0.3633   0.9435  -0.9892 1860.00    0.0
2018/11/11 00:31:00.000  -74.393419872  163.452957306    97.1115   5  11   0.6859   0.6499   2.5669  -0.3628   0.9416  -0.9886 1875.00    0.0
2018/11/11 00:31:15.000  -74.393418771  163.452954066    96.9796   5  11   0.6862   0.6496   2.5640  -0.3622   0.9397  -0.9879 1890.00    0.0
2018/11/11 00:31:30.000  -74.393421122  163.452957565    96.8770   5  11   0.6865   0.6495   2.5613  -0.3617   0.9378  -0.9874 1905.00    0.0
2018/11/11 00:31:45.000  -74.393420828  163.452959402    97.3545   5  11   0.6870   0.6494   2.5586  -0.3613   0.9360  -0.9868 1920.00    0.0
2018/11/11 00:32:00.000  -74.393419331  163.452955566    96.4849   5  11   0.6874   0.6493   2.5561  -0.3608   0.9342  -0.9863 1935.00    0.0
2018/11/11 00:32:15.000  -74.393417394  163.452958968    96.7494   5  11   0.6879   0.6493   2.5538  -0.3603   0.9324  -0.9858 1950.00    0.0
2018/11/11 00:32:30.000  -74.393418483  163.452957254    97.8226   5  11   0.6885   0.6494   2.5515  -0.3599   0.9306  -0.9853 1965.00    0.0
2018/11/11 00:32:45.000  -74.393419157  163.452965564    97.6113   5  11   0.6879   0.6480   2.5440  -0.3586   0.9267  -0.9831 1980.00    0.0
2018/11/11 00:33:00.000  -74.393419245  163.452953074    96.9540   5  11   0.6873   0.6466   2.5367  -0.3573   0.9229  -0.9810 1995.00    0.0
2018/11/11 00:33:15.000  -74.393418769  163.452952384    96.0982   5  11   0.6868   0.6453   2.5294  -0.3561   0.9192  -0.9790 2010.00    0.0
2018/11/11 00:33:30.000  -74.393418958  163.452953787    96.7150   5  11   0.6863   0.6441   2.5224  -0.3549   0.9154  -0.9769 2025.00    0.0
2018/11/11 00:33:45.000  -74.393420318  163.452952314    97.1495   5  11   0.6859   0.6429   2.5155  -0.3537   0.9118  -0.9750 2040.00    0.0
2018/11/11 00:34:00.000  -74.393419181  163.452961899    97.8309   5  11   0.6855   0.6418   2.5087  -0.3525   0.9081  -0.9730 2055.00    0.0
2018/11/11 00:34:15.000  -74.393417347  163.452955121    95.9004   5  10   0.9382   0.6735   3.5713  -0.5064   1.1606  -1.6050 2070.00    0.0
2018/11/11 00:34:30.000  -74.393412957  163.452946769    94.7817   5  10   0.9372   0.6722   3.5617  -0.5044   1.1556  -1.6015 2085.00    0.0
2018/11/11 00:34:45.000  -74.393409265  163.452937141    92.1248   5  10   0.9363   0.6709   3.5523  -0.5024   1.1507  -1.5981 2100.00    0.0
2018/11/11 00:35:00.000  -74.393414445  163.452941491    93.1876   5  10   0.9354   0.6697   3.5429  -0.5005   1.1457  -1.5946 2115.00    0.0
2018/11/11 00:35:15.000  -74.393410120  163.452941067    92.8537   5  10   0.9346   0.6685   3.5339  -0.4986   1.1409  -1.5914 2130.00    0.0
2018/11/11 00:35:30.000  -74.393412184  163.452939708    93.0941   5  10   0.9339   0.6674   3.5250  -0.4966   1.1360  -1.5881 2145.00    0.0
2018/11/11 00:35:45.000  -74.393412593  163.452943573    93.5049   5  10   0.9332   0.6664   3.5163  -0.4947   1.1312  -1.5850 2160.00    0.0
2018/11/11 00:36:00.000  -74.393412807  163.452948813    93.5567   5  10   0.9326   0.6655   3.5077  -0.4928   1.1264  -1.5818 2175.00    0.0
2018/11/11 00:36:15.000  -74.393411367  163.452949501    93.8257   5  10   0.9321   0.6646   3.4993  -0.4909   1.1216  -1.5788 2190.00    0.0
2018/11/11 00:36:30.000  -74.393410069  163.452947230    93.3498   5  10   0.9316   0.6638   3.4911  -0.4890   1.1168  -1.5758 2205.00    0.0
2018/11/11 00:36:45.000  -74.393412499  163.452945354    93.4001   5  10   0.9312   0.6630   3.4831  -0.4871   1.1121  -1.5729 2220.00    0.0
2018/11/11 00:37:00.000  -74.393411957  163.452949963    94.0833   5  10   0.9308   0.6623   3.4753  -0.4853   1.1074  -1.5700 2235.00    0.0
2018/11/11 00:37:15.000  -74.393412476  163.452946994    93.4515   5  10   0.9306   0.6617   3.4676  -0.4834   1.1027  -1.5672 2250.00    0.0
2018/11/11 00:37:30.000  -74.393413129  163.452952393    95.1721   5  10   0.9303   0.6611   3.4602  -0.4815   1.0980  -1.5645 2265.00    0.0
2018/11/11 00:37:45.000  -74.393412507  163.452941025    93.0370   5  10   0.9278   0.6590   3.4429  -0.4782   1.0903  -1.5574 2280.00    0.0
2018/11/11 00:38:00.000  -74.393415109  163.452941778    94.5792   5   9   0.9296   0.6569   3.6796  -0.4740   1.0763  -1.5884 2295.00    0.0
2018/11/11 00:38:15.000  -74.393412396  163.452950628    93.2376   5   9   0.9274   0.6549   3.6642  -0.4707   1.0686  -1.5820 2310.00    0.0
2018/11/11 00:38:30.000  -74.393411783  163.452950405    92.4701   5   9   0.9252   0.6530   3.6490  -0.4675   1.0609  -1.5757 2325.00    0.0
2018/11/11 00:38:45.000  -74.393412812  163.452951569    93.7050   5   9   0.9231   0.6512   3.6340  -0.4642   1.0534  -1.5695 2340.00    0.0
2018/11/11 00:39:00.000  -74.393412595  163.452946454    94.2581   5   9   0.9211   0.6494   3.6194  -0.4611   1.0458  -1.5634 2355.00    0.0
2018/11/11 00:39:15.000  -74.393408924  163.452947851    92.7737   5   9   0.9191   0.6477   3.6050  -0.4579   1.0383  -1.5575 2370.00    0.0
2018/11/11 00:39:30.000  -74.393410303  163.452939204    93.4666   5   9   0.9173   0.6461   3.5910  -0.4548   1.0309  -1.5516 2385.00    0.0
2018/11/11 00:39:45.000  -74.393413463  163.452939878    93.6216   5   9   0.9155   0.6446   3.5772  -0.4517   1.0236  -1.5459 2400.00    0.0
2018/11/11 00:40:00.000  -74.393407916  163.452943218    92.3102   5   9   0.9138   0.6432   3.5638  -0.4486   1.0163  -1.5403 2415.00    0.0
2018/11/11 00:40:15.000  -74.393411173  163.452943302    92.3302   5   9   0.9123   0.6419   3.5510  -0.4456   1.0091  -1.5349 2430.00    0.0
2018/11/11 00:40:30.000  -74.393408238  163.452938133    91.9311   5   9   0.9108   0.6406   3.5385  -0.4426   1.0019  -1.5297 2445.00    0.0
2018/11/11 00:40:45.000  -74.393415035  163.452943795    94.9358   5  10   0.7482   0.6354   2.6735  -0.3954   0.9086  -1.0657 2460.00    0.0
2018/11/11 00:41:00.000  -74.393414737  163.452947941    92.7992   5  10   0.7482   0.6347   2.6700  -0.3943   0.9052  -1.0643 2475.00    0.0
2018/11/11 00:41:15.000  -74.393413363  163.452949949    94.7490   5  10   0.7482   0.6340   2.6667  -0.3932   0.9018  -1.0630 2490.00    0.0
2018/11/11 00:41:30.000  -74.393414390  163.452950013    95.3913   5  10   0.7482   0.6334   2.6637  -0.3921   0.8985  -1.0617 2505.00    0.0
2018/11/11 00:41:45.000  -74.393416393  163.452951012    95.6884   5  10   0.7484   0.6328   2.6608  -0.3910   0.8953  -1.0605 2520.00    0.0
2018/11/11 00:42:00.000  -74.393414214  163.452954314    95.4582   5  10   0.7486   0.6323   2.6583  -0.3900   0.8921  -1.0594 2535.00    0.0
2018/11/11 00:42:15.000  -74.393415452  163.452959860    94.8126   5  10   0.7489   0.6319   2.6559  -0.3890   0.8889  -1.0584 2550.00    0.0
2018/11/11 00:42:30.000  -74.393413061  163.452946474    94.7649   5  10   0.7492   0.6316   2.6538  -0.3880   0.8858  -1.0574 2565.00    0.0
2018/11/11 00:42:45.000  -74.393415392  163.452955416    95.6958   5  10   0.7482   0.6298   2.6450  -0.3861   0.8806  -1.0542 2580.00    0.0
2018/11/11 00:43:00.000  -74.393417067  163.452947738    95.6582   5  10   0.7471   0.6281   2.6365  -0.3842   0.8754  -1.0512 2595.00    0.0
2018/11/11 00:43:15.000  -74.393413744  163.452944922    94.8771   5  10   0.7462   0.6264   2.6282  -0.3823   0.8702  -1.0482 2610.00    0.0
2018/11/11 00:43:30.000  -74.393414978  163.452953534    95.8181   5  10   0.7453   0.6249   2.6202  -0.3805   0.8651  -1.0453 2625.00    0.0
2018/11/11 00:43:45.000  -74.393417083  163.452963784    97.1681   5  10   0.7445   0.6234   2.6124  -0.3787   0.8601  -1.0424 2640.00    0.0
2018/11/11 00:44:00.000  -74.393417244  163.452955573    95.8117   5  10   0.7438   0.6220   2.6048  -0.3769   0.8552  -1.0397 2655.00    0.0
2018/11/11 00:44:15.000  -74.393413582  163.452957793    94.9237   5  10   0.7431   0.6206   2.5975  -0.3752   0.8503  -1.0370 2670.00    0.0
2018/11/11 00:44:30.000  -74.393418323  163.452957322    96.2210   5  10   0.7426   0.6194   2.5905  -0.3735   0.8455  -1.0344 2685.00    0.0
2018/11/11 00:44:45.000  -74.393415739  163.452955710    96.4113   5  10   0.7420   0.6182   2.5837  -0.3718   0.8407  -1.0318 2700.00    0.0
2018/11/11 00:45:00.000  -74.393414641  163.452953487    96.0090   5  10   0.7416   0.6171   2.5772  -0.3702   0.8360  -1.0293 2715.00    0.0
2018/11/11 00:45:15.000  -74.393409681  163.452946682    94.1488   5  10   0.7412   0.6161   2.5712  -0.3686   0.8315  -1.0270 2730.00    0.0
2018/11/11 00:45:30.000  -74.393414300  163.452953150    95.3021   5  10   0.7409   0.6151   2.5654  -0.3670   0.8269  -1.0247 2745.00    0.0
2018/11/11 00:45:45.000  -74.393413748  163.452947718    93.3792   5  10   0.7407   0.6143   2.5599  -0.3655   0.8225  -1.0225 2760.00    0.0
2018/11/11 00:46:00.000  -74.393410917  163.452948845    94.3838   5  10   0.7405   0.6135   2.5547  -0.3640   0.8181  -1.0204 2775.00    0.0
2018/11/11 00:46:15.000  -74.393413720  163.452950777    94.3341   5  10   0.7405   0.6128   2.5498  -0.3626   0.8137  -1.0184 2790.00    0.0
2018/11/11 00:46:30.000  -74.393412117  163.452947141    94.5133   5  10   0.7404   0.6121   2.5452  -0.3611   0.8095  -1.0165 2805.00    0.0
2018/11/11 00:46:45.000  -74.393414434  163.452949778    94.7600   5  10   0.7405   0.6116   2.5409  -0.3598   0.8052  -1.0146 2820.00    0.0
2018/11/11 00:47:00.000  -74.393414222  163.452959211    95.4371   5  10   0.7406   0.6111   2.5370  -0.3584   0.8011  -1.0129 2835.00    0.0
2018/11/11 00:47:15.000  -74.393414132  163.452944038    95.1051   5  10   0.7408   0.6107   2.5333  -0.3571   0.7970  -1.0112 2850.00    0.0
2018/11/11 00:47:30.000  -74.393412559  163.452958349    94.2388   5  10   0.7411   0.6103   2.5300  -0.3558   0.7929  -1.0096 2865.00    0.0
2018/11/11 00:47:45.000  -74.393414891  163.452948099    95.7549   5  10   0.7400   0.6087   2.5198  -0.3536   0.7870  -1.0059 2880.00    0.0
2018/11/11 00:48:00.000  -74.393411849  163.452947694    93.1925   5  10   0.7389   0.6070   2.5099  -0.3515   0.7811  -1.0023 2895.00    0.0
2018/11/11 00:48:15.000  -74.393412384  163.452944087    94.4508   5  10   0.7379   0.6055   2.5003  -0.3494   0.7753  -0.9988 2910.00    0.0
2018/11/11 00:48:30.000  -74.393415652  163.452944047    95.9434   5  10   0.7370   0.6040   2.4911  -0.3473   0.7695  -0.9954 2925.00    0.0
2018/11/11 00:48:45.000  -74.393411679  163.452945068    94.5551   5  10   0.7362   0.6027   2.4822  -0.3453   0.7638  -0.9921 2940.00    0.0
2018/11/11 00:49:00.000  -74.393413481  163.452946604    94.7356   5  10   0.7355   0.6014   2.4736  -0.3434   0.7583  -0.9889 2955.00    0.0
2018/11/11 00:49:15.000  -74.393416295  163.452952060    94.9693   5  10   0.7348   0.6001   2.4654  -0.3414   0.7528  -0.9858 2970.00    0.0
2018/11/11 00:49:30.000  -74.393412926  163.452950387    94.6991   5  10   0.7342   0.5990   2.4575  -0.3395   0.7473  -0.9828 2985.00    0.0
2018/11/11 00:49:45.000  -74.393413214  163.452953235    94.0918   5  10   0.7336   0.5979   2.4499  -0.3377   0.7420  -0.9799 3000.00    0.0
2018/11/11 00:50:00.000  -74.393412272  163.452955219    95.1417   5  10   0.7332   0.5970   2.4427  -0.3358   0.7367  -0.9770 3015.00    0.0
2018/11/11 00:50:15.000  -74.393413369  163.452954211    95.7857   5  10   0.7328   0.5961   2.4359  -0.3341   0.7315  -0.9744 3030.00    0.0
2018/11/11 00:50:30.000  -74.393413126  163.452949808    96.0510   5  10   0.7325   0.5953   2.4295  -0.3323   0.7264  -0.9718 3045.00    0.0
2018/11/11 00:50:45.000  -74.393414431  163.452942003    94.9442   5  10   0.7323   0.5946   2.4234  -0.3306   0.7213  -0.9693 3060.00    0.0
2018/11/11 00:51:00.000  -74.393412095  163.452947047    94.6721   5  10   0.7321   0.5939   2.4177  -0.3290   0.7163  -0.9669 3075.00    0.0
2018/11/11 00:51:15.000  -74.393412778  163.452953833    95.7493   5  10   0.7321   0.5934   2.4124  -0.3273   0.7114  -0.9647 3090.00    0.0
2018/11/11 00:51:30.000  -74.393415704  163.452955897    94.8504   5  10   0.7321   0.5929   2.4074  -0.3257   0.7066  -0.9625 3105.00    0.0
2018/11/11 00:51:45.000  -74.393413230  163.452949002    95.0280   5  10   0.7321   0.5925   2.4028  -0.3242   0.7018  -0.9604 3120.00    0.0
2018/11/11 00:52:00.000  -74.393416844  163.452954416    95.7138   5  10   0.7323   0.5921   2.3985  -0.3227   0.6970  -0.9584 3135.00    0.0
2018/11/11 00:52:15.000  -74.393414870  163.452956732    95.6821   5  10   0.7325   0.5919   2.3946  -0.3212   0.6923  -0.9566 3150.00    0.0
2018/11/11 00:52:30.000  -74.393416690  163.452951715    95.4297   5  10   0.7328   0.5917   2.3911  -0.3197   0.6877  -0.9548 3165.00    0.0
2018/11/11 00:52:45.000  -74.393412965  163.452951099    95.0991   5  10   0.7317   0.5902   2.3808  -0.3175   0.6814  -0.9510 3180.00    0.0
2018/11/11 00:53:00.000  -74.393414912  163.452954800    95.9268   5  10   0.7307   0.5888   2.3707  -0.3153   0.6752  -0.9473 3195.00    0.0
2018/11/11 00:53:15.000  -74.393413453  163.452943580    94.9968   5  10   0.7298   0.5875   2.3610  -0.3131   0.6691  -0.9438 3210.00    0.0
2018/11/11 00:53:30.000  -74.393414693  163.452943552    95.0893   5  10   0.7290   0.5863   2.3518  -0.3110   0.6631  -0.9403 3225.00    0.0
2018/11/11 00:53:45.000  -74.393414824  163.452954209    96.4802   5  10   0.7283   0.5851   2.3428  -0.3089   0.6571  -0.9370 3240.00    0.0
2018/11/11 00:54:00.000  -74.393414922  163.452944741    96.2030   5  10   0.7276   0.5840   2.3343  -0.3069   0.6512  -0.9337 3255.00    0.0
2018/11/11 00:54:15.000  -74.393414314  163.452948046    94.6669   5  10   0.7270   0.5831   2.3261  -0.3049   0.6454  -0.9306 3270.00    0.0
2018/11/11 00:54:30.000  -74.393415996  163.452951682    94.3672   5  10   0.7264   0.5821   2.3183  -0.3030   0.6396  -0.9276 3285.00    0.0
2018/11/11 00:54:45.000  -74.393414189  163.452958027    95.3921   5  10   0.7260   0.5813   2.3109  -0.3011   0.6339  -0.9247 3300.00    0.0
2018/11/11 00:55:00.000  -74.393413709  163.452958125    96.3666   5  10   0.7256   0.5805   2.3039  -0.2992   0.6283  -0.9219 3315.00    0.0
2018/11/11 00:55:15.000  -74.393417333  163.452955859    97.0212   5  10   0.7253   0.5799   2.2974  -0.2973   0.6228  -0.9193 3330.00    0.0
2018/11/11 00:55:30.000  -74.393417512  163.452948060    95.9366   5  10   0.7251   0.5793   2.2913  -0.2955   0.6173  -0.9167 3345.00    0.0
2018/11/11 00:55:45.000  -74.393414067  163.452950789    95.3154   5  10   0.7250   0.5788   2.2855  -0.2938   0.6119  -0.9143 3360.00    0.0
2018/11/11 00:56:00.000  -74.393412072  163.452954208    95.8030   5  10   0.7249   0.5784   2.2802  -0.2921   0.6065  -0.9120 3375.00    0.0
2018/11/11 00:56:15.000  -74.393417338  163.452950960    96.9161   5  10   0.7249   0.5781   2.2752  -0.2904   0.6012  -0.9098 3390.00    0.0
2018/11/11 00:56:30.000  -74.393415451  163.452962067    96.3483   5  10   0.7250   0.5778   2.2706  -0.2887   0.5959  -0.9076 3405.00    0.0
2018/11/11 00:56:45.000  -74.393414433  163.452949718    96.1817   5  10   0.7251   0.5776   2.2663  -0.2871   0.5907  -0.9056 3420.00    0.0
2018/11/11 00:57:00.000  -74.393412872  163.452949211    95.8278   5  10   0.7253   0.5775   2.2625  -0.2854   0.5855  -0.9038 3435.00    0.0
2018/11/11 00:57:15.000  -74.393414524  163.452947904    95.3627   5  10   0.7256   0.5774   2.2590  -0.2839   0.5803  -0.9020 3450.00    0.0
2018/11/11 00:57:30.000  -74.393418206  163.452956051    96.6360   5  10   0.7260   0.5775   2.2559  -0.2823   0.5752  -0.9003 3465.00    0.0
2018/11/11 00:57:45.000  -74.393414655  163.452948879    95.0773   5  10   0.7251   0.5763   2.2461  -0.2801   0.5688  -0.8967 3480.00    0.0
2018/11/11 00:58:00.000  -74.393412807  163.452945232    96.0936   5  10   0.7242   0.5752   2.2367  -0.2780   0.5624  -0.8932 3495.00    0.0
2018/11/11 00:58:15.000  -74.393414110  163.452953753    95.2228   5  10   0.7235   0.5741   2.2277  -0.2758   0.5561  -0.8899 3510.00    0.0
2018/11/11 00:58:30.000  -74.393413785  163.452943837    95.6487   5  10   0.7228   0.5732   2.2191  -0.2737   0.5498  -0.8867 3525.00    0.0
2018/11/11 00:58:45.000  -74.393413247  163.452950391    94.6764   5  10   0.7221   0.5723   2.2108  -0.2717   0.5436  -0.8836 3540.00    0.0
2018/11/11 00:59:00.000  -74.393416746  163.452943648    95.8568   5  10   0.7216   0.5715   2.2030  -0.2697   0.5375  -0.8806 3555.00    0.0
2018/11/11 00:59:15.000  -74.393413701  163.452947928    96.5294   5  10   0.7211   0.5708   2.1956  -0.2677   0.5314  -0.8777 3570.00    0.0
2018/11/11 00:59:30.000  -74.393412811  163.452945960    94.5701   5  10   0.7207   0.5701   2.1885  -0.2657   0.5253  -0.8749 3585.00    0.0
2018/11/11 00:59:45.000  -74.393416637  163.452942856    96.2081   5  10   0.7204   0.5695   2.1819  -0.2638   0.5193  -0.8723 3600.00    0.0
2018/11/11 01:00:00.000  -74.393413848  163.452952048    95.4568   5  10   0.7201   0.5691   2.1756  -0.2619   0.5133  -0.8697 3615.00    0.0
2018/11/11 01:00:15.000  -74.393412230  163.452944612    95.4353   5  10   0.7199   0.5687   2.1699  -0.2601   0.5074  -0.8673 3630.00    0.0
2018/11/11 01:00:30.000  -74.393413912  163.452956292    95.5780   5  10   0.7198   0.5683   2.1645  -0.2582   0.5015  -0.8650 3645.00    0.0
2018/11/11 01:00:45.000  -74.393414392  163.452949795    94.7447   5  10   0.7198   0.5681   2.1595  -0.2565   0.4956  -0.8628 3660.00    0.0
2018/11/11 01:01:00.000  -74.393414918  163.452951064    95.8850   5  10   0.7199   0.5679   2.1549  -0.2547   0.4897  -0.8608 3675.00    0.0
2018/11/11 01:01:15.000  -74.393416959  163.452947073    95.9982   5  10   0.7200   0.5678   2.1507  -0.2530   0.4839  -0.8588 3690.00    0.0
2018/11/11 01:01:30.000  -74.393415455  163.452951495    96.1595   5  11   0.6204   0.5503   1.7993  -0.1093   0.2542  -0.5531 3705.00    0.0
2018/11/11 01:01:45.000  -74.393417320  163.452947149    96.6121   5  11   0.6208   0.5506   1.7991  -0.1072   0.2471  -0.5525 3720.00    0.0
2018/11/11 01:02:00.000  -74.393416279  163.452950170    96.3406   5  11   0.6212   0.5510   1.7991  -0.1051   0.2398  -0.5519 3735.00    0.0
2018/11/11 01:02:15.000  -74.393416801  163.452949187    97.1768   5  11   0.6217   0.5514   1.7995  -0.1028   0.2322  -0.5513 3750.00    0.0
2018/11/11 01:02:30.000  -74.393415341  163.452953457    96.1314   5  11   0.6222   0.5519   1.8001  -0.1006   0.2243  -0.5507 3765.00    0.0
2018/11/11 01:02:45.000  -74.393415194  163.452949959    96.4151   5  11   0.6217   0.5513   1.7958  -0.0982   0.2166  -0.5497 3780.00    0.0
2018/11/11 01:03:00.000  -74.393417906  163.452956589    96.1587   5  11   0.6214   0.5508   1.7916  -0.0957   0.2086  -0.5488 3795.00    0.0
2018/11/11 01:03:15.000  -74.393414449  163.452955217    95.4789   5  11   0.6210   0.5503   1.7877  -0.0932   0.2004  -0.5478 3810.00    0.0
2018/11/11 01:03:30.000  -74.393415681  163.452954560    97.0477   5  11   0.6208   0.5499   1.7841  -0.0906   0.1918  -0.5469 3825.00    0.0
2018/11/11 01:03:45.000  -74.393414051  163.452950057    95.5286   5  11   0.6206   0.5495   1.7807  -0.0880   0.1828  -0.5461 3840.00    0.0
2018/11/11 01:04:00.000  -74.393416630  163.452950900    95.9798   5  11   0.6204   0.5492   1.7777  -0.0853   0.1733  -0.5453 3855.00    0.0
2018/11/11 01:04:15.000  -74.393415844  163.452949937    96.2944   5  11   0.6203   0.5490   1.7749  -0.0825   0.1633  -0.5445 3870.00    0.0
2018/11/11 01:04:30.000  -74.393416621  163.452947169    96.3164   5  11   0.6202   0.5488   1.7725  -0.0796   0.1527  -0.5438 3885.00    0.0
2018/11/11 01:04:45.000  -74.393416408  163.452951525    96.3857   5  11   0.6202   0.5488   1.7703  -0.0766   0.1412  -0.5431 3900.00    0.0
2018/11/11 01:05:00.000  -74.393414374  163.452953620    95.8578   5  11   0.6203   0.5487   1.7685  -0.0735   0.1286  -0.5424 3915.00    0.0
2018/11/11 01:05:15.000  -74.393415837  163.452952185    96.4415   5  11   0.6204   0.5488   1.7670  -0.0702   0.1146  -0.5418 3930.00    0.0
2018/11/11 01:05:30.000  -74.393418000  163.452949206    96.4157   5  12   0.6131   0.5263   1.6990  -0.1393  -0.2558  -0.5822 3945.00    0.0
2018/11/11 01:05:45.000  -74.393417275  163.452947159    96.6099   5  12   0.6132   0.5265   1.6992  -0.1381  -0.2614  -0.5818 3960.00    0.0
2018/11/11 01:06:00.000  -74.393416238  163.452964895    95.7492   5  12   0.6134   0.5267   1.6997  -0.1370  -0.2669  -0.5814 3975.00    0.0
2018/11/11 01:06:15.000  -74.393416806  163.452956951    96.1727   5  12   0.6136   0.5270   1.7005  -0.1358  -0.2724  -0.5810 3990.00    0.0
2018/11/11 01:06:30.000  -74.393414799  163.452952731    95.8024   5  12   0.6138   0.5274   1.7016  -0.1347  -0.2778  -0.5807 4005.00    0.0
2018/11/11 01:06:45.000  -74.393415561  163.452949036    95.9083   5  12   0.6141   0.5278   1.7029  -0.1336  -0.2833  -0.5804 4020.00    0.0
2018/11/11 01:07:00.000  -74.393414597  163.452957309    95.1386   5  12   0.6145   0.5283   1.7045  -0.1324  -0.2887  -0.5801 4035.00    0.0
2018/11/11 01:07:15.000  -74.393413225  163.452949519    96.2599   5  12   0.6149   0.5289   1.7064  -0.1313  -0.2942  -0.5799 4050.00    0.0
2018/11/11 01:07:30.000  -74.393414251  163.452953647    95.2630   5  12   0.6153   0.5295   1.7086  -0.1302  -0.2996  -0.5798 4065.00    0.0
2018/11/11 01:07:45.000  -74.393417505  163.452953366    95.8070   5  12   0.6148   0.5291   1.7059  -0.1287  -0.3034  -0.5789 4080.00    0.0
2018/11/11 01:08:00.000  -74.393418571  163.452956402    95.4229   5  12   0.6144   0.5287   1.7034  -0.1273  -0.3072  -0.5781 4095.00    0.0
2018/11/11 01:08:15.000  -74.393417795  163.452947832    95.5738   5  12   0.6140   0.5283   1.7012  -0.1259  -0.3110  -0.5773 4110.00    0.0
2018/11/11 01:08:30.000  -74.393416099  163.452953174    95.7365   5  12   0.6137   0.5281   1.6993  -0.1245  -0.3148  -0.5766 4125.00    0.0
2018/11/11 01:08:45.000  -74.393414546  163.452954810    95.9110   5  12   0.6135   0.5279   1.6976  -0.1230  -0.3186  -0.5759 4140.00    0.0
2018/11/11 01:09:00.000  -74.393416220  163.452941484    96.1686   5  12   0.6132   0.5277   1.6962  -0.1216  -0.3225  -0.5752 4155.00    0.0
2018/11/11 01:09:15.000  -74.393417990  163.452951051    95.5887   5  12   0.6131   0.5276   1.6951  -0.1202  -0.3264  -0.5746 4170.00    0.0
2018/11/11 01:09:30.000  -74.393415857  163.452948246    95.9308   5  12   0.6129   0.5276   1.6943  -0.1188  -0.3303  -0.5741 4185.00    0.0
2018/11/11 01:09:45.000  -74.393415030  163.452949827    95.6017   5  12   0.6129   0.5276   1.6937  -0.1174  -0.3343  -0.5735 4200.00    0.0
2018/11/11 01:10:00.000  -74.393414830  163.452945293    96.6736   5  12   0.6129   0.5277   1.6934  -0.1160  -0.3382  -0.5731 4215.00    0.0
2018/11/11 01:10:15.000  -74.393414915  163.452948532    95.6784   5  12   0.6129   0.5279   1.6935  -0.1146  -0.3423  -0.5727 4230.00    0.0
2018/11/11 01:10:30.000  -74.393415610  163.452949994    95.9572   5  12   0.6130   0.5281   1.6939  -0.1132  -0.3464  -0.5723 4245.00    0.0
2018/11/11 01:10:45.000  -74.393413250  163.452948818    95.7027   5  12   0.6132   0.5284   1.6946  -0.1117  -0.3505  -0.5720 4260.00    0.0
2018/11/11 01:11:00.000  -74.393415529  163.452949371    96.0759   5  12   0.6134   0.5288   1.6956  -0.1103  -0.3546  -0.5717 4275.00    0.0
2018/11/11 01:11:15.000  -74.393417037  163.452947382    96.3079   5  12   0.6136   0.5292   1.6968  -0.1089  -0.3588  -0.5715 4290.00    0.0
2018/11/11 01:11:30.000  -74.393418188  163.452958928    95.6485   5  12   0.6139   0.5297   1.6983  -0.1075  -0.3630  -0.5713 4305.00    0.0
2018/11/11 01:11:45.000  -74.393417712  163.452949616    95.3218   5  12   0.6143   0.5302   1.7002  -0.1061  -0.3673  -0.5712 4320.00    0.0
2018/11/11 01:12:00.000  -74.393417042  163.452942340    96.5864   5  12   0.6147   0.5309   1.7023  -0.1047  -0.3716  -0.5711 4335.00    0.0
2018/11/11 01:12:15.000  -74.393417509  163.452949299    95.8837   5  12   0.6151   0.5315   1.7047  -0.1032  -0.3759  -0.5711 4350.00    0.0
2018/11/11 01:12:30.000  -74.393416282  163.452950641    96.0681   5  12   0.6156   0.5322   1.7074  -0.1018  -0.3803  -0.5711 4365.00    0.0
2018/11/11 01:12:45.000  -74.393416744  163.452949284    95.7076   5  12   0.6152   0.5319   1.7048  -0.1000  -0.3831  -0.5704 4380.00    0.0
2018/11/11 01:13:00.000  -74.393418233  163.452952412    95.8971   5  12   0.6148   0.5316   1.7027  -0.0983  -0.3859  -0.5697 4395.00    0.0
2018/11/11 01:13:15.000  -74.393417983  163.452944007    96.9473   5  12   0.6145   0.5314   1.7009  -0.0965  -0.3888  -0.5690 4410.00    0.0
2018/11/11 01:13:30.000  -74.393415832  163.452949173    96.9144   5  12   0.6143   0.5312   1.6993  -0.0947  -0.3918  -0.5685 4425.00    0.0
2018/11/11 01:13:45.000  -74.393416334  163.452952374    95.8423   5  12   0.6140   0.5311   1.6981  -0.0929  -0.3948  -0.5679 4440.00    0.0
2018/11/11 01:14:00.000  -74.393418969  163.452951033    96.1973   5  12   0.6139   0.5311   1.6971  -0.0910  -0.3978  -0.5674 4455.00    0.0
2018/11/11 01:14:15.000  -74.393417171  163.452945877    95.4063   5  12   0.6138   0.5311   1.6964  -0.0892  -0.4009  -0.5670 4470.00    0.0
2018/11/11 01:14:30.000  -74.393418496  163.452950847    97.0388   5  12   0.6137   0.5312   1.6960  -0.0873  -0.4041  -0.5666 4485.00    0.0
2018/11/11 01:14:45.000  -74.393416157  163.452958384    95.8448   5  12   0.6137   0.5313   1.6959  -0.0854  -0.4073  -0.5662 4500.00    0.0
2018/11/11 01:15:00.000  -74.393418184  163.452946885    95.8211   5  12   0.6137   0.5315   1.6960  -0.0835  -0.4105  -0.5659 4515.00    0.0
2018/11/11 01:15:15.000  -74.393420225  163.452949508    95.6210   5  12   0.6138   0.5318   1.6965  -0.0815  -0.4139  -0.5657 4530.00    0.0
2018/11/11 01:15:30.000  -74.393417357  163.452953161    96.1315   5  12   0.6140   0.5321   1.6973  -0.0796  -0.4172  -0.5655 4545.00    0.0
2018/11/11 01:15:45.000  -74.393415838  163.452951547    95.8992   5  12   0.6142   0.5325   1.6984  -0.0776  -0.4207  -0.5653 4560.00    0.0
2018/11/11 01:16:00.000  -74.393416016  163.452949590    96.0524   5  12   0.6145   0.5330   1.6998  -0.0755  -0.4242  -0.5652 4575.00    0.0
2018/11/11 01:16:15.000  -74.393417934  163.452951635    95.2698   5  12   0.6148   0.5335   1.7015  -0.0735  -0.4277  -0.5651 4590.00    0.0
2018/11/11 01:16:30.000  -74.393415922  163.452958798    95.8113   5  12   0.6151   0.5341   1.7035  -0.0713  -0.4313  -0.5651 4605.00    0.0
2018/11/11 01:16:45.000  -74.393416354  163.452943208    95.1370   5  12   0.6155   0.5347   1.7057  -0.0692  -0.4349  -0.5652 4620.00    0.0
2018/11/11 01:17:00.000  -74.393415361  163.452947521    95.9517   5  12   0.6160   0.5355   1.7082  -0.0670  -0.4387  -0.5652 4635.00    0.0
2018/11/11 01:17:15.000  -74.393416928  163.452953125    96.4824   5  12   0.6165   0.5362   1.7110  -0.0647  -0.4424  -0.5654 4650.00    0.0
2018/11/11 01:17:30.000  -74.393417164  163.452954055    95.9879   5  12   0.6170   0.5370   1.7141  -0.0624  -0.4462  -0.5656 4665.00    0.0
2018/11/11 01:17:45.000  -74.393419100  163.452951113    95.3480   5  12   0.6167   0.5368   1.7122  -0.0595  -0.4486  -0.5650 4680.00    0.0
2018/11/11 01:18:00.000  -74.393419338  163.452960311    96.0447   5  12   0.6164   0.5366   1.7105  -0.0565  -0.4509  -0.5645 4695.00    0.0
2018/11/11 01:18:15.000  -74.393419279  163.452951838    95.3824   5  12   0.6161   0.5365   1.7091  -0.0534  -0.4533  -0.5640 4710.00    0.0
2018/11/11 01:18:30.000  -74.393416578  163.452953880    95.3409   5  12   0.6159   0.5364   1.7079  -0.0501  -0.4557  -0.5636 4725.00    0.0
2018/11/11 01:18:45.000  -74.393417512  163.452948702    95.4928   5  12   0.6158   0.5364   1.7070  -0.0467  -0.4582  -0.5632 4740.00    0.0
2018/11/11 01:19:00.000  -74.393419294  163.452948558    96.0432   5  12   0.6157   0.5365   1.7065  -0.0429  -0.4608  -0.5629 4755.00    0.0
2018/11/11 01:19:15.000  -74.393418412  163.452950801    96.1392   5  12   0.6156   0.5366   1.7062  -0.0389  -0.4634  -0.5626 4770.00    0.0
2018/11/11 01:19:30.000  -74.393416648  163.452945246    96.2845   5  12   0.6156   0.5367   1.7062  -0.0344  -0.4661  -0.5624 4785.00    0.0
2018/11/11 01:19:45.000  -74.393416749  163.452953679    96.2645   5  12   0.6156   0.5370   1.7064  -0.0293  -0.4688  -0.5622 4800.00    0.0
2018/11/11 01:20:00.000  -74.393415495  163.452945019    96.0297   5  12   0.6157   0.5373   1.7070  -0.0232  -0.4716  -0.5621 4815.00    0.0
2018/11/11 01:20:15.000  -74.393417907  163.452949939    95.8114   5  12   0.6159   0.5376   1.7079  -0.0147  -0.4745  -0.5620 4830.00    0.0
2018/11/11 01:20:30.000  -74.393418765  163.452957239    95.4895   5  12   0.6161   0.5381   1.7091   0.0101  -0.4775  -0.5620 4845.00    0.0
2018/11/11 01:20:45.000  -74.393416441  163.452942266    96.6418   5  12   0.6164   0.5385   1.7106   0.0204  -0.4805  -0.5620 4860.00    0.0
2018/11/11 01:21:00.000  -74.393417223  163.452951625    96.4213   5  12   0.6167   0.5391   1.7124   0.0270  -0.4836  -0.5621 4875.00    0.0
2018/11/11 01:21:15.000  -74.393416298  163.452960995    95.6355   5  12   0.6170   0.5397   1.7145   0.0323  -0.4867  -0.5622 4890.00    0.0
2018/11/11 01:21:30.000  -74.393418551  163.452949741    96.6750   5  12   0.6174   0.5404   1.7168   0.0368  -0.4899  -0.5623 4905.00    0.0
2018/11/11 01:21:45.000  -74.393417518  163.452949299    96.0247   5  12   0.6179   0.5411   1.7195   0.0408  -0.4932  -0.5625 4920.00    0.0
2018/11/11 01:22:00.000  -74.393419090  163.452949351    96.0118   5  12   0.6184   0.5419   1.7224   0.0444  -0.4965  -0.5628 4935.00    0.0
2018/11/11 01:22:15.000  -74.393417589  163.452951870    96.0067   5  12   0.6190   0.5427   1.7256   0.0477  -0.4999  -0.5631 4950.00    0.0
2018/11/11 01:22:30.000  -74.393417711  163.452945987    96.2114   5  12   0.6196   0.5436   1.7290   0.0508  -0.5033  -0.5634 4965.00    0.0
2018/11/11 01:22:45.000  -74.393416710  163.452948875    95.8782   5  12   0.6193   0.5435   1.7274   0.0540  -0.5052  -0.5631 4980.00    0.0
2018/11/11 01:23:00.000  -74.393417972  163.452951337    96.5742   5  12   0.6190   0.5434   1.7261   0.0571  -0.5072  -0.5627 4995.00    0.0
2018/11/11 01:23:15.000  -74.393418764  163.452947677    96.3417   5  12   0.6188   0.5433   1.7250   0.0600  -0.5093  -0.5625 5010.00    0.0
2018/11/11 01:23:30.000  -74.393419582  163.452942798    96.8107   5  12   0.6187   0.5433   1.7243   0.0627  -0.5114  -0.5622 5025.00    0.0
2018/11/11 01:23:45.000  -74.393419543  163.452949731    96.9083   5  12   0.6186   0.5434   1.7238   0.0654  -0.5135  -0.5620 5040.00    0.0
2018/11/11 01:24:00.000  -74.393419245  163.452953342    96.1157   5  12   0.6185   0.5435   1.7236   0.0679  -0.5158  -0.5619 5055.00    0.0
2018/11/11 01:24:15.000  -74.393418025  163.452954263    95.9075   5  12   0.6185   0.5437   1.7237   0.0703  -0.5180  -0.5618 5070.00    0.0
2018/11/11 01:24:30.000  -74.393421073  163.452954030    95.9663   5  12   0.6186   0.5439   1.7240   0.0726  -0.5204  -0.5618 5085.00    0.0
2018/11/11 01:24:45.000  -74.393417274  163.452947018    96.7857   5  12   0.6187   0.5442   1.7247   0.0748  -0.5228  -0.5618 5100.00    0.0
2018/11/11 01:25:00.000  -74.393418519  163.452946291    96.1196   5  12   0.6188   0.5446   1.7256   0.0769  -0.5253  -0.5618 5115.00    0.0
2018/11/11 01:25:15.000  -74.393418507  163.452950007    96.3784   5  12   0.6190   0.5450   1.7269   0.0790  -0.5279  -0.5619 5130.00    0.0
2018/11/11 01:25:30.000  -74.393418988  163.452951330    95.8843   5  12   0.6193   0.5455   1.7284   0.0810  -0.5305  -0.5621 5145.00    0.0
2018/11/11 01:25:45.000  -74.393416601  163.452950755    96.3106   5  12   0.6196   0.5461   1.7303   0.0830  -0.5332  -0.5622 5160.00    0.0
2018/11/11 01:26:00.000  -74.393417116  163.452951697    95.2642   5  12   0.6200   0.5467   1.7324   0.0849  -0.5360  -0.5625 5175.00    0.0
2018/11/11 01:26:15.000  -74.393419289  163.452957714    95.9554   5  12   0.6204   0.5474   1.7347   0.0867  -0.5388  -0.5628 5190.00    0.0
2018/11/11 01:26:30.000  -74.393418899  163.452947586    96.4065   5  12   0.6209   0.5481   1.7373   0.0885  -0.5417  -0.5631 5205.00    0.0
2018/11/11 01:26:45.000  -74.393420347  163.452952986    95.7638   5  12   0.6214   0.5489   1.7402   0.0903  -0.5446  -0.5635 5220.00    0.0
2018/11/11 01:27:00.000  -74.393415227  163.452946604    96.5360   5  12   0.6220   0.5497   1.7434   0.0920  -0.5476  -0.5639 5235.00    0.0
2018/11/11 01:27:15.000  -74.393418709  163.452955468    95.7419   5  12   0.6226   0.5506   1.7468   0.0937  -0.5507  -0.5643 5250.00    0.0
2018/11/11 01:27:30.000  -74.393419507  163.452953113    96.9454   5  12   0.6233   0.5516   1.7505   0.0953  -0.5538  -0.5648 5265.00    0.0
2018/11/11 01:27:45.000  -74.393417348  163.452946185    96.0462   5  12   0.6230   0.5515   1.7492   0.0971  -0.5554  -0.5646 5280.00    0.0
2018/11/11 01:28:00.000  -74.393418914  163.452951133    96.1867   5  12   0.6228   0.5514   1.7483   0.0988  -0.5571  -0.5645 5295.00    0.0
2018/11/11 01:28:15.000  -74.393418040  163.452952771    95.9178   5  12   0.6227   0.5514   1.7476   0.1006  -0.5589  -0.5644 5310.00    0.0
2018/11/11 01:28:30.000  -74.393419868  163.452948755    95.9922   5  12   0.6226   0.5515   1.7472   0.1022  -0.5607  -0.5644 5325.00    0.0
2018/11/11 01:28:45.000  -74.393419563  163.452951141    96.6317   5  12   0.6225   0.5516   1.7471   0.1039  -0.5626  -0.5644 5340.00    0.0
2018/11/11 01:29:00.000  -74.393417305  163.452951812    96.3861   5  12   0.6225   0.5518   1.7472   0.1055  -0.5645  -0.5644 5355.00    0.0
2018/11/11 01:29:15.000  -74.393416729  163.452953636    95.6312   5  12   0.6226   0.5520   1.7476   0.1070  -0.5666  -0.5645 5370.00    0.0
2018/11/11 01:29:30.000  -74.393420692  163.452948905    95.5465   5  12   0.6227   0.5523   1.7483   0.1086  -0.5686  -0.5646 5385.00    0.0
2018/11/11 01:29:45.000  -74.393419096  163.452952001    96.5630   5  12   0.6228   0.5527   1.7492   0.1101  -0.5708  -0.5648 5400.00    0.0
2018/11/11 01:30:00.000  -74.393418246  163.452954406    96.0145   5  12   0.6231   0.5531   1.7504   0.1116  -0.5730  -0.5650 5415.00    0.0
2018/11/11 01:30:15.000  -74.393418909  163.452955146    95.2861   5  12   0.6233   0.5535   1.7520   0.1131  -0.5753  -0.5653 5430.00    0.0
2018/11/11 01:30:30.000  -74.393416731  163.452954511    96.2648   5  12   0.6237   0.5541   1.7537   0.1145  -0.5776  -0.5656 5445.00    0.0
2018/11/11 01:30:45.000  -74.393417915  163.452948022    96.4578   5  12   0.6240   0.5547   1.7558   0.1159  -0.5800  -0.5660 5460.00    0.0
2018/11/11 01:31:00.000  -74.393420706  163.452952950    96.1916   5  12   0.6245   0.5553   1.7580   0.1173  -0.5825  -0.5664 5475.00    0.0
2018/11/11 01:31:15.000  -74.393417925  163.452954452    96.1293   5  12   0.6249   0.5560   1.7606   0.1187  -0.5850  -0.5668 5490.00    0.0
2018/11/11 01:31:30.000  -74.393419048  163.452953894    95.4220   5  12   0.6255   0.5568   1.7634   0.1200  -0.5875  -0.5673 5505.00    0.0
2018/11/11 01:31:45.000  -74.393418168  163.452940364    96.6392   5  12   0.6261   0.5576   1.7664   0.1213  -0.5902  -0.5678 5520.00    0.0
2018/11/11 01:32:00.000  -74.393418488  163.452956248    95.8342   5  12   0.6267   0.5585   1.7696   0.1226  -0.5929  -0.5684 5535.00    0.0
2018/11/11 01:32:15.000  -74.393419662  163.452955166    95.4729   5  12   0.6274   0.5594   1.7731   0.1239  -0.5956  -0.5690 5550.00    0.0
2018/11/11 01:32:30.000  -74.393418331  163.452951589    95.9999   5  12   0.6281   0.5604   1.7769   0.1252  -0.5984  -0.5696 5565.00    0.0
2018/11/11 01:32:45.000  -74.393419048  163.452951408    96.4236   5  12   0.6279   0.5603   1.7760   0.1266  -0.5998  -0.5696 5580.00    0.0
2018/11/11 01:33:00.000  -74.393421408  163.452947117    96.3172   5  12   0.6278   0.5603   1.7754   0.1279  -0.6012  -0.5697 5595.00    0.0
2018/11/11 01:33:15.000  -74.393419997  163.452948311    96.4267   5  12   0.6277   0.5603   1.7750   0.1293  -0.6027  -0.5698 5610.00    0.0
2018/11/11 01:33:30.000  -74.393419411  163.452947288    96.7045   5  12   0.6277   0.5604   1.7748   0.1306  -0.6043  -0.5699 5625.00    0.0
2018/11/11 01:33:45.000  -74.393420827  163.452942331    96.3278   5  12   0.6277   0.5606   1.7750   0.1319  -0.6059  -0.5701 5640.00    0.0
2018/11/11 01:34:00.000  -74.393418312  163.452948642    96.1750   5  12   0.6277   0.5608   1.7753   0.1332  -0.6076  -0.5704 5655.00    0.0
2018/11/11 01:34:15.000  -74.393419622  163.452942305    96.8778   5  12   0.6278   0.5610   1.7759   0.1344  -0.6093  -0.5706 5670.00    0.0
2018/11/11 01:34:30.000  -74.393418377  163.452946422    96.9073   5  12   0.6280   0.5613   1.7768   0.1357  -0.6111  -0.5709 5685.00    0.0
2018/11/11 01:34:45.000  -74.393416587  163.452946526    95.8999   5  12   0.6282   0.5617   1.7779   0.1369  -0.6129  -0.5713 5700.00    0.0
2018/11/11 01:35:00.000  -74.393418871  163.452947104    96.1495   5  12   0.6285   0.5621   1.7793   0.1381  -0.6148  -0.5717 5715.00    0.0
2018/11/11 01:35:15.000  -74.393420879  163.452949933    96.1976   5  12   0.6288   0.5626   1.7809   0.1393  -0.6168  -0.5721 5730.00    0.0
2018/11/11 01:35:30.000  -74.393419581  163.452950926    95.7359   5  11   0.6604   0.5669   1.8189   0.1810  -0.5996  -0.5055 5745.00    0.0
2018/11/11 01:35:45.000  -74.393420895  163.452942323    95.4854   5  11   0.6607   0.5674   1.8214   0.1817  -0.6017  -0.5058 5760.00    0.0
2018/11/11 01:36:00.000  -74.393419866  163.452947308    95.9444   5  11   0.6610   0.5681   1.8241   0.1824  -0.6039  -0.5062 5775.00    0.0
2018/11/11 01:36:15.000  -74.393420344  163.452950475    95.3635   5  11   0.6614   0.5687   1.8270   0.1831  -0.6061  -0.5066 5790.00    0.0
2018/11/11 01:36:30.000  -74.393419943  163.452949619    95.3622   5  11   0.6619   0.5695   1.8301   0.1838  -0.6083  -0.5070 5805.00    0.0
2018/11/11 01:36:45.000  -74.393420804  163.452942684    95.3918   5  11   0.6624   0.5703   1.8335   0.1845  -0.6106  -0.5074 5820.00    0.0
2018/11/11 01:37:00.000  -74.393418597  163.452944894    95.2064   5  11   0.6630   0.5711   1.8371   0.1852  -0.6130  -0.5078 5835.00    0.0
2018/11/11 01:37:15.000  -74.393420575  163.452957608    93.9677   5  10   0.6750   0.6309   2.0933   0.0409  -0.8024  -0.3677 5850.00    0.0
2018/11/11 01:37:30.000  -74.393421351  163.452948639    96.2671   5  10   0.6756   0.6323   2.1006   0.0437  -0.8063  -0.3677 5865.00    0.0
2018/11/11 01:37:45.000  -74.393422548  163.452944252    96.1101   5  10   0.6751   0.6323   2.1019   0.0492  -0.8080  -0.3691 5880.00    0.0
2018/11/11 01:38:00.000  -74.393423497  163.452957231    94.7231   5  10   0.6746   0.6324   2.1035   0.0539  -0.8097  -0.3703 5895.00    0.0
2018/11/11 01:38:15.000  -74.393420144  163.452952093    94.6217   5  10   0.6742   0.6325   2.1055   0.0581  -0.8116  -0.3716 5910.00    0.0
2018/11/11 01:38:30.000  -74.393417030  163.452960637    93.8631   5   9   0.7749   0.6856   2.6374   0.3239  -1.0395  -0.8634 5925.00    0.0
2018/11/11 01:38:45.000  -74.393419140  163.452966047    93.5512   5   9   0.7748   0.6868   2.6459   0.3260  -1.0442  -0.8666 5940.00    0.0
2018/11/11 01:39:00.000  -74.393418222  163.452955084    94.0967   5   9   0.7747   0.6880   2.6549   0.3282  -1.0491  -0.8699 5955.00    0.0
2018/11/11 01:39:15.000  -74.393421082  163.452952497    93.8867   5   9   0.7748   0.6893   2.6644   0.3304  -1.0541  -0.8733 5970.00    0.0
2018/11/11 01:39:30.000  -74.393419309  163.452945928    95.1377   5   9   0.7749   0.6907   2.6744   0.3326  -1.0593  -0.8767 5985.00    0.0
2018/11/11 01:39:45.000  -74.393418196  163.452961072    93.6599   5   9   0.7751   0.6922   2.6848   0.3349  -1.0647  -0.8803 6000.00    0.0
2018/11/11 01:40:00.000  -74.393420153  163.452960387    94.0618   5   9   0.7754   0.6937   2.6957   0.3371  -1.0702  -0.8840 6015.00    0.0
2018/11/11 01:40:15.000  -74.393418858  163.452961655    93.4550   5   9   0.7758   0.6954   2.7071   0.3394  -1.0759  -0.8878 6030.00    0.0
2018/11/11 01:40:30.000  -74.393418514  163.452948660    94.1775   5   9   0.7762   0.6972   2.7190   0.3418  -1.0818  -0.8917 6045.00    0.0
2018/11/11 01:40:45.000  -74.393417509  163.452958328    94.6311   5   9   0.7768   0.6991   2.7313   0.3441  -1.0879  -0.8957 6060.00    0.0
2018/11/11 01:41:00.000  -74.393420119  163.452950746    94.7993   5   9   0.7774   0.7011   2.7442   0.3465  -1.0941  -0.8997 6075.00    0.0
2018/11/11 01:41:15.000  -74.393420038  163.452953628    95.0486   5   9   0.7781   0.7031   2.7574   0.3490  -1.1005  -0.9039 6090.00    0.0
2018/11/11 01:41:30.000  -74.393417093  163.452959774    94.3735   5   9   0.7789   0.7053   2.7711   0.3514  -1.1071  -0.9082 6105.00    0.0
2018/11/11 01:41:45.000  -74.393415120  163.452964901    93.5515   5   9   0.7798   0.7075   2.7853   0.3539  -1.1138  -0.9126 6120.00    0.0
2018/11/11 01:42:00.000  -74.393417476  163.452963746    94.2898   5   9   0.7808   0.7099   2.7999   0.3564  -1.1207  -0.9171 6135.00    0.0
2018/11/11 01:42:15.000  -74.393417974  163.452958617    94.0046   5   9   0.7818   0.7123   2.8149   0.3589  -1.1277  -0.9217 6150.00    0.0
2018/11/11 01:42:30.000  -74.393419385  163.452950528    95.8754   5   9   0.7829   0.7148   2.8304   0.3615  -1.1349  -0.9264 6165.00    0.0
2018/11/11 01:42:45.000  -74.393416107  163.452960099    93.5188   5   9   0.7827   0.7155   2.8375   0.3634  -1.1387  -0.9295 6180.00    0.0
2018/11/11 01:43:00.000  -74.393415450  163.452951443    93.5187   5   9   0.7825   0.7163   2.8450   0.3654  -1.1425  -0.9328 6195.00    0.0
2018/11/11 01:43:15.000  -74.393418750  163.452951473    94.8715   5   9   0.7824   0.7172   2.8529   0.3673  -1.1466  -0.9362 6210.00    0.0
2018/11/11 01:43:30.000  -74.393415743  163.452948968    94.4775   5   9   0.7824   0.7182   2.8612   0.3693  -1.1507  -0.9396 6225.00    0.0
