% program   : RTKLIB ver.2.4.3
% inp file  : _by_type/_obs/tuati/20181111.18o
% inp file  : _by_type/_obs/base/20181110.18o
% inp file  : _by_type/_sp3+clk/igs20270.clk
% inp file  : _by_type/_sp3+clk/igs20270.sp3
% inp file  : _by_type/_nav/tuati/20181111.18n
% obs start : 2018/11/11 00:00:00.0 GPST (week2027      0.0s)
% obs end   : 2018/11/11 23:59:30.0 GPST (week2027  86370.0s)
% pos mode  : dgps
% freqs     : L1+L2
% solution  : combined
% elev mask : 15.0 deg
% dynamics  : off
% tidecorr  : off
% ionos opt : iono-free
% tropo opt : est ztd+grad
% ephemeris : precise
% navi sys  : gps glonass
% antenna1  :                       ( 0.0000  0.0000  0.0000)
% antenna2  :                       ( 0.0000  0.0000  0.0000)
% ref pos   : 90.000000000   0.000000000-6335367.6285
%
% (lat/lon/height=WGS84/ellipsoidal,Q=1:fix,2:float,3:sbas,4:dgps,5:single,6:ppp,ns=# of satellites)
%  GPST                  latitude(deg) longitude(deg)  height(m)   Q  ns   sdn(m)   sde(m)   sdu(m)  sdne(m)  sdeu(m)  sdun(m) age(s)  ratio
2018/11/11 00:00:00.000  -74.425558565  163.418453080    63.6531   5  10   0.6539   0.6150   2.1881  -0.2744   0.7198  -0.7122  15.00    0.0
2018/11/11 00:00:30.000  -74.425559524  163.418459392    64.0183   5  10   0.6544   0.6161   2.2021  -0.2766   0.7275  -0.7172  45.00    0.0
2018/11/11 00:01:00.000  -74.425556459  163.418459610    64.9526   5  10   0.6553   0.6176   2.2173  -0.2791   0.7357  -0.7227  75.00    0.0
2018/11/11 00:01:30.000  -74.425557652  163.418455759    63.2511   5  10   0.6564   0.6195   2.2337  -0.2819   0.7444  -0.7285 105.00    0.0
2018/11/11 00:02:00.000  -74.425556401  163.418466765    64.3244   5  10   0.6579   0.6218   2.2514  -0.2849   0.7537  -0.7347 135.00    0.0
2018/11/11 00:02:30.000  -74.425559538  163.418456355    64.0338   5  10   0.6597   0.6244   2.2703  -0.2882   0.7635  -0.7413 165.00    0.0
2018/11/11 00:03:00.000  -74.425557550  163.418452235    64.1386   5  10   0.6590   0.6239   2.2788  -0.2894   0.7686  -0.7451 195.00    0.0
2018/11/11 00:03:30.000  -74.425555327  163.418455566    63.8081   5  10   0.6586   0.6238   2.2884  -0.2909   0.7741  -0.7492 225.00    0.0
2018/11/11 00:04:00.000  -74.425557029  163.418458024    63.7597   5  10   0.6585   0.6239   2.2992  -0.2926   0.7801  -0.7537 255.00    0.0
2018/11/11 00:04:30.000  -74.425556808  163.418458273    63.6936   5  10   0.6587   0.6245   2.3111  -0.2945   0.7866  -0.7586 285.00    0.0
2018/11/11 00:05:00.000  -74.425556859  163.418458232    63.7727   5  10   0.6592   0.6254   2.3241  -0.2967   0.7936  -0.7639 315.00    0.0
2018/11/11 00:05:30.000  -74.425558003  163.418448564    63.7525   5  10   0.6601   0.6268   2.3387  -0.2993   0.8012  -0.7696 345.00    0.0
2018/11/11 00:06:00.000  -74.425556026  163.418451613    64.0095   5  10   0.6613   0.6286   2.3544  -0.3020   0.8094  -0.7758 375.00    0.0
2018/11/11 00:06:30.000  -74.425554120  163.418453110    63.1041   5  10   0.6628   0.6307   2.3713  -0.3051   0.8181  -0.7823 405.00    0.0
2018/11/11 00:07:00.000  -74.425557458  163.418457853    63.6171   5  10   0.6646   0.6332   2.3893  -0.3083   0.8273  -0.7892 435.00    0.0
2018/11/11 00:07:30.000  -74.425554385  163.418458220    63.6736   5  10   0.6668   0.6360   2.4085  -0.3118   0.8369  -0.7965 465.00    0.0
2018/11/11 00:08:00.000  -74.425555313  163.418461175    63.0965   5  10   0.6664   0.6356   2.4165  -0.3132   0.8415  -0.8007 495.00    0.0
2018/11/11 00:08:30.000  -74.425557909  163.418461833    63.8833   5  10   0.6663   0.6356   2.4256  -0.3148   0.8465  -0.8051 525.00    0.0
2018/11/11 00:09:00.000  -74.425557642  163.418463313    63.7399   5  10   0.6665   0.6359   2.4358  -0.3167   0.8520  -0.8100 555.00    0.0
2018/11/11 00:09:30.000  -74.425558780  163.418464838    63.4501   5  11   0.6543   0.6365   2.3518  -0.3175   0.8605  -0.8673 585.00    0.0
2018/11/11 00:10:00.000  -74.425558062  163.418468465    63.8185   5  11   0.6550   0.6375   2.3649  -0.3199   0.8667  -0.8727 615.00    0.0
2018/11/11 00:10:30.000  -74.425556240  163.418468584    63.3316   5  11   0.6560   0.6390   2.3794  -0.3225   0.8735  -0.8785 645.00    0.0
2018/11/11 00:11:00.000  -74.425559580  163.418467278    63.5423   5  11   0.6574   0.6408   2.3950  -0.3254   0.8807  -0.8848 675.00    0.0
2018/11/11 00:11:30.000  -74.425559107  163.418460637    63.4386   5  11   0.6590   0.6430   2.4115  -0.3285   0.8885  -0.8914 705.00    0.0
2018/11/11 00:12:00.000  -74.425558832  163.418462035    64.1693   5  11   0.6609   0.6455   2.4290  -0.3318   0.8966  -0.8984 735.00    0.0
2018/11/11 00:12:30.000  -74.425558018  163.418468053    64.1645   5  11   0.6631   0.6483   2.4475  -0.3353   0.9052  -0.9058 765.00    0.0
2018/11/11 00:13:00.000  -74.425558062  163.418462401    63.9673   5  11   0.6628   0.6478   2.4548  -0.3366   0.9084  -0.9093 795.00    0.0
2018/11/11 00:13:30.000  -74.425556507  163.418463364    63.8389   5  11   0.6628   0.6477   2.4631  -0.3381   0.9121  -0.9131 825.00    0.0
2018/11/11 00:14:00.000  -74.425556601  163.418465901    63.6187   5  11   0.6631   0.6478   2.4723  -0.3398   0.9163  -0.9174 855.00    0.0
2018/11/11 00:14:30.000  -74.425557971  163.418466823    63.6519   5  11   0.6636   0.6484   2.4823  -0.3417   0.9208  -0.9219 885.00    0.0
2018/11/11 00:15:00.000  -74.425558153  163.418460924    63.7254   5  11   0.6644   0.6492   2.4932  -0.3438   0.9256  -0.9267 915.00    0.0
2018/11/11 00:15:30.000  -74.425557302  163.418465641    63.3816   5  11   0.6656   0.6504   2.5051  -0.3460   0.9310  -0.9319 945.00    0.0
2018/11/11 00:16:00.000  -74.425554909  163.418471993    63.5759   5  11   0.6670   0.6520   2.5178  -0.3485   0.9366  -0.9374 975.00    0.0
2018/11/11 00:16:30.000  -74.425556051  163.418473518    64.5725   5  11   0.6687   0.6538   2.5313  -0.3511   0.9426  -0.9432 1005.00    0.0
2018/11/11 00:17:00.000  -74.425556769  163.418472915    64.6156   5  11   0.6706   0.6560   2.5456  -0.3538   0.9489  -0.9492 1035.00    0.0
2018/11/11 00:17:30.000  -74.425558234  163.418470098    64.7013   5  11   0.6728   0.6585   2.5605  -0.3567   0.9555  -0.9555 1065.00    0.0
2018/11/11 00:18:00.000  -74.425555572  163.418474328    64.7167   5  11   0.6726   0.6576   2.5642  -0.3574   0.9569  -0.9580 1095.00    0.0
2018/11/11 00:18:30.000  -74.425555568  163.418470175    63.5876   5  11   0.6725   0.6571   2.5684  -0.3583   0.9585  -0.9606 1125.00    0.0
2018/11/11 00:19:00.000  -74.425555798  163.418472797    63.6632   5  11   0.6727   0.6568   2.5733  -0.3593   0.9605  -0.9635 1155.00    0.0
2018/11/11 00:19:30.000  -74.425555349  163.418467828    64.0428   5  11   0.6732   0.6569   2.5788  -0.3605   0.9626  -0.9666 1185.00    0.0
2018/11/11 00:20:00.000  -74.425554915  163.418468305    63.6284   5  11   0.6739   0.6572   2.5849  -0.3617   0.9650  -0.9699 1215.00    0.0
2018/11/11 00:20:30.000  -74.425554380  163.418461372    63.2148   5  11   0.6750   0.6578   2.5918  -0.3631   0.9678  -0.9734 1245.00    0.0
2018/11/11 00:21:00.000  -74.425555350  163.418478319    64.1835   5  11   0.6762   0.6588   2.5993  -0.3647   0.9708  -0.9772 1275.00    0.0
2018/11/11 00:21:30.000  -74.425553349  163.418480004    63.4950   5  11   0.6777   0.6600   2.6073  -0.3663   0.9740  -0.9811 1305.00    0.0
2018/11/11 00:22:00.000  -74.425555604  163.418477224    63.5425   5  11   0.6795   0.6615   2.6158  -0.3680   0.9773  -0.9852 1335.00    0.0
2018/11/11 00:22:30.000  -74.425556909  163.418475382    64.4183   5  11   0.6814   0.6632   2.6247  -0.3698   0.9808  -0.9894 1365.00    0.0
2018/11/11 00:23:00.000  -74.425555584  163.418468988    63.3346   5  11   0.6809   0.6617   2.6224  -0.3695   0.9792  -0.9898 1395.00    0.0
2018/11/11 00:23:30.000  -74.425555569  163.418475357    63.8986   5  11   0.6807   0.6605   2.6204  -0.3694   0.9778  -0.9903 1425.00    0.0
2018/11/11 00:24:00.000  -74.425553779  163.418474003    64.1934   5  11   0.6806   0.6595   2.6190  -0.3693   0.9766  -0.9910 1455.00    0.0
2018/11/11 00:24:30.000  -74.425554563  163.418472041    64.7417   5  11   0.6808   0.6588   2.6180  -0.3693   0.9756  -0.9918 1485.00    0.0
2018/11/11 00:25:00.000  -74.425555614  163.418479468    64.6353   5  11   0.6812   0.6584   2.6174  -0.3694   0.9747  -0.9927 1515.00    0.0
2018/11/11 00:25:30.000  -74.425557647  163.418476052    64.5586   5  11   0.6819   0.6582   2.6176  -0.3696   0.9741  -0.9939 1545.00    0.0
2018/11/11 00:26:00.000  -74.425556693  163.418476939    63.5582   5  11   0.6828   0.6584   2.6181  -0.3699   0.9736  -0.9952 1575.00    0.0
2018/11/11 00:26:30.000  -74.425556740  163.418477990    64.9701   5  11   0.6839   0.6587   2.6191  -0.3702   0.9732  -0.9965 1605.00    0.0
2018/11/11 00:27:00.000  -74.425555685  163.418483377    64.2522   5  11   0.6852   0.6593   2.6205  -0.3706   0.9730  -0.9980 1635.00    0.0
2018/11/11 00:27:30.000  -74.425555791  163.418474224    64.2795   5  11   0.6867   0.6602   2.6222  -0.3710   0.9727  -0.9995 1665.00    0.0
2018/11/11 00:28:00.000  -74.425557407  163.418478641    64.2794   5  11   0.6858   0.6579   2.6129  -0.3696   0.9679  -0.9974 1695.00    0.0
2018/11/11 00:28:30.000  -74.425554887  163.418472701    62.6894   5  11   0.6852   0.6559   2.6042  -0.3682   0.9632  -0.9954 1725.00    0.0
2018/11/11 00:29:00.000  -74.425554622  163.418469138    63.8576   5  11   0.6847   0.6542   2.5959  -0.3669   0.9587  -0.9936 1755.00    0.0
2018/11/11 00:29:30.000  -74.425557027  163.418485155    64.8753   5  11   0.6845   0.6527   2.5882  -0.3656   0.9543  -0.9919 1785.00    0.0
2018/11/11 00:30:00.000  -74.425554310  163.418477785    64.0953   5  11   0.6845   0.6515   2.5809  -0.3645   0.9500  -0.9903 1815.00    0.0
2018/11/11 00:30:30.000  -74.425554337  163.418478374    63.9512   5  11   0.6848   0.6506   2.5742  -0.3634   0.9460  -0.9889 1845.00    0.0
2018/11/11 00:31:00.000  -74.425557379  163.418480432    64.5911   5  11   0.6852   0.6500   2.5681  -0.3623   0.9421  -0.9876 1875.00    0.0
2018/11/11 00:31:30.000  -74.425556109  163.418477509    63.7294   5  11   0.6859   0.6496   2.5625  -0.3613   0.9383  -0.9864 1905.00    0.0
2018/11/11 00:32:00.000  -74.425555395  163.418471584    63.5041   5  11   0.6868   0.6494   2.5574  -0.3604   0.9347  -0.9853 1935.00    0.0
2018/11/11 00:32:30.000  -74.425558051  163.418484628    65.0245   5  11   0.6879   0.6495   2.5529  -0.3595   0.9311  -0.9843 1965.00    0.0
2018/11/11 00:33:00.000  -74.425555960  163.418476321    64.1971   5  11   0.6867   0.6467   2.5380  -0.3569   0.9234  -0.9801 1995.00    0.0
2018/11/11 00:33:30.000  -74.425556153  163.418475935    64.4483   5  11   0.6857   0.6442   2.5237  -0.3545   0.9159  -0.9761 2025.00    0.0
2018/11/11 00:34:00.000  -74.425547550  163.418467485    60.4438   5  10   0.9377   0.6751   3.5817  -0.5077   1.1659  -1.6067 2055.00    0.0
2018/11/11 00:34:30.000  -74.425549866  163.418458955    60.8459   5  10   0.9357   0.6723   3.5625  -0.5038   1.1560  -1.5997 2085.00    0.0
2018/11/11 00:35:00.000  -74.425547726  163.418464382    60.7135   5  10   0.9339   0.6697   3.5437  -0.4999   1.1461  -1.5928 2115.00    0.0
2018/11/11 00:35:30.000  -74.425548863  163.418471248    61.5368   5  10   0.9324   0.6675   3.5258  -0.4961   1.1364  -1.5863 2145.00    0.0
2018/11/11 00:36:00.000  -74.425550013  163.418476435    60.7334   5  10   0.9312   0.6656   3.5085  -0.4923   1.1267  -1.5801 2175.00    0.0
2018/11/11 00:36:30.000  -74.425551297  163.418470060    61.5512   5  10   0.9302   0.6639   3.4919  -0.4885   1.1172  -1.5740 2205.00    0.0
2018/11/11 00:37:00.000  -74.425548365  163.418463394    61.3007   5  10   0.9294   0.6624   3.4761  -0.4847   1.1077  -1.5683 2235.00    0.0
2018/11/11 00:37:30.000  -74.425551293  163.418474337    61.3057   5  10   0.9289   0.6612   3.4610  -0.4809   1.0984  -1.5628 2265.00    0.0
2018/11/11 00:38:00.000  -74.425547877  163.418468456    59.3005   5   9   0.9282   0.6570   3.6808  -0.4734   1.0767  -1.5865 2295.00    0.0
2018/11/11 00:38:30.000  -74.425548154  163.418463751    59.8822   5   9   0.9238   0.6531   3.6502  -0.4669   1.0614  -1.5739 2325.00    0.0
2018/11/11 00:39:00.000  -74.425546809  163.418464653    60.3186   5   9   0.9196   0.6495   3.6206  -0.4606   1.0463  -1.5617 2355.00    0.0
2018/11/11 00:39:30.000  -74.425545707  163.418465777    59.7401   5   9   0.9159   0.6462   3.5922  -0.4543   1.0314  -1.5499 2385.00    0.0
2018/11/11 00:40:00.000  -74.425548780  163.418475057    60.3717   5   9   0.9124   0.6433   3.5651  -0.4481   1.0167  -1.5386 2415.00    0.0
2018/11/11 00:40:30.000  -74.425545160  163.418471842    58.9536   5   9   0.9094   0.6407   3.5398  -0.4421   1.0024  -1.5280 2445.00    0.0
2018/11/11 00:41:00.000  -74.425551574  163.418474508    62.0021   5  10   0.7474   0.6348   2.6713  -0.3938   0.9056  -1.0632 2475.00    0.0
2018/11/11 00:41:30.000  -74.425552547  163.418470557    62.8687   5  10   0.7475   0.6334   2.6649  -0.3917   0.8989  -1.0606 2505.00    0.0
2018/11/11 00:42:00.000  -74.425550114  163.418475780    62.2327   5  10   0.7479   0.6324   2.6595  -0.3896   0.8925  -1.0583 2535.00    0.0
2018/11/11 00:42:30.000  -74.425550737  163.418472787    62.6761   5  10   0.7485   0.6316   2.6551  -0.3876   0.8862  -1.0563 2565.00    0.0
2018/11/11 00:43:00.000  -74.425552040  163.418474220    63.6963   5  10   0.7464   0.6281   2.6378  -0.3838   0.8758  -1.0501 2595.00    0.0
2018/11/11 00:43:30.000  -74.425551138  163.418478867    62.4962   5  10   0.7446   0.6249   2.6214  -0.3801   0.8656  -1.0442 2625.00    0.0
2018/11/11 00:44:00.000  -74.425550408  163.418473570    62.2759   5  10   0.7431   0.6220   2.6060  -0.3765   0.8556  -1.0386 2655.00    0.0
2018/11/11 00:44:30.000  -74.425551154  163.418476461    62.6460   5  10   0.7418   0.6194   2.5917  -0.3731   0.8459  -1.0333 2685.00    0.0
2018/11/11 00:45:00.000  -74.425552974  163.418470467    62.1287   5  10   0.7409   0.6171   2.5785  -0.3698   0.8364  -1.0283 2715.00    0.0
2018/11/11 00:45:30.000  -74.425550348  163.418469509    61.5210   5  10   0.7402   0.6152   2.5666  -0.3667   0.8273  -1.0237 2745.00    0.0
2018/11/11 00:46:00.000  -74.425551326  163.418469391    62.8580   5  10   0.7398   0.6135   2.5559  -0.3637   0.8185  -1.0194 2775.00    0.0
2018/11/11 00:46:30.000  -74.425551963  163.418473887    62.1414   5  10   0.7397   0.6122   2.5464  -0.3608   0.8099  -1.0154 2805.00    0.0
2018/11/11 00:47:00.000  -74.425551487  163.418477380    62.9631   5  10   0.7399   0.6112   2.5382  -0.3580   0.8015  -1.0118 2835.00    0.0
2018/11/11 00:47:30.000  -74.425550025  163.418467634    61.8080   5  10   0.7404   0.6104   2.5312  -0.3554   0.7933  -1.0086 2865.00    0.0
2018/11/11 00:48:00.000  -74.425550902  163.418469050    61.4613   5  10   0.7382   0.6071   2.5111  -0.3511   0.7815  -1.0013 2895.00    0.0
2018/11/11 00:48:30.000  -74.425549666  163.418473012    61.5406   5  10   0.7364   0.6041   2.4923  -0.3470   0.7699  -0.9944 2925.00    0.0
2018/11/11 00:49:00.000  -74.425552071  163.418463225    61.5176   5  10   0.7348   0.6014   2.4748  -0.3430   0.7587  -0.9879 2955.00    0.0
2018/11/11 00:49:30.000  -74.425550820  163.418476471    62.4036   5  10   0.7335   0.5991   2.4586  -0.3392   0.7477  -0.9818 2985.00    0.0
2018/11/11 00:50:00.000  -74.425551892  163.418468593    63.0441   5  10   0.7325   0.5970   2.4439  -0.3355   0.7371  -0.9761 3015.00    0.0
2018/11/11 00:50:30.000  -74.425550502  163.418471611    62.9375   5  10   0.7319   0.5953   2.4307  -0.3320   0.7268  -0.9708 3045.00    0.0
2018/11/11 00:51:00.000  -74.425549394  163.418471714    62.5369   5  10   0.7315   0.5940   2.4189  -0.3287   0.7167  -0.9660 3075.00    0.0
2018/11/11 00:51:30.000  -74.425551715  163.418469436    61.6524   5  10   0.7314   0.5929   2.4086  -0.3254   0.7069  -0.9615 3105.00    0.0
2018/11/11 00:52:00.000  -74.425549084  163.418466425    61.4584   5  10   0.7316   0.5922   2.3997  -0.3224   0.6974  -0.9575 3135.00    0.0
2018/11/11 00:52:30.000  -74.425548378  163.418471388    62.5746   5  10   0.7321   0.5917   2.3922  -0.3194   0.6881  -0.9538 3165.00    0.0
2018/11/11 00:53:00.000  -74.425549088  163.418465663    62.5424   5  10   0.7301   0.5888   2.3719  -0.3150   0.6756  -0.9464 3195.00    0.0
2018/11/11 00:53:30.000  -74.425550688  163.418470772    62.8870   5  10   0.7284   0.5863   2.3529  -0.3107   0.6634  -0.9394 3225.00    0.0
2018/11/11 00:54:00.000  -74.425550685  163.418467246    62.6765   5  10   0.7270   0.5841   2.3354  -0.3067   0.6516  -0.9328 3255.00    0.0
2018/11/11 00:54:30.000  -74.425548654  163.418477591    63.8229   5  10   0.7258   0.5822   2.3195  -0.3027   0.6400  -0.9267 3285.00    0.0
2018/11/11 00:55:00.000  -74.425552847  163.418472839    63.3761   5  10   0.7250   0.5806   2.3051  -0.2989   0.6287  -0.9210 3315.00    0.0
2018/11/11 00:55:30.000  -74.425553283  163.418469385    63.4419   5  10   0.7245   0.5794   2.2924  -0.2953   0.6177  -0.9158 3345.00    0.0
2018/11/11 00:56:00.000  -74.425549666  163.418466322    62.5804   5  10   0.7243   0.5784   2.2813  -0.2918   0.6069  -0.9111 3375.00    0.0
2018/11/11 00:56:30.000  -74.425552933  163.418474303    62.2855   5  10   0.7244   0.5778   2.2717  -0.2885   0.5963  -0.9068 3405.00    0.0
2018/11/11 00:57:00.000  -74.425551538  163.418470725    61.4501   5  10   0.7248   0.5775   2.2636  -0.2852   0.5859  -0.9029 3435.00    0.0
2018/11/11 00:57:30.000  -74.425551222  163.418468806    62.3694   5  10   0.7254   0.5775   2.2570  -0.2821   0.5756  -0.8994 3465.00    0.0
2018/11/11 00:58:00.000  -74.425554444  163.418474724    63.2199   5  10   0.7237   0.5752   2.2378  -0.2778   0.5628  -0.8924 3495.00    0.0
2018/11/11 00:58:30.000  -74.425553117  163.418481793    62.9205   5  10   0.7222   0.5732   2.2202  -0.2736   0.5502  -0.8858 3525.00    0.0
2018/11/11 00:59:00.000  -74.425552868  163.418479008    61.8071   5  10   0.7210   0.5715   2.2041  -0.2695   0.5379  -0.8797 3555.00    0.0
2018/11/11 00:59:30.000  -74.425553361  163.418472418    62.4631   5  10   0.7201   0.5701   2.1896  -0.2656   0.5257  -0.8741 3585.00    0.0
2018/11/11 01:00:00.000  -74.425550365  163.418471711    62.8385   5  10   0.7196   0.5691   2.1767  -0.2617   0.5137  -0.8689 3615.00    0.0
2018/11/11 01:00:30.000  -74.425552264  163.418472990    63.9076   5  10   0.7193   0.5683   2.1656  -0.2581   0.5019  -0.8642 3645.00    0.0
2018/11/11 01:01:00.000  -74.425552065  163.418478695    62.9232   5  10   0.7193   0.5679   2.1560  -0.2545   0.4901  -0.8600 3675.00    0.0
2018/11/11 01:01:30.000  -74.425551042  163.418468063    62.7066   5  10   0.7197   0.5678   2.1479  -0.2511   0.4784  -0.8561 3705.00    0.0
2018/11/11 01:02:00.000  -74.425551851  163.418475399    63.1909   5  11   0.6209   0.5510   1.8000  -0.1053   0.2406  -0.5510 3735.00    0.0
2018/11/11 01:02:30.000  -74.425552304  163.418477171    63.4498   5  11   0.6219   0.5520   1.8010  -0.1009   0.2252  -0.5499 3765.00    0.0
2018/11/11 01:03:00.000  -74.425553972  163.418472179    64.3372   5  11   0.6211   0.5508   1.7925  -0.0960   0.2095  -0.5479 3795.00    0.0
2018/11/11 01:03:30.000  -74.425550989  163.418481938    63.0585   5  11   0.6205   0.5499   1.7850  -0.0910   0.1927  -0.5461 3825.00    0.0
2018/11/11 01:04:00.000  -74.425552671  163.418473139    63.3114   5  11   0.6201   0.5492   1.7786  -0.0856   0.1744  -0.5445 3855.00    0.0
2018/11/11 01:04:30.000  -74.425552463  163.418474895    63.7197   5  11   0.6200   0.5489   1.7734  -0.0800   0.1538  -0.5430 3885.00    0.0
2018/11/11 01:05:00.000  -74.425554661  163.418468379    63.7032   5  11   0.6200   0.5488   1.7694  -0.0740   0.1299  -0.5416 3915.00    0.0
2018/11/11 01:05:30.000  -74.425553031  163.418469622    63.4219   5  12   0.6129   0.5263   1.6997  -0.1396  -0.2555  -0.5815 3945.00    0.0
2018/11/11 01:06:00.000  -74.425552043  163.418478252    62.7600   5  12   0.6131   0.5267   1.7005  -0.1373  -0.2665  -0.5806 3975.00    0.0
2018/11/11 01:06:30.000  -74.425551263  163.418470096    62.6596   5  12   0.6136   0.5274   1.7023  -0.1351  -0.2775  -0.5799 4005.00    0.0
2018/11/11 01:07:00.000  -74.425555078  163.418481980    63.7673   5  12   0.6142   0.5283   1.7053  -0.1328  -0.2884  -0.5794 4035.00    0.0
2018/11/11 01:07:30.000  -74.425554305  163.418473349    63.3709   5  12   0.6150   0.5295   1.7094  -0.1306  -0.2993  -0.5790 4065.00    0.0
2018/11/11 01:08:00.000  -74.425552542  163.418473150    63.0081   5  12   0.6142   0.5286   1.7042  -0.1277  -0.3069  -0.5773 4095.00    0.0
2018/11/11 01:08:30.000  -74.425552924  163.418475528    63.6931   5  12   0.6135   0.5280   1.7001  -0.1249  -0.3145  -0.5758 4125.00    0.0
2018/11/11 01:09:00.000  -74.425552436  163.418466838    63.0954   5  12   0.6130   0.5277   1.6970  -0.1221  -0.3222  -0.5745 4155.00    0.0
2018/11/11 01:09:30.000  -74.425553727  163.418472316    63.1834   5  12   0.6127   0.5275   1.6950  -0.1193  -0.3301  -0.5733 4185.00    0.0
2018/11/11 01:10:00.000  -74.425553193  163.418475514    62.6007   5  12   0.6126   0.5277   1.6942  -0.1165  -0.3380  -0.5723 4215.00    0.0
2018/11/11 01:10:30.000  -74.425555962  163.418477833    63.8332   5  12   0.6127   0.5281   1.6947  -0.1137  -0.3461  -0.5715 4245.00    0.0
2018/11/11 01:11:00.000  -74.425554479  163.418481445    63.3971   5  12   0.6131   0.5287   1.6963  -0.1109  -0.3544  -0.5710 4275.00    0.0
2018/11/11 01:11:30.000  -74.425554972  163.418470024    62.7154   5  12   0.6136   0.5296   1.6991  -0.1081  -0.3628  -0.5705 4305.00    0.0
2018/11/11 01:12:00.000  -74.425554553  163.418480493    63.3956   5  12   0.6144   0.5308   1.7031  -0.1053  -0.3714  -0.5703 4335.00    0.0
2018/11/11 01:12:30.000  -74.425555116  163.418476247    63.0220   5  12   0.6154   0.5322   1.7081  -0.1025  -0.3801  -0.5703 4365.00    0.0
2018/11/11 01:13:00.000  -74.425554904  163.418472673    63.7495   5  12   0.6146   0.5315   1.7035  -0.0990  -0.3857  -0.5689 4395.00    0.0
2018/11/11 01:13:30.000  -74.425553332  163.418473629    63.5740   5  12   0.6140   0.5312   1.7001  -0.0954  -0.3916  -0.5677 4425.00    0.0
2018/11/11 01:14:00.000  -74.425553697  163.418473690    63.6528   5  12   0.6136   0.5310   1.6979  -0.0918  -0.3976  -0.5666 4455.00    0.0
2018/11/11 01:14:30.000  -74.425554034  163.418474877    63.1132   5  12   0.6135   0.5311   1.6968  -0.0881  -0.4039  -0.5658 4485.00    0.0
2018/11/11 01:15:00.000  -74.425556237  163.418472477    63.1065   5  12   0.6135   0.5315   1.6968  -0.0844  -0.4103  -0.5651 4515.00    0.0
2018/11/11 01:15:30.000  -74.425554068  163.418469915    63.8340   5  12   0.6137   0.5321   1.6981  -0.0805  -0.4171  -0.5647 4545.00    0.0
2018/11/11 01:16:00.000  -74.425552905  163.418469667    63.1142   5  12   0.6142   0.5329   1.7006  -0.0766  -0.4240  -0.5644 4575.00    0.0
2018/11/11 01:16:30.000  -74.425553193  163.418475143    63.4451   5  12   0.6149   0.5340   1.7042  -0.0725  -0.4311  -0.5643 4605.00    0.0
2018/11/11 01:17:00.000  -74.425554016  163.418467068    62.5328   5  12   0.6157   0.5354   1.7090  -0.0682  -0.4385  -0.5644 4635.00    0.0
2018/11/11 01:17:30.000  -74.425554273  163.418472225    62.9525   5  12   0.6168   0.5370   1.7149  -0.0637  -0.4461  -0.5647 4665.00    0.0
2018/11/11 01:18:00.000  -74.425555848  163.418474678    62.5088   5  12   0.6161   0.5365   1.7113  -0.0580  -0.4507  -0.5636 4695.00    0.0
2018/11/11 01:18:30.000  -74.425554705  163.418474936    62.8542   5  12   0.6157   0.5363   1.7087  -0.0519  -0.4556  -0.5628 4725.00    0.0
2018/11/11 01:19:00.000  -74.425555553  163.418476542    62.7070   5  12   0.6154   0.5364   1.7073  -0.0450  -0.4606  -0.5621 4755.00    0.0
2018/11/11 01:19:30.000  -74.425554629  163.418467975    63.6932   5  12   0.6153   0.5367   1.7070  -0.0370  -0.4659  -0.5616 4785.00    0.0
2018/11/11 01:20:00.000  -74.425555363  163.418468257    63.1636   5  12   0.6155   0.5372   1.7078  -0.0269  -0.4715  -0.5612 4815.00    0.0
2018/11/11 01:20:30.000  -74.425555232  163.418479084    63.3077   5  12   0.6158   0.5380   1.7099  -0.0095  -0.4773  -0.5611 4845.00    0.0
2018/11/11 01:21:00.000  -74.425554221  163.418470003    63.3125   5  12   0.6164   0.5390   1.7132   0.0231  -0.4834  -0.5612 4875.00    0.0
2018/11/11 01:21:30.000  -74.425555449  163.418474612    63.0676   5  12   0.6172   0.5403   1.7176   0.0340  -0.4898  -0.5615 4905.00    0.0
2018/11/11 01:22:00.000  -74.425552756  163.418469230    62.8709   5  12   0.6182   0.5418   1.7232   0.0420  -0.4964  -0.5619 4935.00    0.0
2018/11/11 01:22:30.000  -74.425554103  163.418473985    63.2042   5  12   0.6193   0.5435   1.7298   0.0487  -0.5032  -0.5625 4965.00    0.0
2018/11/11 01:23:00.000  -74.425555139  163.418471044    63.2208   5  12   0.6188   0.5433   1.7268   0.0552  -0.5071  -0.5618 4995.00    0.0
2018/11/11 01:23:30.000  -74.425554725  163.418471004    64.3669   5  12   0.6184   0.5432   1.7251   0.0610  -0.5112  -0.5613 5025.00    0.0
2018/11/11 01:24:00.000  -74.425555739  163.418474225    63.3221   5  12   0.6183   0.5434   1.7244   0.0663  -0.5156  -0.5610 5055.00    0.0
2018/11/11 01:24:30.000  -74.425555965  163.418469060    63.2736   5  12   0.6183   0.5438   1.7248   0.0710  -0.5203  -0.5608 5085.00    0.0
2018/11/11 01:25:00.000  -74.425556918  163.418468544    63.3614   5  12   0.6186   0.5445   1.7264   0.0755  -0.5252  -0.5609 5115.00    0.0
2018/11/11 01:25:30.000  -74.425555598  163.418473854    63.5588   5  12   0.6190   0.5454   1.7292   0.0796  -0.5304  -0.5611 5145.00    0.0
2018/11/11 01:26:00.000  -74.425554113  163.418468417    63.7092   5  12   0.6197   0.5466   1.7332   0.0835  -0.5358  -0.5615 5175.00    0.0
2018/11/11 01:26:30.000  -74.425552530  163.418474064    63.6860   5  12   0.6206   0.5480   1.7382   0.0872  -0.5415  -0.5621 5205.00    0.0
2018/11/11 01:27:00.000  -74.425553928  163.418475195    63.6901   5  12   0.6217   0.5496   1.7442   0.0907  -0.5475  -0.5629 5235.00    0.0
2018/11/11 01:27:30.000  -74.425555725  163.418473892    63.2453   5  12   0.6230   0.5515   1.7513   0.0940  -0.5537  -0.5638 5265.00    0.0
2018/11/11 01:28:00.000  -74.425556435  163.418473614    63.8051   5  12   0.6226   0.5513   1.7491   0.0976  -0.5570  -0.5635 5295.00    0.0
2018/11/11 01:28:30.000  -74.425555221  163.418478898    63.6438   5  12   0.6223   0.5514   1.7480   0.1010  -0.5606  -0.5634 5325.00    0.0
2018/11/11 01:29:00.000  -74.425553896  163.418474117    63.5875   5  12   0.6223   0.5517   1.7480   0.1043  -0.5644  -0.5634 5355.00    0.0
2018/11/11 01:29:30.000  -74.425555268  163.418473813    63.6907   5  12   0.6224   0.5522   1.7491   0.1074  -0.5685  -0.5637 5385.00    0.0
2018/11/11 01:30:00.000  -74.425554848  163.418471087    63.4523   5  12   0.6228   0.5529   1.7513   0.1104  -0.5729  -0.5641 5415.00    0.0
2018/11/11 01:30:30.000  -74.425556066  163.418472443    63.2061   5  12   0.6234   0.5540   1.7545   0.1133  -0.5775  -0.5646 5445.00    0.0
2018/11/11 01:31:00.000  -74.425555336  163.418472960    63.0603   5  12   0.6242   0.5552   1.7589   0.1162  -0.5823  -0.5654 5475.00    0.0
2018/11/11 01:31:30.000  -74.425555516  163.418469879    64.1601   5  12   0.6252   0.5567   1.7642   0.1189  -0.5874  -0.5663 5505.00    0.0
2018/11/11 01:32:00.000  -74.425554062  163.418473250    63.3488   5  12   0.6264   0.5584   1.7705   0.1215  -0.5927  -0.5674 5535.00    0.0
2018/11/11 01:32:30.000  -74.425553659  163.418469074    63.3604   5  12   0.6279   0.5603   1.7777   0.1241  -0.5983  -0.5686 5565.00    0.0
2018/11/11 01:33:00.000  -74.425554961  163.418473230    63.1998   5  12   0.6275   0.5602   1.7762   0.1268  -0.6011  -0.5687 5595.00    0.0
2018/11/11 01:33:30.000  -74.425554163  163.418464722    63.3633   5  12   0.6274   0.5603   1.7757   0.1295  -0.6042  -0.5689 5625.00    0.0
2018/11/11 01:34:00.000  -74.425555560  163.418475800    63.6449   5  12   0.6275   0.5606   1.7762   0.1321  -0.6074  -0.5693 5655.00    0.0
2018/11/11 01:34:30.000  -74.425551771  163.418473481    62.3671   5  12   0.6277   0.5612   1.7776   0.1346  -0.6110  -0.5699 5685.00    0.0
2018/11/11 01:35:00.000  -74.425553959  163.418468930    63.2229   5  12   0.6282   0.5620   1.7801   0.1371  -0.6147  -0.5706 5715.00    0.0
2018/11/11 01:35:30.000  -74.425555486  163.418477343    63.1039   5  12   0.6289   0.5630   1.7836   0.1394  -0.6187  -0.5715 5745.00    0.0
2018/11/11 01:36:00.000  -74.425556114  163.418467862    63.5326   5  11   0.6608   0.5679   1.8249   0.1817  -0.6037  -0.5049 5775.00    0.0
2018/11/11 01:36:30.000  -74.425551946  163.418464753    62.7877   5  11   0.6617   0.5694   1.8310   0.1831  -0.6082  -0.5057 5805.00    0.0
2018/11/11 01:37:00.000  -74.425556960  163.418462461    63.2732   5  11   0.6628   0.5710   1.8380   0.1845  -0.6128  -0.5065 5835.00    0.0
2018/11/11 01:37:30.000  -74.425555760  163.418474475    62.0593   5  10   0.6755   0.6322   2.1018   0.0386  -0.8063  -0.3649 5865.00    0.0
2018/11/11 01:38:00.000  -74.425556943  163.418477117    63.0018   5  10   0.6745   0.6322   2.1047   0.0498  -0.8098  -0.3675 5895.00    0.0
2018/11/11 01:38:30.000  -74.425553212  163.418479492    61.0895   5   9   0.7742   0.6854   2.6386   0.3226  -1.0394  -0.8612 5925.00    0.0
2018/11/11 01:39:00.000  -74.425553528  163.418478592    61.2172   5   9   0.7740   0.6878   2.6562   0.3269  -1.0490  -0.8676 5955.00    0.0
2018/11/11 01:39:30.000  -74.425557933  163.418474085    62.0888   5   9   0.7742   0.6905   2.6756   0.3313  -1.0592  -0.8744 5985.00    0.0
2018/11/11 01:40:00.000  -74.425556759  163.418471573    62.4476   5   9   0.7747   0.6936   2.6969   0.3358  -1.0701  -0.8816 6015.00    0.0
2018/11/11 01:40:30.000  -74.425558355  163.418482957    63.3910   5   9   0.7755   0.6970   2.7203   0.3405  -1.0818  -0.8893 6045.00    0.0
2018/11/11 01:41:00.000  -74.425558105  163.418483232    62.6512   5   9   0.7767   0.7009   2.7454   0.3452  -1.0941  -0.8973 6075.00    0.0
2018/11/11 01:41:30.000  -74.425555420  163.418486675    61.3030   5   9   0.7782   0.7051   2.7724   0.3500  -1.1070  -0.9058 6105.00    0.0
2018/11/11 01:42:00.000  -74.425553374  163.418478493    61.7818   5   9   0.7800   0.7096   2.8012   0.3550  -1.1206  -0.9146 6135.00    0.0
2018/11/11 01:42:30.000  -74.425557299  163.418472351    62.0928   5   9   0.7821   0.7145   2.8317   0.3601  -1.1348  -0.9238 6165.00    0.0
2018/11/11 01:43:00.000  -74.425554411  163.418477704    62.5335   5   9   0.7817   0.7161   2.8463   0.3639  -1.1424  -0.9302 6195.00    0.0
2018/11/11 01:43:30.000  -74.425555135  163.418474245    62.4107   5   9   0.7815   0.7180   2.8625   0.3679  -1.1506  -0.9370 6225.00    0.0
2018/11/11 01:44:00.000  -74.425549288  163.418477853    59.9017   5   9   0.7817   0.7202   2.8803   0.3720  -1.1593  -0.9441 6255.00    0.0
2018/11/11 01:44:30.000  -74.425557986  163.418478531    62.6940   5   9   0.7822   0.7227   2.8997   0.3761  -1.1686  -0.9515 6285.00    0.0
2018/11/11 01:45:00.000  -74.425556824  163.418484803    61.8776   5   9   0.7830   0.7256   2.9207   0.3803  -1.1785  -0.9593 6315.00    0.0
2018/11/11 01:45:30.000  -74.425552929  163.418485400    58.1785   5   9   0.7842   0.7288   2.9435   0.3847  -1.1889  -0.9674 6345.00    0.0
2018/11/11 01:46:00.000  -74.425551926  163.418480091    59.7472   5   9   0.7857   0.7323   2.9676   0.3891  -1.1998  -0.9759 6375.00    0.0
2018/11/11 01:46:30.000  -74.425554494  163.418481012    61.3864   5   9   0.7876   0.7361   2.9932   0.3935  -1.2112  -0.9846 6405.00    0.0
2018/11/11 01:47:00.000  -74.425553938  163.418483177    61.3489   5   9   0.7897   0.7402   3.0200   0.3981  -1.2231  -0.9936 6435.00    0.0
2018/11/11 01:47:30.000  -74.425550765  163.418479956    60.9334   5   9   0.7922   0.7446   3.0481   0.4027  -1.2354  -1.0028 6465.00    0.0
2018/11/11 01:48:00.000  -74.425552847  163.418465827    61.9750   5   9   0.7920   0.7455   3.0601   0.4060  -1.2408  -1.0091 6495.00    0.0
2018/11/11 01:48:30.000  -74.425551489  163.418474467    60.9205   5   9   0.7921   0.7466   3.0734   0.4093  -1.2466  -1.0156 6525.00    0.0
2018/11/11 01:49:00.000  -74.425550333  163.418478600    60.0368   5   9   0.7925   0.7480   3.0879   0.4126  -1.2528  -1.0222 6555.00    0.0
2018/11/11 01:49:30.000  -74.425553915  163.418472170    61.7896   5   9   0.7933   0.7497   3.1034   0.4160  -1.2593  -1.0291 6585.00    0.0
2018/11/11 01:50:00.000  -74.425551764  163.418479481    60.7968   5   9   0.7943   0.7515   3.1200   0.4194  -1.2662  -1.0362 6615.00    0.0
2018/11/11 01:50:30.000  -74.425555176  163.418480794    61.9229   5   8   0.9700   0.7713   4.0742   0.5194  -1.4310  -1.5908 6645.00    0.0
2018/11/11 01:51:00.000  -74.425558103  163.418476276    64.1006   5   9   0.7314   0.7311   2.8959   0.3346  -1.1575  -0.8371 6675.00    0.0
2018/11/11 01:51:30.000  -74.425560833  163.418463793    64.3213   5   9   0.7329   0.7338   2.9237   0.3398  -1.1680  -0.8472 6705.00    0.0
2018/11/11 01:52:00.000  -74.425558191  163.418460046    64.0970   5   9   0.7346   0.7368   2.9528   0.3451  -1.1788  -0.8576 6735.00    0.0
2018/11/11 01:52:30.000  -74.425558367  163.418467883    63.6598   5   9   0.7367   0.7400   2.9830   0.3505  -1.1901  -0.8683 6765.00    0.0
2018/11/11 01:53:00.000  -74.425557305  163.418468540    63.7991   5   9   0.7364   0.7400   3.0000   0.3551  -1.1956  -0.8776 6795.00    0.0
2018/11/11 01:53:30.000  -74.425556195  163.418470499    63.0269   5   9   0.7364   0.7402   3.0181   0.3597  -1.2015  -0.8871 6825.00    0.0
2018/11/11 01:54:00.000  -74.425558453  163.418461442    64.8690   5   9   0.7367   0.7407   3.0372   0.3643  -1.2077  -0.8966 6855.00    0.0
2018/11/11 01:54:30.000  -74.425555321  163.418468826    62.7144   5   9   0.7373   0.7415   3.0573   0.3688  -1.2141  -0.9063 6885.00    0.0
2018/11/11 01:55:00.000  -74.425554741  163.418473768    62.4456   5   9   0.7383   0.7425   3.0784   0.3734  -1.2209  -0.9161 6915.00    0.0
2018/11/11 01:55:30.000  -74.425559103  163.418462121    65.3853   5   9   0.7395   0.7437   3.1005   0.3780  -1.2280  -0.9260 6945.00    0.0
2018/11/11 01:56:00.000  -74.425557130  163.418468019    62.9079   5   9   0.7411   0.7453   3.1234   0.3825  -1.2353  -0.9361 6975.00    0.0
2018/11/11 01:56:30.000  -74.425557732  163.418457824    64.0157   5   9   0.7430   0.7470   3.1471   0.3871  -1.2428  -0.9462 7005.00    0.0
2018/11/11 01:57:00.000  -74.425560753  163.418463712    63.3973   5   9   0.7452   0.7490   3.1715   0.3916  -1.2505  -0.9565 7035.00    0.0
2018/11/11 01:57:30.000  -74.425558116  163.418465689    63.7021   5   9   0.7478   0.7512   3.1965   0.3962  -1.2584  -0.9669 7065.00    0.0
2018/11/11 01:58:00.000  -74.425558003  163.418462297    63.9275   5   9   0.7478   0.7500   3.2079   0.3997  -1.2603  -0.9753 7095.00    0.0
2018/11/11 01:58:30.000  -74.425557980  163.418462857    64.2538   5   9   0.7482   0.7491   3.2199   0.4031  -1.2624  -0.9836 7125.00    0.0
2018/11/11 01:59:00.000  -74.425555545  163.418463633    62.9902   5   9   0.7488   0.7483   3.2323   0.4065  -1.2646  -0.9920 7155.00    0.0
2018/11/11 01:59:30.000  -74.425559727  163.418449564    64.2680   5   9   0.7497   0.7478   3.2452   0.4099  -1.2668  -1.0003 7185.00    0.0
2018/11/11 02:00:00.000  -74.425559694  163.418462008    63.3870   5   9   0.7510   0.7474   3.2585   0.4132  -1.2692  -1.0086 7215.00    0.0
2018/11/11 02:00:30.000  -74.425554761  163.418466185    63.1351   5   9   0.7525   0.7473   3.2724   0.4165  -1.2717  -1.0170 7245.00    0.0
2018/11/11 02:01:00.000  -74.425559230  163.418464824    63.1717   5   9   0.7544   0.7474   3.2865   0.4198  -1.2742  -1.0253 7275.00    0.0
2018/11/11 02:01:30.000  -74.425555890  163.418473904    62.5395   5   9   0.7565   0.7476   3.3009   0.4231  -1.2768  -1.0336 7305.00    0.0
2018/11/11 02:02:00.000  -74.425557788  163.418462089    62.4907   5   9   0.7589   0.7481   3.3154   0.4263  -1.2793  -1.0419 7335.00    0.0
2018/11/11 02:02:30.000  -74.425557810  163.418470354    62.5041   5   9   0.7617   0.7488   3.3301   0.4295  -1.2819  -1.0502 7365.00    0.0
2018/11/11 02:03:00.000  -74.425556971  163.418465409    63.1525   5   9   0.7618   0.7460   3.3312   0.4314  -1.2785  -1.0558 7395.00    0.0
2018/11/11 02:03:30.000  -74.425559196  163.418460959    63.6623   5   9   0.7622   0.7434   3.3324   0.4331  -1.2751  -1.0613 7425.00    0.0
2018/11/11 02:04:00.000  -74.425558689  163.418465482    64.0953   5   9   0.7628   0.7411   3.3337   0.4348  -1.2717  -1.0666 7455.00    0.0
2018/11/11 02:04:30.000  -74.425558353  163.418454893    64.6423   5   9   0.7637   0.7389   3.3351   0.4365  -1.2682  -1.0719 7485.00    0.0
2018/11/11 02:05:00.000  -74.425559081  163.418456891    65.2942   5   9   0.7649   0.7369   3.3366   0.4381  -1.2648  -1.0770 7515.00    0.0
2018/11/11 02:05:30.000  -74.425560624  163.418455054    64.9996   5   9   0.7664   0.7352   3.3384   0.4397  -1.2615  -1.0822 7545.00    0.0
2018/11/11 02:06:00.000  -74.425560202  163.418454710    64.7344   5   9   0.7682   0.7338   3.3403   0.4413  -1.2582  -1.0872 7575.00    0.0
2018/11/11 02:06:30.000  -74.425561116  163.418454628    64.9834   5   9   0.7703   0.7325   3.3423   0.4429  -1.2549  -1.0923 7605.00    0.0
2018/11/11 02:07:00.000  -74.425560749  163.418448287    65.5730   5   9   0.7727   0.7315   3.3444   0.4445  -1.2517  -1.0972 7635.00    0.0
2018/11/11 02:07:30.000  -74.425560186  163.418450067    64.9315   5   9   0.7753   0.7307   3.3465   0.4461  -1.2485  -1.1022 7665.00    0.0
2018/11/11 02:08:00.000  -74.425560589  163.418446023    66.4065   5   9   0.7752   0.7265   3.3354   0.4461  -1.2394  -1.1039 7695.00    0.0
2018/11/11 02:08:30.000  -74.425560073  163.418450829    65.3353   5   9   0.7753   0.7226   3.3244   0.4460  -1.2303  -1.1054 7725.00    0.0
2018/11/11 02:09:00.000  -74.425561351  163.418460216    64.5060   5   9   0.7757   0.7189   3.3136   0.4458  -1.2214  -1.1069 7755.00    0.0
2018/11/11 02:09:30.000  -74.425563730  163.418442103    66.7895   5   9   0.7763   0.7155   3.3031   0.4457  -1.2125  -1.1084 7785.00    0.0
2018/11/11 02:10:00.000  -74.425563278  163.418443966    66.8636   5   9   0.7772   0.7124   3.2928   0.4457  -1.2038  -1.1098 7815.00    0.0
2018/11/11 02:10:30.000  -74.425563392  163.418453790    66.0581   5   9   0.7785   0.7096   3.2830   0.4457  -1.1954  -1.1113 7845.00    0.0
2018/11/11 02:11:00.000  -74.425565871  163.418447489    66.3164   5   9   0.7800   0.7072   3.2736   0.4457  -1.1872  -1.1128 7875.00    0.0
2018/11/11 02:11:30.000  -74.425562459  163.418458114    65.0290   5   9   0.7818   0.7050   3.2646   0.4459  -1.1791  -1.1144 7905.00    0.0
2018/11/11 02:12:00.000  -74.425559927  163.418467238    64.5638   5   9   0.7839   0.7032   3.2560   0.4461  -1.1713  -1.1160 7935.00    0.0
2018/11/11 02:12:30.000  -74.425562672  163.418447889    65.4249   5   9   0.7864   0.7017   3.2478   0.4464  -1.1638  -1.1178 7965.00    0.0
2018/11/11 02:13:00.000  -74.425559981  163.418445834    65.7566   5   9   0.7858   0.6969   3.2270   0.4448  -1.1505  -1.1158 7995.00    0.0
2018/11/11 02:13:30.000  -74.425563101  163.418435565    66.3314   5   9   0.7856   0.6924   3.2068   0.4433  -1.1374  -1.1140 8025.00    0.0
2018/11/11 02:14:00.000  -74.425560163  163.418454032    64.8532   5   9   0.7856   0.6882   3.1873   0.4418  -1.1247  -1.1122 8055.00    0.0
2018/11/11 02:14:30.000  -74.425561169  163.418452203    64.3785   5   9   0.7859   0.6845   3.1684   0.4405  -1.1124  -1.1105 8085.00    0.0
2018/11/11 02:15:00.000  -74.425562455  163.418444699    65.6093   5   9   0.7865   0.6811   3.1502   0.4393  -1.1004  -1.1090 8115.00    0.0
2018/11/11 02:15:30.000  -74.425561679  163.418449293    65.3270   5   9   0.7875   0.6781   3.1330   0.4383  -1.0890  -1.1077 8145.00    0.0
2018/11/11 02:16:00.000  -74.425558331  163.418453115    64.2978   5   9   0.7888   0.6756   3.1167   0.4374  -1.0779  -1.1067 8175.00    0.0
2018/11/11 02:16:30.000  -74.425560334  163.418447602    65.6472   5   9   0.7905   0.6734   3.1011   0.4367  -1.0673  -1.1059 8205.00    0.0
2018/11/11 02:17:00.000  -74.425562538  163.418454448    65.0071   5   9   0.7924   0.6716   3.0865   0.4361  -1.0572  -1.1053 8235.00    0.0
2018/11/11 02:17:30.000  -74.425562293  163.418440293    65.3567   5   9   0.7947   0.6702   3.0727   0.4358  -1.0475  -1.1050 8265.00    0.0
2018/11/11 02:18:00.000  -74.425563751  163.418443715    65.3001   5   9   0.7939   0.6657   3.0472   0.4334  -1.0323  -1.1008 8295.00    0.0
2018/11/11 02:18:30.000  -74.425565133  163.418445161    65.7846   5   9   0.7934   0.6615   3.0226   0.4311  -1.0175  -1.0968 8325.00    0.0
2018/11/11 02:19:00.000  -74.425563651  163.418449480    65.2459   5   9   0.7932   0.6577   2.9992   0.4291  -1.0034  -1.0931 8355.00    0.0
2018/11/11 02:19:30.000  -74.425562395  163.418439692    65.8756   5   9   0.7934   0.6544   2.9768   0.4272  -0.9897  -1.0897 8385.00    0.0
2018/11/11 02:20:00.000  -74.425562002  163.418444057    65.4870   5   9   0.7939   0.6515   2.9556   0.4255  -0.9767  -1.0867 8415.00    0.0
2018/11/11 02:20:30.000  -74.425562443  163.418436858    65.7671   5   9   0.7947   0.6491   2.9358   0.4241  -0.9643  -1.0840 8445.00    0.0
2018/11/11 02:21:00.000  -74.425562119  163.418449965    65.8284   5   9   0.7960   0.6471   2.9171   0.4230  -0.9525  -1.0818 8475.00    0.0
2018/11/11 02:21:30.000  -74.425564802  163.418445902    66.6912   5   9   0.7976   0.6455   2.8996   0.4220  -0.9412  -1.0799 8505.00    0.0
2018/11/11 02:22:00.000  -74.425564660  163.418450728    65.6293   5   8   0.8339   0.6544   3.4539   0.3879  -0.8057  -1.2701 8535.00    0.0
2018/11/11 02:22:30.000  -74.425562130  163.418451819    65.7040   5   8   0.8370   0.6540   3.4452   0.3863  -0.7911  -1.2724 8565.00    0.0
2018/11/11 02:23:00.000  -74.425561234  163.418453908    64.2748   5   8   0.8368   0.6505   3.4228   0.3826  -0.7712  -1.2695 8595.00    0.0
2018/11/11 02:23:30.000  -74.425565558  163.418444709    66.3045   5   8   0.8369   0.6475   3.4015   0.3792  -0.7519  -1.2670 8625.00    0.0
2018/11/11 02:24:00.000  -74.425565764  163.418451212    66.4991   5   8   0.8373   0.6450   3.3813   0.3759  -0.7329  -1.2648 8655.00    0.0
2018/11/11 02:24:30.000  -74.425566969  163.418445392    66.9056   5   8   0.8381   0.6429   3.3623   0.3729  -0.7143  -1.2631 8685.00    0.0
2018/11/11 02:25:00.000  -74.425561796  163.418446718    65.8379   5   8   0.8393   0.6413   3.3446   0.3700  -0.6961  -1.2617 8715.00    0.0
2018/11/11 02:25:30.000  -74.425565350  163.418451057    66.1614   5   8   0.8409   0.6401   3.3283   0.3674  -0.6784  -1.2609 8745.00    0.0
2018/11/11 02:26:00.000  -74.425562245  163.418449660    65.6815   5   8   0.8429   0.6395   3.3133   0.3651  -0.6610  -1.2606 8775.00    0.0
2018/11/11 02:26:30.000  -74.425566943  163.418446800    67.2319   5   8   0.8453   0.6392   3.2996   0.3629  -0.6440  -1.2608 8805.00    0.0
2018/11/11 02:27:00.000  -74.425564737  163.418453947    66.5767   5   8   0.8481   0.6394   3.2874   0.3610  -0.6274  -1.2615 8835.00    0.0
2018/11/11 02:27:30.000  -74.425564173  163.418444122    65.9080   5   8   0.8513   0.6400   3.2764   0.3593  -0.6111  -1.2627 8865.00    0.0
2018/11/11 02:28:00.000  -74.425564577  163.418446630    66.0986   5   8   0.8508   0.6377   3.2519   0.3557  -0.5899  -1.2585 8895.00    0.0
2018/11/11 02:28:30.000  -74.425564836  163.418450741    65.2692   5   8   0.8508   0.6358   3.2286   0.3523  -0.5690  -1.2547 8925.00    0.0
2018/11/11 02:29:00.000  -74.425563432  163.418443927    65.7406   5   9   0.8467   0.6340   2.9636   0.3468  -0.5688  -1.2932 8955.00    0.0
2018/11/11 02:29:30.000  -74.425561992  163.418447882    64.5855   5   9   0.8469   0.6328   2.9532   0.3432  -0.5533  -1.2918 8985.00    0.0
2018/11/11 02:30:00.000  -74.425561947  163.418444902    64.7169   5   9   0.8475   0.6320   2.9439   0.3398  -0.5380  -1.2909 9015.00    0.0
2018/11/11 02:30:30.000  -74.425564235  163.418443372    65.5911   5   9   0.8485   0.6317   2.9360   0.3367  -0.5231  -1.2906 9045.00    0.0
2018/11/11 02:31:00.000  -74.425564466  163.418446690    65.9991   5   9   0.8500   0.6317   2.9292   0.3337  -0.5083  -1.2908 9075.00    0.0
2018/11/11 02:31:30.000  -74.425566388  163.418455307    66.1286   5   8   0.8565   0.6619   3.1751   0.3565  -0.0303  -1.2478 9105.00    0.0
2018/11/11 02:32:00.000  -74.425564658  163.418442666    65.6531   5   8   0.8584   0.6635   3.1752   0.3535   0.1357  -1.2505 9135.00    0.0
2018/11/11 02:32:30.000  -74.425563745  163.418446497    64.7395   5   8   0.8606   0.6655   3.1767   0.3507   0.1938  -1.2538 9165.00    0.0
2018/11/11 02:33:00.000  -74.425563594  163.418454796    65.8211   5   8   0.8591   0.6644   3.1640   0.3457   0.2401  -1.2512 9195.00    0.0
2018/11/11 02:33:30.000  -74.425563868  163.418451713    66.4780   5   8   0.8580   0.6637   3.1524   0.3411   0.2779  -1.2491 9225.00    0.0
2018/11/11 02:34:00.000  -74.425563458  163.418449714    64.8484   5   8   0.8573   0.6634   3.1420   0.3366   0.3102  -1.2476 9255.00    0.0
2018/11/11 02:34:30.000  -74.425564775  163.418453204    66.1187   5   8   0.8570   0.6635   3.1330   0.3324   0.3388  -1.2466 9285.00    0.0
2018/11/11 02:35:00.000  -74.425563607  163.418446341    65.9224   5   8   0.8572   0.6640   3.1253   0.3283   0.3646  -1.2462 9315.00    0.0
2018/11/11 02:35:30.000  -74.425563549  163.418447881    65.6728   5   8   0.8578   0.6651   3.1191   0.3245   0.3883  -1.2465 9345.00    0.0
2018/11/11 02:36:00.000  -74.425563062  163.418446535    65.1395   5   8   0.8588   0.6665   3.1144   0.3209   0.4104  -1.2473 9375.00    0.0
2018/11/11 02:36:30.000  -74.425567313  163.418452393    66.5675   5   9   0.8139   0.6547   2.6140   0.2518   0.6421  -1.0438 9405.00    0.0
2018/11/11 02:37:00.000  -74.425566105  163.418448050    66.5750   5   9   0.8163   0.6572   2.6212   0.2485   0.6526  -1.0491 9435.00    0.0
2018/11/11 02:37:30.000  -74.425564430  163.418457404    67.8717   5   9   0.8191   0.6601   2.6295   0.2453   0.6634  -1.0549 9465.00    0.0
2018/11/11 02:38:00.000  -74.425564764  163.418454593    66.9565   5   9   0.8185   0.6599   2.6266   0.2411   0.6707  -1.0565 9495.00    0.0
2018/11/11 02:38:30.000  -74.425566350  163.418459672    67.8628   5   9   0.8184   0.6600   2.6246   0.2369   0.6780  -1.0584 9525.00    0.0
2018/11/11 02:39:00.000  -74.425565248  163.418456107    66.6972   5   9   0.8186   0.6606   2.6236   0.2328   0.6854  -1.0607 9555.00    0.0
2018/11/11 02:39:30.000  -74.425565278  163.418448754    66.3990   5   9   0.8191   0.6614   2.6236   0.2288   0.6929  -1.0634 9585.00    0.0
2018/11/11 02:40:00.000  -74.425565892  163.418452994    67.1858   5   9   0.8201   0.6627   2.6247   0.2248   0.7005  -1.0666 9615.00    0.0
2018/11/11 02:40:30.000  -74.425564230  163.418453778    66.5463   5   9   0.8215   0.6643   2.6271   0.2209   0.7084  -1.0703 9645.00    0.0
2018/11/11 02:41:00.000  -74.425566632  163.418441554    66.5829   5   9   0.8233   0.6663   2.6306   0.2171   0.7165  -1.0744 9675.00    0.0
2018/11/11 02:41:30.000  -74.425565659  163.418444751    66.4545   5   9   0.8255   0.6687   2.6353   0.2132   0.7249  -1.0790 9705.00    0.0
2018/11/11 02:42:00.000  -74.425563005  163.418438383    65.8888   5   9   0.8281   0.6714   2.6412   0.2093   0.7335  -1.0842 9735.00    0.0
2018/11/11 02:42:30.000  -74.425566885  163.418441290    66.1102   5   9   0.8311   0.6745   2.6484   0.2054   0.7424  -1.0898 9765.00    0.0
2018/11/11 02:43:00.000  -74.425565214  163.418447302    66.5058   5   9   0.8307   0.6745   2.6431   0.2010   0.7470  -1.0906 9795.00    0.0
2018/11/11 02:43:30.000  -74.425566332  163.418442555    67.3590   5   9   0.8306   0.6747   2.6388   0.1966   0.7517  -1.0919 9825.00    0.0
2018/11/11 02:44:00.000  -74.425564430  163.418440590    66.0116   5   9   0.8309   0.6753   2.6356   0.1923   0.7566  -1.0936 9855.00    0.0
2018/11/11 02:44:30.000  -74.425564248  163.418448951    66.1631   5   9   0.8316   0.6762   2.6336   0.1880   0.7618  -1.0957 9885.00    0.0
2018/11/11 02:45:00.000  -74.425565567  163.418448998    66.3351   5   9   0.8327   0.6775   2.6327   0.1837   0.7672  -1.0983 9915.00    0.0
2018/11/11 02:45:30.000  -74.425565273  163.418449310    66.3349   5   9   0.8342   0.6792   2.6332   0.1794   0.7730  -1.1015 9945.00    0.0
2018/11/11 02:46:00.000  -74.425563455  163.418443658    65.5566   5   9   0.8361   0.6813   2.6350   0.1751   0.7791  -1.1051 9975.00    0.0
2018/11/11 02:46:30.000  -74.425565439  163.418444597    66.5931   5   9   0.8385   0.6838   2.6381   0.1707   0.7855  -1.1093 10005.00    0.0
2018/11/11 02:47:00.000  -74.425563571  163.418447889    66.8115   5   9   0.8412   0.6866   2.6424   0.1661   0.7922  -1.1140 10035.00    0.0
2018/11/11 02:47:30.000  -74.425562721  163.418446497    65.9472   5   9   0.8442   0.6897   2.6480   0.1614   0.7993  -1.1191 10065.00    0.0
2018/11/11 02:48:00.000  -74.425565643  163.418437710    66.6199   5   9   0.8438   0.6895   2.6402   0.1572   0.8014  -1.1191 10095.00    0.0
2018/11/11 02:48:30.000  -74.425564260  163.418446145    66.9065   5   9   0.8438   0.6896   2.6336   0.1529   0.8037  -1.1196 10125.00    0.0
2018/11/11 02:49:00.000  -74.425565477  163.418455679    67.4757   5   9   0.8442   0.6901   2.6282   0.1486   0.8063  -1.1206 10155.00    0.0
2018/11/11 02:49:30.000  -74.425566728  163.418447458    67.5466   5   9   0.8450   0.6910   2.6240   0.1443   0.8092  -1.1220 10185.00    0.0
2018/11/11 02:50:00.000  -74.425564622  163.418448115    66.0784   5   9   0.8461   0.6922   2.6211   0.1399   0.8125  -1.1240 10215.00    0.0
2018/11/11 02:50:30.000  -74.425564435  163.418436448    65.5837   5   9   0.8477   0.6938   2.6197   0.1354   0.8162  -1.1265 10245.00    0.0
2018/11/11 02:51:00.000  -74.425562614  163.418436032    65.7385   5   9   0.8496   0.6957   2.6196   0.1307   0.8203  -1.1295 10275.00    0.0
2018/11/11 02:51:30.000  -74.425564221  163.418444115    66.6059   5   9   0.8520   0.6981   2.6208   0.1259   0.8248  -1.1330 10305.00    0.0
2018/11/11 02:52:00.000  -74.425564224  163.418444479    66.0569   5   9   0.8547   0.7007   2.6234   0.1208   0.8297  -1.1371 10335.00    0.0
2018/11/11 02:52:30.000  -74.425563103  163.418442865    65.5629   5   9   0.8578   0.7038   2.6272   0.1154   0.8351  -1.1416 10365.00    0.0
2018/11/11 02:53:00.000  -74.425568436  163.418447273    67.0165   5   9   0.8574   0.7034   2.6172   0.1118   0.8348  -1.1408 10395.00    0.0
2018/11/11 02:53:30.000  -74.425564636  163.418443591    65.7595   5   9   0.8574   0.7032   2.6085   0.1081   0.8348  -1.1405 10425.00    0.0
2018/11/11 02:54:00.000  -74.425563739  163.418450597    65.9806   5   9   0.8578   0.7035   2.6010   0.1044   0.8352  -1.1407 10455.00    0.0
2018/11/11 02:54:30.000  -74.425562045  163.418452688    66.4402   5   9   0.8586   0.7041   2.5948   0.1006   0.8360  -1.1414 10485.00    0.0
2018/11/11 02:55:00.000  -74.425562914  163.418439314    65.3990   5  10   0.8453   0.5826   2.1486   0.2674   0.3563  -1.0388 10515.00    0.0
2018/11/11 02:55:30.000  -74.425567934  163.418445605    66.8283   5  10   0.8469   0.5829   2.1484   0.2663   0.3593  -1.0413 10545.00    0.0
2018/11/11 02:56:00.000  -74.425565013  163.418446092    65.6823   5  10   0.8489   0.5835   2.1491   0.2654   0.3624  -1.0443 10575.00    0.0
2018/11/11 02:56:30.000  -74.425565171  163.418446819    66.2026   5  10   0.8513   0.5842   2.1509   0.2645   0.3656  -1.0477 10605.00    0.0
2018/11/11 02:57:00.000  -74.425564497  163.418437138    66.3943   5  10   0.8540   0.5853   2.1538   0.2637   0.3689  -1.0515 10635.00    0.0
2018/11/11 02:57:30.000  -74.425563886  163.418443670    65.8223   5  10   0.8571   0.5865   2.1576   0.2630   0.3723  -1.0558 10665.00    0.0
2018/11/11 02:58:00.000  -74.425566269  163.418437229    65.5597   5  10   0.8569   0.5856   2.1520   0.2616   0.3737  -1.0560 10695.00    0.0
2018/11/11 02:58:30.000  -74.425565505  163.418433975    66.3086   5  10   0.8571   0.5848   2.1473   0.2603   0.3752  -1.0566 10725.00    0.0
2018/11/11 02:59:00.000  -74.425564331  163.418441613    66.2070   5  10   0.8577   0.5844   2.1436   0.2591   0.3767  -1.0576 10755.00    0.0
2018/11/11 02:59:30.000  -74.425565810  163.418439547    66.4162   5  10   0.8586   0.5841   2.1410   0.2580   0.3782  -1.0590 10785.00    0.0
2018/11/11 03:00:00.000  -74.425565313  163.418446792    66.2607   5  10   0.8598   0.5841   2.1393   0.2570   0.3799  -1.0609 10815.00    0.0
2018/11/11 03:00:30.000  -74.425565669  163.418436119    65.8011   5  10   0.8615   0.5844   2.1389   0.2561   0.3818  -1.0632 10845.00    0.0
2018/11/11 03:01:00.000  -74.425563354  163.418445009    65.5223   5  10   0.8635   0.5850   2.1395   0.2553   0.3837  -1.0659 10875.00    0.0
2018/11/11 03:01:30.000  -74.425566360  163.418441823    66.5001   5  10   0.8659   0.5858   2.1410   0.2546   0.3859  -1.0691 10905.00    0.0
2018/11/11 03:02:00.000  -74.425562372  163.418443148    65.7612   5  10   0.8687   0.5869   2.1436   0.2539   0.3883  -1.0727 10935.00    0.0
2018/11/11 03:02:30.000  -74.425566148  163.418442142    65.8960   5  10   0.8717   0.5882   2.1472   0.2533   0.3909  -1.0766 10965.00    0.0
2018/11/11 03:03:00.000  -74.425560416  163.418448012    65.4429   5  10   0.8716   0.5872   2.1413   0.2523   0.3908  -1.0766 10995.00    0.0
2018/11/11 03:03:30.000  -74.425565075  163.418452931    65.8834   5  10   0.8718   0.5865   2.1364   0.2513   0.3909  -1.0769 11025.00    0.0
2018/11/11 03:04:00.000  -74.425565898  163.418449676    66.2739   5  10   0.8724   0.5860   2.1325   0.2505   0.3911  -1.0777 11055.00    0.0
2018/11/11 03:04:30.000  -74.425563760  163.418441921    65.7700   5  10   0.8733   0.5858   2.1297   0.2497   0.3914  -1.0789 11085.00    0.0
2018/11/11 03:05:00.000  -74.425562955  163.418448568    65.7710   5  10   0.8746   0.5858   2.1278   0.2490   0.3920  -1.0805 11115.00    0.0
2018/11/11 03:05:30.000  -74.425563339  163.418441407    65.2134   5  10   0.8762   0.5862   2.1271   0.2483   0.3928  -1.0825 11145.00    0.0
2018/11/11 03:06:00.000  -74.425562104  163.418442578    65.6395   5  10   0.8782   0.5867   2.1274   0.2478   0.3939  -1.0849 11175.00    0.0
2018/11/11 03:06:30.000  -74.425565276  163.418432922    65.8459   5  10   0.8805   0.5876   2.1286   0.2472   0.3953  -1.0877 11205.00    0.0
2018/11/11 03:07:00.000  -74.425563081  163.418442451    65.3090   5  10   0.8832   0.5886   2.1308   0.2467   0.3969  -1.0909 11235.00    0.0
2018/11/11 03:07:30.000  -74.425564623  163.418444151    66.0091   5  10   0.8862   0.5900   2.1340   0.2462   0.3989  -1.0944 11265.00    0.0
2018/11/11 03:08:00.000  -74.425565696  163.418442380    65.9259   5  10   0.8860   0.5890   2.1279   0.2456   0.3975  -1.0941 11295.00    0.0
2018/11/11 03:08:30.000  -74.425561311  163.418444424    64.8026   5  11   0.8409   0.5723   1.9458   0.1484   0.5220  -0.9797 11325.00    0.0
2018/11/11 03:09:00.000  -74.425563757  163.418444989    64.9227   5  11   0.8418   0.5716   1.9441   0.1472   0.5212  -0.9816 11355.00    0.0
2018/11/11 03:09:30.000  -74.425559696  163.418442717    63.9420   5  11   0.8430   0.5712   1.9433   0.1460   0.5206  -0.9838 11385.00    0.0
2018/11/11 03:10:00.000  -74.425563928  163.418443638    65.1831   5  11   0.8445   0.5710   1.9434   0.1448   0.5204  -0.9863 11415.00    0.0
2018/11/11 03:10:30.000  -74.425561780  163.418441409    65.1758   5  11   0.8464   0.5710   1.9446   0.1435   0.5205  -0.9892 11445.00    0.0
2018/11/11 03:11:00.000  -74.425558040  163.418442300    64.1244   5  11   0.8486   0.5714   1.9466   0.1422   0.5210  -0.9924 11475.00    0.0
2018/11/11 03:11:30.000  -74.425559140  163.418446208    64.3077   5  12   0.8254   0.5692   1.9386   0.0902   0.5106  -1.0171 11505.00    0.0
2018/11/11 03:12:00.000  -74.425558154  163.418447950    63.8800   5  12   0.8275   0.5700   1.9430   0.0868   0.5121  -1.0205 11535.00    0.0
2018/11/11 03:12:30.000  -74.425558832  163.418447163    64.0314   5  12   0.8300   0.5710   1.9483   0.0829   0.5139  -1.0241 11565.00    0.0
2018/11/11 03:13:00.000  -74.425559554  163.418449216    64.4507   5  12   0.8298   0.5698   1.9454   0.0819   0.5120  -1.0246 11595.00    0.0
2018/11/11 03:13:30.000  -74.425560409  163.418450512    64.8096   5  12   0.8298   0.5688   1.9432   0.0807   0.5105  -1.0253 11625.00    0.0
2018/11/11 03:14:00.000  -74.425559716  163.418455515    64.4113   5  12   0.8301   0.5681   1.9420   0.0794   0.5092  -1.0263 11655.00    0.0
2018/11/11 03:14:30.000  -74.425560706  163.418449978    64.9864   5  12   0.8307   0.5676   1.9416   0.0778   0.5083  -1.0277 11685.00    0.0
2018/11/11 03:15:00.000  -74.425560891  163.418449441    64.9820   5  12   0.8316   0.5673   1.9420   0.0760   0.5077  -1.0293 11715.00    0.0
2018/11/11 03:15:30.000  -74.425558783  163.418446843    64.3715   5  12   0.8328   0.5673   1.9434   0.0739   0.5075  -1.0313 11745.00    0.0
2018/11/11 03:16:00.000  -74.425557503  163.418454377    64.4261   5  12   0.8343   0.5676   1.9456   0.0714   0.5077  -1.0336 11775.00    0.0
2018/11/11 03:16:30.000  -74.425558218  163.418447226    63.7543   5  12   0.8360   0.5682   1.9487   0.0685   0.5082  -1.0362 11805.00    0.0
2018/11/11 03:17:00.000  -74.425560673  163.418447863    64.8510   5  12   0.8380   0.5689   1.9526   0.0652   0.5091  -1.0391 11835.00    0.0
2018/11/11 03:17:30.000  -74.425561033  163.418443814    64.7555   5  12   0.8402   0.5699   1.9572   0.0613   0.5103  -1.0423 11865.00    0.0
2018/11/11 03:18:00.000  -74.425559198  163.418444273    64.3993   5  12   0.8399   0.5687   1.9538   0.0619   0.5077  -1.0423 11895.00    0.0
2018/11/11 03:18:30.000  -74.425561414  163.418445638    64.8937   5  12   0.8398   0.5676   1.9513   0.0623   0.5053  -1.0426 11925.00    0.0
2018/11/11 03:19:00.000  -74.425560248  163.418447426    64.5513   5  12   0.8400   0.5668   1.9495   0.0623   0.5033  -1.0431 11955.00    0.0
2018/11/11 03:19:30.000  -74.425560186  163.418444998    64.4329   5  12   0.8405   0.5663   1.9486   0.0621   0.5017  -1.0440 11985.00    0.0
2018/11/11 03:20:00.000  -74.425557584  163.418448227    63.4534   5  12   0.8412   0.5660   1.9486   0.0615   0.5004  -1.0452 12015.00    0.0
2018/11/11 03:20:30.000  -74.425559922  163.418448891    63.7909   5  12   0.8422   0.5660   1.9494   0.0604   0.4996  -1.0467 12045.00    0.0
2018/11/11 03:21:00.000  -74.425562810  163.418440934    64.0755   5  12   0.8435   0.5663   1.9511   0.0590   0.4991  -1.0485 12075.00    0.0
2018/11/11 03:21:30.000  -74.425558886  163.418445406    64.1597   5  11   0.8517   0.5681   1.9716  -0.0289   0.4887  -1.0369 12105.00    0.0
2018/11/11 03:22:00.000  -74.425559713  163.418448924    64.7145   5  11   0.8531   0.5688   1.9758  -0.0309   0.4888  -1.0392 12135.00    0.0
2018/11/11 03:22:30.000  -74.425559990  163.418447532    64.5899   5  11   0.8548   0.5698   1.9808  -0.0336   0.4894  -1.0417 12165.00    0.0
2018/11/11 03:23:00.000  -74.425560569  163.418452952    65.0275   5  11   0.8540   0.5684   1.9780  -0.0258   0.4859  -1.0415 12195.00    0.0
2018/11/11 03:23:30.000  -74.425558827  163.418443182    64.5463   5  11   0.8534   0.5673   1.9759  -0.0158   0.4826  -1.0414 12225.00    0.0
2018/11/11 03:24:00.000  -74.425562130  163.418438140    64.4152   5  11   0.8531   0.5665   1.9747   0.0107   0.4798  -1.0417 12255.00    0.0
2018/11/11 03:24:30.000  -74.425557103  163.418439201    63.8309   5  11   0.8531   0.5659   1.9743   0.0206   0.4774  -1.0422 12285.00    0.0
2018/11/11 03:25:00.000  -74.425561284  163.418441556    65.3080   5  10   0.8534   0.5743   2.0322   0.0305   0.4220  -1.0436 12315.00    0.0
2018/11/11 03:25:30.000  -74.425559776  163.418446090    65.0505   5   9   1.2517   0.6002   3.0397   0.4019  -0.4680  -1.7774 12345.00    0.0
2018/11/11 03:26:00.000  -74.425557196  163.418442087    63.6761   5  10   0.7548   0.5934   1.8575   0.2684  -0.0667  -0.8691 12375.00    0.0
2018/11/11 03:26:30.000  -74.425552349  163.418442622    63.0475   5  10   0.7548   0.5937   1.8647   0.2682  -0.0757  -0.8713 12405.00    0.0
