% program   : RTKLIB ver.2.4.3
% inp file  : _by_type/_obs/tuati/20181106.18o
% inp file  : _by_type/_obs/base/20181106.18o
% inp file  : _by_type/_sp3+clk/igs20262.clk
% inp file  : _by_type/_sp3+clk/igs20262.sp3
% inp file  : _by_type/_nav/tuati/20181106.18n
% obs start : 2018/11/06 00:00:00.0 GPST (week2026 172800.0s)
% obs end   : 2018/11/06 23:59:30.0 GPST (week2026 259170.0s)
% pos mode  : dgps
% freqs     : L1+L2
% solution  : combined
% elev mask : 15.0 deg
% dynamics  : off
% tidecorr  : off
% ionos opt : iono-free
% tropo opt : est ztd+grad
% ephemeris : precise
% navi sys  : gps glonass
% antenna1  :                       ( 0.0000  0.0000  0.0000)
% antenna2  :                       ( 0.0000  0.0000  0.0000)
% ref pos   : 90.000000000   0.000000000-6335367.6285
%
% (lat/lon/height=WGS84/ellipsoidal,Q=1:fix,2:float,3:sbas,4:dgps,5:single,6:ppp,ns=# of satellites)
%  GPST                  latitude(deg) longitude(deg)  height(m)   Q  ns   sdn(m)   sde(m)   sdu(m)  sdne(m)  sdeu(m)  sdun(m) age(s)  ratio
2018/11/06 00:00:00.000  -74.425543144  163.418462298    65.4085   5   8   0.8202   0.6421   2.6631   0.2357  -0.4844  -1.1425   0.00    0.0
2018/11/06 00:00:30.000  -74.425540974  163.418474439    63.7987   5   9   0.6883   0.6151   2.0212  -0.1632   0.3019  -0.7288   0.00    0.0
2018/11/06 00:01:00.000  -74.425540713  163.418465982    64.4336   5   9   0.6879   0.6154   2.0306  -0.1647   0.3110  -0.7304   0.00    0.0
2018/11/06 00:01:30.000  -74.425542953  163.418463803    64.8436   5   9   0.6878   0.6160   2.0411  -0.1664   0.3203  -0.7323   0.00    0.0
2018/11/06 00:02:00.000  -74.425543473  163.418467449    64.5958   5   9   0.6880   0.6170   2.0526  -0.1683   0.3298  -0.7345   0.00    0.0
2018/11/06 00:02:30.000  -74.425542226  163.418472184    64.4524   5   9   0.6885   0.6183   2.0653  -0.1704   0.3396  -0.7372   0.00    0.0
2018/11/06 00:03:00.000  -74.425542758  163.418471920    64.8806   5   9   0.6865   0.6166   2.0694  -0.1711   0.3470  -0.7374   0.00    0.0
2018/11/06 00:03:30.000  -74.425541915  163.418468267    65.1152   5   9   0.6848   0.6153   2.0746  -0.1719   0.3545  -0.7379   0.00    0.0
2018/11/06 00:04:00.000  -74.425540347  163.418467300    64.3738   5   9   0.6833   0.6143   2.0807  -0.1729   0.3622  -0.7388   0.00    0.0
2018/11/06 00:04:30.000  -74.425541655  163.418468976    64.5077   5   9   0.6822   0.6137   2.0879  -0.1741   0.3702  -0.7400   0.00    0.0
2018/11/06 00:05:00.000  -74.425541926  163.418467918    65.6659   5   9   0.6814   0.6134   2.0962  -0.1756   0.3784  -0.7415   0.00    0.0
2018/11/06 00:05:30.000  -74.425540953  163.418469061    64.4682   5   9   0.6810   0.6135   2.1060  -0.1772   0.3870  -0.7435   0.00    0.0
2018/11/06 00:06:00.000  -74.425542386  163.418473258    64.8599   5   9   0.6809   0.6140   2.1168  -0.1792   0.3959  -0.7459   0.00    0.0
2018/11/06 00:06:30.000  -74.425542264  163.418472774    63.6259   5   9   0.6811   0.6148   2.1288  -0.1813   0.4051  -0.7486   0.00    0.0
2018/11/06 00:07:00.000  -74.425537280  163.418468067    63.9272   5   9   0.6816   0.6160   2.1420  -0.1836   0.4147  -0.7517   0.00    0.0
2018/11/06 00:07:30.000  -74.425542975  163.418472497    64.5131   5   9   0.6823   0.6176   2.1564  -0.1862   0.4247  -0.7552   0.00    0.0
2018/11/06 00:08:00.000  -74.425540397  163.418469395    64.0478   5   9   0.6806   0.6161   2.1614  -0.1871   0.4315  -0.7561   0.00    0.0
2018/11/06 00:08:30.000  -74.425542037  163.418467736    64.9794   5   9   0.6792   0.6150   2.1676  -0.1883   0.4387  -0.7573   0.00    0.0
2018/11/06 00:09:00.000  -74.425538595  163.418483027    64.8068   5   9   0.6781   0.6143   2.1748  -0.1896   0.4463  -0.7588   0.00    0.0
2018/11/06 00:09:30.000  -74.425540796  163.418475279    64.9314   5   9   0.6772   0.6139   2.1832  -0.1912   0.4541  -0.7607   0.00    0.0
2018/11/06 00:10:00.000  -74.425542633  163.418485508    64.3448   5   9   0.6767   0.6138   2.1927  -0.1929   0.4622  -0.7630   0.00    0.0
2018/11/06 00:10:30.000  -74.425541283  163.418471282    64.2146   5   9   0.6766   0.6142   2.2037  -0.1950   0.4709  -0.7657   0.00    0.0
2018/11/06 00:11:00.000  -74.425541680  163.418476189    64.9017   5   9   0.6767   0.6150   2.2160  -0.1973   0.4800  -0.7689   0.00    0.0
2018/11/06 00:11:30.000  -74.425540400  163.418470021    64.8322   5   9   0.6772   0.6161   2.2294  -0.1999   0.4894  -0.7725   0.00    0.0
2018/11/06 00:12:00.000  -74.425542014  163.418482387    64.4735   5   9   0.6780   0.6176   2.2441  -0.2026   0.4993  -0.7764   0.00    0.0
2018/11/06 00:12:30.000  -74.425540230  163.418480293    63.6928   5   9   0.6791   0.6194   2.2601  -0.2057   0.5096  -0.7808   0.00    0.0
2018/11/06 00:13:00.000  -74.425541299  163.418473870    64.0668   5   9   0.6776   0.6182   2.2660  -0.2069   0.5164  -0.7823   0.00    0.0
2018/11/06 00:13:30.000  -74.425542811  163.418478246    64.3726   5   9   0.6765   0.6174   2.2730  -0.2083   0.5234  -0.7841   0.00    0.0
2018/11/06 00:14:00.000  -74.425541973  163.418483633    64.0100   5   9   0.6756   0.6169   2.2811  -0.2100   0.5309  -0.7863   0.00    0.0
2018/11/06 00:14:30.000  -74.425541564  163.418477212    64.4792   5   9   0.6751   0.6168   2.2905  -0.2119   0.5388  -0.7889   0.00    0.0
2018/11/06 00:15:00.000  -74.425541053  163.418490172    63.4985   5   9   0.6748   0.6171   2.3010  -0.2140   0.5470  -0.7919   0.00    0.0
2018/11/06 00:15:30.000  -74.425539245  163.418478495    64.7491   5   9   0.6750   0.6178   2.3131  -0.2164   0.5558  -0.7954   0.00    0.0
2018/11/06 00:16:00.000  -74.425539670  163.418479668    64.8277   5  10   0.6527   0.6095   2.0758  -0.2582   0.6573  -0.6755   0.00    0.0
2018/11/06 00:16:30.000  -74.425540702  163.418477019    63.2086   5  10   0.6535   0.6110   2.0906  -0.2605   0.6656  -0.6802   0.00    0.0
2018/11/06 00:17:00.000  -74.425537911  163.418477493    63.9287   5  10   0.6546   0.6130   2.1067  -0.2631   0.6744  -0.6853   0.00    0.0
2018/11/06 00:17:30.000  -74.425538125  163.418479326    63.3515   5  10   0.6560   0.6152   2.1240  -0.2660   0.6838  -0.6908   0.00    0.0
2018/11/06 00:18:00.000  -74.425540076  163.418494117    64.0196   5  10   0.6549   0.6144   2.1317  -0.2669   0.6888  -0.6937   0.00    0.0
2018/11/06 00:18:30.000  -74.425540233  163.418485741    63.9539   5  10   0.6541   0.6140   2.1406  -0.2680   0.6943  -0.6971   0.00    0.0
2018/11/06 00:19:00.000  -74.425539186  163.418479522    64.6358   5  10   0.6536   0.6140   2.1507  -0.2694   0.7002  -0.7008   0.00    0.0
2018/11/06 00:19:30.000  -74.425537837  163.418485915    62.9709   5  10   0.6535   0.6143   2.1619  -0.2711   0.7067  -0.7048   0.00    0.0
2018/11/06 00:20:00.000  -74.425537596  163.418485730    63.5190   5  10   0.6536   0.6149   2.1742  -0.2730   0.7137  -0.7093   0.00    0.0
2018/11/06 00:20:30.000  -74.425540886  163.418488064    63.3348   5  10   0.6541   0.6161   2.1880  -0.2752   0.7213  -0.7142   0.00    0.0
2018/11/06 00:21:00.000  -74.425538907  163.418484501    63.7796   5  10   0.6550   0.6175   2.2031  -0.2777   0.7295  -0.7195   0.00    0.0
2018/11/06 00:21:30.000  -74.425540160  163.418493895    63.8351   5  10   0.6561   0.6194   2.2193  -0.2804   0.7382  -0.7252   0.00    0.0
2018/11/06 00:22:00.000  -74.425538810  163.418482524    62.8276   5  10   0.6575   0.6216   2.2368  -0.2834   0.7474  -0.7313   0.00    0.0
2018/11/06 00:22:30.000  -74.425538047  163.418483065    63.2609   5  10   0.6593   0.6243   2.2556  -0.2866   0.7571  -0.7378   0.00    0.0
2018/11/06 00:23:00.000  -74.425539543  163.418489810    63.7295   5  10   0.6586   0.6237   2.2641  -0.2879   0.7622  -0.7416   0.00    0.0
2018/11/06 00:23:30.000  -74.425537089  163.418485647    63.4718   5  10   0.6581   0.6236   2.2737  -0.2893   0.7678  -0.7456   0.00    0.0
2018/11/06 00:24:00.000  -74.425539233  163.418483121    64.0492   5  10   0.6580   0.6237   2.2844  -0.2910   0.7738  -0.7500   0.00    0.0
2018/11/06 00:24:30.000  -74.425539350  163.418482596    63.5088   5  10   0.6581   0.6243   2.2962  -0.2930   0.7803  -0.7548   0.00    0.0
2018/11/06 00:25:00.000  -74.425539501  163.418476439    63.2462   5  10   0.6586   0.6252   2.3092  -0.2952   0.7873  -0.7600   0.00    0.0
2018/11/06 00:25:30.000  -74.425538459  163.418487624    63.6773   5  10   0.6595   0.6265   2.3236  -0.2977   0.7949  -0.7656   0.00    0.0
2018/11/06 00:26:00.000  -74.425538525  163.418478811    62.8851   5  10   0.6607   0.6283   2.3393  -0.3004   0.8031  -0.7717   0.00    0.0
2018/11/06 00:26:30.000  -74.425538625  163.418482906    63.0562   5  10   0.6621   0.6304   2.3561  -0.3035   0.8118  -0.7782   0.00    0.0
2018/11/06 00:27:00.000  -74.425538312  163.418484603    63.5348   5  10   0.6639   0.6329   2.3741  -0.3067   0.8210  -0.7850   0.00    0.0
2018/11/06 00:27:30.000  -74.425540600  163.418486756    63.5287   5  10   0.6661   0.6357   2.3933  -0.3102   0.8307  -0.7923   0.00    0.0
2018/11/06 00:28:00.000  -74.425541125  163.418486990    63.8826   5  10   0.6656   0.6353   2.4012  -0.3116   0.8352  -0.7963   0.00    0.0
2018/11/06 00:28:30.000  -74.425538327  163.418486306    63.1478   5  10   0.6655   0.6352   2.4104  -0.3132   0.8403  -0.8007   0.00    0.0
2018/11/06 00:29:00.000  -74.425540690  163.418479090    63.1716   5  10   0.6657   0.6356   2.4206  -0.3150   0.8459  -0.8055   0.00    0.0
2018/11/06 00:29:30.000  -74.425538882  163.418491120    63.6982   5  10   0.6662   0.6362   2.4319  -0.3171   0.8519  -0.8106   0.00    0.0
2018/11/06 00:30:00.000  -74.425540505  163.418480008    63.5748   5  11   0.6543   0.6372   2.3497  -0.3181   0.8610  -0.8679   0.00    0.0
2018/11/06 00:30:30.000  -74.425539790  163.418483461    63.3031   5  11   0.6553   0.6387   2.3643  -0.3208   0.8678  -0.8737   0.00    0.0
2018/11/06 00:31:00.000  -74.425540624  163.418494821    64.0749   5  11   0.6566   0.6405   2.3798  -0.3237   0.8752  -0.8799   0.00    0.0
2018/11/06 00:31:30.000  -74.425540522  163.418483264    63.3249   5  11   0.6582   0.6426   2.3964  -0.3268   0.8829  -0.8866   0.00    0.0
2018/11/06 00:32:00.000  -74.425540290  163.418480508    63.1547   5  11   0.6601   0.6451   2.4140  -0.3301   0.8911  -0.8935   0.00    0.0
2018/11/06 00:32:30.000  -74.425540691  163.418482199    63.9980   5  11   0.6623   0.6480   2.4326  -0.3336   0.8998  -0.9009   0.00    0.0
2018/11/06 00:33:00.000  -74.425542190  163.418493973    63.9657   5  11   0.6620   0.6475   2.4402  -0.3350   0.9033  -0.9045   0.00    0.0
2018/11/06 00:33:30.000  -74.425542036  163.418482222    63.8496   5  11   0.6619   0.6474   2.4487  -0.3365   0.9071  -0.9084   0.00    0.0
2018/11/06 00:34:00.000  -74.425540949  163.418477053    63.3865   5  11   0.6622   0.6476   2.4580  -0.3383   0.9114  -0.9126   0.00    0.0
2018/11/06 00:34:30.000  -74.425539883  163.418483695    63.0953   5  11   0.6627   0.6482   2.4683  -0.3402   0.9160  -0.9172   0.00    0.0
2018/11/06 00:35:00.000  -74.425538750  163.418480878    62.7137   5  11   0.6635   0.6490   2.4793  -0.3423   0.9210  -0.9220   0.00    0.0
2018/11/06 00:35:30.000  -74.425539096  163.418481478    63.0764   5  11   0.6647   0.6503   2.4916  -0.3446   0.9265  -0.9273   0.00    0.0
2018/11/06 00:36:00.000  -74.425540667  163.418491655    63.5380   5  11   0.6661   0.6519   2.5046  -0.3471   0.9323  -0.9329   0.00    0.0
2018/11/06 00:36:30.000  -74.425539728  163.418485446    63.4755   5  11   0.6678   0.6538   2.5185  -0.3498   0.9385  -0.9388   0.00    0.0
2018/11/06 00:37:00.000  -74.425540847  163.418479835    63.4242   5  11   0.6697   0.6560   2.5331  -0.3526   0.9450  -0.9449   0.00    0.0
2018/11/06 00:37:30.000  -74.425541442  163.418492716    63.8622   5  11   0.6719   0.6585   2.5484  -0.3555   0.9518  -0.9513   0.00    0.0
2018/11/06 00:38:00.000  -74.425539109  163.418488416    63.7545   5  11   0.6716   0.6577   2.5524  -0.3563   0.9534  -0.9538   0.00    0.0
2018/11/06 00:38:30.000  -74.425538715  163.418481550    62.6859   5  11   0.6716   0.6572   2.5570  -0.3573   0.9553  -0.9566   0.00    0.0
2018/11/06 00:39:00.000  -74.425539439  163.418486975    62.9478   5  11   0.6718   0.6570   2.5623  -0.3583   0.9574  -0.9595   0.00    0.0
2018/11/06 00:39:30.000  -74.425541966  163.418483870    63.6662   5  11   0.6723   0.6571   2.5682  -0.3596   0.9598  -0.9627   0.00    0.0
2018/11/06 00:40:00.000  -74.425537364  163.418487145    63.5839   5  11   0.6730   0.6575   2.5747  -0.3609   0.9625  -0.9662   0.00    0.0
2018/11/06 00:40:30.000  -74.425537131  163.418484728    63.0378   5  11   0.6740   0.6582   2.5822  -0.3624   0.9655  -0.9699   0.00    0.0
2018/11/06 00:41:00.000  -74.425537916  163.418493567    63.0919   5  11   0.6753   0.6592   2.5902  -0.3641   0.9687  -0.9738   0.00    0.0
2018/11/06 00:41:30.000  -74.425537275  163.418490860    63.2247   5  11   0.6768   0.6605   2.5988  -0.3658   0.9722  -0.9779   0.00    0.0
2018/11/06 00:42:00.000  -74.425536322  163.418484578    62.6912   5  11   0.6786   0.6620   2.6078  -0.3676   0.9758  -0.9822   0.00    0.0
2018/11/06 00:42:30.000  -74.425539521  163.418493384    63.6649   5  11   0.6806   0.6638   2.6174  -0.3695   0.9796  -0.9866   0.00    0.0
2018/11/06 00:43:00.000  -74.425537582  163.418479520    62.4418   5  11   0.6801   0.6624   2.6155  -0.3693   0.9783  -0.9871   0.00    0.0
2018/11/06 00:43:30.000  -74.425536315  163.418490987    62.5307   5  11   0.6798   0.6612   2.6141  -0.3693   0.9772  -0.9878   0.00    0.0
2018/11/06 00:44:00.000  -74.425537103  163.418485539    62.1625   5  11   0.6798   0.6603   2.6133  -0.3693   0.9763  -0.9887   0.00    0.0
2018/11/06 00:44:30.000  -74.425538649  163.418489456    63.2077   5  11   0.6800   0.6597   2.6129  -0.3694   0.9756  -0.9897   0.00    0.0
2018/11/06 00:45:00.000  -74.425538569  163.418485999    62.7091   5  11   0.6804   0.6593   2.6130  -0.3696   0.9751  -0.9908   0.00    0.0
2018/11/06 00:45:30.000  -74.425538189  163.418488742    63.3703   5  11   0.6811   0.6593   2.6137  -0.3700   0.9748  -0.9922   0.00    0.0
2018/11/06 00:46:00.000  -74.425536168  163.418488233    62.4140   5  11   0.6820   0.6595   2.6149  -0.3704   0.9746  -0.9937   0.00    0.0
2018/11/06 00:46:30.000  -74.425536585  163.418488849    62.3047   5  11   0.6832   0.6599   2.6166  -0.3708   0.9745  -0.9952   0.00    0.0
2018/11/06 00:47:00.000  -74.425535707  163.418477391    60.9124   5  11   0.6845   0.6606   2.6186  -0.3713   0.9745  -0.9969   0.00    0.0
2018/11/06 00:47:30.000  -74.425537113  163.418486100    62.3619   5  11   0.6861   0.6615   2.6210  -0.3718   0.9747  -0.9987   0.00    0.0
2018/11/06 00:48:00.000  -74.425536019  163.418482116    61.8509   5  11   0.6852   0.6593   2.6123  -0.3704   0.9701  -0.9967   0.00    0.0
2018/11/06 00:48:30.000  -74.425537600  163.418483510    61.7835   5  11   0.6846   0.6574   2.6042  -0.3692   0.9657  -0.9950   0.00    0.0
2018/11/06 00:49:00.000  -74.425536274  163.418489552    61.8422   5  11   0.6842   0.6557   2.5965  -0.3680   0.9615  -0.9934   0.00    0.0
2018/11/06 00:49:30.000  -74.425535151  163.418487130    61.0732   5  11   0.6840   0.6543   2.5893  -0.3669   0.9574  -0.9919   0.00    0.0
2018/11/06 00:50:00.000  -74.425537385  163.418487285    62.0298   5  11   0.6840   0.6532   2.5826  -0.3659   0.9535  -0.9905   0.00    0.0
2018/11/06 00:50:30.000  -74.425537662  163.418491467    62.2215   5  11   0.6843   0.6523   2.5766  -0.3649   0.9497  -0.9893   0.00    0.0
2018/11/06 00:51:00.000  -74.425537698  163.418484421    62.1897   5  11   0.6848   0.6518   2.5711  -0.3639   0.9461  -0.9882   0.00    0.0
2018/11/06 00:51:30.000  -74.425536788  163.418486967    62.4268   5  11   0.6855   0.6514   2.5661  -0.3630   0.9426  -0.9872   0.00    0.0
2018/11/06 00:52:00.000  -74.425534669  163.418488330    62.7308   5  11   0.6864   0.6513   2.5615  -0.3622   0.9392  -0.9863   0.00    0.0
2018/11/06 00:52:30.000  -74.425536011  163.418482759    61.7847   5  11   0.6875   0.6515   2.5575  -0.3614   0.9359  -0.9855   0.00    0.0
2018/11/06 00:53:00.000  -74.425533517  163.418485105    61.3668   5  11   0.6864   0.6487   2.5432  -0.3590   0.9286  -0.9815   0.00    0.0
2018/11/06 00:53:30.000  -74.425537720  163.418484780    62.7546   5  11   0.6854   0.6462   2.5293  -0.3566   0.9213  -0.9776   0.00    0.0
2018/11/06 00:54:00.000  -74.425535995  163.418492943    62.0640   5  11   0.6846   0.6440   2.5161  -0.3543   0.9143  -0.9738   0.00    0.0
2018/11/06 00:54:30.000  -74.425536526  163.418478306    61.3657   5  11   0.6841   0.6420   2.5035  -0.3521   0.9074  -0.9702   0.00    0.0
2018/11/06 00:55:00.000  -74.425533185  163.418488423    61.1112   5  10   0.9331   0.6723   3.5459  -0.5026   1.1525  -1.5926   0.00    0.0
2018/11/06 00:55:30.000  -74.425533491  163.418487792    60.9322   5  10   0.9319   0.6702   3.5297  -0.4991   1.1435  -1.5869   0.00    0.0
2018/11/06 00:56:00.000  -74.425535174  163.418482591    60.7169   5  10   0.9309   0.6684   3.5140  -0.4956   1.1344  -1.5813   0.00    0.0
2018/11/06 00:56:30.000  -74.425535512  163.418484696    61.4162   5  10   0.9301   0.6667   3.4989  -0.4921   1.1255  -1.5760   0.00    0.0
2018/11/06 00:57:00.000  -74.425534282  163.418486560    60.7745   5  10   0.9296   0.6654   3.4845  -0.4886   1.1166  -1.5709   0.00    0.0
2018/11/06 00:57:30.000  -74.425532809  163.418479101    60.0992   5  10   0.9293   0.6642   3.4709  -0.4851   1.1079  -1.5661   0.00    0.0
2018/11/06 00:58:00.000  -74.425533566  163.418486085    60.1883   5  10   0.9246   0.6600   3.4379  -0.4788   1.0929  -1.5527   0.00    0.0
2018/11/06 00:58:30.000  -74.425530147  163.418486533    58.8052   5   9   0.9243   0.6562   3.6581  -0.4716   1.0720  -1.5769   0.00    0.0
2018/11/06 00:59:00.000  -74.425535332  163.418484656    59.8470   5   9   0.9203   0.6526   3.6300  -0.4655   1.0574  -1.5653   0.00    0.0
2018/11/06 00:59:30.000  -74.425533602  163.418483856    60.1207   5   9   0.9167   0.6494   3.6029  -0.4594   1.0430  -1.5541   0.00    0.0
2018/11/06 01:00:00.000  -74.425533954  163.418478366    60.2563   5   9   0.9134   0.6464   3.5770  -0.4535   1.0288  -1.5433   0.00    0.0
2018/11/06 01:00:30.000  -74.425531730  163.418487458    59.4252   5   9   0.9106   0.6439   3.5530  -0.4477   1.0149  -1.5332   0.00    0.0
2018/11/06 01:01:00.000  -74.425533228  163.418478800    59.7049   5   9   0.9081   0.6416   3.5304  -0.4420   1.0012  -1.5237   0.00    0.0
2018/11/06 01:01:30.000  -74.425536310  163.418483686    61.4672   5  10   0.7475   0.6361   2.6697  -0.3945   0.9061  -1.0624   0.00    0.0
2018/11/06 01:02:00.000  -74.425535835  163.418490493    62.0202   5  10   0.7479   0.6350   2.6648  -0.3925   0.8999  -1.0603   0.00    0.0
2018/11/06 01:02:30.000  -74.425535009  163.418483503    60.8464   5  10   0.7485   0.6343   2.6609  -0.3907   0.8939  -1.0584   0.00    0.0
2018/11/06 01:03:00.000  -74.425535038  163.418491461    61.4979   5  10   0.7465   0.6308   2.6440  -0.3869   0.8836  -1.0524   0.00    0.0
2018/11/06 01:03:30.000  -74.425536056  163.418485859    61.0441   5  10   0.7447   0.6276   2.6281  -0.3833   0.8736  -1.0467   0.00    0.0
2018/11/06 01:04:00.000  -74.425532802  163.418476275    60.3399   5  10   0.7432   0.6247   2.6131  -0.3798   0.8639  -1.0412   0.00    0.0
2018/11/06 01:04:30.000  -74.425534913  163.418480111    61.8303   5  10   0.7420   0.6221   2.5991  -0.3765   0.8544  -1.0361   0.00    0.0
2018/11/06 01:05:00.000  -74.425535482  163.418485009    61.1131   5  10   0.7410   0.6198   2.5862  -0.3732   0.8451  -1.0312   0.00    0.0
2018/11/06 01:05:30.000  -74.425537899  163.418483856    61.2723   5  10   0.7404   0.6178   2.5747  -0.3702   0.8362  -1.0268   0.00    0.0
2018/11/06 01:06:00.000  -74.425539464  163.418488134    62.2774   5  10   0.7400   0.6162   2.5644  -0.3673   0.8275  -1.0226   0.00    0.0
2018/11/06 01:06:30.000  -74.425535292  163.418483267    61.3997   5  10   0.7400   0.6148   2.5552  -0.3645   0.8191  -1.0188   0.00    0.0
2018/11/06 01:07:00.000  -74.425537491  163.418481117    62.6173   5  10   0.7402   0.6138   2.5473  -0.3618   0.8109  -1.0153   0.00    0.0
2018/11/06 01:07:30.000  -74.425537340  163.418480857    62.8117   5  10   0.7407   0.6130   2.5406  -0.3592   0.8030  -1.0122   0.00    0.0
2018/11/06 01:08:00.000  -74.425535007  163.418481053    61.8331   5  10   0.7385   0.6097   2.5208  -0.3550   0.7912  -1.0050   0.00    0.0
2018/11/06 01:08:30.000  -74.425536337  163.418485531    62.1892   5  10   0.7366   0.6066   2.5022  -0.3509   0.7798  -0.9982   0.00    0.0
2018/11/06 01:09:00.000  -74.425534777  163.418480780    61.3861   5  10   0.7351   0.6039   2.4848  -0.3470   0.7686  -0.9917   0.00    0.0
2018/11/06 01:09:30.000  -74.425534530  163.418480590    61.6569   5  10   0.7338   0.6015   2.4688  -0.3432   0.7578  -0.9857   0.00    0.0
2018/11/06 01:10:00.000  -74.425537587  163.418485283    61.8439   5  10   0.7328   0.5994   2.4541  -0.3396   0.7472  -0.9800   0.00    0.0
2018/11/06 01:10:30.000  -74.425537105  163.418487207    62.1040   5  10   0.7321   0.5977   2.4411  -0.3361   0.7371  -0.9748   0.00    0.0
2018/11/06 01:11:00.000  -74.425538424  163.418491660    62.8924   5  10   0.7318   0.5963   2.4295  -0.3328   0.7272  -0.9700   0.00    0.0
2018/11/06 01:11:30.000  -74.425536700  163.418488853    62.2650   5  10   0.7317   0.5952   2.4194  -0.3296   0.7175  -0.9657   0.00    0.0
2018/11/06 01:12:00.000  -74.425534761  163.418485672    62.5452   5  10   0.7319   0.5944   2.4106  -0.3266   0.7081  -0.9617   0.00    0.0
2018/11/06 01:12:30.000  -74.425536440  163.418486307    62.1460   5  10   0.7324   0.5939   2.4032  -0.3237   0.6990  -0.9581   0.00    0.0
2018/11/06 01:13:00.000  -74.425533698  163.418491217    61.7549   5  10   0.7304   0.5910   2.3829  -0.3193   0.6865  -0.9506   0.00    0.0
2018/11/06 01:13:30.000  -74.425538354  163.418496142    62.7474   5  10   0.7286   0.5884   2.3639  -0.3151   0.6744  -0.9436   0.00    0.0
2018/11/06 01:14:00.000  -74.425535579  163.418485945    62.1874   5  10   0.7272   0.5861   2.3464  -0.3110   0.6626  -0.9370   0.00    0.0
2018/11/06 01:14:30.000  -74.425538522  163.418485614    62.8921   5  10   0.7260   0.5842   2.3304  -0.3071   0.6511  -0.9309   0.00    0.0
2018/11/06 01:15:00.000  -74.425542319  163.418499343    63.8194   5  10   0.7252   0.5825   2.3159  -0.3033   0.6399  -0.9252   0.00    0.0
2018/11/06 01:15:30.000  -74.425537392  163.418487296    62.8579   5  10   0.7247   0.5812   2.3033  -0.2998   0.6290  -0.9201   0.00    0.0
2018/11/06 01:16:00.000  -74.425537567  163.418494206    63.1612   5  10   0.7245   0.5803   2.2922  -0.2963   0.6183  -0.9153   0.00    0.0
2018/11/06 01:16:30.000  -74.425536802  163.418488356    62.0765   5  10   0.7245   0.5796   2.2826  -0.2930   0.6078  -0.9110   0.00    0.0
2018/11/06 01:17:00.000  -74.425537233  163.418488790    61.8952   5  10   0.7249   0.5793   2.2745  -0.2898   0.5975  -0.9071   0.00    0.0
2018/11/06 01:17:30.000  -74.425537226  163.418489280    61.6555   5  10   0.7256   0.5792   2.2679  -0.2867   0.5874  -0.9037   0.00    0.0
2018/11/06 01:18:00.000  -74.425538061  163.418487092    62.3028   5  10   0.7238   0.5768   2.2486  -0.2824   0.5746  -0.8966   0.00    0.0
2018/11/06 01:18:30.000  -74.425539356  163.418490747    62.8898   5  10   0.7223   0.5748   2.2309  -0.2782   0.5621  -0.8900   0.00    0.0
2018/11/06 01:19:00.000  -74.425539503  163.418495113    63.1943   5  10   0.7211   0.5730   2.2147  -0.2741   0.5498  -0.8839   0.00    0.0
2018/11/06 01:19:30.000  -74.425534468  163.418489275    62.2767   5  10   0.7202   0.5716   2.2000  -0.2702   0.5378  -0.8782   0.00    0.0
2018/11/06 01:20:00.000  -74.425536591  163.418490016    62.2771   5  10   0.7196   0.5705   2.1870  -0.2664   0.5259  -0.8729   0.00    0.0
2018/11/06 01:20:30.000  -74.425537175  163.418487918    62.0467   5  10   0.7193   0.5697   2.1758  -0.2628   0.5142  -0.8682   0.00    0.0
2018/11/06 01:21:00.000  -74.425533007  163.418496941    61.8077   5  10   0.7193   0.5692   2.1662  -0.2593   0.5026  -0.8639   0.00    0.0
2018/11/06 01:21:30.000  -74.425534968  163.418482059    62.1558   5  10   0.7196   0.5690   2.1581  -0.2559   0.4910  -0.8600   0.00    0.0
2018/11/06 01:22:00.000  -74.425536271  163.418486896    62.4689   5  10   0.7202   0.5692   2.1515  -0.2527   0.4795  -0.8566   0.00    0.0
2018/11/06 01:22:30.000  -74.425536115  163.418491850    62.6544   5  11   0.6216   0.5524   1.8041  -0.1073   0.2400  -0.5510   0.00    0.0
2018/11/06 01:23:00.000  -74.425538163  163.418483414    63.2874   5  11   0.6208   0.5512   1.7953  -0.1027   0.2254  -0.5490   0.00    0.0
2018/11/06 01:23:30.000  -74.425537058  163.418490364    62.3478   5  11   0.6201   0.5503   1.7877  -0.0980   0.2097  -0.5471   0.00    0.0
2018/11/06 01:24:00.000  -74.425538169  163.418487001    62.0296   5  11   0.6198   0.5496   1.7813  -0.0931   0.1929  -0.5454   0.00    0.0
2018/11/06 01:24:30.000  -74.425538045  163.418480394    62.0490   5  11   0.6196   0.5492   1.7760  -0.0880   0.1744  -0.5438   0.00    0.0
2018/11/06 01:25:00.000  -74.425538144  163.418485131    63.0187   5  11   0.6196   0.5490   1.7720  -0.0825   0.1536  -0.5424   0.00    0.0
2018/11/06 01:25:30.000  -74.425538597  163.418492008    63.1107   5  11   0.6199   0.5492   1.7692  -0.0767   0.1294  -0.5411   0.00    0.0
2018/11/06 01:26:00.000  -74.425540784  163.418486755    62.8759   5  11   0.6204   0.5496   1.7677  -0.0705   0.0991  -0.5401   0.00    0.0
2018/11/06 01:26:30.000  -74.425537670  163.418491297    61.9890   5  12   0.6134   0.5277   1.7021  -0.1387  -0.2677  -0.5804   0.00    0.0
2018/11/06 01:27:00.000  -74.425540974  163.418489058    62.6787   5  12   0.6141   0.5286   1.7050  -0.1365  -0.2789  -0.5799   0.00    0.0
2018/11/06 01:27:30.000  -74.425539648  163.418487579    63.0335   5  12   0.6149   0.5297   1.7090  -0.1344  -0.2902  -0.5795   0.00    0.0
2018/11/06 01:28:00.000  -74.425538451  163.418486645    62.5168   5  12   0.6140   0.5288   1.7039  -0.1316  -0.2981  -0.5778   0.00    0.0
2018/11/06 01:28:30.000  -74.425537423  163.418488348    63.1367   5  12   0.6133   0.5282   1.6997  -0.1288  -0.3060  -0.5763   0.00    0.0
2018/11/06 01:29:00.000  -74.425539903  163.418482818    62.8357   5  12   0.6128   0.5278   1.6966  -0.1261  -0.3139  -0.5749   0.00    0.0
2018/11/06 01:29:30.000  -74.425538864  163.418486939    61.7652   5  12   0.6125   0.5277   1.6946  -0.1234  -0.3220  -0.5737   0.00    0.0
2018/11/06 01:30:00.000  -74.425540262  163.418485594    62.1808   5  12   0.6124   0.5278   1.6937  -0.1207  -0.3301  -0.5727   0.00    0.0
2018/11/06 01:30:30.000  -74.425540036  163.418486766    62.6877   5  12   0.6126   0.5281   1.6941  -0.1180  -0.3385  -0.5719   0.00    0.0
2018/11/06 01:31:00.000  -74.425538627  163.418484743    62.6158   5  12   0.6129   0.5288   1.6957  -0.1153  -0.3469  -0.5713   0.00    0.0
2018/11/06 01:31:30.000  -74.425541016  163.418489193    61.4973   5  12   0.6135   0.5297   1.6985  -0.1127  -0.3555  -0.5709   0.00    0.0
2018/11/06 01:32:00.000  -74.425540626  163.418488366    62.5689   5  12   0.6142   0.5308   1.7023  -0.1100  -0.3643  -0.5706   0.00    0.0
2018/11/06 01:32:30.000  -74.425538227  163.418483244    62.0192   5  12   0.6152   0.5322   1.7074  -0.1073  -0.3731  -0.5706   0.00    0.0
2018/11/06 01:33:00.000  -74.425538028  163.418487175    61.7092   5  12   0.6144   0.5315   1.7029  -0.1040  -0.3790  -0.5691   0.00    0.0
2018/11/06 01:33:30.000  -74.425541138  163.418482606    63.0726   5  12   0.6138   0.5311   1.6994  -0.1006  -0.3850  -0.5679   0.00    0.0
2018/11/06 01:34:00.000  -74.425540603  163.418486295    63.2235   5  12   0.6134   0.5309   1.6971  -0.0971  -0.3911  -0.5668   0.00    0.0
2018/11/06 01:34:30.000  -74.425539067  163.418484525    62.8056   5  12   0.6132   0.5310   1.6959  -0.0936  -0.3975  -0.5659   0.00    0.0
2018/11/06 01:35:00.000  -74.425539975  163.418490914    62.3650   5  12   0.6132   0.5313   1.6958  -0.0901  -0.4041  -0.5653   0.00    0.0
2018/11/06 01:35:30.000  -74.425540565  163.418490485    63.2931   5  12   0.6135   0.5319   1.6971  -0.0865  -0.4109  -0.5648   0.00    0.0
2018/11/06 01:36:00.000  -74.425538687  163.418488299    62.3701   5  12   0.6140   0.5327   1.6996  -0.0829  -0.4179  -0.5645   0.00    0.0
2018/11/06 01:36:30.000  -74.425538657  163.418480620    62.7843   5  12   0.6146   0.5338   1.7033  -0.0792  -0.4252  -0.5644   0.00    0.0
2018/11/06 01:37:00.000  -74.425540172  163.418483746    63.1769   5  12   0.6155   0.5352   1.7081  -0.0753  -0.4327  -0.5645   0.00    0.0
2018/11/06 01:37:30.000  -74.425541425  163.418495518    62.1444   5  12   0.6165   0.5367   1.7140  -0.0713  -0.4404  -0.5648   0.00    0.0
2018/11/06 01:38:00.000  -74.425540439  163.418478986    63.1541   5  12   0.6159   0.5363   1.7102  -0.0663  -0.4451  -0.5637   0.00    0.0
2018/11/06 01:38:30.000  -74.425538721  163.418479487    62.2672   5  12   0.6154   0.5360   1.7075  -0.0609  -0.4500  -0.5627   0.00    0.0
2018/11/06 01:39:00.000  -74.425539617  163.418484651    62.8623   5  12   0.6151   0.5361   1.7060  -0.0552  -0.4551  -0.5620   0.00    0.0
2018/11/06 01:39:30.000  -74.425540463  163.418484868    62.4744   5  12   0.6150   0.5363   1.7056  -0.0488  -0.4605  -0.5615   0.00    0.0
2018/11/06 01:40:00.000  -74.425535902  163.418487100    62.8197   5  12   0.6152   0.5368   1.7064  -0.0416  -0.4662  -0.5612   0.00    0.0
2018/11/06 01:40:30.000  -74.425538995  163.418482651    62.4186   5  12   0.6155   0.5376   1.7085  -0.0332  -0.4721  -0.5610   0.00    0.0
2018/11/06 01:41:00.000  -74.425540274  163.418484004    62.5915   5  12   0.6161   0.5386   1.7118  -0.0220  -0.4783  -0.5611   0.00    0.0
2018/11/06 01:41:30.000  -74.425539083  163.418495911    62.3274   5  12   0.6169   0.5399   1.7162   0.0112  -0.4847  -0.5613   0.00    0.0
2018/11/06 01:42:00.000  -74.425541671  163.418487439    63.1163   5  12   0.6178   0.5414   1.7218   0.0270  -0.4914  -0.5617   0.00    0.0
2018/11/06 01:42:30.000  -74.425537724  163.418483795    62.2745   5  12   0.6190   0.5431   1.7284   0.0364  -0.4983  -0.5623   0.00    0.0
2018/11/06 01:43:00.000  -74.425541342  163.418498170    62.3754   5  12   0.6184   0.5428   1.7254   0.0450  -0.5022  -0.5616   0.00    0.0
2018/11/06 01:43:30.000  -74.425541276  163.418491454    62.7764   5  12   0.6181   0.5427   1.7235   0.0520  -0.5065  -0.5611   0.00    0.0
2018/11/06 01:44:00.000  -74.425540192  163.418492641    62.1504   5  12   0.6179   0.5429   1.7228   0.0580  -0.5109  -0.5607   0.00    0.0
2018/11/06 01:44:30.000  -74.425538453  163.418480545    62.6068   5  12   0.6179   0.5433   1.7232   0.0635  -0.5156  -0.5606   0.00    0.0
2018/11/06 01:45:00.000  -74.425541670  163.418486076    62.8474   5  12   0.6182   0.5439   1.7247   0.0684  -0.5206  -0.5606   0.00    0.0
2018/11/06 01:45:30.000  -74.425540471  163.418490750    62.6122   5  12   0.6187   0.5449   1.7275   0.0729  -0.5259  -0.5608   0.00    0.0
2018/11/06 01:46:00.000  -74.425539947  163.418490378    62.6128   5  12   0.6193   0.5460   1.7315   0.0771  -0.5314  -0.5612   0.00    0.0
2018/11/06 01:46:30.000  -74.425538947  163.418484079    62.6110   5  12   0.6202   0.5474   1.7365   0.0811  -0.5372  -0.5618   0.00    0.0
2018/11/06 01:47:00.000  -74.425538922  163.418484019    62.0680   5  12   0.6213   0.5490   1.7426   0.0848  -0.5432  -0.5625   0.00    0.0
2018/11/06 01:47:30.000  -74.425540203  163.418487885    63.0073   5  12   0.6226   0.5509   1.7497   0.0883  -0.5495  -0.5634   0.00    0.0
2018/11/06 01:48:00.000  -74.425539101  163.418485965    62.6609   5  12   0.6221   0.5507   1.7474   0.0921  -0.5528  -0.5631   0.00    0.0
2018/11/06 01:48:30.000  -74.425541682  163.418482884    63.2461   5  12   0.6219   0.5508   1.7463   0.0958  -0.5565  -0.5629   0.00    0.0
2018/11/06 01:49:00.000  -74.425538764  163.418488271    62.6126   5  12   0.6218   0.5510   1.7462   0.0992  -0.5604  -0.5630   0.00    0.0
2018/11/06 01:49:30.000  -74.425540210  163.418490887    62.7708   5  12   0.6220   0.5515   1.7473   0.1025  -0.5646  -0.5631   0.00    0.0
2018/11/06 01:50:00.000  -74.425539719  163.418491059    62.7201   5  12   0.6223   0.5523   1.7494   0.1057  -0.5690  -0.5635   0.00    0.0
2018/11/06 01:50:30.000  -74.425540706  163.418487121    63.2515   5  12   0.6229   0.5533   1.7527   0.1087  -0.5736  -0.5641   0.00    0.0
2018/11/06 01:51:00.000  -74.425540429  163.418483248    62.7505   5  12   0.6237   0.5545   1.7571   0.1116  -0.5786  -0.5648   0.00    0.0
2018/11/06 01:51:30.000  -74.425541714  163.418482483    63.5150   5  12   0.6247   0.5560   1.7625   0.1144  -0.5837  -0.5657   0.00    0.0
2018/11/06 01:52:00.000  -74.425540912  163.418487940    62.9813   5  12   0.6259   0.5577   1.7688   0.1172  -0.5891  -0.5668   0.00    0.0
2018/11/06 01:52:30.000  -74.425541223  163.418483315    62.9109   5  12   0.6274   0.5596   1.7761   0.1198  -0.5947  -0.5680   0.00    0.0
2018/11/06 01:53:00.000  -74.425540921  163.418492454    63.3723   5  12   0.6270   0.5595   1.7745   0.1227  -0.5976  -0.5680   0.00    0.0
2018/11/06 01:53:30.000  -74.425541113  163.418488981    63.2445   5  12   0.6269   0.5596   1.7740   0.1254  -0.6007  -0.5682   0.00    0.0
2018/11/06 01:54:00.000  -74.425540123  163.418483620    63.1601   5  12   0.6269   0.5599   1.7745   0.1281  -0.6041  -0.5686   0.00    0.0
2018/11/06 01:54:30.000  -74.425541661  163.418495975    63.3656   5  12   0.6272   0.5605   1.7760   0.1307  -0.6077  -0.5692   0.00    0.0
2018/11/06 01:55:00.000  -74.425542218  163.418496006    62.9026   5  12   0.6277   0.5612   1.7784   0.1333  -0.6115  -0.5699   0.00    0.0
2018/11/06 01:55:30.000  -74.425538353  163.418493752    61.9151   5  12   0.6284   0.5623   1.7820   0.1357  -0.6156  -0.5708   0.00    0.0
2018/11/06 01:56:00.000  -74.425542083  163.418485939    62.8057   5  12   0.6293   0.5635   1.7865   0.1381  -0.6199  -0.5718   0.00    0.0
2018/11/06 01:56:30.000  -74.425541557  163.418490550    61.9739   5  11   0.6614   0.5687   1.8289   0.1805  -0.6052  -0.5051   0.00    0.0
2018/11/06 01:57:00.000  -74.425542403  163.418483507    62.5689   5  11   0.6625   0.5703   1.8360   0.1820  -0.6099  -0.5059   0.00    0.0
2018/11/06 01:57:30.000  -74.425540551  163.418490947    62.7385   5  11   0.6639   0.5721   1.8439   0.1834  -0.6148  -0.5067   0.00    0.0
2018/11/06 01:58:00.000  -74.425542143  163.418497324    61.8400   5  10   0.6746   0.6312   2.0985   0.0343  -0.8055  -0.3656   0.00    0.0
2018/11/06 01:58:30.000  -74.425540794  163.418492688    62.6547   5  10   0.6738   0.6316   2.1028   0.0459  -0.8094  -0.3680   0.00    0.0
2018/11/06 01:59:00.000  -74.425540444  163.418485065    62.1611   5   9   0.7736   0.6850   2.6382   0.3216  -1.0393  -0.8610   0.00    0.0
2018/11/06 01:59:30.000  -74.425542816  163.418500905    60.6945   5   9   0.7737   0.6877   2.6576   0.3261  -1.0496  -0.8677   0.00    0.0
2018/11/06 02:00:00.000  -74.425542238  163.418498264    61.1912   5   9   0.7741   0.6907   2.6789   0.3306  -1.0606  -0.8749   0.00    0.0
2018/11/06 02:00:30.000  -74.425540379  163.418495543    60.5621   5   9   0.7749   0.6942   2.7024   0.3353  -1.0723  -0.8825   0.00    0.0
2018/11/06 02:01:00.000  -74.425539968  163.418495693    60.6439   5   9   0.7761   0.6981   2.7277   0.3401  -1.0848  -0.8905   0.00    0.0
2018/11/06 02:01:30.000  -74.425542192  163.418494393    61.6707   5   9   0.7776   0.7023   2.7549   0.3450  -1.0979  -0.8989   0.00    0.0
2018/11/06 02:02:00.000  -74.425542873  163.418500887    62.3389   5   9   0.7793   0.7069   2.7839   0.3499  -1.1116  -0.9077   0.00    0.0
2018/11/06 02:02:30.000  -74.425539215  163.418500471    60.8791   5   9   0.7815   0.7118   2.8147   0.3551  -1.1260  -0.9170   0.00    0.0
2018/11/06 02:03:00.000  -74.425541772  163.418496554    61.9238   5   9   0.7810   0.7134   2.8294   0.3590  -1.1338  -0.9234   0.00    0.0
2018/11/06 02:03:30.000  -74.425540016  163.418505752    60.5398   5   9   0.7808   0.7154   2.8459   0.3631  -1.1422  -0.9302   0.00    0.0
2018/11/06 02:04:00.000  -74.425545272  163.418491304    63.1758   5   9   0.7810   0.7176   2.8640   0.3672  -1.1512  -0.9373   0.00    0.0
2018/11/06 02:04:30.000  -74.425543340  163.418492141    61.7769   5   9   0.7815   0.7202   2.8838   0.3715  -1.1607  -0.9448   0.00    0.0
2018/11/06 02:05:00.000  -74.425542073  163.418501766    61.5038   5   9   0.7823   0.7231   2.9052   0.3758  -1.1708  -0.9526   0.00    0.0
2018/11/06 02:05:30.000  -74.425545447  163.418486182    63.9447   5   9   0.7834   0.7264   2.9284   0.3802  -1.1815  -0.9608   0.00    0.0
2018/11/06 02:06:00.000  -74.425542132  163.418495501    61.1354   5   9   0.7849   0.7300   2.9532   0.3847  -1.1928  -0.9694   0.00    0.0
2018/11/06 02:06:30.000  -74.425541442  163.418496410    60.4898   5   9   0.7867   0.7339   2.9793   0.3892  -1.2045  -0.9782   0.00    0.0
2018/11/06 02:07:00.000  -74.425541682  163.418495525    62.1645   5   9   0.7889   0.7381   3.0069   0.3939  -1.2167  -0.9873   0.00    0.0
2018/11/06 02:07:30.000  -74.425542001  163.418493151    62.0212   5   9   0.7914   0.7426   3.0357   0.3986  -1.2294  -0.9967   0.00    0.0
2018/11/06 02:08:00.000  -74.425544445  163.418500160    61.7386   5   9   0.7912   0.7436   3.0484   0.4020  -1.2352  -1.0031   0.00    0.0
2018/11/06 02:08:30.000  -74.425543592  163.418507946    61.0465   5   9   0.7913   0.7449   3.0624   0.4054  -1.2415  -1.0098   0.00    0.0
2018/11/06 02:09:00.000  -74.425543449  163.418500236    61.3356   5   9   0.7917   0.7465   3.0776   0.4089  -1.2481  -1.0166   0.00    0.0
2018/11/06 02:09:30.000  -74.425540836  163.418499812    61.7599   5   9   0.7924   0.7483   3.0939   0.4125  -1.2551  -1.0237   0.00    0.0
2018/11/06 02:10:00.000  -74.425540536  163.418504334    60.1332   5   9   0.7934   0.7503   3.1114   0.4160  -1.2624  -1.0310   0.00    0.0
2018/11/06 02:10:30.000  -74.425543621  163.418490545    62.3123   5   9   0.7948   0.7526   3.1301   0.4196  -1.2702  -1.0385   0.00    0.0
2018/11/06 02:11:00.000  -74.425543140  163.418497662    61.7312   5   8   0.9727   0.7734   4.0987   0.5218  -1.4392  -1.5996   0.00    0.0
2018/11/06 02:11:30.000  -74.425545809  163.418487154    62.9584   5   8   0.9809   0.7786   4.1637   0.5327  -1.4615  -1.6274   0.00    0.0
2018/11/06 02:12:00.000  -74.425547628  163.418493146    63.6629   5   9   0.7342   0.7357   2.9358   0.3397  -1.1729  -0.8491   0.00    0.0
2018/11/06 02:12:30.000  -74.425547383  163.418485805    65.1719   5   9   0.7363   0.7390   2.9664   0.3451  -1.1845  -0.8597   0.00    0.0
2018/11/06 02:13:00.000  -74.425546938  163.418492281    63.5670   5   9   0.7359   0.7391   2.9840   0.3499  -1.1904  -0.8691   0.00    0.0
2018/11/06 02:13:30.000  -74.425545890  163.418489060    63.7177   5   9   0.7359   0.7394   3.0025   0.3546  -1.1965  -0.8786   0.00    0.0
2018/11/06 02:14:00.000  -74.425545203  163.418490447    63.0562   5   9   0.7361   0.7400   3.0221   0.3593  -1.2031  -0.8882   0.00    0.0
2018/11/06 02:14:30.000  -74.425545543  163.418499525    62.4813   5   9   0.7367   0.7409   3.0428   0.3640  -1.2099  -0.8979   0.00    0.0
2018/11/06 02:15:00.000  -74.425546182  163.418485745    64.3957   5   9   0.7376   0.7420   3.0645   0.3687  -1.2170  -0.9078   0.00    0.0
2018/11/06 02:15:30.000  -74.425550701  163.418480099    65.9239   5   9   0.7388   0.7434   3.0874   0.3734  -1.2245  -0.9178   0.00    0.0
2018/11/06 02:16:00.000  -74.425543389  163.418491340    63.4031   5   9   0.7404   0.7450   3.1111   0.3780  -1.2323  -0.9280   0.00    0.0
2018/11/06 02:16:30.000  -74.425545654  163.418484467    64.1600   5   9   0.7423   0.7469   3.1356   0.3827  -1.2403  -0.9382   0.00    0.0
2018/11/06 02:17:00.000  -74.425549384  163.418475948    63.9617   5   9   0.7444   0.7490   3.1609   0.3873  -1.2484  -0.9486   0.00    0.0
2018/11/06 02:17:30.000  -74.425546215  163.418493004    63.3554   5   9   0.7469   0.7513   3.1869   0.3920  -1.2568  -0.9592   0.00    0.0
2018/11/06 02:18:00.000  -74.425548633  163.418488295    64.5495   5   9   0.7469   0.7503   3.1993   0.3957  -1.2593  -0.9678   0.00    0.0
2018/11/06 02:18:30.000  -74.425546647  163.418490811    63.3926   5   9   0.7473   0.7495   3.2122   0.3994  -1.2618  -0.9764   0.00    0.0
2018/11/06 02:19:00.000  -74.425546390  163.418490342    64.1245   5   9   0.7479   0.7489   3.2256   0.4029  -1.2646  -0.9850   0.00    0.0
2018/11/06 02:19:30.000  -74.425546766  163.418496449    63.3830   5   9   0.7488   0.7485   3.2396   0.4065  -1.2674  -0.9936   0.00    0.0
2018/11/06 02:20:00.000  -74.425546969  163.418487862    63.1787   5   9   0.7500   0.7483   3.2540   0.4100  -1.2703  -1.0022   0.00    0.0
2018/11/06 02:20:30.000  -74.425549108  163.418488429    64.3055   5   9   0.7515   0.7484   3.2690   0.4134  -1.2733  -1.0108   0.00    0.0
2018/11/06 02:21:00.000  -74.425546335  163.418496443    63.8069   5   9   0.7534   0.7486   3.2843   0.4169  -1.2764  -1.0193   0.00    0.0
2018/11/06 02:21:30.000  -74.425548729  163.418500398    62.7153   5   9   0.7555   0.7490   3.2999   0.4203  -1.2796  -1.0279   0.00    0.0
2018/11/06 02:22:00.000  -74.425548668  163.418490580    64.3057   5   9   0.7579   0.7497   3.3158   0.4237  -1.2827  -1.0365   0.00    0.0
2018/11/06 02:22:30.000  -74.425547152  163.418491690    63.8846   5   9   0.7606   0.7505   3.3317   0.4270  -1.2859  -1.0451   0.00    0.0
2018/11/06 02:23:00.000  -74.425547580  163.418481966    64.3429   5   9   0.7608   0.7479   3.3339   0.4290  -1.2831  -1.0510   0.00    0.0
2018/11/06 02:23:30.000  -74.425547334  163.418484599    64.4582   5   9   0.7612   0.7455   3.3363   0.4310  -1.2802  -1.0568   0.00    0.0
2018/11/06 02:24:00.000  -74.425545835  163.418495138    62.7362   5   9   0.7618   0.7432   3.3389   0.4329  -1.2774  -1.0626   0.00    0.0
2018/11/06 02:24:30.000  -74.425548899  163.418487275    64.7267   5   9   0.7628   0.7412   3.3416   0.4348  -1.2745  -1.0682   0.00    0.0
2018/11/06 02:25:00.000  -74.425550659  163.418480239    63.4371   5   9   0.7640   0.7394   3.3443   0.4366  -1.2717  -1.0737   0.00    0.0
2018/11/06 02:25:30.000  -74.425546534  163.418480245    64.7817   5   9   0.7655   0.7378   3.3474   0.4383  -1.2689  -1.0792   0.00    0.0
2018/11/06 02:26:00.000  -74.425550476  163.418482215    65.1054   5   9   0.7673   0.7365   3.3505   0.4401  -1.2662  -1.0846   0.00    0.0
2018/11/06 02:26:30.000  -74.425550367  163.418482894    64.7769   5   9   0.7694   0.7353   3.3536   0.4418  -1.2634  -1.0899   0.00    0.0
2018/11/06 02:27:00.000  -74.425550138  163.418482259    63.6159   5   9   0.7717   0.7344   3.3568   0.4436  -1.2607  -1.0952   0.00    0.0
2018/11/06 02:27:30.000  -74.425549622  163.418479886    64.3504   5   9   0.7744   0.7337   3.3601   0.4453  -1.2580  -1.1004   0.00    0.0
2018/11/06 02:28:00.000  -74.425549061  163.418483776    65.3770   5   9   0.7743   0.7296   3.3500   0.4454  -1.2494  -1.1025   0.00    0.0
2018/11/06 02:28:30.000  -74.425549779  163.418483851    64.7663   5   9   0.7744   0.7258   3.3401   0.4455  -1.2408  -1.1044   0.00    0.0
2018/11/06 02:29:00.000  -74.425550102  163.418481194    65.7008   5   9   0.7748   0.7222   3.3303   0.4456  -1.2322  -1.1063   0.00    0.0
2018/11/06 02:29:30.000  -74.425550449  163.418486907    65.4162   5   9   0.7755   0.7188   3.3207   0.4456  -1.2238  -1.1081   0.00    0.0
2018/11/06 02:30:00.000  -74.425552938  163.418474343    65.7084   5   9   0.7764   0.7158   3.3114   0.4457  -1.2155  -1.1098   0.00    0.0
2018/11/06 02:30:30.000  -74.425549319  163.418485801    65.3906   5   9   0.7777   0.7130   3.3024   0.4458  -1.2074  -1.1116   0.00    0.0
2018/11/06 02:31:00.000  -74.425548941  163.418491926    64.6396   5   9   0.7792   0.7106   3.2938   0.4460  -1.1995  -1.1133   0.00    0.0
2018/11/06 02:31:30.000  -74.425552450  163.418482672    65.3157   5   9   0.7811   0.7085   3.2855   0.4462  -1.1917  -1.1151   0.00    0.0
2018/11/06 02:32:00.000  -74.425552410  163.418487036    65.2760   5   9   0.7832   0.7066   3.2776   0.4465  -1.1842  -1.1170   0.00    0.0
2018/11/06 02:32:30.000  -74.425550231  163.418484942    65.3436   5   9   0.7856   0.7051   3.2700   0.4469  -1.1769  -1.1189   0.00    0.0
2018/11/06 02:33:00.000  -74.425549744  163.418488832    64.6051   5   9   0.7851   0.7003   3.2498   0.4454  -1.1638  -1.1173   0.00    0.0
2018/11/06 02:33:30.000  -74.425547691  163.418484696    64.5159   5   9   0.7849   0.6958   3.2301   0.4440  -1.1510  -1.1157   0.00    0.0
2018/11/06 02:34:00.000  -74.425551576  163.418481103    65.0010   5   9   0.7849   0.6917   3.2110   0.4426  -1.1385  -1.1141   0.00    0.0
2018/11/06 02:34:30.000  -74.425550552  163.418474434    66.0438   5   9   0.7852   0.6879   3.1925   0.4414  -1.1264  -1.1126   0.00    0.0
2018/11/06 02:35:00.000  -74.425546174  163.418486406    63.4852   5   9   0.7859   0.6844   3.1747   0.4403  -1.1146  -1.1113   0.00    0.0
2018/11/06 02:35:30.000  -74.425547358  163.418482933    64.1232   5   9   0.7869   0.6814   3.1578   0.4393  -1.1032  -1.1102   0.00    0.0
2018/11/06 02:36:00.000  -74.425550064  163.418473676    65.1745   5   9   0.7882   0.6788   3.1417   0.4384  -1.0922  -1.1092   0.00    0.0
2018/11/06 02:36:30.000  -74.425546991  163.418483628    64.3195   5   9   0.7898   0.6766   3.1264   0.4377  -1.0817  -1.1085   0.00    0.0
2018/11/06 02:37:00.000  -74.425547727  163.418488170    63.5478   5   9   0.7917   0.6747   3.1119   0.4372  -1.0715  -1.1080   0.00    0.0
2018/11/06 02:37:30.000  -74.425552033  163.418483479    65.5394   5   9   0.7940   0.6733   3.0982   0.4368  -1.0619  -1.1077   0.00    0.0
2018/11/06 02:38:00.000  -74.425547797  163.418483187    63.5256   5   9   0.7932   0.6686   3.0727   0.4345  -1.0467  -1.1036   0.00    0.0
2018/11/06 02:38:30.000  -74.425551868  163.418494344    63.9211   5   9   0.7927   0.6644   3.0482   0.4323  -1.0320  -1.0998   0.00    0.0
2018/11/06 02:39:00.000  -74.425547490  163.418482143    64.0373   5   9   0.7925   0.6605   3.0247   0.4302  -1.0178  -1.0961   0.00    0.0
2018/11/06 02:39:30.000  -74.425551841  163.418487411    64.9523   5   9   0.7927   0.6571   3.0023   0.4284  -1.0042  -1.0928   0.00    0.0
2018/11/06 02:40:00.000  -74.425549860  163.418488244    64.5115   5   9   0.7932   0.6541   2.9810   0.4267  -0.9911  -1.0898   0.00    0.0
2018/11/06 02:40:30.000  -74.425548833  163.418484835    64.3984   5   9   0.7940   0.6516   2.9611   0.4253  -0.9786  -1.0872   0.00    0.0
2018/11/06 02:41:00.000  -74.425551550  163.418484569    64.9368   5   9   0.7952   0.6495   2.9422   0.4241  -0.9667  -1.0849   0.00    0.0
2018/11/06 02:41:30.000  -74.425550302  163.418490507    65.5563   5   9   0.7968   0.6478   2.9245   0.4231  -0.9554  -1.0830   0.00    0.0
2018/11/06 02:42:00.000  -74.425552316  163.418491132    65.5337   5   9   0.7988   0.6465   2.9080   0.4224  -0.9447  -1.0814   0.00    0.0
2018/11/06 02:42:30.000  -74.425552922  163.418490756    64.8844   5   9   0.8011   0.6457   2.8927   0.4219  -0.9345  -1.0803   0.00    0.0
2018/11/06 02:43:00.000  -74.425550341  163.418490094    65.3631   5   8   0.8344   0.6523   3.4362   0.3849  -0.7896  -1.2667   0.00    0.0
2018/11/06 02:43:30.000  -74.425551842  163.418478268    67.7360   5   8   0.8345   0.6492   3.4151   0.3815  -0.7703  -1.2644   0.00    0.0
2018/11/06 02:44:00.000  -74.425553840  163.418480652    66.8173   5   8   0.8350   0.6465   3.3951   0.3783  -0.7515  -1.2623   0.00    0.0
2018/11/06 02:44:30.000  -74.425552312  163.418486932    65.9325   5   8   0.8358   0.6443   3.3762   0.3752  -0.7330  -1.2607   0.00    0.0
2018/11/06 02:45:00.000  -74.425552161  163.418489833    65.4324   5   8   0.8369   0.6426   3.3585   0.3724  -0.7149  -1.2594   0.00    0.0
2018/11/06 02:45:30.000  -74.425548812  163.418487549    64.5198   5   8   0.8385   0.6413   3.3423   0.3698  -0.6973  -1.2587   0.00    0.0
2018/11/06 02:46:00.000  -74.425547437  163.418485321    63.5437   5   8   0.8405   0.6405   3.3274   0.3674  -0.6801  -1.2584   0.00    0.0
2018/11/06 02:46:30.000  -74.425550894  163.418480122    65.0366   5   8   0.8428   0.6402   3.3138   0.3653  -0.6632  -1.2586   0.00    0.0
2018/11/06 02:47:00.000  -74.425551571  163.418493167    65.0288   5   8   0.8456   0.6403   3.3015   0.3634  -0.6467  -1.2593   0.00    0.0
2018/11/06 02:47:30.000  -74.425550696  163.418495365    64.2630   5   8   0.8488   0.6408   3.2906   0.3616  -0.6306  -1.2605   0.00    0.0
2018/11/06 02:48:00.000  -74.425553302  163.418479975    65.7397   5   8   0.8484   0.6383   3.2660   0.3580  -0.6095  -1.2564   0.00    0.0
2018/11/06 02:48:30.000  -74.425551927  163.418476308    65.1830   5   8   0.8483   0.6363   3.2428   0.3546  -0.5888  -1.2526   0.00    0.0
2018/11/06 02:49:00.000  -74.425550755  163.418476583    64.6954   5   9   0.8444   0.6345   2.9702   0.3496  -0.5844  -1.2909   0.00    0.0
2018/11/06 02:49:30.000  -74.425551431  163.418479127    65.4642   5   9   0.8446   0.6332   2.9600   0.3460  -0.5691  -1.2895   0.00    0.0
2018/11/06 02:50:00.000  -74.425547676  163.418480459    64.0981   5   9   0.8452   0.6324   2.9508   0.3427  -0.5540  -1.2886   0.00    0.0
2018/11/06 02:50:30.000  -74.425551950  163.418480290    64.9249   5   9   0.8462   0.6320   2.9430   0.3395  -0.5393  -1.2884   0.00    0.0
2018/11/06 02:51:00.000  -74.425550362  163.418474553    64.0956   5   9   0.8477   0.6319   2.9363   0.3365  -0.5248  -1.2886   0.00    0.0
2018/11/06 02:51:30.000  -74.425547822  163.418485039    64.5841   5   9   0.8495   0.6323   2.9308   0.3337  -0.5105  -1.2895   0.00    0.0
2018/11/06 02:52:00.000  -74.425552819  163.418468904    65.1287   5   8   0.8565   0.6627   3.1781   0.3570  -0.0601  -1.2465   0.00    0.0
2018/11/06 02:52:30.000  -74.425549033  163.418486510    64.4612   5   8   0.8588   0.6646   3.1797   0.3542   0.1252  -1.2498   0.00    0.0
2018/11/06 02:53:00.000  -74.425548511  163.418479577    64.5294   5   8   0.8572   0.6634   3.1672   0.3493   0.1903  -1.2472   0.00    0.0
2018/11/06 02:53:30.000  -74.425547423  163.418482416    64.7046   5   8   0.8561   0.6626   3.1558   0.3446   0.2370  -1.2452   0.00    0.0
2018/11/06 02:54:00.000  -74.425545443  163.418482171    63.9323   5   8   0.8554   0.6622   3.1456   0.3402   0.2748  -1.2438   0.00    0.0
2018/11/06 02:54:30.000  -74.425548078  163.418481518    64.6797   5   8   0.8551   0.6623   3.1367   0.3360   0.3073  -1.2428   0.00    0.0
2018/11/06 02:55:00.000  -74.425550103  163.418476166    64.2262   5   8   0.8552   0.6628   3.1291   0.3320   0.3361  -1.2424   0.00    0.0
2018/11/06 02:55:30.000  -74.425550909  163.418482642    65.4175   5   8   0.8558   0.6637   3.1231   0.3282   0.3621  -1.2427   0.00    0.0
2018/11/06 02:56:00.000  -74.425546014  163.418483237    63.3538   5   8   0.8568   0.6651   3.1185   0.3246   0.3860  -1.2436   0.00    0.0
2018/11/06 02:56:30.000  -74.425549698  163.418491687    64.2177   5   8   0.8582   0.6668   3.1153   0.3212   0.4083  -1.2450   0.00    0.0
2018/11/06 02:57:00.000  -74.425550019  163.418469941    65.0508   5   9   0.8138   0.6553   2.6154   0.2522   0.6418  -1.0418   0.00    0.0
2018/11/06 02:57:30.000  -74.425551515  163.418474109    65.5481   5   9   0.8166   0.6581   2.6238   0.2491   0.6528  -1.0476   0.00    0.0
2018/11/06 02:58:00.000  -74.425551265  163.418484017    65.5022   5   9   0.8160   0.6579   2.6211   0.2449   0.6604  -1.0492   0.00    0.0
2018/11/06 02:58:30.000  -74.425551325  163.418485408    64.8708   5   9   0.8158   0.6581   2.6192   0.2408   0.6679  -1.0511   0.00    0.0
2018/11/06 02:59:00.000  -74.425550695  163.418481980    65.4839   5   9   0.8160   0.6585   2.6183   0.2368   0.6756  -1.0534   0.00    0.0
2018/11/06 02:59:30.000  -74.425551027  163.418486378    65.8030   5   9   0.8165   0.6594   2.6185   0.2328   0.6834  -1.0562   0.00    0.0
2018/11/06 03:00:00.000  -74.425550292  163.418477556    64.6645   5   9   0.8174   0.6606   2.6197   0.2289   0.6913  -1.0593   0.00    0.0
2018/11/06 03:00:30.000  -74.425549738  163.418472661    65.2900   5   9   0.8188   0.6622   2.6222   0.2251   0.6994  -1.0630   0.00    0.0
2018/11/06 03:01:00.000  -74.425550574  163.418478225    65.9676   5   9   0.8206   0.6642   2.6258   0.2213   0.7078  -1.0672   0.00    0.0
2018/11/06 03:01:30.000  -74.425551115  163.418477109    64.9939   5   9   0.8227   0.6666   2.6307   0.2175   0.7163  -1.0718   0.00    0.0
2018/11/06 03:02:00.000  -74.425551700  163.418473530    65.3283   5   9   0.8253   0.6693   2.6367   0.2137   0.7251  -1.0769   0.00    0.0
2018/11/06 03:02:30.000  -74.425550702  163.418477051    65.7831   5   9   0.8282   0.6723   2.6440   0.2099   0.7342  -1.0825   0.00    0.0
2018/11/06 03:03:00.000  -74.425552489  163.418484657    66.4006   5   9   0.8278   0.6723   2.6390   0.2055   0.7391  -1.0834   0.00    0.0
2018/11/06 03:03:30.000  -74.425549801  163.418471588    65.1874   5   9   0.8277   0.6725   2.6349   0.2012   0.7441  -1.0847   0.00    0.0
2018/11/06 03:04:00.000  -74.425550827  163.418471091    65.6763   5   9   0.8280   0.6731   2.6318   0.1969   0.7493  -1.0865   0.00    0.0
2018/11/06 03:04:30.000  -74.425550410  163.418475333    65.4462   5   9   0.8287   0.6741   2.6299   0.1927   0.7547  -1.0886   0.00    0.0
2018/11/06 03:05:00.000  -74.425549151  163.418479872    64.4633   5   9   0.8297   0.6754   2.6291   0.1884   0.7603  -1.0913   0.00    0.0
2018/11/06 03:05:30.000  -74.425550213  163.418477794    64.8197   5   9   0.8312   0.6771   2.6299   0.1842   0.7663  -1.0945   0.00    0.0
2018/11/06 03:06:00.000  -74.425553192  163.418486418    66.8992   5   9   0.8331   0.6791   2.6319   0.1799   0.7726  -1.0982   0.00    0.0
2018/11/06 03:06:30.000  -74.425547211  163.418478694    65.5801   5   9   0.8354   0.6816   2.6352   0.1756   0.7793  -1.1024   0.00    0.0
2018/11/06 03:07:00.000  -74.425549953  163.418487410    65.9980   5   9   0.8381   0.6844   2.6398   0.1712   0.7862  -1.1071   0.00    0.0
2018/11/06 03:07:30.000  -74.425553579  163.418484881    66.6403   5   9   0.8412   0.6875   2.6456   0.1666   0.7936  -1.1123   0.00    0.0
2018/11/06 03:08:00.000  -74.425550637  163.418478257    65.3214   5   9   0.8408   0.6873   2.6379   0.1623   0.7959  -1.1124   0.00    0.0
2018/11/06 03:08:30.000  -74.425552828  163.418470478    65.8846   5   9   0.8407   0.6875   2.6315   0.1580   0.7984  -1.1130   0.00    0.0
2018/11/06 03:09:00.000  -74.425548920  163.418476105    65.2030   5   9   0.8411   0.6880   2.6262   0.1538   0.8013  -1.1140   0.00    0.0
2018/11/06 03:09:30.000  -74.425551354  163.418481912    65.2494   5   9   0.8419   0.6889   2.6222   0.1494   0.8044  -1.1156   0.00    0.0
2018/11/06 03:10:00.000  -74.425549057  163.418478959    65.7195   5   9   0.8430   0.6901   2.6195   0.1451   0.8079  -1.1176   0.00    0.0
2018/11/06 03:10:30.000  -74.425550777  163.418478771    65.5292   5   9   0.8446   0.6917   2.6183   0.1406   0.8119  -1.1202   0.00    0.0
2018/11/06 03:11:00.000  -74.425551151  163.418488835    66.5447   5   9   0.8465   0.6937   2.6185   0.1360   0.8162  -1.1233   0.00    0.0
2018/11/06 03:11:30.000  -74.425552930  163.418482353    66.6259   5   9   0.8489   0.6960   2.6200   0.1313   0.8209  -1.1269   0.00    0.0
2018/11/06 03:12:00.000  -74.425548579  163.418466645    64.8692   5   9   0.8516   0.6987   2.6228   0.1262   0.8261  -1.1310   0.00    0.0
2018/11/06 03:12:30.000  -74.425549853  163.418481259    65.5725   5   9   0.8547   0.7018   2.6269   0.1209   0.8316  -1.1356   0.00    0.0
2018/11/06 03:13:00.000  -74.425552395  163.418470343    64.8743   5   9   0.8543   0.7014   2.6171   0.1172   0.8316  -1.1349   0.00    0.0
2018/11/06 03:13:30.000  -74.425549859  163.418480221    65.5533   5   9   0.8543   0.7013   2.6085   0.1135   0.8318  -1.1348   0.00    0.0
2018/11/06 03:14:00.000  -74.425548511  163.418469822    64.1412   5   9   0.8547   0.7016   2.6012   0.1097   0.8325  -1.1351   0.00    0.0
2018/11/06 03:14:30.000  -74.425551094  163.418476438    65.4593   5   9   0.8554   0.7022   2.5952   0.1058   0.8335  -1.1359   0.00    0.0
2018/11/06 03:15:00.000  -74.425547516  163.418483394    65.5837   5  10   0.8425   0.5818   2.1488   0.2675   0.3544  -1.0339   0.00    0.0
2018/11/06 03:15:30.000  -74.425551037  163.418483976    66.0384   5  10   0.8441   0.5820   2.1486   0.2664   0.3576  -1.0365   0.00    0.0
2018/11/06 03:16:00.000  -74.425547527  163.418482069    64.9181   5  10   0.8461   0.5826   2.1495   0.2654   0.3610  -1.0395   0.00    0.0
2018/11/06 03:16:30.000  -74.425547041  163.418491628    65.1752   5  10   0.8484   0.5833   2.1514   0.2645   0.3643  -1.0429   0.00    0.0
2018/11/06 03:17:00.000  -74.425545422  163.418486242    65.0186   5  10   0.8512   0.5844   2.1543   0.2636   0.3678  -1.0468   0.00    0.0
2018/11/06 03:17:30.000  -74.425549437  163.418480300    65.6186   5  10   0.8542   0.5856   2.1582   0.2629   0.3714  -1.0511   0.00    0.0
2018/11/06 03:18:00.000  -74.425548063  163.418480139    65.2824   5  10   0.8541   0.5847   2.1526   0.2614   0.3731  -1.0513   0.00    0.0
2018/11/06 03:18:30.000  -74.425548712  163.418488341    65.8125   5  10   0.8542   0.5839   2.1479   0.2600   0.3748  -1.0519   0.00    0.0
2018/11/06 03:19:00.000  -74.425546723  163.418484027    64.7686   5  10   0.8548   0.5835   2.1443   0.2588   0.3765  -1.0530   0.00    0.0
2018/11/06 03:19:30.000  -74.425544147  163.418480842    64.0162   5  10   0.8557   0.5832   2.1417   0.2577   0.3782  -1.0545   0.00    0.0
2018/11/06 03:20:00.000  -74.425544547  163.418490640    64.2943   5  10   0.8570   0.5833   2.1401   0.2566   0.3801  -1.0564   0.00    0.0
2018/11/06 03:20:30.000  -74.425547838  163.418493694    64.8907   5  10   0.8587   0.5836   2.1397   0.2557   0.3821  -1.0588   0.00    0.0
2018/11/06 03:21:00.000  -74.425546807  163.418485619    64.7649   5  10   0.8607   0.5841   2.1404   0.2549   0.3843  -1.0616   0.00    0.0
2018/11/06 03:21:30.000  -74.425548570  163.418488199    65.2039   5  10   0.8631   0.5849   2.1421   0.2541   0.3866  -1.0648   0.00    0.0
2018/11/06 03:22:00.000  -74.425550451  163.418492441    65.3961   5  10   0.8658   0.5860   2.1448   0.2533   0.3892  -1.0684   0.00    0.0
2018/11/06 03:22:30.000  -74.425549988  163.418476014    64.8549   5  10   0.8689   0.5873   2.1485   0.2527   0.3920  -1.0724   0.00    0.0
2018/11/06 03:23:00.000  -74.425548528  163.418488745    64.7674   5  10   0.8688   0.5863   2.1427   0.2516   0.3920  -1.0725   0.00    0.0
2018/11/06 03:23:30.000  -74.425551623  163.418487780    65.4954   5  10   0.8690   0.5856   2.1378   0.2506   0.3923  -1.0729   0.00    0.0
2018/11/06 03:24:00.000  -74.425548063  163.418481447    64.5459   5  10   0.8696   0.5852   2.1339   0.2497   0.3926  -1.0738   0.00    0.0
2018/11/06 03:24:30.000  -74.425548149  163.418481719    64.9721   5  10   0.8706   0.5850   2.1311   0.2489   0.3931  -1.0750   0.00    0.0
2018/11/06 03:25:00.000  -74.425547791  163.418491349    65.4605   5  10   0.8718   0.5850   2.1292   0.2481   0.3939  -1.0767   0.00    0.0
2018/11/06 03:25:30.000  -74.425551524  163.418479002    65.1981   5  10   0.8735   0.5853   2.1286   0.2474   0.3949  -1.0788   0.00    0.0
2018/11/06 03:26:00.000  -74.425550732  163.418485851    65.5426   5  10   0.8755   0.5859   2.1291   0.2468   0.3961  -1.0813   0.00    0.0
2018/11/06 03:26:30.000  -74.425548589  163.418483110    65.0054   5  10   0.8779   0.5867   2.1305   0.2462   0.3976  -1.0842   0.00    0.0
2018/11/06 03:27:00.000  -74.425549719  163.418487473    64.5858   5  10   0.8806   0.5878   2.1328   0.2456   0.3995  -1.0874   0.00    0.0
2018/11/06 03:27:30.000  -74.425551724  163.418482164    64.9322   5  10   0.8836   0.5891   2.1361   0.2451   0.4016  -1.0910   0.00    0.0
2018/11/06 03:28:00.000  -74.425549405  163.418487322    65.0001   5  10   0.8835   0.5882   2.1301   0.2444   0.4003  -1.0908   0.00    0.0
2018/11/06 03:28:30.000  -74.425550672  163.418481043    65.0129   5  10   0.8837   0.5874   2.1250   0.2438   0.3993  -1.0910   0.00    0.0
