% program   : RTKLIB ver.2.4.3
% inp file  : _by_type/_obs/blake/20181107.18o
% inp file  : _by_type/_obs/base/20181107.18o
% inp file  : _by_type/_sp3+clk/igs20263.clk
% inp file  : _by_type/_sp3+clk/igs20263.sp3
% inp file  : _by_type/_nav/blake/20181107.18n
% obs start : 2018/11/07 00:00:00.0 GPST (week2026 259200.0s)
% obs end   : 2018/11/07 23:59:45.0 GPST (week2026 345585.0s)
% pos mode  : dgps
% freqs     : L1+L2
% solution  : combined
% elev mask : 15.0 deg
% dynamics  : off
% tidecorr  : off
% ionos opt : iono-free
% tropo opt : est ztd+grad
% ephemeris : precise
% navi sys  : gps glonass
% antenna1  :                       ( 0.0000  0.0000  0.0000)
% antenna2  :                       ( 0.0000  0.0000  0.0000)
% ref pos   : 90.000000000   0.000000000-6335367.6285
%
% (lat/lon/height=WGS84/ellipsoidal,Q=1:fix,2:float,3:sbas,4:dgps,5:single,6:ppp,ns=# of satellites)
%  GPST                  latitude(deg) longitude(deg)  height(m)   Q  ns   sdn(m)   sde(m)   sdu(m)  sdne(m)  sdeu(m)  sdun(m) age(s)  ratio
2018/11/07 00:00:00.000  -74.407203275  163.437638402    79.2607   5   9   0.6827   0.6135   2.0795  -0.1729   0.3626  -0.7384   0.00    0.0
2018/11/07 00:00:15.000  -74.407202510  163.437638036    79.9358   5   9   0.6825   0.6135   2.0841  -0.1737   0.3668  -0.7393   0.00    0.0
2018/11/07 00:00:30.000  -74.407201702  163.437634967    79.2443   5   9   0.6823   0.6136   2.0890  -0.1745   0.3711  -0.7403   0.00    0.0
2018/11/07 00:00:45.000  -74.407203688  163.437641603    80.2123   5   9   0.6821   0.6137   2.0941  -0.1754   0.3755  -0.7414   0.00    0.0
2018/11/07 00:01:00.000  -74.407203270  163.437644293    79.6733   5   9   0.6821   0.6140   2.0996  -0.1763   0.3800  -0.7425   0.00    0.0
2018/11/07 00:01:15.000  -74.407204101  163.437639017    79.5464   5   9   0.6821   0.6144   2.1053  -0.1773   0.3845  -0.7438   0.00    0.0
2018/11/07 00:01:30.000  -74.407203157  163.437647124    79.3883   5   9   0.6822   0.6148   2.1113  -0.1783   0.3892  -0.7451   0.00    0.0
2018/11/07 00:01:45.000  -74.407205064  163.437642999    79.6853   5   9   0.6824   0.6153   2.1176  -0.1794   0.3939  -0.7465   0.00    0.0
2018/11/07 00:02:00.000  -74.407203779  163.437649628    79.8311   5   9   0.6826   0.6159   2.1242  -0.1805   0.3987  -0.7481   0.00    0.0
2018/11/07 00:02:15.000  -74.407203668  163.437648721    80.2637   5   9   0.6829   0.6166   2.1311  -0.1817   0.4035  -0.7497   0.00    0.0
2018/11/07 00:02:30.000  -74.407204125  163.437639001    80.2606   5   9   0.6833   0.6174   2.1383  -0.1830   0.4085  -0.7514   0.00    0.0
2018/11/07 00:02:45.000  -74.407201575  163.437654634    79.6673   5   9   0.6824   0.6166   2.1405  -0.1834   0.4120  -0.7517   0.00    0.0
2018/11/07 00:03:00.000  -74.407201594  163.437647163    79.6891   5   9   0.6816   0.6159   2.1431  -0.1838   0.4155  -0.7521   0.00    0.0
2018/11/07 00:03:15.000  -74.407205314  163.437644669    79.4252   5   9   0.6808   0.6153   2.1460  -0.1844   0.4191  -0.7526   0.00    0.0
2018/11/07 00:03:30.000  -74.407202051  163.437650879    80.0148   5   9   0.6801   0.6148   2.1491  -0.1850   0.4228  -0.7532   0.00    0.0
2018/11/07 00:03:45.000  -74.407205818  163.437646034    80.0655   5   9   0.6795   0.6143   2.1525  -0.1856   0.4266  -0.7539   0.00    0.0
2018/11/07 00:04:00.000  -74.407203183  163.437641598    79.8062   5   9   0.6789   0.6140   2.1562  -0.1863   0.4304  -0.7546   0.00    0.0
2018/11/07 00:04:15.000  -74.407201939  163.437642386    79.6389   5   9   0.6785   0.6137   2.1601  -0.1871   0.4343  -0.7555   0.00    0.0
2018/11/07 00:04:30.000  -74.407200774  163.437641128    79.7121   5   9   0.6781   0.6135   2.1644  -0.1879   0.4383  -0.7564   0.00    0.0
2018/11/07 00:04:45.000  -74.407203546  163.437646180    79.4479   5   9   0.6777   0.6134   2.1689  -0.1887   0.4424  -0.7574   0.00    0.0
2018/11/07 00:05:00.000  -74.407204785  163.437648133    80.0133   5   9   0.6775   0.6134   2.1737  -0.1896   0.4465  -0.7585   0.00    0.0
2018/11/07 00:05:15.000  -74.407203521  163.437643408    79.6792   5   9   0.6774   0.6136   2.1789  -0.1906   0.4508  -0.7598   0.00    0.0
2018/11/07 00:05:30.000  -74.407203150  163.437642588    80.1576   5   9   0.6773   0.6138   2.1845  -0.1916   0.4551  -0.7612   0.00    0.0
2018/11/07 00:05:45.000  -74.407203292  163.437643221    79.9816   5   9   0.6773   0.6141   2.1903  -0.1926   0.4595  -0.7626   0.00    0.0
2018/11/07 00:06:00.000  -74.407202855  163.437644052    79.4453   5   9   0.6774   0.6145   2.1964  -0.1938   0.4641  -0.7642   0.00    0.0
2018/11/07 00:06:15.000  -74.407203293  163.437649052    79.4802   5   9   0.6776   0.6150   2.2029  -0.1949   0.4687  -0.7659   0.00    0.0
2018/11/07 00:06:30.000  -74.407206176  163.437643355    80.3737   5   9   0.6778   0.6156   2.2096  -0.1962   0.4734  -0.7676   0.00    0.0
2018/11/07 00:06:45.000  -74.407201791  163.437644700    79.2612   5   9   0.6781   0.6162   2.2167  -0.1975   0.4783  -0.7695   0.00    0.0
2018/11/07 00:07:00.000  -74.407205048  163.437646836    80.0322   5   9   0.6785   0.6170   2.2241  -0.1988   0.4832  -0.7714   0.00    0.0
2018/11/07 00:07:15.000  -74.407204580  163.437645474    80.3663   5   9   0.6790   0.6178   2.2318  -0.2002   0.4883  -0.7735   0.00    0.0
2018/11/07 00:07:30.000  -74.407202355  163.437646632    78.9789   5   9   0.6796   0.6188   2.2398  -0.2017   0.4934  -0.7756   0.00    0.0
2018/11/07 00:07:45.000  -74.407204527  163.437649989    80.1821   5   9   0.6788   0.6181   2.2425  -0.2023   0.4969  -0.7763   0.00    0.0
2018/11/07 00:08:00.000  -74.407204939  163.437636936    80.3632   5   9   0.6781   0.6175   2.2456  -0.2030   0.5003  -0.7770   0.00    0.0
2018/11/07 00:08:15.000  -74.407202319  163.437641587    80.0742   5   9   0.6774   0.6171   2.2488  -0.2037   0.5038  -0.7778   0.00    0.0
2018/11/07 00:08:30.000  -74.407205767  163.437642038    80.1497   5   9   0.6769   0.6167   2.2524  -0.2044   0.5074  -0.7788   0.00    0.0
2018/11/07 00:08:45.000  -74.407204797  163.437648256    80.9925   5   9   0.6764   0.6163   2.2563  -0.2052   0.5111  -0.7798   0.00    0.0
2018/11/07 00:09:00.000  -74.407206315  163.437645935    80.7741   5   9   0.6760   0.6161   2.2604  -0.2060   0.5149  -0.7809   0.00    0.0
2018/11/07 00:09:15.000  -74.407203502  163.437644110    80.6005   5   9   0.6757   0.6160   2.2649  -0.2070   0.5188  -0.7820   0.00    0.0
2018/11/07 00:09:30.000  -74.407206534  163.437655599    81.0954   5   9   0.6754   0.6159   2.2696  -0.2079   0.5228  -0.7833   0.00    0.0
2018/11/07 00:09:45.000  -74.407207186  163.437653937    81.4284   5   9   0.6752   0.6160   2.2747  -0.2089   0.5269  -0.7847   0.00    0.0
2018/11/07 00:10:00.000  -74.407205923  163.437645152    80.9786   5   9   0.6751   0.6161   2.2800  -0.2100   0.5311  -0.7862   0.00    0.0
2018/11/07 00:10:15.000  -74.407205339  163.437650403    80.1576   5   9   0.6751   0.6164   2.2859  -0.2111   0.5354  -0.7879   0.00    0.0
2018/11/07 00:10:30.000  -74.407207421  163.437643665    80.7359   5   9   0.6752   0.6168   2.2920  -0.2123   0.5399  -0.7896   0.00    0.0
2018/11/07 00:10:45.000  -74.407203681  163.437643986    80.9118   5   9   0.6754   0.6172   2.2984  -0.2136   0.5444  -0.7915   0.00    0.0
2018/11/07 00:11:00.000  -74.407205776  163.437643945    80.6963   5   9   0.6756   0.6178   2.3052  -0.2149   0.5491  -0.7934   0.00    0.0
2018/11/07 00:11:15.000  -74.407206622  163.437652327    80.3084   5   9   0.6760   0.6185   2.3122  -0.2163   0.5539  -0.7955   0.00    0.0
2018/11/07 00:11:30.000  -74.407206052  163.437650512    80.7555   5   9   0.6763   0.6192   2.3196  -0.2177   0.5587  -0.7976   0.00    0.0
2018/11/07 00:11:45.000  -74.407204442  163.437656426    79.9091   5  10   0.6540   0.6106   2.0761  -0.2586   0.6567  -0.6756   0.00    0.0
2018/11/07 00:12:00.000  -74.407204471  163.437646714    80.2981   5  10   0.6545   0.6115   2.0841  -0.2599   0.6611  -0.6781   0.00    0.0
2018/11/07 00:12:15.000  -74.407207208  163.437653542    79.9443   5  10   0.6552   0.6126   2.0924  -0.2612   0.6657  -0.6807   0.00    0.0
2018/11/07 00:12:30.000  -74.407205849  163.437654750    79.5305   5  10   0.6559   0.6138   2.1011  -0.2626   0.6704  -0.6834   0.00    0.0
2018/11/07 00:12:45.000  -74.407203545  163.437647338    79.2799   5  10   0.6553   0.6133   2.1047  -0.2630   0.6727  -0.6848   0.00    0.0
2018/11/07 00:13:00.000  -74.407204474  163.437649923    79.7752   5  10   0.6547   0.6129   2.1087  -0.2635   0.6753  -0.6862   0.00    0.0
2018/11/07 00:13:15.000  -74.407208664  163.437656592    80.8819   5  10   0.6543   0.6126   2.1129  -0.2640   0.6780  -0.6878   0.00    0.0
2018/11/07 00:13:30.000  -74.407207266  163.437653794    80.0423   5  10   0.6539   0.6124   2.1174  -0.2646   0.6808  -0.6894   0.00    0.0
2018/11/07 00:13:45.000  -74.407206034  163.437655578    80.5236   5  10   0.6536   0.6123   2.1222  -0.2653   0.6837  -0.6912   0.00    0.0
2018/11/07 00:14:00.000  -74.407205293  163.437658713    80.2558   5  10   0.6534   0.6123   2.1273  -0.2660   0.6868  -0.6930   0.00    0.0
2018/11/07 00:14:15.000  -74.407204804  163.437655279    80.1544   5  10   0.6533   0.6124   2.1326  -0.2667   0.6899  -0.6949   0.00    0.0
2018/11/07 00:14:30.000  -74.407206465  163.437658452    80.4875   5  10   0.6532   0.6126   2.1383  -0.2676   0.6932  -0.6969   0.00    0.0
2018/11/07 00:14:45.000  -74.407204143  163.437655722    80.3135   5  10   0.6532   0.6128   2.1442  -0.2685   0.6967  -0.6990   0.00    0.0
2018/11/07 00:15:00.000  -74.407207478  163.437653469    79.7975   5  10   0.6533   0.6132   2.1505  -0.2694   0.7002  -0.7012   0.00    0.0
2018/11/07 00:15:15.000  -74.407206228  163.437656406    79.8330   5  10   0.6535   0.6137   2.1571  -0.2705   0.7039  -0.7035   0.00    0.0
2018/11/07 00:15:30.000  -74.407205581  163.437666310    80.6800   5  10   0.6537   0.6143   2.1641  -0.2716   0.7077  -0.7060   0.00    0.0
2018/11/07 00:15:45.000  -74.407209040  163.437664062    80.5468   5  10   0.6541   0.6149   2.1713  -0.2727   0.7117  -0.7085   0.00    0.0
2018/11/07 00:16:00.000  -74.407204688  163.437655527    79.9532   5  10   0.6545   0.6157   2.1789  -0.2739   0.7158  -0.7111   0.00    0.0
2018/11/07 00:16:15.000  -74.407203994  163.437649662    79.4075   5  10   0.6550   0.6165   2.1867  -0.2752   0.7200  -0.7138   0.00    0.0
2018/11/07 00:16:30.000  -74.407205218  163.437653672    79.1906   5  10   0.6555   0.6175   2.1949  -0.2766   0.7244  -0.7166   0.00    0.0
2018/11/07 00:16:45.000  -74.407205218  163.437650257    80.9000   5  10   0.6562   0.6185   2.2034  -0.2780   0.7289  -0.7196   0.00    0.0
2018/11/07 00:17:00.000  -74.407206790  163.437656643    80.2983   5  10   0.6569   0.6197   2.2122  -0.2795   0.7335  -0.7226   0.00    0.0
2018/11/07 00:17:15.000  -74.407205219  163.437655634    79.5347   5  10   0.6577   0.6209   2.2213  -0.2810   0.7383  -0.7257   0.00    0.0
2018/11/07 00:17:30.000  -74.407205738  163.437659994    79.9207   5  10   0.6586   0.6222   2.2307  -0.2826   0.7432  -0.7289   0.00    0.0
2018/11/07 00:17:45.000  -74.407205694  163.437649952    79.5144   5  10   0.6582   0.6219   2.2349  -0.2832   0.7458  -0.7307   0.00    0.0
2018/11/07 00:18:00.000  -74.407205868  163.437646993    79.6944   5  10   0.6578   0.6217   2.2392  -0.2839   0.7484  -0.7326   0.00    0.0
2018/11/07 00:18:15.000  -74.407204555  163.437653838    79.4738   5  10   0.6575   0.6215   2.2438  -0.2846   0.7511  -0.7345   0.00    0.0
2018/11/07 00:18:30.000  -74.407203957  163.437649139    79.9750   5  10   0.6573   0.6215   2.2487  -0.2853   0.7540  -0.7365   0.00    0.0
2018/11/07 00:18:45.000  -74.407205849  163.437653246    80.2616   5  10   0.6572   0.6215   2.2539  -0.2861   0.7569  -0.7387   0.00    0.0
2018/11/07 00:19:00.000  -74.407207320  163.437649887    79.9578   5  10   0.6571   0.6216   2.2594  -0.2870   0.7600  -0.7409   0.00    0.0
2018/11/07 00:19:15.000  -74.407206101  163.437648983    79.1479   5  10   0.6572   0.6218   2.2652  -0.2879   0.7632  -0.7432   0.00    0.0
2018/11/07 00:19:30.000  -74.407205952  163.437665883    79.9649   5  10   0.6572   0.6221   2.2712  -0.2889   0.7666  -0.7456   0.00    0.0
2018/11/07 00:19:45.000  -74.407204866  163.437646909    79.5504   5  10   0.6574   0.6225   2.2776  -0.2900   0.7700  -0.7480   0.00    0.0
2018/11/07 00:20:00.000  -74.407206077  163.437648819    79.6582   5  10   0.6577   0.6230   2.2842  -0.2911   0.7736  -0.7506   0.00    0.0
2018/11/07 00:20:15.000  -74.407205273  163.437654069    78.9443   5  10   0.6580   0.6236   2.2913  -0.2923   0.7774  -0.7534   0.00    0.0
2018/11/07 00:20:30.000  -74.407205667  163.437641027    79.5186   5  10   0.6585   0.6243   2.2986  -0.2935   0.7813  -0.7562   0.00    0.0
2018/11/07 00:20:45.000  -74.407206981  163.437649347    79.1249   5  10   0.6590   0.6251   2.3063  -0.2948   0.7853  -0.7591   0.00    0.0
2018/11/07 00:21:00.000  -74.407205222  163.437656677    79.3672   5  10   0.6596   0.6260   2.3142  -0.2962   0.7895  -0.7622   0.00    0.0
2018/11/07 00:21:15.000  -74.407207118  163.437652474    79.6125   5  10   0.6603   0.6270   2.3225  -0.2977   0.7938  -0.7653   0.00    0.0
2018/11/07 00:21:30.000  -74.407208054  163.437648716    79.1253   5  10   0.6610   0.6281   2.3310  -0.2992   0.7982  -0.7685   0.00    0.0
2018/11/07 00:21:45.000  -74.407207387  163.437652778    79.8954   5  10   0.6618   0.6293   2.3399  -0.3008   0.8028  -0.7718   0.00    0.0
2018/11/07 00:22:00.000  -74.407206536  163.437652912    79.2364   5  10   0.6627   0.6305   2.3490  -0.3024   0.8074  -0.7753   0.00    0.0
2018/11/07 00:22:15.000  -74.407207897  163.437654911    79.8272   5  10   0.6637   0.6319   2.3585  -0.3041   0.8122  -0.7788   0.00    0.0
2018/11/07 00:22:30.000  -74.407206635  163.437648882    80.8658   5  10   0.6648   0.6333   2.3682  -0.3058   0.8172  -0.7824   0.00    0.0
2018/11/07 00:22:45.000  -74.407207527  163.437657893    80.0621   5  10   0.6645   0.6331   2.3722  -0.3065   0.8195  -0.7844   0.00    0.0
2018/11/07 00:23:00.000  -74.407204464  163.437648274    78.7852   5  10   0.6643   0.6329   2.3765  -0.3072   0.8219  -0.7865   0.00    0.0
2018/11/07 00:23:15.000  -74.407207486  163.437643246    79.5696   5  10   0.6642   0.6328   2.3811  -0.3080   0.8245  -0.7886   0.00    0.0
2018/11/07 00:23:30.000  -74.407206206  163.437651808    79.8553   5  10   0.6641   0.6328   2.3859  -0.3088   0.8272  -0.7909   0.00    0.0
2018/11/07 00:23:45.000  -74.407208499  163.437657061    80.3072   5  10   0.6642   0.6329   2.3910  -0.3097   0.8300  -0.7932   0.00    0.0
2018/11/07 00:24:00.000  -74.407207415  163.437643376    79.6044   5  10   0.6643   0.6331   2.3963  -0.3107   0.8329  -0.7957   0.00    0.0
2018/11/07 00:24:15.000  -74.407205824  163.437646289    79.7555   5  10   0.6645   0.6334   2.4019  -0.3117   0.8359  -0.7982   0.00    0.0
2018/11/07 00:24:30.000  -74.407204871  163.437648412    79.5195   5  10   0.6647   0.6338   2.4078  -0.3128   0.8391  -0.8008   0.00    0.0
2018/11/07 00:24:45.000  -74.407206221  163.437650785    79.7290   5  10   0.6651   0.6342   2.4140  -0.3139   0.8423  -0.8035   0.00    0.0
2018/11/07 00:25:00.000  -74.407206254  163.437645140    79.4175   5  10   0.6655   0.6348   2.4205  -0.3151   0.8457  -0.8063   0.00    0.0
2018/11/07 00:25:15.000  -74.407206018  163.437651430    79.1766   5  10   0.6660   0.6355   2.4273  -0.3164   0.8493  -0.8092   0.00    0.0
2018/11/07 00:25:30.000  -74.407205901  163.437649256    80.1035   5  10   0.6666   0.6363   2.4344  -0.3177   0.8529  -0.8122   0.00    0.0
2018/11/07 00:25:45.000  -74.407204920  163.437648327    79.2569   5  10   0.6673   0.6371   2.4418  -0.3191   0.8567  -0.8153   0.00    0.0
2018/11/07 00:26:00.000  -74.407205609  163.437644290    78.1805   5  11   0.6553   0.6380   2.3549  -0.3192   0.8632  -0.8703   0.00    0.0
2018/11/07 00:26:15.000  -74.407206175  163.437650991    78.2385   5  11   0.6561   0.6391   2.3631  -0.3208   0.8671  -0.8736   0.00    0.0
2018/11/07 00:26:30.000  -74.407207627  163.437639979    78.7469   5  11   0.6569   0.6402   2.3717  -0.3223   0.8711  -0.8770   0.00    0.0
2018/11/07 00:26:45.000  -74.407207832  163.437643612    79.5367   5  11   0.6578   0.6414   2.3805  -0.3240   0.8752  -0.8804   0.00    0.0
2018/11/07 00:27:00.000  -74.407206343  163.437655748    79.5732   5  11   0.6587   0.6427   2.3896  -0.3257   0.8795  -0.8840   0.00    0.0
2018/11/07 00:27:15.000  -74.407206999  163.437650833    78.9683   5  11   0.6598   0.6441   2.3989  -0.3275   0.8839  -0.8877   0.00    0.0
2018/11/07 00:27:30.000  -74.407206695  163.437655780    79.5728   5  11   0.6609   0.6456   2.4085  -0.3293   0.8883  -0.8914   0.00    0.0
2018/11/07 00:27:45.000  -74.407208123  163.437650381    79.8436   5  11   0.6607   0.6454   2.4123  -0.3299   0.8901  -0.8932   0.00    0.0
2018/11/07 00:28:00.000  -74.407206526  163.437655029    79.3795   5  11   0.6606   0.6452   2.4164  -0.3307   0.8920  -0.8951   0.00    0.0
2018/11/07 00:28:15.000  -74.407208825  163.437649804    79.5050   5  11   0.6605   0.6451   2.4208  -0.3315   0.8940  -0.8970   0.00    0.0
2018/11/07 00:28:30.000  -74.407207385  163.437652054    78.9606   5  11   0.6605   0.6451   2.4254  -0.3323   0.8961  -0.8991   0.00    0.0
2018/11/07 00:28:45.000  -74.407205976  163.437649111    79.2248   5  11   0.6606   0.6452   2.4302  -0.3332   0.8983  -0.9013   0.00    0.0
2018/11/07 00:29:00.000  -74.407206233  163.437649083    78.4016   5  11   0.6608   0.6453   2.4353  -0.3341   0.9007  -0.9035   0.00    0.0
2018/11/07 00:29:15.000  -74.407209951  163.437652982    79.2409   5  11   0.6610   0.6456   2.4405  -0.3351   0.9031  -0.9058   0.00    0.0
2018/11/07 00:29:30.000  -74.407209699  163.437653762    79.7974   5  11   0.6613   0.6459   2.4460  -0.3361   0.9056  -0.9082   0.00    0.0
2018/11/07 00:29:45.000  -74.407206901  163.437644530    79.0020   5  11   0.6616   0.6463   2.4518  -0.3372   0.9082  -0.9107   0.00    0.0
2018/11/07 00:30:00.000  -74.407205452  163.437658557    79.0937   5  11   0.6621   0.6468   2.4577  -0.3383   0.9109  -0.9133   0.00    0.0
2018/11/07 00:30:15.000  -74.407205011  163.437653880    79.4789   5  11   0.6626   0.6475   2.4640  -0.3395   0.9138  -0.9160   0.00    0.0
2018/11/07 00:30:30.000  -74.407207546  163.437656521    79.0504   5  11   0.6632   0.6482   2.4705  -0.3407   0.9167  -0.9187   0.00    0.0
2018/11/07 00:30:45.000  -74.407205168  163.437651787    79.6247   5  11   0.6639   0.6490   2.4773  -0.3420   0.9198  -0.9216   0.00    0.0
2018/11/07 00:31:00.000  -74.407209526  163.437649225    79.9415   5  11   0.6646   0.6498   2.4842  -0.3433   0.9229  -0.9245   0.00    0.0
2018/11/07 00:31:15.000  -74.407206518  163.437644733    79.0022   5  11   0.6654   0.6508   2.4913  -0.3447   0.9262  -0.9275   0.00    0.0
2018/11/07 00:31:30.000  -74.407209920  163.437660930    78.9357   5  11   0.6663   0.6518   2.4987  -0.3461   0.9295  -0.9305   0.00    0.0
2018/11/07 00:31:45.000  -74.407209025  163.437661627    79.3249   5  11   0.6673   0.6529   2.5063  -0.3475   0.9329  -0.9337   0.00    0.0
2018/11/07 00:32:00.000  -74.407206741  163.437656448    78.5692   5  11   0.6683   0.6541   2.5140  -0.3490   0.9364  -0.9369   0.00    0.0
2018/11/07 00:32:15.000  -74.407210146  163.437652280    79.3477   5  11   0.6694   0.6554   2.5220  -0.3505   0.9399  -0.9402   0.00    0.0
2018/11/07 00:32:30.000  -74.407207310  163.437654203    79.4866   5  11   0.6705   0.6567   2.5301  -0.3521   0.9436  -0.9436   0.00    0.0
2018/11/07 00:32:45.000  -74.407207614  163.437645896    78.3474   5  11   0.6703   0.6563   2.5324  -0.3526   0.9445  -0.9449   0.00    0.0
2018/11/07 00:33:00.000  -74.407207486  163.437655591    79.0979   5  11   0.6702   0.6560   2.5349  -0.3530   0.9455  -0.9464   0.00    0.0
2018/11/07 00:33:15.000  -74.407206236  163.437646078    78.0218   5  11   0.6702   0.6557   2.5376  -0.3536   0.9467  -0.9479   0.00    0.0
2018/11/07 00:33:30.000  -74.407212563  163.437652693    79.2842   5  11   0.6702   0.6556   2.5405  -0.3541   0.9479  -0.9494   0.00    0.0
2018/11/07 00:33:45.000  -74.407208583  163.437648476    78.7813   5  11   0.6703   0.6555   2.5435  -0.3548   0.9491  -0.9510   0.00    0.0
2018/11/07 00:34:00.000  -74.407206420  163.437648922    78.0298   5  11   0.6705   0.6554   2.5467  -0.3554   0.9505  -0.9527   0.00    0.0
2018/11/07 00:34:15.000  -74.407207938  163.437660311    79.4721   5  11   0.6707   0.6555   2.5501  -0.3561   0.9519  -0.9545   0.00    0.0
2018/11/07 00:34:30.000  -74.407208854  163.437653455    77.9524   5  11   0.6710   0.6556   2.5536  -0.3568   0.9534  -0.9563   0.00    0.0
2018/11/07 00:34:45.000  -74.407208854  163.437654115    79.1870   5  11   0.6713   0.6558   2.5574  -0.3576   0.9550  -0.9581   0.00    0.0
2018/11/07 00:35:00.000  -74.407208372  163.437647861    79.1979   5  11   0.6718   0.6561   2.5612  -0.3583   0.9566  -0.9601   0.00    0.0
2018/11/07 00:35:15.000  -74.407209789  163.437654708    79.3515   5  11   0.6723   0.6565   2.5654  -0.3592   0.9583  -0.9621   0.00    0.0
2018/11/07 00:35:30.000  -74.407208414  163.437656375    78.5820   5  11   0.6728   0.6570   2.5697  -0.3600   0.9601  -0.9641   0.00    0.0
2018/11/07 00:35:45.000  -74.407209580  163.437653140    78.2424   5  11   0.6735   0.6575   2.5742  -0.3609   0.9620  -0.9662   0.00    0.0
2018/11/07 00:36:00.000  -74.407206589  163.437647651    77.9266   5  11   0.6741   0.6581   2.5788  -0.3618   0.9639  -0.9684   0.00    0.0
2018/11/07 00:36:15.000  -74.407208883  163.437647566    78.7442   5  11   0.6749   0.6588   2.5835  -0.3628   0.9659  -0.9706   0.00    0.0
2018/11/07 00:36:30.000  -74.407207439  163.437659083    78.7948   5  11   0.6757   0.6596   2.5884  -0.3637   0.9679  -0.9729   0.00    0.0
2018/11/07 00:36:45.000  -74.407208784  163.437661193    78.5904   5  11   0.6766   0.6604   2.5934  -0.3647   0.9700  -0.9752   0.00    0.0
2018/11/07 00:37:00.000  -74.407208109  163.437652413    77.3195   5  11   0.6775   0.6613   2.5986  -0.3658   0.9721  -0.9776   0.00    0.0
2018/11/07 00:37:15.000  -74.407207325  163.437646664    77.7806   5  11   0.6785   0.6622   2.6039  -0.3668   0.9743  -0.9799   0.00    0.0
2018/11/07 00:37:30.000  -74.407206570  163.437649860    77.3286   5  11   0.6796   0.6632   2.6093  -0.3679   0.9765  -0.9824   0.00    0.0
2018/11/07 00:37:45.000  -74.407208837  163.437657289    77.9141   5  11   0.6793   0.6625   2.6089  -0.3679   0.9761  -0.9828   0.00    0.0
2018/11/07 00:38:00.000  -74.407208458  163.437649750    78.0293   5  11   0.6791   0.6619   2.6087  -0.3679   0.9758  -0.9833   0.00    0.0
2018/11/07 00:38:15.000  -74.407209324  163.437648431    78.3475   5  11   0.6790   0.6613   2.6085  -0.3680   0.9755  -0.9839   0.00    0.0
2018/11/07 00:38:30.000  -74.407208679  163.437655827    78.4779   5  11   0.6789   0.6609   2.6085  -0.3681   0.9753  -0.9845   0.00    0.0
2018/11/07 00:38:45.000  -74.407206242  163.437649240    78.0105   5  11   0.6789   0.6604   2.6087  -0.3682   0.9752  -0.9851   0.00    0.0
2018/11/07 00:39:00.000  -74.407207918  163.437650305    78.2315   5  11   0.6790   0.6601   2.6090  -0.3683   0.9750  -0.9858   0.00    0.0
2018/11/07 00:39:15.000  -74.407205687  163.437644001    77.5152   5  11   0.6791   0.6598   2.6093  -0.3685   0.9750  -0.9865   0.00    0.0
2018/11/07 00:39:30.000  -74.407208647  163.437656880    79.3287   5  11   0.6792   0.6596   2.6099  -0.3687   0.9750  -0.9873   0.00    0.0
2018/11/07 00:39:45.000  -74.407205544  163.437654336    78.7321   5  11   0.6795   0.6595   2.6105  -0.3689   0.9750  -0.9881   0.00    0.0
2018/11/07 00:40:00.000  -74.407208021  163.437661563    78.6173   5  11   0.6797   0.6594   2.6112  -0.3692   0.9751  -0.9889   0.00    0.0
2018/11/07 00:40:15.000  -74.407205813  163.437650790    78.3904   5  11   0.6801   0.6594   2.6122  -0.3694   0.9752  -0.9898   0.00    0.0
2018/11/07 00:40:30.000  -74.407208357  163.437646270    78.7196   5  11   0.6805   0.6595   2.6132  -0.3697   0.9754  -0.9907   0.00    0.0
2018/11/07 00:40:45.000  -74.407204307  163.437645604    77.2696   5  11   0.6810   0.6596   2.6144  -0.3700   0.9756  -0.9917   0.00    0.0
2018/11/07 00:41:00.000  -74.407209867  163.437664480    80.5625   5  11   0.6815   0.6598   2.6157  -0.3703   0.9758  -0.9927   0.00    0.0
2018/11/07 00:41:15.000  -74.407207153  163.437659974    79.5598   5  11   0.6821   0.6601   2.6171  -0.3706   0.9761  -0.9937   0.00    0.0
2018/11/07 00:41:30.000  -74.407206393  163.437664818    78.8094   5  11   0.6827   0.6604   2.6186  -0.3710   0.9764  -0.9947   0.00    0.0
2018/11/07 00:41:45.000  -74.407207075  163.437664779    79.4424   5  11   0.6834   0.6608   2.6202  -0.3713   0.9767  -0.9958   0.00    0.0
2018/11/07 00:42:00.000  -74.407209045  163.437666673    79.8007   5  11   0.6842   0.6613   2.6219  -0.3717   0.9771  -0.9969   0.00    0.0
2018/11/07 00:42:15.000  -74.407208013  163.437662557    79.9043   5  11   0.6850   0.6618   2.6237  -0.3721   0.9775  -0.9980   0.00    0.0
2018/11/07 00:42:30.000  -74.407207827  163.437667595    79.3917   5  11   0.6858   0.6624   2.6255  -0.3725   0.9779  -0.9991   0.00    0.0
2018/11/07 00:42:45.000  -74.407205322  163.437661439    78.0222   5  11   0.6854   0.6613   2.6219  -0.3720   0.9759  -0.9984   0.00    0.0
2018/11/07 00:43:00.000  -74.407206364  163.437662820    78.5484   5  11   0.6850   0.6603   2.6183  -0.3714   0.9740  -0.9977   0.00    0.0
2018/11/07 00:43:15.000  -74.407207471  163.437665840    79.2847   5  11   0.6847   0.6594   2.6147  -0.3709   0.9721  -0.9971   0.00    0.0
2018/11/07 00:43:30.000  -74.407206280  163.437669449    79.3579   5  11   0.6845   0.6585   2.6113  -0.3704   0.9702  -0.9964   0.00    0.0
2018/11/07 00:43:45.000  -74.407209503  163.437663813    79.3874   5  11   0.6843   0.6577   2.6080  -0.3699   0.9684  -0.9958   0.00    0.0
2018/11/07 00:44:00.000  -74.407205182  163.437666491    77.8861   5  11   0.6841   0.6570   2.6049  -0.3694   0.9666  -0.9953   0.00    0.0
2018/11/07 00:44:15.000  -74.407207957  163.437661122    79.8637   5  11   0.6840   0.6563   2.6018  -0.3690   0.9648  -0.9947   0.00    0.0
2018/11/07 00:44:30.000  -74.407207552  163.437663232    79.2092   5  11   0.6840   0.6557   2.5989  -0.3685   0.9631  -0.9942   0.00    0.0
2018/11/07 00:44:45.000  -74.407207853  163.437660399    79.2643   5  11   0.6840   0.6552   2.5960  -0.3681   0.9614  -0.9937   0.00    0.0
2018/11/07 00:45:00.000  -74.407205129  163.437664530    79.9214   5  11   0.6841   0.6547   2.5933  -0.3677   0.9597  -0.9933   0.00    0.0
2018/11/07 00:45:15.000  -74.407206680  163.437663971    80.5217   5  11   0.6843   0.6543   2.5908  -0.3673   0.9581  -0.9929   0.00    0.0
2018/11/07 00:45:30.000  -74.407204759  163.437662258    79.1543   5  11   0.6845   0.6540   2.5884  -0.3669   0.9566  -0.9925   0.00    0.0
2018/11/07 00:45:45.000  -74.407206972  163.437659519    78.9228   5  11   0.6847   0.6537   2.5862  -0.3666   0.9550  -0.9921   0.00    0.0
2018/11/07 00:46:00.000  -74.407205856  163.437665221    78.9952   5  11   0.6850   0.6535   2.5840  -0.3662   0.9535  -0.9918   0.00    0.0
2018/11/07 00:46:15.000  -74.407206434  163.437652860    79.1223   5  11   0.6854   0.6534   2.5820  -0.3659   0.9521  -0.9915   0.00    0.0
2018/11/07 00:46:30.000  -74.407206068  163.437659811    79.1505   5  11   0.6858   0.6533   2.5801  -0.3656   0.9506  -0.9913   0.00    0.0
2018/11/07 00:46:45.000  -74.407204499  163.437656537    78.7399   5  11   0.6863   0.6533   2.5783  -0.3653   0.9492  -0.9910   0.00    0.0
2018/11/07 00:47:00.000  -74.407207534  163.437665814    79.3510   5  11   0.6868   0.6534   2.5766  -0.3650   0.9478  -0.9908   0.00    0.0
2018/11/07 00:47:15.000  -74.407204108  163.437654350    78.2994   5  11   0.6874   0.6535   2.5750  -0.3647   0.9464  -0.9906   0.00    0.0
2018/11/07 00:47:30.000  -74.407206200  163.437670587    79.6974   5  11   0.6880   0.6536   2.5735  -0.3644   0.9451  -0.9904   0.00    0.0
2018/11/07 00:47:45.000  -74.407204369  163.437650062    78.5743   5  11   0.6874   0.6522   2.5667  -0.3633   0.9416  -0.9886   0.00    0.0
2018/11/07 00:48:00.000  -74.407205799  163.437660777    80.2263   5  11   0.6869   0.6509   2.5600  -0.3621   0.9381  -0.9867   0.00    0.0
2018/11/07 00:48:15.000  -74.407205968  163.437666522    80.1727   5  11   0.6864   0.6497   2.5535  -0.3610   0.9347  -0.9849   0.00    0.0
2018/11/07 00:48:30.000  -74.407207335  163.437657971    79.4538   5  11   0.6859   0.6485   2.5471  -0.3599   0.9313  -0.9831   0.00    0.0
2018/11/07 00:48:45.000  -74.407205370  163.437661185    79.2175   5  11   0.6856   0.6474   2.5408  -0.3589   0.9280  -0.9814   0.00    0.0
2018/11/07 00:49:00.000  -74.407204961  163.437665122    79.3320   5  11   0.6852   0.6463   2.5347  -0.3578   0.9247  -0.9797   0.00    0.0
2018/11/07 00:49:15.000  -74.407203139  163.437660229    78.5667   5  11   0.6850   0.6454   2.5287  -0.3568   0.9214  -0.9780   0.00    0.0
2018/11/07 00:49:30.000  -74.407203808  163.437662394    78.3590   5  11   0.6848   0.6445   2.5229  -0.3558   0.9182  -0.9764   0.00    0.0
2018/11/07 00:49:45.000  -74.407204686  163.437654425    79.2406   5  11   0.6846   0.6436   2.5173  -0.3548   0.9151  -0.9748   0.00    0.0
2018/11/07 00:50:00.000  -74.407204913  163.437654456    79.1135   5  11   0.6845   0.6428   2.5118  -0.3538   0.9120  -0.9733   0.00    0.0
2018/11/07 00:50:15.000  -74.407204999  163.437654408    78.9863   5  11   0.6845   0.6422   2.5066  -0.3528   0.9089  -0.9718   0.00    0.0
2018/11/07 00:50:30.000  -74.407206854  163.437657493    79.5182   5  11   0.6845   0.6416   2.5015  -0.3519   0.9059  -0.9704   0.00    0.0
2018/11/07 00:50:45.000  -74.407197636  163.437645171    76.0180   5  10   0.9355   0.6734   3.5562  -0.5046   1.1566  -1.5980   0.00    0.0
2018/11/07 00:51:00.000  -74.407196772  163.437643375    75.8305   5  10   0.9352   0.6726   3.5497  -0.5031   1.1526  -1.5958   0.00    0.0
2018/11/07 00:51:15.000  -74.407199140  163.437636276    76.2318   5  10   0.9350   0.6718   3.5434  -0.5016   1.1487  -1.5938   0.00    0.0
2018/11/07 00:51:30.000  -74.407201838  163.437648024    77.7292   5  10   0.9349   0.6711   3.5371  -0.5002   1.1447  -1.5917   0.00    0.0
2018/11/07 00:51:45.000  -74.407200460  163.437648072    76.7253   5  10   0.9348   0.6705   3.5310  -0.4987   1.1408  -1.5897   0.00    0.0
2018/11/07 00:52:00.000  -74.407199310  163.437647159    76.0011   5  10   0.9347   0.6699   3.5250  -0.4972   1.1368  -1.5877   0.00    0.0
2018/11/07 00:52:15.000  -74.407197049  163.437648684    75.9594   5  10   0.9348   0.6694   3.5192  -0.4957   1.1329  -1.5858   0.00    0.0
2018/11/07 00:52:30.000  -74.407192844  163.437641911    73.6417   5  10   0.9348   0.6689   3.5135  -0.4942   1.1290  -1.5840   0.00    0.0
2018/11/07 00:52:45.000  -74.407196864  163.437647466    75.3310   5  10   0.9326   0.6668   3.4980  -0.4912   1.1219  -1.5777   0.00    0.0
2018/11/07 00:53:00.000  -74.407197248  163.437645934    75.2919   5  10   0.9304   0.6648   3.4825  -0.4882   1.1148  -1.5715   0.00    0.0
2018/11/07 00:53:15.000  -74.407195193  163.437649144    75.0978   5  10   0.9283   0.6628   3.4673  -0.4853   1.1078  -1.5654   0.00    0.0
2018/11/07 00:53:30.000  -74.407198832  163.437654852    77.3093   5  10   0.9263   0.6609   3.4523  -0.4823   1.1008  -1.5594   0.00    0.0
2018/11/07 00:53:45.000  -74.407199966  163.437648125    76.3450   5  10   0.9244   0.6591   3.4376  -0.4794   1.0939  -1.5534   0.00    0.0
2018/11/07 00:54:00.000  -74.407199247  163.437648173    76.7881   5  10   0.9225   0.6574   3.4231  -0.4765   1.0870  -1.5476   0.00    0.0
2018/11/07 00:54:15.000  -74.407199770  163.437646037    76.5265   5   9   0.9247   0.6558   3.6586  -0.4727   1.0739  -1.5786   0.00    0.0
2018/11/07 00:54:30.000  -74.407199170  163.437650836    77.5030   5   9   0.9231   0.6542   3.6463  -0.4699   1.0671  -1.5735   0.00    0.0
2018/11/07 00:54:45.000  -74.407201205  163.437653087    78.8588   5   9   0.9215   0.6527   3.6343  -0.4671   1.0604  -1.5685   0.00    0.0
2018/11/07 00:55:00.000  -74.407198513  163.437649814    77.1476   5   9   0.9200   0.6513   3.6225  -0.4642   1.0537  -1.5637   0.00    0.0
2018/11/07 00:55:15.000  -74.407200536  163.437656342    78.0595   5   9   0.9187   0.6499   3.6113  -0.4615   1.0471  -1.5590   0.00    0.0
2018/11/07 00:55:30.000  -74.407199112  163.437650200    76.6195   5   9   0.9174   0.6487   3.6003  -0.4587   1.0405  -1.5544   0.00    0.0
2018/11/07 00:55:45.000  -74.407203111  163.437655359    77.4689   5   9   0.9162   0.6475   3.5896  -0.4560   1.0340  -1.5499   0.00    0.0
2018/11/07 00:56:00.000  -74.407202393  163.437654787    77.3172   5   9   0.9151   0.6465   3.5793  -0.4533   1.0275  -1.5456   0.00    0.0
2018/11/07 00:56:15.000  -74.407200438  163.437653200    76.6288   5   9   0.9141   0.6455   3.5692  -0.4506   1.0211  -1.5413   0.00    0.0
2018/11/07 00:56:30.000  -74.407204270  163.437661152    78.4335   5   9   0.9131   0.6445   3.5595  -0.4480   1.0147  -1.5372   0.00    0.0
2018/11/07 00:56:45.000  -74.407201336  163.437662541    77.4711   5   9   0.9123   0.6437   3.5502  -0.4454   1.0083  -1.5332   0.00    0.0
2018/11/07 00:57:00.000  -74.407203960  163.437656372    78.7014   5  10   0.7496   0.6387   2.6822  -0.3976   0.9137  -1.0678   0.00    0.0
2018/11/07 00:57:15.000  -74.407204813  163.437666585    79.2280   5  10   0.7500   0.6383   2.6805  -0.3967   0.9109  -1.0670   0.00    0.0
2018/11/07 00:57:30.000  -74.407207298  163.437654922    78.9502   5  10   0.7503   0.6380   2.6790  -0.3959   0.9081  -1.0662   0.00    0.0
2018/11/07 00:57:45.000  -74.407203851  163.437653385    78.0205   5  10   0.7493   0.6362   2.6709  -0.3940   0.9031  -1.0634   0.00    0.0
2018/11/07 00:58:00.000  -74.407201873  163.437662052    77.9233   5  10   0.7483   0.6345   2.6631  -0.3922   0.8982  -1.0606   0.00    0.0
2018/11/07 00:58:15.000  -74.407202788  163.437664773    77.5431   5  10   0.7474   0.6329   2.6554  -0.3905   0.8934  -1.0579   0.00    0.0
2018/11/07 00:58:30.000  -74.407205080  163.437668774    78.5579   5  10   0.7466   0.6313   2.6480  -0.3887   0.8886  -1.0552   0.00    0.0
2018/11/07 00:58:45.000  -74.407205971  163.437666841    79.7023   5  10   0.7458   0.6298   2.6407  -0.3870   0.8839  -1.0526   0.00    0.0
2018/11/07 00:59:00.000  -74.407206248  163.437663742    79.0102   5  10   0.7451   0.6284   2.6337  -0.3854   0.8792  -1.0500   0.00    0.0
2018/11/07 00:59:15.000  -74.407203749  163.437658931    78.9335   5  10   0.7445   0.6270   2.6269  -0.3837   0.8746  -1.0475   0.00    0.0
2018/11/07 00:59:30.000  -74.407208837  163.437659517    80.3171   5  10   0.7439   0.6258   2.6204  -0.3821   0.8700  -1.0451   0.00    0.0
2018/11/07 00:59:45.000  -74.407205841  163.437662117    79.2413   5  10   0.7434   0.6246   2.6141  -0.3806   0.8655  -1.0428   0.00    0.0
2018/11/07 01:00:00.000  -74.407203834  163.437661502    79.3051   5  10   0.7430   0.6235   2.6081  -0.3790   0.8611  -1.0405   0.00    0.0
2018/11/07 01:00:15.000  -74.407203874  163.437661599    77.8694   5  10   0.7427   0.6224   2.6024  -0.3775   0.8568  -1.0383   0.00    0.0
2018/11/07 01:00:30.000  -74.407200770  163.437668060    78.3953   5  10   0.7424   0.6215   2.5971  -0.3761   0.8525  -1.0362   0.00    0.0
2018/11/07 01:00:45.000  -74.407204002  163.437651296    78.2076   5  10   0.7422   0.6206   2.5920  -0.3746   0.8483  -1.0342   0.00    0.0
2018/11/07 01:01:00.000  -74.407204829  163.437657194    78.3508   5  10   0.7421   0.6199   2.5872  -0.3732   0.8441  -1.0323   0.00    0.0
2018/11/07 01:01:15.000  -74.407204630  163.437659503    77.4130   5  10   0.7420   0.6191   2.5827  -0.3719   0.8400  -1.0304   0.00    0.0
2018/11/07 01:01:30.000  -74.407203710  163.437655781    78.4107   5  10   0.7420   0.6185   2.5784  -0.3705   0.8360  -1.0287   0.00    0.0
2018/11/07 01:01:45.000  -74.407202150  163.437644942    78.6907   5  10   0.7421   0.6179   2.5745  -0.3692   0.8320  -1.0270   0.00    0.0
2018/11/07 01:02:00.000  -74.407201969  163.437657873    77.8966   5  10   0.7422   0.6174   2.5708  -0.3679   0.8281  -1.0254   0.00    0.0
2018/11/07 01:02:15.000  -74.407199888  163.437651673    77.7538   5  10   0.7424   0.6170   2.5675  -0.3667   0.8243  -1.0238   0.00    0.0
2018/11/07 01:02:30.000  -74.407204421  163.437657220    79.1199   5  10   0.7427   0.6166   2.5644  -0.3655   0.8205  -1.0224   0.00    0.0
2018/11/07 01:02:45.000  -74.407205009  163.437662159    78.9211   5  10   0.7416   0.6149   2.5546  -0.3634   0.8146  -1.0188   0.00    0.0
2018/11/07 01:03:00.000  -74.407205671  163.437663401    78.4688   5  10   0.7405   0.6132   2.5450  -0.3613   0.8089  -1.0153   0.00    0.0
2018/11/07 01:03:15.000  -74.407206345  163.437661388    79.3565   5  10   0.7396   0.6117   2.5357  -0.3592   0.8032  -1.0119   0.00    0.0
2018/11/07 01:03:30.000  -74.407202926  163.437661552    79.2436   5  10   0.7387   0.6101   2.5267  -0.3572   0.7976  -1.0086   0.00    0.0
2018/11/07 01:03:45.000  -74.407203283  163.437656270    78.5564   5  10   0.7378   0.6087   2.5179  -0.3553   0.7921  -1.0054   0.00    0.0
2018/11/07 01:04:00.000  -74.407205955  163.437662596    79.7153   5  10   0.7371   0.6074   2.5095  -0.3534   0.7867  -1.0023   0.00    0.0
2018/11/07 01:04:15.000  -74.407205862  163.437662307    78.6026   5  10   0.7364   0.6061   2.5014  -0.3515   0.7813  -0.9992   0.00    0.0
2018/11/07 01:04:30.000  -74.407205339  163.437661136    78.1483   5  10   0.7358   0.6049   2.4937  -0.3496   0.7760  -0.9963   0.00    0.0
2018/11/07 01:04:45.000  -74.407204337  163.437653873    78.8196   5  10   0.7353   0.6038   2.4862  -0.3478   0.7707  -0.9934   0.00    0.0
2018/11/07 01:05:00.000  -74.407205123  163.437659165    79.1606   5  10   0.7348   0.6028   2.4791  -0.3460   0.7656  -0.9907   0.00    0.0
2018/11/07 01:05:15.000  -74.407201247  163.437656502    76.6729   5  10   0.7344   0.6018   2.4725  -0.3443   0.7606  -0.9881   0.00    0.0
2018/11/07 01:05:30.000  -74.407204402  163.437651454    78.4790   5  10   0.7341   0.6010   2.4662  -0.3426   0.7556  -0.9856   0.00    0.0
2018/11/07 01:05:45.000  -74.407203228  163.437659163    77.6143   5  10   0.7339   0.6002   2.4603  -0.3410   0.7507  -0.9831   0.00    0.0
2018/11/07 01:06:00.000  -74.407202566  163.437654114    77.9258   5  10   0.7337   0.5995   2.4547  -0.3393   0.7459  -0.9808   0.00    0.0
2018/11/07 01:06:15.000  -74.407203845  163.437660031    77.9516   5  10   0.7337   0.5989   2.4494  -0.3378   0.7411  -0.9786   0.00    0.0
2018/11/07 01:06:30.000  -74.407205351  163.437658276    78.8757   5  10   0.7336   0.5984   2.4445  -0.3362   0.7364  -0.9765   0.00    0.0
2018/11/07 01:06:45.000  -74.407202337  163.437666475    78.3887   5  10   0.7337   0.5979   2.4400  -0.3347   0.7318  -0.9745   0.00    0.0
2018/11/07 01:07:00.000  -74.407202865  163.437665388    78.0829   5  10   0.7338   0.5975   2.4358  -0.3332   0.7272  -0.9725   0.00    0.0
2018/11/07 01:07:15.000  -74.407205138  163.437665643    78.8552   5  10   0.7340   0.5972   2.4319  -0.3318   0.7227  -0.9707   0.00    0.0
2018/11/07 01:07:30.000  -74.407204497  163.437663352    77.6146   5  10   0.7343   0.5970   2.4284  -0.3303   0.7182  -0.9690   0.00    0.0
2018/11/07 01:07:45.000  -74.407204248  163.437663440    79.0788   5  10   0.7333   0.5955   2.4180  -0.3281   0.7120  -0.9652   0.00    0.0
2018/11/07 01:08:00.000  -74.407203007  163.437654043    78.4327   5  10   0.7323   0.5940   2.4079  -0.3260   0.7058  -0.9615   0.00    0.0
2018/11/07 01:08:15.000  -74.407202131  163.437655609    77.8597   5  10   0.7313   0.5926   2.3982  -0.3238   0.6998  -0.9579   0.00    0.0
2018/11/07 01:08:30.000  -74.407204234  163.437655312    78.6141   5  10   0.7305   0.5913   2.3888  -0.3217   0.6938  -0.9545   0.00    0.0
2018/11/07 01:08:45.000  -74.407203735  163.437654765    78.2701   5  10   0.7297   0.5901   2.3799  -0.3197   0.6879  -0.9511   0.00    0.0
2018/11/07 01:09:00.000  -74.407203412  163.437660093    78.8744   5  10   0.7290   0.5889   2.3712  -0.3177   0.6821  -0.9478   0.00    0.0
2018/11/07 01:09:15.000  -74.407202496  163.437660460    78.4777   5  10   0.7284   0.5878   2.3630  -0.3157   0.6763  -0.9447   0.00    0.0
2018/11/07 01:09:30.000  -74.407202279  163.437661802    79.2315   5  10   0.7278   0.5868   2.3551  -0.3137   0.6706  -0.9416   0.00    0.0
2018/11/07 01:09:45.000  -74.407204562  163.437659457    78.2855   5  10   0.7273   0.5859   2.3476  -0.3118   0.6650  -0.9387   0.00    0.0
2018/11/07 01:10:00.000  -74.407201863  163.437661341    78.3920   5  10   0.7269   0.5851   2.3405  -0.3100   0.6595  -0.9359   0.00    0.0
2018/11/07 01:10:15.000  -74.407202501  163.437657979    78.6349   5  10   0.7266   0.5844   2.3339  -0.3082   0.6541  -0.9332   0.00    0.0
2018/11/07 01:10:30.000  -74.407199163  163.437650268    78.5443   5  10   0.7264   0.5838   2.3277  -0.3064   0.6487  -0.9307   0.00    0.0
2018/11/07 01:10:45.000  -74.407204721  163.437654605    78.6156   5  10   0.7262   0.5832   2.3218  -0.3047   0.6434  -0.9282   0.00    0.0
2018/11/07 01:11:00.000  -74.407205728  163.437653697    79.1915   5  10   0.7261   0.5827   2.3164  -0.3030   0.6382  -0.9259   0.00    0.0
2018/11/07 01:11:15.000  -74.407204983  163.437654663    79.1682   5  10   0.7261   0.5823   2.3113  -0.3013   0.6330  -0.9237   0.00    0.0
2018/11/07 01:11:30.000  -74.407205344  163.437661670    79.3355   5  10   0.7262   0.5820   2.3066  -0.2997   0.6278  -0.9215   0.00    0.0
2018/11/07 01:11:45.000  -74.407199629  163.437651317    78.0109   5  10   0.7263   0.5817   2.3022  -0.2981   0.6227  -0.9195   0.00    0.0
2018/11/07 01:12:00.000  -74.407206373  163.437658345    79.4415   5  10   0.7265   0.5815   2.2983  -0.2965   0.6177  -0.9176   0.00    0.0
2018/11/07 01:12:15.000  -74.407201728  163.437657995    77.8552   5  10   0.7268   0.5814   2.2947  -0.2949   0.6127  -0.9158   0.00    0.0
2018/11/07 01:12:30.000  -74.407207769  163.437659588    79.8324   5  10   0.7271   0.5814   2.2914  -0.2934   0.6077  -0.9141   0.00    0.0
2018/11/07 01:12:45.000  -74.407206545  163.437659439    79.2386   5  10   0.7261   0.5801   2.2815  -0.2912   0.6013  -0.9104   0.00    0.0
2018/11/07 01:13:00.000  -74.407203140  163.437656533    78.0221   5  10   0.7253   0.5789   2.2719  -0.2891   0.5950  -0.9069   0.00    0.0
2018/11/07 01:13:15.000  -74.407207003  163.437661848    78.4198   5  10   0.7244   0.5778   2.2626  -0.2869   0.5888  -0.9035   0.00    0.0
2018/11/07 01:13:30.000  -74.407203942  163.437653986    78.3322   5  10   0.7237   0.5768   2.2538  -0.2848   0.5826  -0.9002   0.00    0.0
2018/11/07 01:13:45.000  -74.407206463  163.437657708    78.8648   5  10   0.7230   0.5758   2.2453  -0.2828   0.5765  -0.8970   0.00    0.0
2018/11/07 01:14:00.000  -74.407204757  163.437659429    78.8961   5  10   0.7224   0.5749   2.2373  -0.2808   0.5704  -0.8939   0.00    0.0
2018/11/07 01:14:15.000  -74.407203506  163.437654949    78.4345   5  10   0.7219   0.5741   2.2296  -0.2788   0.5644  -0.8910   0.00    0.0
2018/11/07 01:14:30.000  -74.407206162  163.437660724    79.9839   5  10   0.7215   0.5734   2.2223  -0.2768   0.5584  -0.8881   0.00    0.0
2018/11/07 01:14:45.000  -74.407203982  163.437658081    80.0725   5  10   0.7211   0.5727   2.2154  -0.2749   0.5525  -0.8854   0.00    0.0
2018/11/07 01:15:00.000  -74.407206320  163.437657499    78.4840   5  10   0.7208   0.5721   2.2089  -0.2730   0.5467  -0.8827   0.00    0.0
2018/11/07 01:15:15.000  -74.407206873  163.437658226    80.0517   5  10   0.7206   0.5717   2.2030  -0.2712   0.5409  -0.8803   0.00    0.0
2018/11/07 01:15:30.000  -74.407204080  163.437652861    78.9567   5  10   0.7205   0.5713   2.1974  -0.2694   0.5352  -0.8779   0.00    0.0
2018/11/07 01:15:45.000  -74.407204568  163.437663306    79.1637   5  10   0.7205   0.5710   2.1923  -0.2677   0.5295  -0.8757   0.00    0.0
2018/11/07 01:16:00.000  -74.407203848  163.437653717    79.2130   5  10   0.7205   0.5707   2.1875  -0.2659   0.5238  -0.8735   0.00    0.0
2018/11/07 01:16:15.000  -74.407203056  163.437652752    78.8510   5  10   0.7206   0.5706   2.1831  -0.2642   0.5181  -0.8715   0.00    0.0
2018/11/07 01:16:30.000  -74.407203593  163.437660070    78.8773   5  10   0.7207   0.5705   2.1791  -0.2625   0.5125  -0.8696   0.00    0.0
2018/11/07 01:16:45.000  -74.407205169  163.437667244    79.7231   5  10   0.7210   0.5705   2.1754  -0.2609   0.5069  -0.8677   0.00    0.0
2018/11/07 01:17:00.000  -74.407203737  163.437662021    78.4267   5  10   0.7213   0.5705   2.1721  -0.2593   0.5012  -0.8660   0.00    0.0
2018/11/07 01:17:15.000  -74.407205820  163.437655683    78.6642   5  10   0.7217   0.5707   2.1692  -0.2577   0.4956  -0.8644   0.00    0.0
2018/11/07 01:17:30.000  -74.407205016  163.437664523    79.4303   5  10   0.7221   0.5709   2.1667  -0.2561   0.4900  -0.8629   0.00    0.0
2018/11/07 01:17:45.000  -74.407202753  163.437658779    78.6397   5  10   0.7213   0.5699   2.1577  -0.2539   0.4834  -0.8596   0.00    0.0
2018/11/07 01:18:00.000  -74.407204822  163.437653439    79.3818   5  11   0.6208   0.5514   1.8021  -0.1101   0.2513  -0.5525   0.00    0.0
2018/11/07 01:18:15.000  -74.407204733  163.437667056    78.7440   5  11   0.6205   0.5509   1.7980  -0.1079   0.2444  -0.5514   0.00    0.0
2018/11/07 01:18:30.000  -74.407204288  163.437660181    80.0976   5  11   0.6202   0.5504   1.7943  -0.1057   0.2372  -0.5505   0.00    0.0
2018/11/07 01:18:45.000  -74.407204301  163.437667616    80.1996   5  11   0.6199   0.5500   1.7909  -0.1034   0.2299  -0.5496   0.00    0.0
2018/11/07 01:19:00.000  -74.407207235  163.437667053    79.2367   5  11   0.6198   0.5497   1.7877  -0.1011   0.2223  -0.5487   0.00    0.0
2018/11/07 01:19:15.000  -74.407206792  163.437660189    79.7430   5  11   0.6196   0.5494   1.7848  -0.0988   0.2145  -0.5478   0.00    0.0
2018/11/07 01:19:30.000  -74.407206379  163.437660828    79.1165   5  11   0.6195   0.5492   1.7822  -0.0964   0.2063  -0.5470   0.00    0.0
2018/11/07 01:19:45.000  -74.407207606  163.437663904    78.8993   5  11   0.6195   0.5490   1.7799  -0.0939   0.1979  -0.5462   0.00    0.0
2018/11/07 01:20:00.000  -74.407204109  163.437662178    79.1277   5  11   0.6196   0.5490   1.7779  -0.0914   0.1890  -0.5455   0.00    0.0
2018/11/07 01:20:15.000  -74.407204793  163.437660027    78.7460   5  11   0.6197   0.5490   1.7763  -0.0889   0.1797  -0.5448   0.00    0.0
2018/11/07 01:20:30.000  -74.407206699  163.437667010    78.4340   5  11   0.6198   0.5491   1.7750  -0.0862   0.1698  -0.5441   0.00    0.0
2018/11/07 01:20:45.000  -74.407203506  163.437663546    78.4964   5  11   0.6200   0.5492   1.7740  -0.0835   0.1593  -0.5435   0.00    0.0
2018/11/07 01:21:00.000  -74.407206441  163.437659684    78.5874   5  11   0.6203   0.5495   1.7733  -0.0807   0.1479  -0.5430   0.00    0.0
2018/11/07 01:21:15.000  -74.407205136  163.437666547    78.9690   5  11   0.6206   0.5498   1.7729  -0.0778   0.1356  -0.5424   0.00    0.0
2018/11/07 01:21:30.000  -74.407206202  163.437660030    79.4268   5  11   0.6209   0.5501   1.7728  -0.0748   0.1220  -0.5419   0.00    0.0
2018/11/07 01:21:45.000  -74.407205635  163.437656125    78.7966   5  11   0.6214   0.5506   1.7730  -0.0716   0.1065  -0.5415   0.00    0.0
2018/11/07 01:22:00.000  -74.407207230  163.437659081    79.2495   5  11   0.6218   0.5511   1.7735  -0.0683   0.0881  -0.5411   0.00    0.0
2018/11/07 01:22:15.000  -74.407206395  163.437657086    78.7445   5  12   0.6148   0.5289   1.7081  -0.1394  -0.2667  -0.5822   0.00    0.0
2018/11/07 01:22:30.000  -74.407206275  163.437655514    78.7438   5  12   0.6152   0.5294   1.7101  -0.1383  -0.2727  -0.5820   0.00    0.0
2018/11/07 01:22:45.000  -74.407204001  163.437654249    78.5982   5  12   0.6147   0.5290   1.7073  -0.1369  -0.2769  -0.5811   0.00    0.0
2018/11/07 01:23:00.000  -74.407204599  163.437654052    78.2877   5  12   0.6143   0.5285   1.7048  -0.1356  -0.2811  -0.5803   0.00    0.0
2018/11/07 01:23:15.000  -74.407207613  163.437657361    78.4403   5  12   0.6139   0.5282   1.7025  -0.1342  -0.2853  -0.5794   0.00    0.0
2018/11/07 01:23:30.000  -74.407203813  163.437658203    78.9504   5  12   0.6135   0.5279   1.7004  -0.1329  -0.2895  -0.5787   0.00    0.0
2018/11/07 01:23:45.000  -74.407204585  163.437665438    78.2462   5  12   0.6133   0.5276   1.6987  -0.1315  -0.2938  -0.5779   0.00    0.0
2018/11/07 01:24:00.000  -74.407204141  163.437659381    77.8594   5  12   0.6130   0.5274   1.6972  -0.1302  -0.2980  -0.5772   0.00    0.0
2018/11/07 01:24:15.000  -74.407206452  163.437656470    78.9516   5  12   0.6128   0.5273   1.6960  -0.1289  -0.3022  -0.5766   0.00    0.0
2018/11/07 01:24:30.000  -74.407204597  163.437659358    78.7902   5  12   0.6127   0.5272   1.6950  -0.1275  -0.3065  -0.5760   0.00    0.0
2018/11/07 01:24:45.000  -74.407204499  163.437658392    78.7898   5  12   0.6126   0.5272   1.6944  -0.1262  -0.3108  -0.5754   0.00    0.0
2018/11/07 01:25:00.000  -74.407204878  163.437664848    78.4408   5  12   0.6126   0.5273   1.6940  -0.1249  -0.3151  -0.5749   0.00    0.0
2018/11/07 01:25:15.000  -74.407207173  163.437661744    79.5205   5  12   0.6126   0.5274   1.6940  -0.1236  -0.3194  -0.5745   0.00    0.0
2018/11/07 01:25:30.000  -74.407206919  163.437656504    78.7337   5  12   0.6127   0.5277   1.6943  -0.1223  -0.3238  -0.5741   0.00    0.0
2018/11/07 01:25:45.000  -74.407209413  163.437655284    78.1757   5  12   0.6128   0.5279   1.6948  -0.1210  -0.3282  -0.5737   0.00    0.0
2018/11/07 01:26:00.000  -74.407205838  163.437660081    78.6292   5  12   0.6130   0.5283   1.6957  -0.1197  -0.3326  -0.5734   0.00    0.0
2018/11/07 01:26:15.000  -74.407204235  163.437656332    78.8373   5  12   0.6133   0.5287   1.6968  -0.1184  -0.3371  -0.5732   0.00    0.0
2018/11/07 01:26:30.000  -74.407205178  163.437662397    78.0097   5  12   0.6136   0.5291   1.6983  -0.1171  -0.3415  -0.5729   0.00    0.0
2018/11/07 01:26:45.000  -74.407207033  163.437662669    79.0582   5  12   0.6139   0.5296   1.7000  -0.1158  -0.3461  -0.5728   0.00    0.0
2018/11/07 01:27:00.000  -74.407208194  163.437655105    78.3485   5  12   0.6143   0.5302   1.7020  -0.1146  -0.3506  -0.5726   0.00    0.0
2018/11/07 01:27:15.000  -74.407207239  163.437647999    78.8694   5  12   0.6147   0.5308   1.7043  -0.1133  -0.3552  -0.5726   0.00    0.0
2018/11/07 01:27:30.000  -74.407205308  163.437659008    78.1976   5  12   0.6152   0.5315   1.7068  -0.1120  -0.3598  -0.5725   0.00    0.0
2018/11/07 01:27:45.000  -74.407205778  163.437657610    77.8673   5  12   0.6148   0.5312   1.7044  -0.1104  -0.3628  -0.5718   0.00    0.0
2018/11/07 01:28:00.000  -74.407205471  163.437660549    78.4554   5  12   0.6144   0.5308   1.7022  -0.1088  -0.3659  -0.5710   0.00    0.0
2018/11/07 01:28:15.000  -74.407207816  163.437660653    78.1480   5  12   0.6141   0.5306   1.7003  -0.1071  -0.3690  -0.5704   0.00    0.0
2018/11/07 01:28:30.000  -74.407204979  163.437660084    79.0165   5  12   0.6138   0.5304   1.6986  -0.1055  -0.3721  -0.5697   0.00    0.0
2018/11/07 01:28:45.000  -74.407207051  163.437664399    78.7017   5  12   0.6136   0.5302   1.6972  -0.1038  -0.3753  -0.5691   0.00    0.0
2018/11/07 01:29:00.000  -74.407205212  163.437658847    78.7931   5  12   0.6134   0.5302   1.6961  -0.1022  -0.3785  -0.5686   0.00    0.0
2018/11/07 01:29:15.000  -74.407206563  163.437656656    78.9311   5  12   0.6133   0.5302   1.6953  -0.1005  -0.3818  -0.5681   0.00    0.0
2018/11/07 01:29:30.000  -74.407206243  163.437660964    77.4328   5  12   0.6132   0.5302   1.6947  -0.0988  -0.3851  -0.5677   0.00    0.0
2018/11/07 01:29:45.000  -74.407206066  163.437662777    79.0060   5  12   0.6132   0.5303   1.6944  -0.0972  -0.3885  -0.5673   0.00    0.0
2018/11/07 01:30:00.000  -74.407203444  163.437657232    78.4199   5  12   0.6132   0.5305   1.6945  -0.0955  -0.3919  -0.5669   0.00    0.0
2018/11/07 01:30:15.000  -74.407205574  163.437662160    79.0159   5  12   0.6133   0.5307   1.6949  -0.0938  -0.3954  -0.5666   0.00    0.0
2018/11/07 01:30:30.000  -74.407205710  163.437662559    78.8318   5  12   0.6134   0.5310   1.6957  -0.0921  -0.3989  -0.5664   0.00    0.0
2018/11/07 01:30:45.000  -74.407204362  163.437658226    78.6152   5  12   0.6136   0.5314   1.6967  -0.0904  -0.4025  -0.5662   0.00    0.0
2018/11/07 01:31:00.000  -74.407204882  163.437655731    78.5115   5  12   0.6139   0.5319   1.6980  -0.0887  -0.4062  -0.5661   0.00    0.0
2018/11/07 01:31:15.000  -74.407205566  163.437659723    78.2941   5  12   0.6141   0.5324   1.6996  -0.0869  -0.4099  -0.5659   0.00    0.0
2018/11/07 01:31:30.000  -74.407206999  163.437662930    78.8080   5  12   0.6145   0.5329   1.7015  -0.0852  -0.4136  -0.5659   0.00    0.0
2018/11/07 01:31:45.000  -74.407205904  163.437659899    78.1405   5  12   0.6149   0.5335   1.7037  -0.0834  -0.4174  -0.5659   0.00    0.0
2018/11/07 01:32:00.000  -74.407206726  163.437660442    78.6466   5  12   0.6153   0.5342   1.7061  -0.0816  -0.4213  -0.5659   0.00    0.0
2018/11/07 01:32:15.000  -74.407203279  163.437655589    78.8969   5  12   0.6158   0.5349   1.7089  -0.0798  -0.4252  -0.5660   0.00    0.0
2018/11/07 01:32:30.000  -74.407205809  163.437666358    78.9759   5  12   0.6164   0.5357   1.7119  -0.0779  -0.4291  -0.5661   0.00    0.0
2018/11/07 01:32:45.000  -74.407206883  163.437666068    78.3388   5  12   0.6160   0.5355   1.7097  -0.0756  -0.4315  -0.5655   0.00    0.0
2018/11/07 01:33:00.000  -74.407205912  163.437671630    78.5915   5  12   0.6157   0.5353   1.7079  -0.0733  -0.4340  -0.5650   0.00    0.0
2018/11/07 01:33:15.000  -74.407205498  163.437664034    77.4572   5  12   0.6154   0.5351   1.7063  -0.0709  -0.4365  -0.5645   0.00    0.0
2018/11/07 01:33:30.000  -74.407207932  163.437662469    79.0842   5  12   0.6152   0.5350   1.7050  -0.0684  -0.4391  -0.5640   0.00    0.0
2018/11/07 01:33:45.000  -74.407205580  163.437665158    77.8535   5  12   0.6150   0.5350   1.7041  -0.0659  -0.4417  -0.5636   0.00    0.0
2018/11/07 01:34:00.000  -74.407208707  163.437659665    78.2903   5  12   0.6149   0.5350   1.7034  -0.0633  -0.4444  -0.5632   0.00    0.0
2018/11/07 01:34:15.000  -74.407205509  163.437655546    78.8266   5  12   0.6148   0.5351   1.7030  -0.0607  -0.4471  -0.5629   0.00    0.0
2018/11/07 01:34:30.000  -74.407207274  163.437655877    78.8847   5  12   0.6148   0.5352   1.7028  -0.0579  -0.4499  -0.5626   0.00    0.0
2018/11/07 01:34:45.000  -74.407206391  163.437668048    78.1896   5  12   0.6148   0.5354   1.7030  -0.0550  -0.4528  -0.5624   0.00    0.0
2018/11/07 01:35:00.000  -74.407206824  163.437662427    78.8550   5  12   0.6149   0.5357   1.7035  -0.0520  -0.4557  -0.5622   0.00    0.0
2018/11/07 01:35:15.000  -74.407207064  163.437659067    78.2908   5  12   0.6150   0.5360   1.7043  -0.0488  -0.4587  -0.5621   0.00    0.0
2018/11/07 01:35:30.000  -74.407207950  163.437659579    78.3177   5  12   0.6152   0.5364   1.7055  -0.0455  -0.4617  -0.5620   0.00    0.0
2018/11/07 01:35:45.000  -74.407205783  163.437660333    77.6142   5  12   0.6155   0.5369   1.7069  -0.0419  -0.4649  -0.5620   0.00    0.0
2018/11/07 01:36:00.000  -74.407206074  163.437662925    78.0553   5  12   0.6158   0.5374   1.7086  -0.0380  -0.4681  -0.5620   0.00    0.0
2018/11/07 01:36:15.000  -74.407206877  163.437653768    78.3170   5  12   0.6161   0.5380   1.7106  -0.0338  -0.4713  -0.5621   0.00    0.0
2018/11/07 01:36:30.000  -74.407205963  163.437657046    77.7877   5  12   0.6165   0.5386   1.7129  -0.0289  -0.4746  -0.5622   0.00    0.0
2018/11/07 01:36:45.000  -74.407206991  163.437670033    77.9667   5  12   0.6170   0.5394   1.7154  -0.0230  -0.4780  -0.5624   0.00    0.0
2018/11/07 01:37:00.000  -74.407205555  163.437664760    78.1760   5  12   0.6175   0.5401   1.7183  -0.0151  -0.4814  -0.5626   0.00    0.0
2018/11/07 01:37:15.000  -74.407209491  163.437655853    78.9639   5  12   0.6180   0.5409   1.7214   0.0085  -0.4849  -0.5628   0.00    0.0
2018/11/07 01:37:30.000  -74.407208091  163.437664755    78.9838   5  12   0.6186   0.5418   1.7248   0.0193  -0.4884  -0.5631   0.00    0.0
2018/11/07 01:37:45.000  -74.407207580  163.437654119    79.3407   5  12   0.6183   0.5416   1.7231   0.0268  -0.4904  -0.5627   0.00    0.0
2018/11/07 01:38:00.000  -74.407208542  163.437665302    77.9647   5  12   0.6180   0.5415   1.7217   0.0326  -0.4925  -0.5623   0.00    0.0
2018/11/07 01:38:15.000  -74.407206695  163.437660083    78.3569   5  12   0.6178   0.5414   1.7205   0.0374  -0.4946  -0.5620   0.00    0.0
2018/11/07 01:38:30.000  -74.407205812  163.437655391    78.4373   5  12   0.6177   0.5414   1.7196   0.0417  -0.4968  -0.5617   0.00    0.0
2018/11/07 01:38:45.000  -74.407204806  163.437663205    78.3353   5  12   0.6175   0.5415   1.7191   0.0456  -0.4991  -0.5615   0.00    0.0
2018/11/07 01:39:00.000  -74.407208402  163.437662474    79.2912   5  12   0.6175   0.5416   1.7188   0.0491  -0.5014  -0.5613   0.00    0.0
2018/11/07 01:39:15.000  -74.407205957  163.437670776    77.8636   5  12   0.6175   0.5417   1.7188   0.0523  -0.5038  -0.5611   0.00    0.0
2018/11/07 01:39:30.000  -74.407207392  163.437664131    78.0641   5  12   0.6175   0.5419   1.7190   0.0554  -0.5062  -0.5610   0.00    0.0
2018/11/07 01:39:45.000  -74.407203115  163.437665845    78.3182   5  12   0.6176   0.5422   1.7196   0.0583  -0.5087  -0.5610   0.00    0.0
2018/11/07 01:40:00.000  -74.407205582  163.437669418    78.2453   5  12   0.6177   0.5426   1.7204   0.0610  -0.5113  -0.5610   0.00    0.0
2018/11/07 01:40:15.000  -74.407207216  163.437662705    78.6935   5  12   0.6179   0.5430   1.7216   0.0636  -0.5139  -0.5611   0.00    0.0
2018/11/07 01:40:30.000  -74.407205498  163.437663709    77.9531   5  12   0.6182   0.5435   1.7231   0.0660  -0.5167  -0.5612   0.00    0.0
2018/11/07 01:40:45.000  -74.407208481  163.437662723    78.1449   5  12   0.6185   0.5440   1.7249   0.0684  -0.5195  -0.5613   0.00    0.0
2018/11/07 01:41:00.000  -74.407208160  163.437667595    78.5400   5  12   0.6188   0.5446   1.7270   0.0706  -0.5223  -0.5615   0.00    0.0
2018/11/07 01:41:15.000  -74.407205343  163.437669618    77.2169   5  12   0.6192   0.5453   1.7293   0.0728  -0.5252  -0.5617   0.00    0.0
2018/11/07 01:41:30.000  -74.407205943  163.437662675    78.4592   5  12   0.6197   0.5460   1.7319   0.0749  -0.5282  -0.5620   0.00    0.0
2018/11/07 01:41:45.000  -74.407205133  163.437674925    77.7119   5  12   0.6202   0.5468   1.7347   0.0770  -0.5312  -0.5623   0.00    0.0
2018/11/07 01:42:00.000  -74.407205547  163.437666661    78.1597   5  12   0.6207   0.5476   1.7379   0.0790  -0.5343  -0.5627   0.00    0.0
2018/11/07 01:42:15.000  -74.407207543  163.437665959    78.3377   5  12   0.6213   0.5485   1.7413   0.0809  -0.5375  -0.5631   0.00    0.0
2018/11/07 01:42:30.000  -74.407209351  163.437671517    78.1915   5  12   0.6220   0.5494   1.7449   0.0827  -0.5407  -0.5635   0.00    0.0
2018/11/07 01:42:45.000  -74.407207414  163.437667137    78.1722   5  12   0.6217   0.5493   1.7436   0.0848  -0.5424  -0.5633   0.00    0.0
2018/11/07 01:43:00.000  -74.407207023  163.437663421    77.9266   5  12   0.6215   0.5492   1.7425   0.0868  -0.5442  -0.5631   0.00    0.0
2018/11/07 01:43:15.000  -74.407207652  163.437667301    78.0888   5  12   0.6214   0.5492   1.7418   0.0888  -0.5460  -0.5630   0.00    0.0
2018/11/07 01:43:30.000  -74.407207273  163.437674369    78.0827   5  12   0.6213   0.5492   1.7413   0.0907  -0.5479  -0.5629   0.00    0.0
2018/11/07 01:43:45.000  -74.407207171  163.437671038    78.3996   5  12   0.6212   0.5494   1.7410   0.0925  -0.5499  -0.5629   0.00    0.0
2018/11/07 01:44:00.000  -74.407206758  163.437665524    77.9002   5  12   0.6212   0.5495   1.7411   0.0943  -0.5519  -0.5629   0.00    0.0
2018/11/07 01:44:15.000  -74.407206029  163.437669651    78.0314   5  12   0.6212   0.5497   1.7414   0.0961  -0.5540  -0.5629   0.00    0.0
