% program   : RTKLIB ver.2.4.3
% inp file  : _by_type/_obs/hillary/20181106_20181108.18o
% inp file  : _by_type/_obs/base/20181106.18o
% inp file  : _by_type/_sp3+clk/igs20262.clk
% inp file  : _by_type/_sp3+clk/igs20262.sp3
% inp file  : _by_type/_nav/hillary/20181106_20181108.18n
% obs start : 2018/11/06 00:00:00.0 GPST (week2026 172800.0s)
% obs end   : 2018/11/08 23:59:45.0 GPST (week2026 431985.0s)
% pos mode  : dgps
% freqs     : L1+L2
% solution  : combined
% elev mask : 15.0 deg
% dynamics  : off
% tidecorr  : off
% ionos opt : iono-free
% tropo opt : est ztd+grad
% ephemeris : precise
% navi sys  : gps glonass
% antenna1  :                       ( 0.0000  0.0000  0.0000)
% antenna2  :                       ( 0.0000  0.0000  0.0000)
% ref pos   : 90.000000000   0.000000000-6335367.6285
%
% (lat/lon/height=WGS84/ellipsoidal,Q=1:fix,2:float,3:sbas,4:dgps,5:single,6:ppp,ns=# of satellites)
%  GPST                  latitude(deg) longitude(deg)  height(m)   Q  ns   sdn(m)   sde(m)   sdu(m)  sdne(m)  sdeu(m)  sdun(m) age(s)  ratio
2018/11/06 00:00:00.000  -74.393404171  163.452939103    97.5766   5   8   0.8211   0.6421   2.6623   0.2363  -0.4849  -1.1438   0.00    0.0
2018/11/06 00:00:15.000  -74.393398373  163.452946836    95.9695   5   9   0.6890   0.6151   2.0160  -0.1626   0.2971  -0.7288   0.00    0.0
2018/11/06 00:00:30.000  -74.393398867  163.452939511    96.9948   5   9   0.6886   0.6151   2.0203  -0.1633   0.3015  -0.7295   0.00    0.0
2018/11/06 00:00:45.000  -74.393401954  163.452941213    97.1740   5   9   0.6884   0.6152   2.0248  -0.1640   0.3061  -0.7302   0.00    0.0
2018/11/06 00:01:00.000  -74.393398281  163.452936200    96.3293   5   9   0.6882   0.6154   2.0297  -0.1648   0.3106  -0.7311   0.00    0.0
2018/11/06 00:01:15.000  -74.393400729  163.452938128    96.4091   5   9   0.6882   0.6157   2.0348  -0.1656   0.3152  -0.7320   0.00    0.0
2018/11/06 00:01:30.000  -74.393402187  163.452937195    96.4067   5   9   0.6881   0.6160   2.0402  -0.1665   0.3199  -0.7330   0.00    0.0
2018/11/06 00:01:45.000  -74.393399309  163.452939502    96.9113   5   9   0.6882   0.6165   2.0458  -0.1674   0.3247  -0.7341   0.00    0.0
2018/11/06 00:02:00.000  -74.393398828  163.452941223    96.4240   5   9   0.6883   0.6170   2.0517  -0.1684   0.3294  -0.7353   0.00    0.0
2018/11/06 00:02:15.000  -74.393400412  163.452941700    96.4066   5   9   0.6886   0.6176   2.0579  -0.1694   0.3343  -0.7366   0.00    0.0
2018/11/06 00:02:30.000  -74.393401359  163.452939908    97.6675   5   9   0.6888   0.6183   2.0644  -0.1705   0.3392  -0.7379   0.00    0.0
2018/11/06 00:02:45.000  -74.393400664  163.452947316    96.4503   5   9   0.6878   0.6174   2.0663  -0.1708   0.3429  -0.7380   0.00    0.0
2018/11/06 00:03:00.000  -74.393400309  163.452944339    97.5796   5   9   0.6868   0.6166   2.0685  -0.1712   0.3466  -0.7382   0.00    0.0
2018/11/06 00:03:15.000  -74.393398918  163.452939457    96.4895   5   9   0.6859   0.6159   2.0710  -0.1716   0.3504  -0.7384   0.00    0.0
2018/11/06 00:03:30.000  -74.393400173  163.452941137    96.9728   5   9   0.6851   0.6153   2.0737  -0.1720   0.3541  -0.7387   0.00    0.0
2018/11/06 00:03:45.000  -74.393402313  163.452941945    97.5612   5   9   0.6844   0.6148   2.0766  -0.1725   0.3580  -0.7391   0.00    0.0
2018/11/06 00:04:00.000  -74.393402030  163.452943062    97.5182   5   9   0.6837   0.6143   2.0798  -0.1730   0.3619  -0.7396   0.00    0.0
2018/11/06 00:04:15.000  -74.393399855  163.452947944    97.0950   5   9   0.6831   0.6139   2.0833  -0.1736   0.3658  -0.7401   0.00    0.0
2018/11/06 00:04:30.000  -74.393396826  163.452932559    97.1551   5   9   0.6826   0.6137   2.0870  -0.1742   0.3698  -0.7408   0.00    0.0
2018/11/06 00:04:45.000  -74.393400020  163.452949865    97.7058   5   9   0.6822   0.6135   2.0910  -0.1749   0.3739  -0.7415   0.00    0.0
2018/11/06 00:05:00.000  -74.393401215  163.452954274    97.6810   5   9   0.6818   0.6134   2.0953  -0.1756   0.3780  -0.7423   0.00    0.0
2018/11/06 00:05:15.000  -74.393400074  163.452946232    97.1522   5   9   0.6816   0.6134   2.1000  -0.1765   0.3823  -0.7433   0.00    0.0
2018/11/06 00:05:30.000  -74.393398343  163.452950625    96.8087   5   9   0.6814   0.6135   2.1050  -0.1773   0.3866  -0.7443   0.00    0.0
2018/11/06 00:05:45.000  -74.393399265  163.452943965    96.0102   5   9   0.6813   0.6137   2.1103  -0.1783   0.3911  -0.7455   0.00    0.0
2018/11/06 00:06:00.000  -74.393403754  163.452953625    97.9518   5   9   0.6813   0.6140   2.1159  -0.1793   0.3956  -0.7467   0.00    0.0
2018/11/06 00:06:15.000  -74.393398727  163.452959481    96.8276   5   9   0.6813   0.6144   2.1217  -0.1803   0.4001  -0.7480   0.00    0.0
2018/11/06 00:06:30.000  -74.393398371  163.452956361    96.6908   5   9   0.6815   0.6148   2.1279  -0.1814   0.4048  -0.7495   0.00    0.0
2018/11/06 00:06:45.000  -74.393400168  163.452950311    97.2442   5   9   0.6817   0.6154   2.1343  -0.1826   0.4095  -0.7510   0.00    0.0
2018/11/06 00:07:00.000  -74.393398804  163.452954643    97.2551   5   9   0.6819   0.6160   2.1411  -0.1838   0.4144  -0.7526   0.00    0.0
2018/11/06 00:07:15.000  -74.393399712  163.452953442    97.2811   5   9   0.6823   0.6168   2.1481  -0.1850   0.4193  -0.7543   0.00    0.0
2018/11/06 00:07:30.000  -74.393399316  163.452944525    96.5485   5   9   0.6827   0.6176   2.1555  -0.1863   0.4243  -0.7561   0.00    0.0
2018/11/06 00:07:45.000  -74.393399964  163.452945625    97.1382   5   9   0.6818   0.6168   2.1578  -0.1868   0.4277  -0.7565   0.00    0.0
2018/11/06 00:08:00.000  -74.393400412  163.452946972    97.9303   5   9   0.6810   0.6161   2.1605  -0.1873   0.4312  -0.7570   0.00    0.0
2018/11/06 00:08:15.000  -74.393396764  163.452943642    97.4364   5   9   0.6803   0.6155   2.1634  -0.1878   0.4348  -0.7575   0.00    0.0
2018/11/06 00:08:30.000  -74.393399880  163.452948830    97.5707   5   9   0.6796   0.6150   2.1666  -0.1884   0.4384  -0.7581   0.00    0.0
2018/11/06 00:08:45.000  -74.393401479  163.452950357    97.5639   5   9   0.6790   0.6146   2.1701  -0.1891   0.4421  -0.7589   0.00    0.0
2018/11/06 00:09:00.000  -74.393400656  163.452941129    97.3585   5   9   0.6785   0.6143   2.1739  -0.1898   0.4459  -0.7597   0.00    0.0
2018/11/06 00:09:15.000  -74.393400720  163.452956650    97.4808   5   9   0.6780   0.6140   2.1779  -0.1905   0.4498  -0.7606   0.00    0.0
2018/11/06 00:09:30.000  -74.393400141  163.452943884    97.3102   5   9   0.6776   0.6139   2.1822  -0.1913   0.4538  -0.7616   0.00    0.0
2018/11/06 00:09:45.000  -74.393401341  163.452956790    98.3647   5   9   0.6773   0.6138   2.1869  -0.1922   0.4578  -0.7627   0.00    0.0
2018/11/06 00:10:00.000  -74.393398865  163.452953269    97.1036   5   9   0.6771   0.6138   2.1918  -0.1931   0.4619  -0.7639   0.00    0.0
2018/11/06 00:10:15.000  -74.393399308  163.452948160    97.0634   5   9   0.6770   0.6140   2.1971  -0.1941   0.4662  -0.7652   0.00    0.0
2018/11/06 00:10:30.000  -74.393400465  163.452954711    97.1730   5   9   0.6770   0.6142   2.2028  -0.1952   0.4706  -0.7667   0.00    0.0
2018/11/06 00:10:45.000  -74.393399301  163.452944601    97.6319   5   9   0.6770   0.6145   2.2088  -0.1963   0.4751  -0.7682   0.00    0.0
2018/11/06 00:11:00.000  -74.393399114  163.452939931    96.5900   5   9   0.6771   0.6150   2.2150  -0.1975   0.4796  -0.7698   0.00    0.0
2018/11/06 00:11:15.000  -74.393398352  163.452947375    97.3041   5   9   0.6773   0.6155   2.2216  -0.1988   0.4843  -0.7716   0.00    0.0
2018/11/06 00:11:30.000  -74.393399605  163.452945500    97.8388   5   9   0.6776   0.6161   2.2285  -0.2001   0.4891  -0.7734   0.00    0.0
2018/11/06 00:11:45.000  -74.393399136  163.452939531    97.0994   5   9   0.6780   0.6168   2.2357  -0.2014   0.4940  -0.7754   0.00    0.0
2018/11/06 00:12:00.000  -74.393401260  163.452948307    96.9873   5   9   0.6784   0.6176   2.2432  -0.2028   0.4990  -0.7774   0.00    0.0
2018/11/06 00:12:15.000  -74.393401355  163.452950896    96.5274   5   9   0.6789   0.6184   2.2510  -0.2043   0.5041  -0.7796   0.00    0.0
2018/11/06 00:12:30.000  -74.393400629  163.452949240    97.4021   5   9   0.6795   0.6194   2.2592  -0.2059   0.5093  -0.7818   0.00    0.0
2018/11/06 00:12:45.000  -74.393398918  163.452952584    96.8577   5   9   0.6787   0.6188   2.2620  -0.2064   0.5126  -0.7825   0.00    0.0
2018/11/06 00:13:00.000  -74.393399719  163.452948017    96.7011   5   9   0.6780   0.6182   2.2650  -0.2071   0.5160  -0.7833   0.00    0.0
2018/11/06 00:13:15.000  -74.393399403  163.452951782    96.7824   5   9   0.6774   0.6178   2.2684  -0.2078   0.5195  -0.7841   0.00    0.0
2018/11/06 00:13:30.000  -74.393398935  163.452947275    96.3278   5   9   0.6769   0.6174   2.2720  -0.2085   0.5231  -0.7851   0.00    0.0
2018/11/06 00:13:45.000  -74.393399098  163.452953112    97.1853   5   9   0.6764   0.6171   2.2759  -0.2093   0.5268  -0.7862   0.00    0.0
2018/11/06 00:14:00.000  -74.393400186  163.452950713    96.1833   5   9   0.6761   0.6169   2.2802  -0.2102   0.5306  -0.7873   0.00    0.0
2018/11/06 00:14:15.000  -74.393397872  163.452947950    96.7903   5   9   0.6758   0.6168   2.2847  -0.2111   0.5345  -0.7886   0.00    0.0
2018/11/06 00:14:30.000  -74.393397604  163.452951663    96.8613   5   9   0.6755   0.6168   2.2895  -0.2121   0.5384  -0.7899   0.00    0.0
2018/11/06 00:14:45.000  -74.393400204  163.452954478    97.7001   5   9   0.6754   0.6169   2.2946  -0.2131   0.5425  -0.7914   0.00    0.0
2018/11/06 00:15:00.000  -74.393403717  163.452957528    97.7713   5   9   0.6753   0.6171   2.3000  -0.2142   0.5467  -0.7929   0.00    0.0
2018/11/06 00:15:15.000  -74.393401213  163.452950458    97.0174   5   9   0.6753   0.6174   2.3059  -0.2154   0.5511  -0.7946   0.00    0.0
2018/11/06 00:15:30.000  -74.393397768  163.452950761    95.8216   5   9   0.6754   0.6178   2.3121  -0.2167   0.5555  -0.7964   0.00    0.0
2018/11/06 00:15:45.000  -74.393400037  163.452953342    97.7659   5   9   0.6756   0.6182   2.3187  -0.2180   0.5601  -0.7984   0.00    0.0
2018/11/06 00:16:00.000  -74.393397979  163.452952780    96.3903   5  10   0.6530   0.6094   2.0750  -0.2585   0.6570  -0.6764   0.00    0.0
2018/11/06 00:16:15.000  -74.393395826  163.452959909    96.0748   5  10   0.6534   0.6102   2.0823  -0.2597   0.6611  -0.6788   0.00    0.0
2018/11/06 00:16:30.000  -74.393397266  163.452951238    95.2806   5  10   0.6538   0.6110   2.0898  -0.2609   0.6653  -0.6812   0.00    0.0
2018/11/06 00:16:45.000  -74.393398186  163.452952226    96.0826   5  10   0.6543   0.6119   2.0977  -0.2621   0.6697  -0.6837   0.00    0.0
2018/11/06 00:17:00.000  -74.393396809  163.452961049    95.4332   5  10   0.6549   0.6129   2.1059  -0.2635   0.6742  -0.6863   0.00    0.0
2018/11/06 00:17:15.000  -74.393395971  163.452956976    95.3330   5  10   0.6556   0.6140   2.1144  -0.2649   0.6788  -0.6890   0.00    0.0
2018/11/06 00:17:30.000  -74.393397122  163.452963173    96.5959   5  10   0.6563   0.6152   2.1232  -0.2663   0.6835  -0.6918   0.00    0.0
2018/11/06 00:17:45.000  -74.393400420  163.452960119    96.6856   5  10   0.6557   0.6147   2.1269  -0.2668   0.6859  -0.6932   0.00    0.0
2018/11/06 00:18:00.000  -74.393398590  163.452961170    95.4514   5  10   0.6552   0.6144   2.1309  -0.2672   0.6885  -0.6948   0.00    0.0
2018/11/06 00:18:15.000  -74.393397357  163.452951189    96.3243   5  10   0.6548   0.6141   2.1352  -0.2678   0.6912  -0.6964   0.00    0.0
2018/11/06 00:18:30.000  -74.393398325  163.452954171    95.5266   5  10   0.6545   0.6140   2.1398  -0.2684   0.6940  -0.6981   0.00    0.0
2018/11/06 00:18:45.000  -74.393396425  163.452949953    95.6515   5  10   0.6542   0.6139   2.1447  -0.2691   0.6969  -0.6999   0.00    0.0
2018/11/06 00:19:00.000  -74.393397588  163.452954563    96.1527   5  10   0.6540   0.6139   2.1499  -0.2698   0.7000  -0.7018   0.00    0.0
2018/11/06 00:19:15.000  -74.393396121  163.452947623    96.0781   5  10   0.6539   0.6140   2.1553  -0.2706   0.7032  -0.7038   0.00    0.0
2018/11/06 00:19:30.000  -74.393396938  163.452951621    95.9411   5  10   0.6539   0.6142   2.1611  -0.2715   0.7064  -0.7059   0.00    0.0
2018/11/06 00:19:45.000  -74.393399479  163.452956660    97.1268   5  10   0.6539   0.6145   2.1671  -0.2724   0.7099  -0.7080   0.00    0.0
2018/11/06 00:20:00.000  -74.393399468  163.452955611    96.8015   5  10   0.6540   0.6149   2.1734  -0.2734   0.7134  -0.7103   0.00    0.0
2018/11/06 00:20:15.000  -74.393398090  163.452957796    96.4546   5  10   0.6542   0.6154   2.1802  -0.2745   0.7172  -0.7127   0.00    0.0
2018/11/06 00:20:30.000  -74.393396211  163.452961117    96.6104   5  10   0.6545   0.6160   2.1872  -0.2756   0.7210  -0.7152   0.00    0.0
2018/11/06 00:20:45.000  -74.393396198  163.452955013    96.1395   5  10   0.6549   0.6167   2.1946  -0.2768   0.7251  -0.7178   0.00    0.0
2018/11/06 00:21:00.000  -74.393397972  163.452953455    96.0075   5  10   0.6553   0.6175   2.2023  -0.2781   0.7292  -0.7206   0.00    0.0
2018/11/06 00:21:15.000  -74.393398740  163.452957439    95.5439   5  10   0.6559   0.6184   2.2102  -0.2794   0.7335  -0.7234   0.00    0.0
2018/11/06 00:21:30.000  -74.393395940  163.452951313    95.6550   5  10   0.6565   0.6193   2.2185  -0.2808   0.7379  -0.7263   0.00    0.0
2018/11/06 00:21:45.000  -74.393400111  163.452955705    97.0173   5  10   0.6572   0.6204   2.2271  -0.2823   0.7424  -0.7293   0.00    0.0
2018/11/06 00:22:00.000  -74.393397110  163.452954664    96.0123   5  10   0.6579   0.6216   2.2360  -0.2838   0.7471  -0.7324   0.00    0.0
2018/11/06 00:22:15.000  -74.393399173  163.452949323    97.1771   5  10   0.6587   0.6228   2.2452  -0.2854   0.7519  -0.7356   0.00    0.0
2018/11/06 00:22:30.000  -74.393395339  163.452953004    95.5820   5  10   0.6597   0.6242   2.2548  -0.2871   0.7569  -0.7390   0.00    0.0
2018/11/06 00:22:45.000  -74.393399411  163.452961727    96.5586   5  10   0.6593   0.6239   2.2589  -0.2877   0.7594  -0.7408   0.00    0.0
2018/11/06 00:23:00.000  -74.393398027  163.452958785    96.3684   5  10   0.6590   0.6237   2.2633  -0.2883   0.7620  -0.7427   0.00    0.0
2018/11/06 00:23:15.000  -74.393397172  163.452954252    95.7753   5  10   0.6587   0.6235   2.2679  -0.2890   0.7646  -0.7447   0.00    0.0
2018/11/06 00:23:30.000  -74.393395293  163.452960467    95.7741   5  10   0.6585   0.6235   2.2728  -0.2898   0.7675  -0.7467   0.00    0.0
2018/11/06 00:23:45.000  -74.393397598  163.452963935    95.9432   5  10   0.6584   0.6235   2.2780  -0.2906   0.7704  -0.7489   0.00    0.0
2018/11/06 00:24:00.000  -74.393400943  163.452964627    96.4038   5  10   0.6584   0.6237   2.2835  -0.2915   0.7735  -0.7511   0.00    0.0
2018/11/06 00:24:15.000  -74.393397553  163.452957243    96.4492   5  10   0.6584   0.6239   2.2893  -0.2924   0.7766  -0.7535   0.00    0.0
2018/11/06 00:24:30.000  -74.393397896  163.452960005    96.4613   5  10   0.6586   0.6242   2.2953  -0.2934   0.7800  -0.7559   0.00    0.0
2018/11/06 00:24:45.000  -74.393400093  163.452961874    96.5519   5  10   0.6588   0.6246   2.3017  -0.2945   0.7834  -0.7585   0.00    0.0
2018/11/06 00:25:00.000  -74.393401539  163.452966426    96.8601   5  10   0.6590   0.6251   2.3083  -0.2956   0.7870  -0.7611   0.00    0.0
2018/11/06 00:25:15.000  -74.393400771  163.452956204    97.6122   5  10   0.6594   0.6258   2.3154  -0.2968   0.7907  -0.7639   0.00    0.0
2018/11/06 00:25:30.000  -74.393398507  163.452967897    96.8109   5  10   0.6599   0.6265   2.3228  -0.2981   0.7946  -0.7668   0.00    0.0
2018/11/06 00:25:45.000  -74.393397575  163.452948733    95.9511   5  10   0.6605   0.6273   2.3305  -0.2995   0.7987  -0.7698   0.00    0.0
2018/11/06 00:26:00.000  -74.393397562  163.452952399    96.3992   5  10   0.6611   0.6282   2.3384  -0.3009   0.8028  -0.7729   0.00    0.0
2018/11/06 00:26:15.000  -74.393396583  163.452957192    95.6782   5  10   0.6618   0.6292   2.3467  -0.3024   0.8071  -0.7761   0.00    0.0
2018/11/06 00:26:30.000  -74.393396849  163.452953289    95.5937   5  10   0.6626   0.6303   2.3553  -0.3039   0.8115  -0.7793   0.00    0.0
2018/11/06 00:26:45.000  -74.393399339  163.452960287    96.1327   5  10   0.6634   0.6315   2.3641  -0.3055   0.8160  -0.7827   0.00    0.0
2018/11/06 00:27:00.000  -74.393400271  163.452956983    96.2798   5  10   0.6644   0.6328   2.3732  -0.3072   0.8207  -0.7862   0.00    0.0
2018/11/06 00:27:15.000  -74.393396094  163.452964418    97.2597   5  10   0.6654   0.6342   2.3827  -0.3089   0.8255  -0.7898   0.00    0.0
2018/11/06 00:27:30.000  -74.393397522  163.452962573    96.9814   5  10   0.6665   0.6357   2.3924  -0.3107   0.8304  -0.7935   0.00    0.0
2018/11/06 00:27:45.000  -74.393397644  163.452956793    96.0125   5  10   0.6662   0.6354   2.3962  -0.3113   0.8325  -0.7954   0.00    0.0
2018/11/06 00:28:00.000  -74.393399983  163.452958358    96.2769   5  10   0.6661   0.6352   2.4004  -0.3120   0.8349  -0.7975   0.00    0.0
2018/11/06 00:28:15.000  -74.393398214  163.452961864    96.3735   5  10   0.6660   0.6352   2.4048  -0.3128   0.8374  -0.7997   0.00    0.0
2018/11/06 00:28:30.000  -74.393397562  163.452958358    95.6099   5  10   0.6659   0.6352   2.4095  -0.3136   0.8400  -0.8019   0.00    0.0
2018/11/06 00:28:45.000  -74.393399195  163.452960273    95.7892   5  10   0.6660   0.6353   2.4145  -0.3145   0.8427  -0.8043   0.00    0.0
2018/11/06 00:29:00.000  -74.393397301  163.452961205    96.6284   5  10   0.6661   0.6355   2.4198  -0.3155   0.8456  -0.8067   0.00    0.0
2018/11/06 00:29:15.000  -74.393399407  163.452959615    96.6897   5  10   0.6663   0.6358   2.4253  -0.3165   0.8485  -0.8092   0.00    0.0
2018/11/06 00:29:30.000  -74.393395652  163.452962191    96.1699   5  10   0.6666   0.6361   2.4310  -0.3176   0.8516  -0.8119   0.00    0.0
2018/11/06 00:29:45.000  -74.393397731  163.452950105    95.6805   5  10   0.6670   0.6366   2.4371  -0.3187   0.8548  -0.8146   0.00    0.0
2018/11/06 00:30:00.000  -74.393399675  163.452952639    95.1563   5  11   0.6548   0.6371   2.3490  -0.3185   0.8607  -0.8689   0.00    0.0
2018/11/06 00:30:15.000  -74.393399124  163.452958161    96.3847   5  11   0.6553   0.6378   2.3561  -0.3199   0.8641  -0.8718   0.00    0.0
2018/11/06 00:30:30.000  -74.393396956  163.452951228    96.0727   5  11   0.6558   0.6386   2.3635  -0.3212   0.8676  -0.8748   0.00    0.0
2018/11/06 00:30:45.000  -74.393395930  163.452955928    95.2617   5  11   0.6564   0.6394   2.3711  -0.3227   0.8712  -0.8778   0.00    0.0
2018/11/06 00:31:00.000  -74.393398956  163.452954557    95.8086   5  11   0.6571   0.6404   2.3790  -0.3241   0.8749  -0.8810   0.00    0.0
2018/11/06 00:31:15.000  -74.393399693  163.452964084    96.1657   5  11   0.6579   0.6414   2.3872  -0.3257   0.8787  -0.8843   0.00    0.0
2018/11/06 00:31:30.000  -74.393401862  163.452963271    96.6549   5  11   0.6588   0.6425   2.3956  -0.3272   0.8826  -0.8876   0.00    0.0
2018/11/06 00:31:45.000  -74.393398746  163.452953364    96.2234   5  11   0.6597   0.6438   2.4043  -0.3289   0.8867  -0.8911   0.00    0.0
2018/11/06 00:32:00.000  -74.393398580  163.452963696    96.7319   5  11   0.6606   0.6451   2.4132  -0.3306   0.8908  -0.8946   0.00    0.0
2018/11/06 00:32:15.000  -74.393398514  163.452953535    96.2727   5  11   0.6617   0.6464   2.4223  -0.3323   0.8951  -0.8982   0.00    0.0
2018/11/06 00:32:30.000  -74.393399074  163.452957746    96.2768   5  11   0.6628   0.6479   2.4317  -0.3341   0.8994  -0.9020   0.00    0.0
2018/11/06 00:32:45.000  -74.393401131  163.452957774    96.0258   5  11   0.6627   0.6477   2.4355  -0.3348   0.9012  -0.9038   0.00    0.0
2018/11/06 00:33:00.000  -74.393401474  163.452962779    96.0577   5  11   0.6625   0.6475   2.4394  -0.3355   0.9030  -0.9056   0.00    0.0
2018/11/06 00:33:15.000  -74.393398868  163.452954406    95.4145   5  11   0.6625   0.6474   2.4435  -0.3362   0.9048  -0.9075   0.00    0.0
2018/11/06 00:33:30.000  -74.393398967  163.452955104    95.7072   5  11   0.6625   0.6473   2.4478  -0.3370   0.9068  -0.9095   0.00    0.0
2018/11/06 00:33:45.000  -74.393395772  163.452959805    95.2701   5  11   0.6626   0.6474   2.4524  -0.3378   0.9089  -0.9116   0.00    0.0
2018/11/06 00:34:00.000  -74.393400972  163.452964456    96.6749   5  11   0.6628   0.6475   2.4572  -0.3387   0.9110  -0.9137   0.00    0.0
2018/11/06 00:34:15.000  -74.393398991  163.452958473    95.9901   5  11   0.6630   0.6478   2.4622  -0.3397   0.9133  -0.9159   0.00    0.0
2018/11/06 00:34:30.000  -74.393401202  163.452957591    97.2230   5  11   0.6633   0.6481   2.4674  -0.3406   0.9157  -0.9183   0.00    0.0
2018/11/06 00:34:45.000  -74.393398560  163.452963880    96.8664   5  11   0.6637   0.6485   2.4728  -0.3417   0.9181  -0.9207   0.00    0.0
2018/11/06 00:35:00.000  -74.393397600  163.452961001    95.8501   5  11   0.6641   0.6489   2.4785  -0.3427   0.9207  -0.9231   0.00    0.0
2018/11/06 00:35:15.000  -74.393398303  163.452964754    96.3684   5  11   0.6646   0.6495   2.4845  -0.3439   0.9234  -0.9257   0.00    0.0
2018/11/06 00:35:30.000  -74.393398771  163.452959194    96.5817   5  11   0.6653   0.6502   2.4907  -0.3451   0.9262  -0.9284   0.00    0.0
2018/11/06 00:35:45.000  -74.393398894  163.452965918    96.7115   5  11   0.6659   0.6510   2.4971  -0.3463   0.9290  -0.9312   0.00    0.0
2018/11/06 00:36:00.000  -74.393396997  163.452961493    95.4452   5  11   0.6667   0.6518   2.5037  -0.3476   0.9320  -0.9340   0.00    0.0
2018/11/06 00:36:15.000  -74.393398543  163.452961290    96.3412   5  11   0.6675   0.6527   2.5106  -0.3489   0.9351  -0.9369   0.00    0.0
2018/11/06 00:36:30.000  -74.393400531  163.452965108    96.7409   5  11   0.6684   0.6537   2.5176  -0.3502   0.9382  -0.9399   0.00    0.0
2018/11/06 00:36:45.000  -74.393399640  163.452968528    97.7749   5  11   0.6693   0.6548   2.5248  -0.3516   0.9414  -0.9429   0.00    0.0
2018/11/06 00:37:00.000  -74.393399279  163.452969982    96.5597   5  11   0.6703   0.6559   2.5322  -0.3531   0.9447  -0.9460   0.00    0.0
2018/11/06 00:37:15.000  -74.393400151  163.452966149    96.1535   5  11   0.6714   0.6571   2.5397  -0.3545   0.9480  -0.9492   0.00    0.0
2018/11/06 00:37:30.000  -74.393398252  163.452955088    95.3515   5  11   0.6725   0.6584   2.5475  -0.3560   0.9515  -0.9524   0.00    0.0
2018/11/06 00:37:45.000  -74.393400563  163.452960955    96.9967   5  11   0.6724   0.6580   2.5494  -0.3564   0.9522  -0.9537   0.00    0.0
2018/11/06 00:38:00.000  -74.393398110  163.452963825    95.7350   5  11   0.6722   0.6576   2.5514  -0.3568   0.9530  -0.9549   0.00    0.0
2018/11/06 00:38:15.000  -74.393398442  163.452960600    96.1646   5  11   0.6722   0.6573   2.5536  -0.3573   0.9539  -0.9563   0.00    0.0
2018/11/06 00:38:30.000  -74.393397483  163.452961796    96.1340   5  11   0.6722   0.6571   2.5560  -0.3577   0.9549  -0.9577   0.00    0.0
2018/11/06 00:38:45.000  -74.393399001  163.452963013    95.9474   5  11   0.6723   0.6570   2.5586  -0.3583   0.9559  -0.9591   0.00    0.0
2018/11/06 00:39:00.000  -74.393399180  163.452960314    96.0475   5  11   0.6724   0.6569   2.5613  -0.3588   0.9570  -0.9606   0.00    0.0
2018/11/06 00:39:15.000  -74.393400391  163.452963833    96.7914   5  11   0.6726   0.6569   2.5642  -0.3594   0.9582  -0.9622   0.00    0.0
2018/11/06 00:39:30.000  -74.393397829  163.452951607    95.1391   5  11   0.6729   0.6570   2.5672  -0.3600   0.9594  -0.9638   0.00    0.0
2018/11/06 00:39:45.000  -74.393400125  163.452966162    96.8734   5  11   0.6732   0.6571   2.5704  -0.3607   0.9607  -0.9655   0.00    0.0
2018/11/06 00:40:00.000  -74.393399615  163.452967156    96.0268   5  11   0.6736   0.6574   2.5737  -0.3614   0.9621  -0.9673   0.00    0.0
2018/11/06 00:40:15.000  -74.393398852  163.452949594    95.2904   5  11   0.6741   0.6577   2.5774  -0.3621   0.9636  -0.9691   0.00    0.0
2018/11/06 00:40:30.000  -74.393398819  163.452946111    95.1134   5  11   0.6747   0.6581   2.5812  -0.3629   0.9651  -0.9710   0.00    0.0
2018/11/06 00:40:45.000  -74.393395741  163.452958098    95.4704   5  11   0.6753   0.6586   2.5851  -0.3637   0.9667  -0.9729   0.00    0.0
2018/11/06 00:41:00.000  -74.393397415  163.452948073    95.0889   5  11   0.6760   0.6591   2.5892  -0.3645   0.9683  -0.9749   0.00    0.0
2018/11/06 00:41:15.000  -74.393396309  163.452956626    95.5648   5  11   0.6767   0.6597   2.5934  -0.3654   0.9700  -0.9770   0.00    0.0
2018/11/06 00:41:30.000  -74.393395703  163.452953404    94.6553   5  11   0.6775   0.6604   2.5977  -0.3663   0.9718  -0.9790   0.00    0.0
2018/11/06 00:41:45.000  -74.393396885  163.452955634    95.7381   5  11   0.6783   0.6611   2.6022  -0.3672   0.9736  -0.9811   0.00    0.0
2018/11/06 00:42:00.000  -74.393395559  163.452950988    95.0002   5  11   0.6792   0.6619   2.6068  -0.3681   0.9754  -0.9833   0.00    0.0
2018/11/06 00:42:15.000  -74.393399169  163.452962785    96.0349   5  11   0.6802   0.6628   2.6115  -0.3690   0.9773  -0.9855   0.00    0.0
2018/11/06 00:42:30.000  -74.393397077  163.452953709    95.3753   5  11   0.6812   0.6637   2.6163  -0.3700   0.9792  -0.9877   0.00    0.0
2018/11/06 00:42:45.000  -74.393399634  163.452962690    95.9922   5  11   0.6809   0.6630   2.6153  -0.3699   0.9785  -0.9879   0.00    0.0
2018/11/06 00:43:00.000  -74.393395901  163.452963690    95.0439   5  11   0.6807   0.6623   2.6144  -0.3698   0.9779  -0.9882   0.00    0.0
2018/11/06 00:43:15.000  -74.393397014  163.452968233    96.0862   5  11   0.6806   0.6617   2.6136  -0.3698   0.9773  -0.9885   0.00    0.0
2018/11/06 00:43:30.000  -74.393398040  163.452954220    95.0951   5  11   0.6804   0.6611   2.6130  -0.3697   0.9768  -0.9889   0.00    0.0
2018/11/06 00:43:45.000  -74.393396587  163.452958532    94.8890   5  11   0.6804   0.6606   2.6125  -0.3698   0.9763  -0.9893   0.00    0.0
2018/11/06 00:44:00.000  -74.393396949  163.452959205    95.3626   5  11   0.6804   0.6602   2.6122  -0.3698   0.9759  -0.9898   0.00    0.0
2018/11/06 00:44:15.000  -74.393393992  163.452951520    94.1035   5  11   0.6805   0.6599   2.6119  -0.3698   0.9755  -0.9902   0.00    0.0
2018/11/06 00:44:30.000  -74.393396151  163.452959875    95.7206   5  11   0.6806   0.6596   2.6118  -0.3699   0.9752  -0.9908   0.00    0.0
2018/11/06 00:44:45.000  -74.393397774  163.452965129    95.6260   5  11   0.6808   0.6594   2.6117  -0.3700   0.9749  -0.9913   0.00    0.0
2018/11/06 00:45:00.000  -74.393392804  163.452961213    94.5405   5  11   0.6810   0.6592   2.6118  -0.3701   0.9746  -0.9919   0.00    0.0
2018/11/06 00:45:15.000  -74.393396314  163.452955421    95.1022   5  11   0.6814   0.6592   2.6122  -0.3703   0.9745  -0.9926   0.00    0.0
2018/11/06 00:45:30.000  -74.393398780  163.452959989    96.0974   5  11   0.6817   0.6592   2.6126  -0.3704   0.9743  -0.9933   0.00    0.0
2018/11/06 00:45:45.000  -74.393399356  163.452966444    96.2990   5  11   0.6822   0.6592   2.6131  -0.3706   0.9742  -0.9940   0.00    0.0
2018/11/06 00:46:00.000  -74.393395872  163.452956237    94.2738   5  11   0.6827   0.6594   2.6138  -0.3708   0.9741  -0.9947   0.00    0.0
2018/11/06 00:46:15.000  -74.393394650  163.452957010    95.0117   5  11   0.6832   0.6596   2.6145  -0.3710   0.9741  -0.9955   0.00    0.0
2018/11/06 00:46:30.000  -74.393397787  163.452956998    94.6317   5  11   0.6838   0.6598   2.6154  -0.3713   0.9741  -0.9963   0.00    0.0
2018/11/06 00:46:45.000  -74.393396774  163.452959133    94.6299   5  11   0.6845   0.6601   2.6164  -0.3715   0.9741  -0.9971   0.00    0.0
2018/11/06 00:47:00.000  -74.393396606  163.452961295    95.1352   5  11   0.6852   0.6605   2.6174  -0.3717   0.9741  -0.9979   0.00    0.0
2018/11/06 00:47:15.000  -74.393398258  163.452958682    95.7209   5  11   0.6859   0.6609   2.6186  -0.3720   0.9741  -0.9988   0.00    0.0
2018/11/06 00:47:30.000  -74.393398711  163.452962650    96.0365   5  11   0.6867   0.6614   2.6198  -0.3723   0.9742  -0.9997   0.00    0.0
2018/11/06 00:47:45.000  -74.393396125  163.452957678    95.0142   5  11   0.6863   0.6603   2.6153  -0.3715   0.9718  -0.9987   0.00    0.0
2018/11/06 00:48:00.000  -74.393393322  163.452953874    93.3746   5  11   0.6859   0.6592   2.6111  -0.3709   0.9696  -0.9977   0.00    0.0
2018/11/06 00:48:15.000  -74.393396654  163.452958698    95.0763   5  11   0.6855   0.6582   2.6070  -0.3703   0.9674  -0.9969   0.00    0.0
2018/11/06 00:48:30.000  -74.393396344  163.452961951    95.0313   5  11   0.6852   0.6573   2.6030  -0.3696   0.9652  -0.9960   0.00    0.0
2018/11/06 00:48:45.000  -74.393395025  163.452968168    95.2016   5  11   0.6850   0.6564   2.5991  -0.3690   0.9631  -0.9952   0.00    0.0
2018/11/06 00:49:00.000  -74.393395807  163.452958293    94.5267   5  11   0.6848   0.6556   2.5953  -0.3685   0.9610  -0.9944   0.00    0.0
2018/11/06 00:49:15.000  -74.393395516  163.452966535    95.3462   5  11   0.6847   0.6549   2.5916  -0.3679   0.9590  -0.9936   0.00    0.0
2018/11/06 00:49:30.000  -74.393398297  163.452965253    95.8780   5  11   0.6846   0.6542   2.5881  -0.3673   0.9569  -0.9929   0.00    0.0
2018/11/06 00:49:45.000  -74.393394407  163.452952538    94.6027   5  11   0.6846   0.6536   2.5847  -0.3668   0.9550  -0.9922   0.00    0.0
2018/11/06 00:50:00.000  -74.393393697  163.452956832    94.8201   5  11   0.6846   0.6531   2.5814  -0.3663   0.9530  -0.9915   0.00    0.0
2018/11/06 00:50:15.000  -74.393396408  163.452956603    95.2349   5  11   0.6847   0.6526   2.5783  -0.3658   0.9511  -0.9909   0.00    0.0
2018/11/06 00:50:30.000  -74.393397055  163.452959648    94.9227   5  11   0.6849   0.6522   2.5754  -0.3653   0.9493  -0.9903   0.00    0.0
2018/11/06 00:50:45.000  -74.393397125  163.452959607    94.7203   5  11   0.6851   0.6519   2.5725  -0.3648   0.9474  -0.9897   0.00    0.0
2018/11/06 00:51:00.000  -74.393395640  163.452952732    93.7182   5  11   0.6854   0.6516   2.5698  -0.3643   0.9456  -0.9891   0.00    0.0
2018/11/06 00:51:15.000  -74.393393704  163.452959094    94.1038   5  11   0.6857   0.6514   2.5673  -0.3639   0.9439  -0.9886   0.00    0.0
2018/11/06 00:51:30.000  -74.393396798  163.452955615    94.9880   5  11   0.6861   0.6513   2.5648  -0.3635   0.9421  -0.9881   0.00    0.0
2018/11/06 00:51:45.000  -74.393395813  163.452963586    95.1387   5  11   0.6865   0.6512   2.5625  -0.3630   0.9404  -0.9877   0.00    0.0
2018/11/06 00:52:00.000  -74.393396211  163.452961226    94.7364   5  11   0.6870   0.6512   2.5602  -0.3626   0.9387  -0.9872   0.00    0.0
2018/11/06 00:52:15.000  -74.393395067  163.452964039    94.9532   5  11   0.6876   0.6512   2.5582  -0.3622   0.9371  -0.9868   0.00    0.0
2018/11/06 00:52:30.000  -74.393397075  163.452960433    94.1678   5  11   0.6881   0.6514   2.5562  -0.3618   0.9354  -0.9864   0.00    0.0
2018/11/06 00:52:45.000  -74.393396044  163.452956187    95.5505   5  11   0.6875   0.6500   2.5490  -0.3606   0.9318  -0.9844   0.00    0.0
2018/11/06 00:53:00.000  -74.393392794  163.452961991    94.0659   5  11   0.6870   0.6486   2.5419  -0.3594   0.9281  -0.9824   0.00    0.0
2018/11/06 00:53:15.000  -74.393396435  163.452958044    95.3731   5  11   0.6864   0.6473   2.5349  -0.3582   0.9244  -0.9804   0.00    0.0
2018/11/06 00:53:30.000  -74.393393086  163.452960794    94.3453   5  11   0.6860   0.6461   2.5280  -0.3570   0.9208  -0.9785   0.00    0.0
2018/11/06 00:53:45.000  -74.393394910  163.452962609    94.7868   5  11   0.6856   0.6450   2.5213  -0.3559   0.9173  -0.9765   0.00    0.0
2018/11/06 00:54:00.000  -74.393395050  163.452962140    94.4558   5  11   0.6852   0.6439   2.5148  -0.3547   0.9138  -0.9747   0.00    0.0
2018/11/06 00:54:15.000  -74.393397006  163.452964800    95.6763   5  11   0.6849   0.6429   2.5084  -0.3536   0.9103  -0.9728   0.00    0.0
2018/11/06 00:54:30.000  -74.393394607  163.452965102    95.1751   5  11   0.6847   0.6419   2.5022  -0.3525   0.9069  -0.9711   0.00    0.0
2018/11/06 00:54:45.000  -74.393390216  163.452955844    92.9240   5  10   0.9354   0.6734   3.5536  -0.5050   1.1568  -1.5975   0.00    0.0
2018/11/06 00:55:00.000  -74.393389484  163.452954565    92.4225   5  10   0.9346   0.6723   3.5451  -0.5032   1.1522  -1.5944   0.00    0.0
2018/11/06 00:55:15.000  -74.393390072  163.452946859    92.8196   5  10   0.9340   0.6712   3.5369  -0.5014   1.1476  -1.5915   0.00    0.0
2018/11/06 00:55:30.000  -74.393391635  163.452950509    92.6294   5  10   0.9334   0.6701   3.5289  -0.4997   1.1431  -1.5887   0.00    0.0
2018/11/06 00:55:45.000  -74.393389633  163.452948795    91.5832   5  10   0.9328   0.6692   3.5210  -0.4979   1.1386  -1.5859   0.00    0.0
2018/11/06 00:56:00.000  -74.393391558  163.452950080    92.4839   5  10   0.9324   0.6683   3.5132  -0.4962   1.1341  -1.5831   0.00    0.0
2018/11/06 00:56:15.000  -74.393390748  163.452947185    92.2085   5  10   0.9319   0.6674   3.5056  -0.4944   1.1296  -1.5804   0.00    0.0
2018/11/06 00:56:30.000  -74.393389092  163.452952389    90.9135   5  10   0.9316   0.6667   3.4981  -0.4926   1.1252  -1.5778   0.00    0.0
2018/11/06 00:56:45.000  -74.393389678  163.452964287    93.9326   5  10   0.9313   0.6659   3.4909  -0.4909   1.1207  -1.5752   0.00    0.0
2018/11/06 00:57:00.000  -74.393389567  163.452954704    92.6649   5  10   0.9310   0.6653   3.4837  -0.4892   1.1163  -1.5727   0.00    0.0
2018/11/06 00:57:15.000  -74.393393135  163.452954746    93.4737   5  10   0.9309   0.6647   3.4768  -0.4874   1.1119  -1.5702   0.00    0.0
2018/11/06 00:57:30.000  -74.393389993  163.452958464    92.6866   5  10   0.9308   0.6641   3.4701  -0.4857   1.1075  -1.5678   0.00    0.0
2018/11/06 00:57:45.000  -74.393393560  163.452961651    93.5877   5  10   0.9283   0.6620   3.4535  -0.4825   1.1000  -1.5610   0.00    0.0
2018/11/06 00:58:00.000  -74.393389108  163.452960478    92.2042   5  10   0.9260   0.6600   3.4371  -0.4793   1.0925  -1.5544   0.00    0.0
2018/11/06 00:58:15.000  -74.393387703  163.452958321    91.7371   5   9   0.9278   0.6580   3.6714  -0.4753   1.0789  -1.5847   0.00    0.0
2018/11/06 00:58:30.000  -74.393391633  163.452963005    93.2767   5   9   0.9257   0.6561   3.6570  -0.4722   1.0715  -1.5787   0.00    0.0
2018/11/06 00:58:45.000  -74.393389086  163.452955901    93.2911   5   9   0.9237   0.6543   3.6427  -0.4691   1.0642  -1.5728   0.00    0.0
2018/11/06 00:59:00.000  -74.393391371  163.452956963    92.3263   5   9   0.9218   0.6525   3.6288  -0.4660   1.0569  -1.5671   0.00    0.0
2018/11/06 00:59:15.000  -74.393390884  163.452955616    93.2324   5   9   0.9199   0.6509   3.6151  -0.4629   1.0497  -1.5614   0.00    0.0
2018/11/06 00:59:30.000  -74.393393422  163.452960761    93.2943   5   9   0.9181   0.6493   3.6017  -0.4599   1.0425  -1.5558   0.00    0.0
2018/11/06 00:59:45.000  -74.393391203  163.452949889    92.7917   5   9   0.9164   0.6478   3.5886  -0.4569   1.0354  -1.5504   0.00    0.0
2018/11/06 01:00:00.000  -74.393392586  163.452943725    92.5076   5   9   0.9148   0.6463   3.5758  -0.4539   1.0283  -1.5450   0.00    0.0
2018/11/06 01:00:15.000  -74.393391861  163.452954176    92.1440   5   9   0.9133   0.6450   3.5636  -0.4510   1.0213  -1.5399   0.00    0.0
2018/11/06 01:00:30.000  -74.393393211  163.452955905    94.2390   5   9   0.9120   0.6438   3.5518  -0.4481   1.0144  -1.5350   0.00    0.0
2018/11/06 01:00:45.000  -74.393389232  163.452950332    90.7158   5   9   0.9107   0.6426   3.5403  -0.4453   1.0076  -1.5301   0.00    0.0
2018/11/06 01:01:00.000  -74.393393403  163.452963424    94.2608   5   9   0.9094   0.6415   3.5291  -0.4424   1.0008  -1.5254   0.00    0.0
2018/11/06 01:01:15.000  -74.393392001  163.452950560    92.9997   5  10   0.7482   0.6366   2.6712  -0.3960   0.9088  -1.0646   0.00    0.0
2018/11/06 01:01:30.000  -74.393392502  163.452950975    93.1476   5  10   0.7483   0.6360   2.6685  -0.3949   0.9056  -1.0635   0.00    0.0
2018/11/06 01:01:45.000  -74.393393734  163.452959952    94.5210   5  10   0.7484   0.6354   2.6659  -0.3939   0.9025  -1.0624   0.00    0.0
2018/11/06 01:02:00.000  -74.393395520  163.452963573    95.2358   5  10   0.7486   0.6350   2.6636  -0.3930   0.8995  -1.0614   0.00    0.0
2018/11/06 01:02:15.000  -74.393395367  163.452965717    95.1694   5  10   0.7489   0.6346   2.6615  -0.3920   0.8964  -1.0604   0.00    0.0
2018/11/06 01:02:30.000  -74.393395281  163.452954535    93.6951   5  10   0.7493   0.6342   2.6597  -0.3911   0.8935  -1.0595   0.00    0.0
2018/11/06 01:02:45.000  -74.393396297  163.452962704    95.8274   5  10   0.7482   0.6325   2.6510  -0.3892   0.8883  -1.0565   0.00    0.0
2018/11/06 01:03:00.000  -74.393389906  163.452947178    93.1644   5  10   0.7473   0.6307   2.6427  -0.3873   0.8832  -1.0535   0.00    0.0
2018/11/06 01:03:15.000  -74.393394402  163.452958570    94.5280   5  10   0.7463   0.6291   2.6346  -0.3855   0.8782  -1.0506   0.00    0.0
2018/11/06 01:03:30.000  -74.393396434  163.452965962    95.3177   5  10   0.7455   0.6275   2.6268  -0.3837   0.8732  -1.0478   0.00    0.0
2018/11/06 01:03:45.000  -74.393396135  163.452962680    95.2115   5  10   0.7447   0.6260   2.6192  -0.3820   0.8683  -1.0450   0.00    0.0
2018/11/06 01:04:00.000  -74.393393029  163.452959270    94.1830   5  10   0.7440   0.6246   2.6119  -0.3802   0.8635  -1.0423   0.00    0.0
2018/11/06 01:04:15.000  -74.393395110  163.452957556    95.0927   5  10   0.7433   0.6233   2.6047  -0.3785   0.8587  -1.0397   0.00    0.0
2018/11/06 01:04:30.000  -74.393392935  163.452961836    94.3339   5  10   0.7427   0.6220   2.5979  -0.3769   0.8540  -1.0372   0.00    0.0
2018/11/06 01:04:45.000  -74.393397810  163.452960693    94.4117   5  10   0.7422   0.6208   2.5913  -0.3752   0.8493  -1.0347   0.00    0.0
2018/11/06 01:05:00.000  -74.393396097  163.452960452    94.7320   5  10   0.7417   0.6197   2.5850  -0.3736   0.8447  -1.0323   0.00    0.0
2018/11/06 01:05:15.000  -74.393397062  163.452965374    95.1457   5  10   0.7414   0.6187   2.5791  -0.3721   0.8402  -1.0300   0.00    0.0
2018/11/06 01:05:30.000  -74.393394863  163.452965685    95.6957   5  10   0.7411   0.6178   2.5735  -0.3706   0.8358  -1.0278   0.00    0.0
2018/11/06 01:05:45.000  -74.393392406  163.452960523    94.6467   5  10   0.7409   0.6169   2.5682  -0.3691   0.8314  -1.0257   0.00    0.0
2018/11/06 01:06:00.000  -74.393394201  163.452960328    94.8654   5  10   0.7408   0.6161   2.5632  -0.3676   0.8271  -1.0237   0.00    0.0
2018/11/06 01:06:15.000  -74.393393044  163.452959057    93.0577   5  10   0.7407   0.6154   2.5585  -0.3662   0.8229  -1.0217   0.00    0.0
2018/11/06 01:06:30.000  -74.393398652  163.452963891    95.4259   5  10   0.7407   0.6148   2.5540  -0.3648   0.8187  -1.0199   0.00    0.0
2018/11/06 01:06:45.000  -74.393393691  163.452961783    94.2520   5  10   0.7407   0.6142   2.5499  -0.3635   0.8146  -1.0181   0.00    0.0
2018/11/06 01:07:00.000  -74.393394771  163.452958514    94.9358   5  10   0.7409   0.6137   2.5461  -0.3622   0.8105  -1.0164   0.00    0.0
2018/11/06 01:07:15.000  -74.393395578  163.452963440    95.3991   5  10   0.7411   0.6133   2.5426  -0.3609   0.8065  -1.0148   0.00    0.0
2018/11/06 01:07:30.000  -74.393394635  163.452954601    94.6556   5  10   0.7414   0.6129   2.5394  -0.3596   0.8026  -1.0132   0.00    0.0
2018/11/06 01:07:45.000  -74.393395947  163.452956167    95.0653   5  10   0.7402   0.6112   2.5294  -0.3575   0.7967  -1.0096   0.00    0.0
2018/11/06 01:08:00.000  -74.393394435  163.452960603    94.7307   5  10   0.7392   0.6096   2.5196  -0.3554   0.7908  -1.0061   0.00    0.0
2018/11/06 01:08:15.000  -74.393392602  163.452955546    93.5620   5  10   0.7382   0.6080   2.5102  -0.3533   0.7851  -1.0026   0.00    0.0
2018/11/06 01:08:30.000  -74.393395738  163.452957134    94.2027   5  10   0.7373   0.6066   2.5010  -0.3513   0.7794  -0.9992   0.00    0.0
2018/11/06 01:08:45.000  -74.393393563  163.452954151    93.7888   5  10   0.7365   0.6052   2.4922  -0.3493   0.7738  -0.9959   0.00    0.0
2018/11/06 01:09:00.000  -74.393395377  163.452950797    94.6131   5  10   0.7357   0.6039   2.4836  -0.3473   0.7682  -0.9927   0.00    0.0
2018/11/06 01:09:15.000  -74.393392556  163.452954646    93.9694   5  10   0.7350   0.6026   2.4755  -0.3454   0.7628  -0.9897   0.00    0.0
2018/11/06 01:09:30.000  -74.393393450  163.452959269    94.4811   5  10   0.7344   0.6014   2.4676  -0.3435   0.7574  -0.9867   0.00    0.0
2018/11/06 01:09:45.000  -74.393393562  163.452957651    93.5514   5  10   0.7339   0.6004   2.4601  -0.3417   0.7521  -0.9838   0.00    0.0
2018/11/06 01:10:00.000  -74.393396443  163.452963213    95.4548   5  10   0.7334   0.5994   2.4529  -0.3399   0.7469  -0.9810   0.00    0.0
2018/11/06 01:10:15.000  -74.393392543  163.452954809    94.1321   5  10   0.7331   0.5985   2.4463  -0.3381   0.7417  -0.9783   0.00    0.0
2018/11/06 01:10:30.000  -74.393394912  163.452965773    94.7064   5  10   0.7328   0.5977   2.4399  -0.3364   0.7367  -0.9758   0.00    0.0
2018/11/06 01:10:45.000  -74.393392255  163.452958814    94.0598   5  10   0.7326   0.5969   2.4340  -0.3348   0.7317  -0.9734   0.00    0.0
2018/11/06 01:11:00.000  -74.393393412  163.452955199    93.7689   5  10   0.7324   0.5963   2.4284  -0.3331   0.7268  -0.9710   0.00    0.0
2018/11/06 01:11:15.000  -74.393398766  163.452954509    95.4920   5  10   0.7323   0.5957   2.4231  -0.3315   0.7219  -0.9688   0.00    0.0
2018/11/06 01:11:30.000  -74.393394574  163.452954505    94.7577   5  10   0.7323   0.5952   2.4182  -0.3299   0.7171  -0.9666   0.00    0.0
2018/11/06 01:11:45.000  -74.393395674  163.452949285    93.9510   5  10   0.7324   0.5947   2.4136  -0.3284   0.7124  -0.9646   0.00    0.0
2018/11/06 01:12:00.000  -74.393395059  163.452959741    94.1235   5  10   0.7325   0.5944   2.4094  -0.3269   0.7077  -0.9626   0.00    0.0
2018/11/06 01:12:15.000  -74.393395624  163.452961409    94.9307   5  10   0.7328   0.5941   2.4056  -0.3254   0.7031  -0.9608   0.00    0.0
2018/11/06 01:12:30.000  -74.393395008  163.452960909    94.1472   5  10   0.7330   0.5939   2.4021  -0.3240   0.6986  -0.9591   0.00    0.0
2018/11/06 01:12:45.000  -74.393394730  163.452964780    94.8107   5  10   0.7320   0.5924   2.3917  -0.3218   0.6923  -0.9553   0.00    0.0
2018/11/06 01:13:00.000  -74.393393804  163.452965369    94.2744   5  10   0.7310   0.5910   2.3817  -0.3196   0.6862  -0.9516   0.00    0.0
2018/11/06 01:13:15.000  -74.393393976  163.452957203    94.8025   5  10   0.7301   0.5896   2.3720  -0.3175   0.6801  -0.9480   0.00    0.0
2018/11/06 01:13:30.000  -74.393394261  163.452960019    94.2580   5  10   0.7292   0.5884   2.3627  -0.3154   0.6740  -0.9446   0.00    0.0
2018/11/06 01:13:45.000  -74.393396026  163.452957072    95.3241   5  10   0.7285   0.5872   2.3538  -0.3133   0.6681  -0.9412   0.00    0.0
2018/11/06 01:14:00.000  -74.393393419  163.452959750    95.6396   5  10   0.7278   0.5861   2.3452  -0.3113   0.6622  -0.9380   0.00    0.0
2018/11/06 01:14:15.000  -74.393397086  163.452963687    95.0245   5  10   0.7272   0.5851   2.3371  -0.3093   0.6565  -0.9348   0.00    0.0
2018/11/06 01:14:30.000  -74.393394619  163.452956311    94.6118   5  10   0.7266   0.5841   2.3292  -0.3074   0.6507  -0.9318   0.00    0.0
2018/11/06 01:14:45.000  -74.393396251  163.452964584    95.2434   5  10   0.7262   0.5833   2.3218  -0.3055   0.6451  -0.9289   0.00    0.0
2018/11/06 01:15:00.000  -74.393395758  163.452969625    95.1813   5  10   0.7258   0.5825   2.3148  -0.3036   0.6395  -0.9261   0.00    0.0
2018/11/06 01:15:15.000  -74.393396334  163.452964600    95.2098   5  10   0.7255   0.5818   2.3083  -0.3018   0.6340  -0.9235   0.00    0.0
2018/11/06 01:15:30.000  -74.393393017  163.452971948    93.9557   5  10   0.7253   0.5812   2.3022  -0.3000   0.6286  -0.9209   0.00    0.0
2018/11/06 01:15:45.000  -74.393398347  163.452963365    94.3076   5  10   0.7251   0.5807   2.2964  -0.2983   0.6232  -0.9185   0.00    0.0
2018/11/06 01:16:00.000  -74.393398531  163.452963055    95.6327   5  10   0.7251   0.5803   2.2911  -0.2965   0.6179  -0.9162   0.00    0.0
2018/11/06 01:16:15.000  -74.393394803  163.452955751    94.1708   5  10   0.7251   0.5799   2.2861  -0.2949   0.6126  -0.9140   0.00    0.0
2018/11/06 01:16:30.000  -74.393394927  163.452959835    95.1610   5  10   0.7251   0.5796   2.2815  -0.2932   0.6074  -0.9119   0.00    0.0
2018/11/06 01:16:45.000  -74.393392459  163.452957550    94.6812   5  10   0.7253   0.5794   2.2773  -0.2916   0.6023  -0.9099   0.00    0.0
2018/11/06 01:17:00.000  -74.393396664  163.452961245    95.4491   5  10   0.7255   0.5792   2.2734  -0.2900   0.5971  -0.9080   0.00    0.0
2018/11/06 01:17:15.000  -74.393396993  163.452969826    94.7143   5  10   0.7258   0.5792   2.2699  -0.2885   0.5920  -0.9062   0.00    0.0
2018/11/06 01:17:30.000  -74.393393420  163.452961325    95.5273   5  10   0.7261   0.5792   2.2668  -0.2870   0.5870  -0.9045   0.00    0.0
2018/11/06 01:17:45.000  -74.393396506  163.452961823    95.0519   5  10   0.7252   0.5779   2.2570  -0.2847   0.5805  -0.9009   0.00    0.0
2018/11/06 01:18:00.000  -74.393397475  163.452963028    95.9422   5  10   0.7243   0.5768   2.2475  -0.2826   0.5742  -0.8974   0.00    0.0
2018/11/06 01:18:15.000  -74.393395004  163.452954140    95.3601   5  10   0.7235   0.5757   2.2385  -0.2805   0.5679  -0.8941   0.00    0.0
2018/11/06 01:18:30.000  -74.393393784  163.452962982    94.8696   5  10   0.7228   0.5747   2.2298  -0.2784   0.5617  -0.8908   0.00    0.0
2018/11/06 01:18:45.000  -74.393395451  163.452955248    95.0150   5  10   0.7222   0.5738   2.2215  -0.2763   0.5555  -0.8877   0.00    0.0
2018/11/06 01:19:00.000  -74.393392494  163.452953989    94.1364   5  10   0.7216   0.5730   2.2136  -0.2743   0.5494  -0.8847   0.00    0.0
2018/11/06 01:19:15.000  -74.393395021  163.452958821    95.5488   5  10   0.7211   0.5722   2.2061  -0.2723   0.5434  -0.8818   0.00    0.0
2018/11/06 01:19:30.000  -74.393395806  163.452965610    95.6424   5  10   0.7207   0.5716   2.1989  -0.2704   0.5374  -0.8790   0.00    0.0
2018/11/06 01:19:45.000  -74.393395240  163.452954895    95.1496   5  10   0.7204   0.5710   2.1922  -0.2685   0.5314  -0.8763   0.00    0.0
2018/11/06 01:20:00.000  -74.393396142  163.452958746    96.3285   5  10   0.7201   0.5704   2.1859  -0.2666   0.5255  -0.8738   0.00    0.0
2018/11/06 01:20:15.000  -74.393393322  163.452969217    94.8645   5  10   0.7199   0.5700   2.1801  -0.2648   0.5196  -0.8713   0.00    0.0
2018/11/06 01:20:30.000  -74.393394310  163.452962990    94.8420   5  10   0.7198   0.5697   2.1747  -0.2630   0.5138  -0.8690   0.00    0.0
2018/11/06 01:20:45.000  -74.393396261  163.452964869    94.3696   5  10   0.7198   0.5694   2.1697  -0.2612   0.5080  -0.8668   0.00    0.0
2018/11/06 01:21:00.000  -74.393395260  163.452956028    94.8578   5  10   0.7198   0.5692   2.1651  -0.2595   0.5022  -0.8647   0.00    0.0
2018/11/06 01:21:15.000  -74.393398148  163.452959084    95.9829   5  10   0.7200   0.5691   2.1608  -0.2578   0.4964  -0.8627   0.00    0.0
2018/11/06 01:21:30.000  -74.393396668  163.452951351    95.1539   5  10   0.7201   0.5690   2.1570  -0.2561   0.4906  -0.8609   0.00    0.0
2018/11/06 01:21:45.000  -74.393397569  163.452967004    94.7449   5  10   0.7204   0.5691   2.1535  -0.2544   0.4849  -0.8591   0.00    0.0
2018/11/06 01:22:00.000  -74.393396106  163.452951786    95.5298   5  10   0.7207   0.5692   2.1504  -0.2528   0.4791  -0.8574   0.00    0.0
2018/11/06 01:22:15.000  -74.393395557  163.452955707    95.5698   5  11   0.6213   0.5519   1.8026  -0.1092   0.2466  -0.5524   0.00    0.0
2018/11/06 01:22:30.000  -74.393396973  163.452948508    95.2671   5  11   0.6219   0.5524   1.8032  -0.1071   0.2391  -0.5518   0.00    0.0
2018/11/06 01:22:45.000  -74.393396059  163.452965014    95.6238   5  11   0.6214   0.5518   1.7986  -0.1048   0.2320  -0.5508   0.00    0.0
2018/11/06 01:23:00.000  -74.393396848  163.452961353    94.5159   5  11   0.6210   0.5512   1.7944  -0.1025   0.2245  -0.5498   0.00    0.0
2018/11/06 01:23:15.000  -74.393395865  163.452964744    95.4262   5  11   0.6207   0.5507   1.7905  -0.1001   0.2168  -0.5488   0.00    0.0
2018/11/06 01:23:30.000  -74.393399378  163.452960841    95.7076   5  11   0.6204   0.5502   1.7868  -0.0977   0.2088  -0.5479   0.00    0.0
2018/11/06 01:23:45.000  -74.393399045  163.452971135    94.8401   5  11   0.6202   0.5499   1.7835  -0.0953   0.2005  -0.5470   0.00    0.0
2018/11/06 01:24:00.000  -74.393395973  163.452953576    95.4063   5  11   0.6200   0.5496   1.7804  -0.0928   0.1919  -0.5462   0.00    0.0
2018/11/06 01:24:15.000  -74.393395048  163.452961031    94.9421   5  11   0.6199   0.5493   1.7776  -0.0902   0.1828  -0.5454   0.00    0.0
2018/11/06 01:24:30.000  -74.393396614  163.452961843    95.2377   5  11   0.6198   0.5491   1.7751  -0.0876   0.1733  -0.5446   0.00    0.0
2018/11/06 01:24:45.000  -74.393395991  163.452961270    95.5550   5  11   0.6198   0.5490   1.7730  -0.0849   0.1632  -0.5439   0.00    0.0
2018/11/06 01:25:00.000  -74.393396497  163.452961355    95.2144   5  11   0.6199   0.5490   1.7711  -0.0821   0.1524  -0.5432   0.00    0.0
2018/11/06 01:25:15.000  -74.393396750  163.452965951    95.4620   5  11   0.6200   0.5490   1.7696  -0.0792   0.1408  -0.5426   0.00    0.0
2018/11/06 01:25:30.000  -74.393397338  163.452968237    95.3127   5  11   0.6201   0.5492   1.7684  -0.0763   0.1280  -0.5420   0.00    0.0
2018/11/06 01:25:45.000  -74.393396687  163.452962789    95.3789   5  11   0.6204   0.5494   1.7675  -0.0732   0.1138  -0.5414   0.00    0.0
2018/11/06 01:26:00.000  -74.393398309  163.452959787    95.4767   5  11   0.6206   0.5496   1.7669  -0.0699   0.0974  -0.5409   0.00    0.0
2018/11/06 01:26:15.000  -74.393397709  163.452960430    95.9738   5  12   0.6135   0.5273   1.7003  -0.1395  -0.2623  -0.5815   0.00    0.0
2018/11/06 01:26:30.000  -74.393397255  163.452956815    95.3392   5  12   0.6137   0.5277   1.7013  -0.1383  -0.2680  -0.5812   0.00    0.0
2018/11/06 01:26:45.000  -74.393398171  163.452960806    94.6574   5  12   0.6140   0.5281   1.7026  -0.1372  -0.2736  -0.5809   0.00    0.0
2018/11/06 01:27:00.000  -74.393398383  163.452957552    95.3288   5  12   0.6143   0.5286   1.7042  -0.1361  -0.2793  -0.5806   0.00    0.0
2018/11/06 01:27:15.000  -74.393396880  163.452957812    95.4165   5  12   0.6147   0.5291   1.7061  -0.1351  -0.2849  -0.5804   0.00    0.0
2018/11/06 01:27:30.000  -74.393398263  163.452960518    95.0611   5  12   0.6152   0.5297   1.7083  -0.1340  -0.2905  -0.5803   0.00    0.0
2018/11/06 01:27:45.000  -74.393398330  163.452959900    95.5920   5  12   0.6147   0.5293   1.7056  -0.1326  -0.2944  -0.5794   0.00    0.0
2018/11/06 01:28:00.000  -74.393397035  163.452960896    95.1511   5  12   0.6143   0.5289   1.7031  -0.1312  -0.2984  -0.5785   0.00    0.0
2018/11/06 01:28:15.000  -74.393397241  163.452962838    95.3612   5  12   0.6139   0.5285   1.7009  -0.1298  -0.3023  -0.5778   0.00    0.0
2018/11/06 01:28:30.000  -74.393398783  163.452957752    95.1910   5  12   0.6136   0.5282   1.6989  -0.1284  -0.3062  -0.5770   0.00    0.0
2018/11/06 01:28:45.000  -74.393397767  163.452962481    94.7643   5  12   0.6133   0.5280   1.6972  -0.1270  -0.3102  -0.5763   0.00    0.0
2018/11/06 01:29:00.000  -74.393399324  163.452965364    95.1024   5  12   0.6131   0.5279   1.6958  -0.1257  -0.3142  -0.5756   0.00    0.0
2018/11/06 01:29:15.000  -74.393396770  163.452961280    95.3909   5  12   0.6129   0.5277   1.6946  -0.1243  -0.3182  -0.5750   0.00    0.0
2018/11/06 01:29:30.000  -74.393397708  163.452959768    94.6836   5  12   0.6128   0.5277   1.6938  -0.1229  -0.3222  -0.5744   0.00    0.0
2018/11/06 01:29:45.000  -74.393399990  163.452957639    95.0845   5  12   0.6127   0.5277   1.6932  -0.1215  -0.3263  -0.5739   0.00    0.0
2018/11/06 01:30:00.000  -74.393398735  163.452959895    95.1208   5  12   0.6127   0.5278   1.6929  -0.1202  -0.3304  -0.5734   0.00    0.0
2018/11/06 01:30:15.000  -74.393397443  163.452966129    95.0388   5  12   0.6127   0.5280   1.6930  -0.1188  -0.3345  -0.5730   0.00    0.0
2018/11/06 01:30:30.000  -74.393397937  163.452956731    95.2668   5  12   0.6128   0.5282   1.6933  -0.1175  -0.3387  -0.5727   0.00    0.0
2018/11/06 01:30:45.000  -74.393396732  163.452955797    95.3554   5  12   0.6130   0.5285   1.6940  -0.1161  -0.3429  -0.5723   0.00    0.0
2018/11/06 01:31:00.000  -74.393400659  163.452952783    95.7763   5  12   0.6132   0.5288   1.6949  -0.1148  -0.3472  -0.5720   0.00    0.0
2018/11/06 01:31:15.000  -74.393396357  163.452962083    95.6669   5  12   0.6134   0.5293   1.6962  -0.1134  -0.3514  -0.5718   0.00    0.0
2018/11/06 01:31:30.000  -74.393399649  163.452958647    95.9654   5  12   0.6137   0.5297   1.6977  -0.1121  -0.3558  -0.5716   0.00    0.0
2018/11/06 01:31:45.000  -74.393399340  163.452966872    95.4160   5  12   0.6141   0.5303   1.6995  -0.1107  -0.3601  -0.5715   0.00    0.0
2018/11/06 01:32:00.000  -74.393400194  163.452962516    94.6306   5  12   0.6145   0.5309   1.7016  -0.1094  -0.3645  -0.5714   0.00    0.0
2018/11/06 01:32:15.000  -74.393399770  163.452963970    95.4368   5  12   0.6149   0.5315   1.7039  -0.1080  -0.3689  -0.5713   0.00    0.0
2018/11/06 01:32:30.000  -74.393397345  163.452965779    95.0149   5  12   0.6154   0.5322   1.7066  -0.1067  -0.3734  -0.5713   0.00    0.0
2018/11/06 01:32:45.000  -74.393397321  163.452961397    95.6588   5  12   0.6150   0.5319   1.7043  -0.1050  -0.3763  -0.5706   0.00    0.0
2018/11/06 01:33:00.000  -74.393397009  163.452965161    95.2175   5  12   0.6146   0.5316   1.7021  -0.1033  -0.3792  -0.5699   0.00    0.0
2018/11/06 01:33:15.000  -74.393399089  163.452960248    95.4855   5  12   0.6143   0.5313   1.7002  -0.1016  -0.3822  -0.5693   0.00    0.0
2018/11/06 01:33:30.000  -74.393401647  163.452955323    95.7453   5  12   0.6141   0.5312   1.6986  -0.0999  -0.3852  -0.5687   0.00    0.0
2018/11/06 01:33:45.000  -74.393398560  163.452955966    95.9064   5  12   0.6138   0.5310   1.6973  -0.0981  -0.3882  -0.5681   0.00    0.0
2018/11/06 01:34:00.000  -74.393397711  163.452960959    95.4502   5  12   0.6137   0.5310   1.6963  -0.0964  -0.3913  -0.5676   0.00    0.0
2018/11/06 01:34:15.000  -74.393397688  163.452957621    95.5697   5  12   0.6135   0.5310   1.6955  -0.0946  -0.3945  -0.5672   0.00    0.0
2018/11/06 01:34:30.000  -74.393398506  163.452954640    95.5718   5  12   0.6135   0.5310   1.6951  -0.0929  -0.3977  -0.5667   0.00    0.0
2018/11/06 01:34:45.000  -74.393398553  163.452961832    94.8654   5  12   0.6135   0.5312   1.6949  -0.0911  -0.4009  -0.5664   0.00    0.0
2018/11/06 01:35:00.000  -74.393400059  163.452957719    95.0205   5  12   0.6135   0.5314   1.6950  -0.0893  -0.4042  -0.5661   0.00    0.0
2018/11/06 01:35:15.000  -74.393399536  163.452955750    95.2164   5  12   0.6136   0.5316   1.6955  -0.0875  -0.4076  -0.5658   0.00    0.0
2018/11/06 01:35:30.000  -74.393397597  163.452967426    95.3791   5  12   0.6138   0.5320   1.6963  -0.0856  -0.4111  -0.5656   0.00    0.0
2018/11/06 01:35:45.000  -74.393398948  163.452960301    95.0608   5  12   0.6140   0.5324   1.6974  -0.0838  -0.4146  -0.5654   0.00    0.0
2018/11/06 01:36:00.000  -74.393398691  163.452964070    95.2618   5  12   0.6142   0.5328   1.6988  -0.0819  -0.4181  -0.5653   0.00    0.0
2018/11/06 01:36:15.000  -74.393396543  163.452955525    95.5779   5  12   0.6145   0.5333   1.7005  -0.0800  -0.4217  -0.5652   0.00    0.0
2018/11/06 01:36:30.000  -74.393399226  163.452959952    95.4872   5  12   0.6149   0.5339   1.7025  -0.0781  -0.4254  -0.5652   0.00    0.0
2018/11/06 01:36:45.000  -74.393396651  163.452957488    94.8171   5  12   0.6153   0.5345   1.7047  -0.0762  -0.4291  -0.5652   0.00    0.0
2018/11/06 01:37:00.000  -74.393398352  163.452956315    95.3428   5  12   0.6157   0.5352   1.7073  -0.0742  -0.4329  -0.5653   0.00    0.0
2018/11/06 01:37:15.000  -74.393399247  163.452956908    95.5374   5  12   0.6162   0.5360   1.7101  -0.0722  -0.4367  -0.5654   0.00    0.0
2018/11/06 01:37:30.000  -74.393395908  163.452963692    95.1265   5  12   0.6168   0.5368   1.7132  -0.0701  -0.4406  -0.5656   0.00    0.0
2018/11/06 01:37:45.000  -74.393397358  163.452954993    95.8292   5  12   0.6164   0.5366   1.7112  -0.0676  -0.4429  -0.5650   0.00    0.0
2018/11/06 01:38:00.000  -74.393397539  163.452957750    95.6207   5  12   0.6161   0.5364   1.7094  -0.0650  -0.4452  -0.5645   0.00    0.0
2018/11/06 01:38:15.000  -74.393398302  163.452959567    95.3908   5  12   0.6159   0.5362   1.7079  -0.0623  -0.4477  -0.5640   0.00    0.0
2018/11/06 01:38:30.000  -74.393400436  163.452963029    95.3163   5  12   0.6156   0.5361   1.7067  -0.0595  -0.4502  -0.5636   0.00    0.0
2018/11/06 01:38:45.000  -74.393399826  163.452969707    94.5620   5  12   0.6155   0.5361   1.7058  -0.0566  -0.4527  -0.5632   0.00    0.0
2018/11/06 01:39:00.000  -74.393397975  163.452955574    95.8762   5  12   0.6154   0.5361   1.7052  -0.0535  -0.4553  -0.5629   0.00    0.0
2018/11/06 01:39:15.000  -74.393398593  163.452965785    95.5837   5  12   0.6153   0.5362   1.7048  -0.0503  -0.4580  -0.5626   0.00    0.0
2018/11/06 01:39:30.000  -74.393398051  163.452955409    96.0138   5  12   0.6153   0.5364   1.7048  -0.0469  -0.4607  -0.5623   0.00    0.0
2018/11/06 01:39:45.000  -74.393399941  163.452958980    95.7751   5  12   0.6153   0.5366   1.7050  -0.0433  -0.4635  -0.5622   0.00    0.0
2018/11/06 01:40:00.000  -74.393399826  163.452961599    95.8254   5  12   0.6154   0.5369   1.7056  -0.0393  -0.4663  -0.5620   0.00    0.0
2018/11/06 01:40:15.000  -74.393397755  163.452957301    95.5612   5  12   0.6156   0.5372   1.7065  -0.0351  -0.4693  -0.5619   0.00    0.0
2018/11/06 01:40:30.000  -74.393397149  163.452959242    94.7232   5  12   0.6158   0.5377   1.7077  -0.0303  -0.4723  -0.5619   0.00    0.0
2018/11/06 01:40:45.000  -74.393400747  163.452955072    95.8465   5  12   0.6160   0.5382   1.7092  -0.0246  -0.4753  -0.5619   0.00    0.0
2018/11/06 01:41:00.000  -74.393399386  163.452953945    95.4583   5  12   0.6163   0.5387   1.7110  -0.0171  -0.4784  -0.5619   0.00    0.0
2018/11/06 01:41:15.000  -74.393397255  163.452964219    95.3941   5  12   0.6167   0.5393   1.7131   0.0039  -0.4816  -0.5620   0.00    0.0
2018/11/06 01:41:30.000  -74.393397801  163.452954359    95.4006   5  12   0.6171   0.5400   1.7154   0.0179  -0.4849  -0.5622   0.00    0.0
2018/11/06 01:41:45.000  -74.393398033  163.452955972    95.8288   5  12   0.6176   0.5407   1.7181   0.0250  -0.4882  -0.5624   0.00    0.0
2018/11/06 01:42:00.000  -74.393401360  163.452952021    95.6558   5  12   0.6181   0.5415   1.7210   0.0305  -0.4915  -0.5626   0.00    0.0
2018/11/06 01:42:15.000  -74.393400429  163.452966874    94.4987   5  12   0.6186   0.5423   1.7242   0.0351  -0.4950  -0.5629   0.00    0.0
2018/11/06 01:42:30.000  -74.393399038  163.452966915    95.3673   5  12   0.6193   0.5432   1.7276   0.0391  -0.4984  -0.5632   0.00    0.0
2018/11/06 01:42:45.000  -74.393401079  163.452964979    94.8264   5  12   0.6190   0.5430   1.7259   0.0434  -0.5004  -0.5629   0.00    0.0
2018/11/06 01:43:00.000  -74.393400574  163.452962409    95.1527   5  12   0.6187   0.5429   1.7246   0.0472  -0.5024  -0.5625   0.00    0.0
2018/11/06 01:43:15.000  -74.393399545  163.452967157    95.9592   5  12   0.6185   0.5428   1.7235   0.0507  -0.5045  -0.5622   0.00    0.0
2018/11/06 01:43:30.000  -74.393400152  163.452962910    95.3541   5  12   0.6183   0.5428   1.7227   0.0539  -0.5066  -0.5620   0.00    0.0
2018/11/06 01:43:45.000  -74.393399569  163.452959515    95.4608   5  12   0.6182   0.5429   1.7222   0.0570  -0.5088  -0.5618   0.00    0.0
2018/11/06 01:44:00.000  -74.393400560  163.452955988    95.4479   5  12   0.6182   0.5430   1.7220   0.0598  -0.5111  -0.5616   0.00    0.0
2018/11/06 01:44:15.000  -74.393397005  163.452959009    95.3675   5  12   0.6182   0.5432   1.7220   0.0626  -0.5134  -0.5615   0.00    0.0
