% program   : RTKLIB ver.2.4.3
% inp file  : _by_type/_obs/tuati/20181107.18o
% inp file  : _by_type/_obs/base/20181107.18o
% inp file  : _by_type/_sp3+clk/igs20263.clk
% inp file  : _by_type/_sp3+clk/igs20263.sp3
% inp file  : _by_type/_nav/tuati/20181107.18n
% obs start : 2018/11/07 00:00:00.0 GPST (week2026 259200.0s)
% obs end   : 2018/11/07 23:59:30.0 GPST (week2026 345570.0s)
% pos mode  : dgps
% freqs     : L1+L2
% solution  : combined
% elev mask : 15.0 deg
% dynamics  : off
% tidecorr  : off
% ionos opt : iono-free
% tropo opt : est ztd+grad
% ephemeris : precise
% navi sys  : gps glonass
% antenna1  :                       ( 0.0000  0.0000  0.0000)
% antenna2  :                       ( 0.0000  0.0000  0.0000)
% ref pos   : 90.000000000   0.000000000-6335367.6285
%
% (lat/lon/height=WGS84/ellipsoidal,Q=1:fix,2:float,3:sbas,4:dgps,5:single,6:ppp,ns=# of satellites)
%  GPST                  latitude(deg) longitude(deg)  height(m)   Q  ns   sdn(m)   sde(m)   sdu(m)  sdne(m)  sdeu(m)  sdun(m) age(s)  ratio
2018/11/07 00:00:00.000  -74.425540404  163.418443720    64.9949   5   9   0.6825   0.6135   2.0801  -0.1729   0.3627  -0.7380   0.00    0.0
2018/11/07 00:00:30.000  -74.425539361  163.418447629    63.7278   5   9   0.6820   0.6136   2.0895  -0.1745   0.3713  -0.7398   0.00    0.0
2018/11/07 00:01:00.000  -74.425540814  163.418444786    64.9822   5   9   0.6819   0.6140   2.1001  -0.1762   0.3802  -0.7420   0.00    0.0
2018/11/07 00:01:30.000  -74.425538724  163.418446586    64.7722   5   9   0.6820   0.6148   2.1118  -0.1782   0.3893  -0.7446   0.00    0.0
2018/11/07 00:02:00.000  -74.425539942  163.418448827    64.5818   5   9   0.6824   0.6159   2.1247  -0.1805   0.3988  -0.7476   0.00    0.0
2018/11/07 00:02:30.000  -74.425540614  163.418453290    64.1293   5   9   0.6831   0.6174   2.1388  -0.1829   0.4087  -0.7509   0.00    0.0
2018/11/07 00:03:00.000  -74.425538538  163.418456706    63.9467   5   9   0.6813   0.6159   2.1436  -0.1838   0.4157  -0.7516   0.00    0.0
2018/11/07 00:03:30.000  -74.425539047  163.418459099    64.6260   5   9   0.6799   0.6148   2.1496  -0.1849   0.4230  -0.7527   0.00    0.0
2018/11/07 00:04:00.000  -74.425543885  163.418457533    64.7137   5   9   0.6787   0.6140   2.1567  -0.1862   0.4306  -0.7541   0.00    0.0
2018/11/07 00:04:30.000  -74.425541022  163.418453726    65.0982   5   9   0.6778   0.6135   2.1649  -0.1878   0.4385  -0.7559   0.00    0.0
2018/11/07 00:05:00.000  -74.425542086  163.418462226    64.3748   5   9   0.6773   0.6134   2.1742  -0.1895   0.4467  -0.7580   0.00    0.0
2018/11/07 00:05:30.000  -74.425540017  163.418450818    64.0973   5   9   0.6771   0.6138   2.1850  -0.1915   0.4553  -0.7607   0.00    0.0
2018/11/07 00:06:00.000  -74.425540055  163.418451920    64.7100   5   9   0.6772   0.6145   2.1970  -0.1937   0.4643  -0.7637   0.00    0.0
2018/11/07 00:06:30.000  -74.425541385  163.418457422    64.3013   5   9   0.6776   0.6156   2.2102  -0.1961   0.4736  -0.7671   0.00    0.0
2018/11/07 00:07:00.000  -74.425541669  163.418453172    64.7001   5   9   0.6783   0.6170   2.2246  -0.1987   0.4834  -0.7709   0.00    0.0
2018/11/07 00:07:30.000  -74.425543026  163.418459480    65.0867   5   9   0.6793   0.6188   2.2403  -0.2016   0.4936  -0.7751   0.00    0.0
2018/11/07 00:08:00.000  -74.425543573  163.418454830    64.4950   5   9   0.6778   0.6176   2.2461  -0.2029   0.5005  -0.7765   0.00    0.0
2018/11/07 00:08:30.000  -74.425542195  163.418454340    65.2175   5   9   0.6766   0.6167   2.2530  -0.2043   0.5076  -0.7782   0.00    0.0
2018/11/07 00:09:00.000  -74.425544354  163.418463075    65.0667   5   9   0.6758   0.6161   2.2610  -0.2059   0.5151  -0.7803   0.00    0.0
2018/11/07 00:09:30.000  -74.425543150  163.418459302    65.6522   5   9   0.6752   0.6160   2.2702  -0.2078   0.5230  -0.7828   0.00    0.0
2018/11/07 00:10:00.000  -74.425542318  163.418471972    65.7577   5   9   0.6749   0.6161   2.2806  -0.2099   0.5313  -0.7856   0.00    0.0
2018/11/07 00:10:30.000  -74.425547006  163.418463996    66.9610   5   9   0.6750   0.6168   2.2925  -0.2122   0.5401  -0.7890   0.00    0.0
2018/11/07 00:11:00.000  -74.425545098  163.418463156    66.4273   5   9   0.6754   0.6178   2.3057  -0.2148   0.5493  -0.7928   0.00    0.0
2018/11/07 00:11:30.000  -74.425544144  163.418461837    65.9133   5   9   0.6761   0.6192   2.3202  -0.2176   0.5589  -0.7970   0.00    0.0
2018/11/07 00:12:00.000  -74.425543317  163.418464087    64.2583   5  10   0.6543   0.6116   2.0846  -0.2597   0.6613  -0.6776   0.00    0.0
2018/11/07 00:12:30.000  -74.425542881  163.418461946    64.9695   5  10   0.6557   0.6138   2.1015  -0.2624   0.6705  -0.6829   0.00    0.0
2018/11/07 00:13:00.000  -74.425541762  163.418460050    64.6703   5  10   0.6545   0.6129   2.1091  -0.2633   0.6754  -0.6857   0.00    0.0
2018/11/07 00:13:30.000  -74.425543316  163.418464338    64.5535   5  10   0.6537   0.6125   2.1179  -0.2644   0.6809  -0.6889   0.00    0.0
2018/11/07 00:14:00.000  -74.425542853  163.418463374    64.9942   5  10   0.6532   0.6124   2.1277  -0.2658   0.6869  -0.6924   0.00    0.0
2018/11/07 00:14:30.000  -74.425544064  163.418465039    65.1251   5  10   0.6530   0.6126   2.1388  -0.2674   0.6934  -0.6963   0.00    0.0
2018/11/07 00:15:00.000  -74.425544524  163.418467994    64.7345   5  10   0.6531   0.6132   2.1509  -0.2692   0.7003  -0.7006   0.00    0.0
2018/11/07 00:15:30.000  -74.425543947  163.418466065    64.7223   5  10   0.6535   0.6143   2.1645  -0.2713   0.7079  -0.7054   0.00    0.0
2018/11/07 00:16:00.000  -74.425542620  163.418467526    64.6661   5  10   0.6543   0.6157   2.1793  -0.2737   0.7160  -0.7105   0.00    0.0
2018/11/07 00:16:30.000  -74.425544235  163.418468011    65.1602   5  10   0.6553   0.6175   2.1954  -0.2764   0.7246  -0.7160   0.00    0.0
2018/11/07 00:17:00.000  -74.425543405  163.418466136    64.5642   5  10   0.6567   0.6197   2.2126  -0.2793   0.7337  -0.7220   0.00    0.0
2018/11/07 00:17:30.000  -74.425543211  163.418457566    64.0895   5  10   0.6584   0.6223   2.2312  -0.2824   0.7434  -0.7283   0.00    0.0
2018/11/07 00:18:00.000  -74.425543455  163.418465720    65.0250   5  10   0.6576   0.6217   2.2397  -0.2836   0.7486  -0.7319   0.00    0.0
2018/11/07 00:18:30.000  -74.425542469  163.418467265    65.5390   5  10   0.6571   0.6215   2.2492  -0.2851   0.7541  -0.7359   0.00    0.0
2018/11/07 00:19:00.000  -74.425544640  163.418470564    65.0291   5  10   0.6569   0.6216   2.2599  -0.2867   0.7602  -0.7402   0.00    0.0
2018/11/07 00:19:30.000  -74.425543154  163.418459117    64.2605   5  10   0.6570   0.6221   2.2717  -0.2887   0.7667  -0.7449   0.00    0.0
2018/11/07 00:20:00.000  -74.425542860  163.418465664    65.2579   5  10   0.6574   0.6230   2.2847  -0.2908   0.7738  -0.7500   0.00    0.0
2018/11/07 00:20:30.000  -74.425546719  163.418462555    64.6984   5  10   0.6582   0.6243   2.2991  -0.2933   0.7815  -0.7555   0.00    0.0
2018/11/07 00:21:00.000  -74.425544155  163.418466583    64.7791   5  10   0.6593   0.6260   2.3147  -0.2960   0.7897  -0.7615   0.00    0.0
2018/11/07 00:21:30.000  -74.425542556  163.418465015    64.9568   5  10   0.6608   0.6281   2.3315  -0.2989   0.7984  -0.7678   0.00    0.0
2018/11/07 00:22:00.000  -74.425545510  163.418463106    64.3441   5  10   0.6625   0.6306   2.3495  -0.3021   0.8076  -0.7746   0.00    0.0
2018/11/07 00:22:30.000  -74.425541539  163.418465749    63.8366   5  10   0.6645   0.6334   2.3687  -0.3056   0.8173  -0.7817   0.00    0.0
2018/11/07 00:23:00.000  -74.425543398  163.418457023    64.1913   5  10   0.6641   0.6329   2.3770  -0.3070   0.8221  -0.7858   0.00    0.0
2018/11/07 00:23:30.000  -74.425543819  163.418459839    64.0254   5  10   0.6639   0.6329   2.3864  -0.3086   0.8274  -0.7902   0.00    0.0
2018/11/07 00:24:00.000  -74.425544330  163.418469486    65.3190   5  10   0.6640   0.6332   2.3968  -0.3104   0.8331  -0.7950   0.00    0.0
2018/11/07 00:24:30.000  -74.425543960  163.418459187    64.1755   5  10   0.6645   0.6338   2.4083  -0.3125   0.8393  -0.8001   0.00    0.0
2018/11/07 00:25:00.000  -74.425541890  163.418467147    64.5536   5  10   0.6652   0.6348   2.4210  -0.3148   0.8459  -0.8056   0.00    0.0
2018/11/07 00:25:30.000  -74.425542284  163.418455534    63.9524   5  10   0.6663   0.6363   2.4349  -0.3174   0.8531  -0.8115   0.00    0.0
2018/11/07 00:26:00.000  -74.425542156  163.418464936    63.9456   5  11   0.6550   0.6381   2.3553  -0.3189   0.8633  -0.8697   0.00    0.0
2018/11/07 00:26:30.000  -74.425546414  163.418469181    64.7467   5  11   0.6566   0.6403   2.3721  -0.3221   0.8713  -0.8764   0.00    0.0
2018/11/07 00:27:00.000  -74.425542408  163.418463176    63.5949   5  11   0.6584   0.6428   2.3900  -0.3254   0.8797  -0.8834   0.00    0.0
2018/11/07 00:27:30.000  -74.425545845  163.418463301    64.9275   5  11   0.6606   0.6457   2.4089  -0.3290   0.8885  -0.8908   0.00    0.0
2018/11/07 00:28:00.000  -74.425544699  163.418465915    64.3731   5  11   0.6602   0.6452   2.4169  -0.3304   0.8922  -0.8945   0.00    0.0
2018/11/07 00:28:30.000  -74.425546520  163.418463451    63.7086   5  11   0.6602   0.6451   2.4258  -0.3320   0.8963  -0.8985   0.00    0.0
2018/11/07 00:29:00.000  -74.425545342  163.418470761    64.3334   5  11   0.6604   0.6454   2.4357  -0.3338   0.9008  -0.9029   0.00    0.0
2018/11/07 00:29:30.000  -74.425542345  163.418460497    63.9392   5  11   0.6610   0.6460   2.4465  -0.3358   0.9058  -0.9076   0.00    0.0
2018/11/07 00:30:00.000  -74.425545992  163.418464890    64.6234   5  11   0.6618   0.6469   2.4582  -0.3381   0.9111  -0.9126   0.00    0.0
2018/11/07 00:30:30.000  -74.425544174  163.418461650    63.3734   5  11   0.6629   0.6482   2.4710  -0.3405   0.9169  -0.9181   0.00    0.0
2018/11/07 00:31:00.000  -74.425547560  163.418464607    64.8967   5  11   0.6643   0.6499   2.4847  -0.3431   0.9231  -0.9238   0.00    0.0
2018/11/07 00:31:30.000  -74.425546198  163.418466294    64.0259   5  11   0.6660   0.6519   2.4992  -0.3458   0.9297  -0.9299   0.00    0.0
2018/11/07 00:32:00.000  -74.425545233  163.418459454    63.2785   5  11   0.6679   0.6542   2.5145  -0.3487   0.9366  -0.9363   0.00    0.0
2018/11/07 00:32:30.000  -74.425546924  163.418463839    63.3758   5  11   0.6701   0.6568   2.5306  -0.3518   0.9438  -0.9429   0.00    0.0
2018/11/07 00:33:00.000  -74.425547450  163.418467789    63.6845   5  11   0.6699   0.6560   2.5354  -0.3528   0.9457  -0.9457   0.00    0.0
2018/11/07 00:33:30.000  -74.425546399  163.418467775    64.9939   5  11   0.6699   0.6556   2.5410  -0.3539   0.9481  -0.9488   0.00    0.0
2018/11/07 00:34:00.000  -74.425546452  163.418472058    63.0956   5  11   0.6701   0.6555   2.5472  -0.3551   0.9507  -0.9521   0.00    0.0
2018/11/07 00:34:30.000  -74.425545444  163.418473576    63.1416   5  11   0.6706   0.6557   2.5542  -0.3565   0.9536  -0.9556   0.00    0.0
2018/11/07 00:35:00.000  -74.425544908  163.418462533    62.5863   5  11   0.6714   0.6562   2.5618  -0.3581   0.9568  -0.9594   0.00    0.0
2018/11/07 00:35:30.000  -74.425545018  163.418464955    63.1394   5  11   0.6725   0.6570   2.5703  -0.3597   0.9603  -0.9635   0.00    0.0
2018/11/07 00:36:00.000  -74.425545810  163.418471417    63.2497   5  11   0.6738   0.6582   2.5793  -0.3615   0.9641  -0.9678   0.00    0.0
2018/11/07 00:36:30.000  -74.425543850  163.418465967    63.3450   5  11   0.6754   0.6596   2.5890  -0.3635   0.9681  -0.9723   0.00    0.0
2018/11/07 00:37:00.000  -74.425544265  163.418466358    62.4908   5  11   0.6772   0.6613   2.5992  -0.3655   0.9723  -0.9769   0.00    0.0
2018/11/07 00:37:30.000  -74.425544911  163.418459473    62.4484   5  11   0.6792   0.6633   2.6099  -0.3676   0.9767  -0.9817   0.00    0.0
2018/11/07 00:38:00.000  -74.425543936  163.418459980    63.0325   5  11   0.6788   0.6619   2.6092  -0.3676   0.9760  -0.9827   0.00    0.0
2018/11/07 00:38:30.000  -74.425543086  163.418456491    62.9945   5  11   0.6786   0.6609   2.6092  -0.3678   0.9755  -0.9839   0.00    0.0
2018/11/07 00:39:00.000  -74.425543191  163.418460832    63.1514   5  11   0.6786   0.6602   2.6096  -0.3681   0.9753  -0.9852   0.00    0.0
2018/11/07 00:39:30.000  -74.425545918  163.418466190    63.1734   5  11   0.6789   0.6597   2.6105  -0.3684   0.9752  -0.9867   0.00    0.0
2018/11/07 00:40:00.000  -74.425543356  163.418466252    62.2648   5  11   0.6794   0.6594   2.6119  -0.3689   0.9753  -0.9883   0.00    0.0
2018/11/07 00:40:30.000  -74.425540056  163.418461127    62.4875   5  11   0.6801   0.6595   2.6139  -0.3694   0.9756  -0.9901   0.00    0.0
2018/11/07 00:41:00.000  -74.425542221  163.418464839    62.4377   5  11   0.6811   0.6599   2.6163  -0.3700   0.9761  -0.9921   0.00    0.0
2018/11/07 00:41:30.000  -74.425545906  163.418472552    63.3559   5  11   0.6824   0.6605   2.6192  -0.3707   0.9766  -0.9941   0.00    0.0
2018/11/07 00:42:00.000  -74.425541315  163.418472207    62.4544   5  11   0.6838   0.6613   2.6225  -0.3714   0.9773  -0.9963   0.00    0.0
2018/11/07 00:42:30.000  -74.425543310  163.418477634    63.4913   5  11   0.6854   0.6624   2.6262  -0.3722   0.9781  -0.9985   0.00    0.0
2018/11/07 00:43:00.000  -74.425542398  163.418475478    63.5316   5  11   0.6847   0.6604   2.6189  -0.3712   0.9742  -0.9971   0.00    0.0
2018/11/07 00:43:30.000  -74.425544602  163.418475108    63.5612   5  11   0.6841   0.6586   2.6120  -0.3701   0.9705  -0.9958   0.00    0.0
2018/11/07 00:44:00.000  -74.425541242  163.418465918    62.6614   5  11   0.6838   0.6571   2.6055  -0.3692   0.9668  -0.9947   0.00    0.0
2018/11/07 00:44:30.000  -74.425542460  163.418473700    63.9757   5  11   0.6836   0.6558   2.5995  -0.3683   0.9633  -0.9936   0.00    0.0
2018/11/07 00:45:00.000  -74.425543942  163.418468423    64.1259   5  11   0.6837   0.6547   2.5940  -0.3674   0.9600  -0.9927   0.00    0.0
2018/11/07 00:45:30.000  -74.425543165  163.418465914    63.8734   5  11   0.6841   0.6540   2.5891  -0.3667   0.9568  -0.9919   0.00    0.0
2018/11/07 00:46:00.000  -74.425546557  163.418471444    64.8608   5  11   0.6847   0.6536   2.5847  -0.3660   0.9538  -0.9913   0.00    0.0
2018/11/07 00:46:30.000  -74.425543508  163.418470860    63.4940   5  11   0.6855   0.6534   2.5808  -0.3653   0.9509  -0.9907   0.00    0.0
2018/11/07 00:47:00.000  -74.425543581  163.418468759    63.7182   5  11   0.6864   0.6534   2.5773  -0.3647   0.9481  -0.9903   0.00    0.0
2018/11/07 00:47:30.000  -74.425541327  163.418472710    63.7605   5  11   0.6876   0.6537   2.5743  -0.3641   0.9454  -0.9899   0.00    0.0
2018/11/07 00:48:00.000  -74.425542593  163.418472089    64.5770   5  11   0.6865   0.6510   2.5608  -0.3619   0.9384  -0.9862   0.00    0.0
2018/11/07 00:48:30.000  -74.425544191  163.418465642    64.4247   5  11   0.6856   0.6486   2.5478  -0.3597   0.9316  -0.9826   0.00    0.0
2018/11/07 00:49:00.000  -74.425540621  163.418457587    62.5939   5  11   0.6849   0.6464   2.5354  -0.3576   0.9250  -0.9792   0.00    0.0
2018/11/07 00:49:30.000  -74.425539478  163.418467949    63.4511   5  11   0.6844   0.6445   2.5237  -0.3555   0.9185  -0.9759   0.00    0.0
2018/11/07 00:50:00.000  -74.425542104  163.418471890    64.1461   5  11   0.6842   0.6429   2.5126  -0.3536   0.9122  -0.9728   0.00    0.0
2018/11/07 00:50:30.000  -74.425538526  163.418462356    61.5401   5  10   0.9350   0.6743   3.5632  -0.5058   1.1607  -1.5991   0.00    0.0
2018/11/07 00:51:00.000  -74.425538279  163.418452789    61.4747   5  10   0.9344   0.6726   3.5501  -0.5028   1.1528  -1.5948   0.00    0.0
2018/11/07 00:51:30.000  -74.425538408  163.418464521    61.8538   5  10   0.9340   0.6712   3.5376  -0.4998   1.1449  -1.5907   0.00    0.0
2018/11/07 00:52:00.000  -74.425535138  163.418456739    60.5468   5  10   0.9339   0.6700   3.5255  -0.4968   1.1370  -1.5867   0.00    0.0
2018/11/07 00:52:30.000  -74.425537161  163.418461665    61.3113   5  10   0.9340   0.6690   3.5140  -0.4938   1.1292  -1.5829   0.00    0.0
2018/11/07 00:53:00.000  -74.425536036  163.418461957    61.0258   5  10   0.9296   0.6648   3.4830  -0.4879   1.1150  -1.5705   0.00    0.0
2018/11/07 00:53:30.000  -74.425536940  163.418453971    60.4328   5  10   0.9255   0.6610   3.4528  -0.4820   1.1010  -1.5584   0.00    0.0
2018/11/07 00:54:00.000  -74.425540970  163.418464318    61.8750   5  10   0.9217   0.6574   3.4235  -0.4762   1.0872  -1.5466   0.00    0.0
2018/11/07 00:54:30.000  -74.425540559  163.418473004    62.5514   5   9   0.9222   0.6543   3.6470  -0.4696   1.0674  -1.5725   0.00    0.0
2018/11/07 00:55:00.000  -74.425536810  163.418457159    60.9590   5   9   0.9192   0.6513   3.6232  -0.4640   1.0539  -1.5626   0.00    0.0
2018/11/07 00:55:30.000  -74.425542664  163.418463438    62.9306   5   9   0.9166   0.6488   3.6010  -0.4585   1.0407  -1.5534   0.00    0.0
2018/11/07 00:56:00.000  -74.425537856  163.418467140    61.3185   5   9   0.9143   0.6465   3.5800  -0.4530   1.0277  -1.5446   0.00    0.0
2018/11/07 00:56:30.000  -74.425540803  163.418473138    63.6141   5   9   0.9123   0.6446   3.5602  -0.4477   1.0149  -1.5362   0.00    0.0
2018/11/07 00:57:00.000  -74.425540827  163.418489360    63.4972   5   9   0.9107   0.6430   3.5419  -0.4425   1.0023  -1.5284   0.00    0.0
2018/11/07 00:57:30.000  -74.425543238  163.418479280    64.2411   5  10   0.7499   0.6381   2.6797  -0.3956   0.9083  -1.0656   0.00    0.0
2018/11/07 00:58:00.000  -74.425543619  163.418469926    63.2718   5  10   0.7479   0.6346   2.6638  -0.3920   0.8985  -1.0599   0.00    0.0
2018/11/07 00:58:30.000  -74.425541747  163.418469129    62.1424   5  10   0.7462   0.6313   2.6487  -0.3885   0.8888  -1.0545   0.00    0.0
2018/11/07 00:59:00.000  -74.425541562  163.418465630    63.0543   5  10   0.7447   0.6284   2.6344  -0.3851   0.8794  -1.0494   0.00    0.0
2018/11/07 00:59:30.000  -74.425538921  163.418467473    62.6327   5  10   0.7435   0.6258   2.6211  -0.3819   0.8703  -1.0445   0.00    0.0
2018/11/07 01:00:00.000  -74.425540662  163.418468459    63.4475   5  10   0.7426   0.6235   2.6088  -0.3788   0.8613  -1.0399   0.00    0.0
2018/11/07 01:00:30.000  -74.425542758  163.418466583    62.5070   5  10   0.7420   0.6215   2.5978  -0.3758   0.8527  -1.0356   0.00    0.0
2018/11/07 01:01:00.000  -74.425539841  163.418470738    62.3858   5  10   0.7417   0.6199   2.5879  -0.3730   0.8444  -1.0317   0.00    0.0
2018/11/07 01:01:30.000  -74.425539206  163.418465256    61.9510   5  10   0.7416   0.6185   2.5791  -0.3703   0.8362  -1.0281   0.00    0.0
2018/11/07 01:02:00.000  -74.425541204  163.418474635    63.2089   5  10   0.7418   0.6175   2.5715  -0.3677   0.8283  -1.0248   0.00    0.0
2018/11/07 01:02:30.000  -74.425541652  163.418473081    63.2130   5  10   0.7423   0.6167   2.5651  -0.3653   0.8207  -1.0218   0.00    0.0
2018/11/07 01:03:00.000  -74.425540926  163.418463849    63.1610   5  10   0.7401   0.6133   2.5457  -0.3611   0.8091  -1.0147   0.00    0.0
2018/11/07 01:03:30.000  -74.425541344  163.418472868    64.1176   5  10   0.7383   0.6102   2.5273  -0.3570   0.7978  -1.0080   0.00    0.0
2018/11/07 01:04:00.000  -74.425542398  163.418468897    64.2855   5  10   0.7367   0.6074   2.5102  -0.3532   0.7869  -1.0017   0.00    0.0
2018/11/07 01:04:30.000  -74.425542391  163.418463766    63.0093   5  10   0.7354   0.6049   2.4944  -0.3494   0.7762  -0.9957   0.00    0.0
2018/11/07 01:05:00.000  -74.425541867  163.418466644    63.1645   5  10   0.7344   0.6028   2.4798  -0.3458   0.7658  -0.9901   0.00    0.0
2018/11/07 01:05:30.000  -74.425542229  163.418462716    62.5320   5  10   0.7337   0.6010   2.4669  -0.3424   0.7558  -0.9850   0.00    0.0
2018/11/07 01:06:00.000  -74.425541007  163.418466194    62.6584   5  10   0.7334   0.5996   2.4554  -0.3392   0.7461  -0.9803   0.00    0.0
2018/11/07 01:06:30.000  -74.425543796  163.418473120    62.9470   5  10   0.7333   0.5984   2.4452  -0.3360   0.7366  -0.9759   0.00    0.0
2018/11/07 01:07:00.000  -74.425541710  163.418464089    62.5256   5  10   0.7335   0.5976   2.4364  -0.3330   0.7274  -0.9720   0.00    0.0
2018/11/07 01:07:30.000  -74.425543180  163.418473437    63.4680   5  10   0.7339   0.5970   2.4291  -0.3302   0.7184  -0.9684   0.00    0.0
2018/11/07 01:08:00.000  -74.425540081  163.418465611    62.9665   5  10   0.7319   0.5940   2.4086  -0.3258   0.7061  -0.9610   0.00    0.0
2018/11/07 01:08:30.000  -74.425540660  163.418469503    63.4696   5  10   0.7301   0.5913   2.3895  -0.3216   0.6940  -0.9539   0.00    0.0
2018/11/07 01:09:00.000  -74.425538965  163.418469948    62.7489   5  10   0.7286   0.5889   2.3719  -0.3175   0.6823  -0.9473   0.00    0.0
2018/11/07 01:09:30.000  -74.425539086  163.418466625    62.5424   5  10   0.7274   0.5869   2.3558  -0.3136   0.6709  -0.9411   0.00    0.0
2018/11/07 01:10:00.000  -74.425541586  163.418472685    63.2255   5  10   0.7265   0.5851   2.3411  -0.3098   0.6597  -0.9354   0.00    0.0
2018/11/07 01:10:30.000  -74.425541285  163.418474461    63.5270   5  10   0.7260   0.5838   2.3283  -0.3063   0.6489  -0.9302   0.00    0.0
2018/11/07 01:11:00.000  -74.425536022  163.418470301    62.0638   5  10   0.7258   0.5827   2.3170  -0.3028   0.6384  -0.9254   0.00    0.0
2018/11/07 01:11:30.000  -74.425539593  163.418471392    63.2481   5  10   0.7258   0.5820   2.3072  -0.2995   0.6280  -0.9210   0.00    0.0
2018/11/07 01:12:00.000  -74.425541439  163.418469771    63.6129   5  10   0.7261   0.5816   2.2989  -0.2963   0.6179  -0.9171   0.00    0.0
2018/11/07 01:12:30.000  -74.425540952  163.418460429    62.6945   5  10   0.7268   0.5814   2.2921  -0.2933   0.6080  -0.9136   0.00    0.0
2018/11/07 01:13:00.000  -74.425541138  163.418468699    63.4007   5  10   0.7249   0.5789   2.2725  -0.2889   0.5952  -0.9064   0.00    0.0
2018/11/07 01:13:30.000  -74.425543128  163.418470636    63.4425   5  10   0.7234   0.5768   2.2544  -0.2847   0.5828  -0.8997   0.00    0.0
2018/11/07 01:14:00.000  -74.425543377  163.418469902    63.6961   5  10   0.7221   0.5749   2.2379  -0.2806   0.5706  -0.8934   0.00    0.0
2018/11/07 01:14:30.000  -74.425541751  163.418479521    63.3220   5  10   0.7212   0.5734   2.2230  -0.2767   0.5587  -0.8876   0.00    0.0
2018/11/07 01:15:00.000  -74.425542597  163.418468105    63.3903   5  10   0.7205   0.5721   2.2096  -0.2729   0.5469  -0.8823   0.00    0.0
2018/11/07 01:15:30.000  -74.425543555  163.418470632    63.7323   5  10   0.7202   0.5713   2.1981  -0.2693   0.5354  -0.8774   0.00    0.0
2018/11/07 01:16:00.000  -74.425540993  163.418470680    63.2307   5  10   0.7202   0.5707   2.1881  -0.2658   0.5240  -0.8731   0.00    0.0
2018/11/07 01:16:30.000  -74.425541777  163.418470676    64.1069   5  10   0.7204   0.5705   2.1797  -0.2624   0.5127  -0.8691   0.00    0.0
2018/11/07 01:17:00.000  -74.425542987  163.418465284    63.6510   5  10   0.7210   0.5705   2.1728  -0.2592   0.5014  -0.8656   0.00    0.0
2018/11/07 01:17:30.000  -74.425543655  163.418473198    63.4909   5  10   0.7218   0.5709   2.1673  -0.2560   0.4902  -0.8624   0.00    0.0
2018/11/07 01:18:00.000  -74.425543216  163.418477120    64.2310   5  11   0.6207   0.5514   1.8026  -0.1102   0.2518  -0.5520   0.00    0.0
2018/11/07 01:18:30.000  -74.425543144  163.418465825    64.7007   5  11   0.6200   0.5504   1.7948  -0.1058   0.2377  -0.5500   0.00    0.0
2018/11/07 01:19:00.000  -74.425541905  163.418471692    63.5831   5  11   0.6196   0.5497   1.7882  -0.1013   0.2228  -0.5482   0.00    0.0
2018/11/07 01:19:30.000  -74.425542775  163.418466254    63.5955   5  11   0.6194   0.5492   1.7827  -0.0966   0.2068  -0.5465   0.00    0.0
2018/11/07 01:20:00.000  -74.425543313  163.418467806    62.9851   5  11   0.6194   0.5490   1.7785  -0.0916   0.1895  -0.5450   0.00    0.0
2018/11/07 01:20:30.000  -74.425542608  163.418470777    63.9888   5  11   0.6197   0.5491   1.7756  -0.0864   0.1704  -0.5437   0.00    0.0
2018/11/07 01:21:00.000  -74.425543299  163.418476303    63.5293   5  11   0.6201   0.5495   1.7739  -0.0809   0.1486  -0.5425   0.00    0.0
2018/11/07 01:21:30.000  -74.425543116  163.418477407    64.1538   5  11   0.6208   0.5501   1.7733  -0.0751   0.1228  -0.5415   0.00    0.0
2018/11/07 01:22:00.000  -74.425544198  163.418464443    64.1767   5  12   0.6142   0.5283   1.7067  -0.1406  -0.2606  -0.5820   0.00    0.0
2018/11/07 01:22:30.000  -74.425544262  163.418469723    63.6385   5  12   0.6150   0.5294   1.7106  -0.1385  -0.2725  -0.5816   0.00    0.0
2018/11/07 01:23:00.000  -74.425544388  163.418472110    63.9315   5  12   0.6141   0.5285   1.7052  -0.1358  -0.2809  -0.5798   0.00    0.0
2018/11/07 01:23:30.000  -74.425545276  163.418473586    64.1411   5  12   0.6134   0.5278   1.7009  -0.1331  -0.2894  -0.5782   0.00    0.0
2018/11/07 01:24:00.000  -74.425541597  163.418468897    63.4966   5  12   0.6129   0.5274   1.6976  -0.1304  -0.2978  -0.5768   0.00    0.0
2018/11/07 01:24:30.000  -74.425544153  163.418470208    64.0705   5  12   0.6126   0.5272   1.6955  -0.1278  -0.3063  -0.5756   0.00    0.0
2018/11/07 01:25:00.000  -74.425544818  163.418469803    63.8546   5  12   0.6124   0.5273   1.6944  -0.1252  -0.3149  -0.5745   0.00    0.0
2018/11/07 01:25:30.000  -74.425543997  163.418467729    62.6670   5  12   0.6126   0.5276   1.6947  -0.1226  -0.3237  -0.5737   0.00    0.0
2018/11/07 01:26:00.000  -74.425545432  163.418474024    63.7014   5  12   0.6129   0.5282   1.6961  -0.1200  -0.3325  -0.5730   0.00    0.0
2018/11/07 01:26:30.000  -74.425542957  163.418466387    63.1294   5  12   0.6134   0.5291   1.6987  -0.1174  -0.3414  -0.5725   0.00    0.0
2018/11/07 01:27:00.000  -74.425545429  163.418469129    63.8575   5  12   0.6141   0.5302   1.7024  -0.1149  -0.3505  -0.5722   0.00    0.0
2018/11/07 01:27:30.000  -74.425543890  163.418482849    63.3749   5  12   0.6151   0.5315   1.7073  -0.1123  -0.3597  -0.5721   0.00    0.0
2018/11/07 01:28:00.000  -74.425540505  163.418469774    62.8985   5  12   0.6143   0.5308   1.7027  -0.1091  -0.3657  -0.5706   0.00    0.0
2018/11/07 01:28:30.000  -74.425543615  163.418466828    62.9211   5  12   0.6137   0.5304   1.6990  -0.1058  -0.3720  -0.5693   0.00    0.0
2018/11/07 01:29:00.000  -74.425543173  163.418471023    63.1395   5  12   0.6132   0.5301   1.6965  -0.1026  -0.3784  -0.5682   0.00    0.0
2018/11/07 01:29:30.000  -74.425542603  163.418472586    63.3415   5  12   0.6130   0.5302   1.6952  -0.0993  -0.3850  -0.5672   0.00    0.0
2018/11/07 01:30:00.000  -74.425544217  163.418471785    63.7063   5  12   0.6130   0.5304   1.6949  -0.0959  -0.3918  -0.5665   0.00    0.0
2018/11/07 01:30:30.000  -74.425543383  163.418468215    64.0455   5  12   0.6133   0.5310   1.6961  -0.0926  -0.3988  -0.5659   0.00    0.0
2018/11/07 01:31:00.000  -74.425542369  163.418471167    62.6717   5  12   0.6137   0.5318   1.6984  -0.0892  -0.4061  -0.5656   0.00    0.0
2018/11/07 01:31:30.000  -74.425544029  163.418470692    63.8174   5  12   0.6143   0.5329   1.7019  -0.0857  -0.4135  -0.5654   0.00    0.0
2018/11/07 01:32:00.000  -74.425543269  163.418464673    63.1117   5  12   0.6152   0.5342   1.7066  -0.0822  -0.4212  -0.5655   0.00    0.0
2018/11/07 01:32:30.000  -74.425545081  163.418468825    63.1474   5  12   0.6162   0.5357   1.7123  -0.0785  -0.4290  -0.5657   0.00    0.0
2018/11/07 01:33:00.000  -74.425544440  163.418468507    64.0321   5  12   0.6155   0.5352   1.7083  -0.0739  -0.4339  -0.5645   0.00    0.0
2018/11/07 01:33:30.000  -74.425544963  163.418468730    63.3997   5  12   0.6150   0.5350   1.7055  -0.0691  -0.4390  -0.5635   0.00    0.0
2018/11/07 01:34:00.000  -74.425543897  163.418463860    63.7734   5  12   0.6147   0.5349   1.7038  -0.0641  -0.4443  -0.5627   0.00    0.0
2018/11/07 01:34:30.000  -74.425544749  163.418474515    63.8378   5  12   0.6146   0.5352   1.7033  -0.0587  -0.4498  -0.5622   0.00    0.0
2018/11/07 01:35:00.000  -74.425545420  163.418474019    63.2626   5  12   0.6147   0.5356   1.7039  -0.0529  -0.4556  -0.5617   0.00    0.0
2018/11/07 01:35:30.000  -74.425542740  163.418461801    63.8396   5  12   0.6151   0.5364   1.7059  -0.0466  -0.4617  -0.5615   0.00    0.0
2018/11/07 01:36:00.000  -74.425544021  163.418471376    63.2573   5  12   0.6156   0.5374   1.7091  -0.0394  -0.4680  -0.5615   0.00    0.0
2018/11/07 01:36:30.000  -74.425544008  163.418468220    63.6866   5  12   0.6164   0.5386   1.7133  -0.0307  -0.4745  -0.5617   0.00    0.0
2018/11/07 01:37:00.000  -74.425544729  163.418479326    63.4978   5  12   0.6173   0.5401   1.7187  -0.0184  -0.4813  -0.5621   0.00    0.0
2018/11/07 01:37:30.000  -74.425544122  163.418465781    62.3198   5  12   0.6185   0.5418   1.7252   0.0160  -0.4883  -0.5626   0.00    0.0
2018/11/07 01:38:00.000  -74.425544194  163.418473527    62.7652   5  12   0.6179   0.5415   1.7221   0.0307  -0.4924  -0.5618   0.00    0.0
2018/11/07 01:38:30.000  -74.425544084  163.418480608    62.3469   5  12   0.6175   0.5414   1.7201   0.0403  -0.4967  -0.5612   0.00    0.0
2018/11/07 01:39:00.000  -74.425545420  163.418472509    63.5164   5  12   0.6173   0.5415   1.7192   0.0479  -0.5013  -0.5608   0.00    0.0
2018/11/07 01:39:30.000  -74.425541958  163.418471861    63.3628   5  12   0.6173   0.5419   1.7195   0.0543  -0.5061  -0.5605   0.00    0.0
2018/11/07 01:40:00.000  -74.425544601  163.418462955    62.9234   5  12   0.6176   0.5425   1.7209   0.0600  -0.5112  -0.5605   0.00    0.0
2018/11/07 01:40:30.000  -74.425544402  163.418477053    63.1343   5  12   0.6180   0.5434   1.7236   0.0651  -0.5166  -0.5606   0.00    0.0
2018/11/07 01:41:00.000  -74.425545633  163.418470509    63.7661   5  12   0.6187   0.5445   1.7274   0.0697  -0.5222  -0.5610   0.00    0.0
2018/11/07 01:41:30.000  -74.425543089  163.418479225    63.2782   5  12   0.6195   0.5459   1.7323   0.0741  -0.5281  -0.5615   0.00    0.0
2018/11/07 01:42:00.000  -74.425542848  163.418469810    62.8691   5  12   0.6206   0.5475   1.7383   0.0781  -0.5342  -0.5622   0.00    0.0
2018/11/07 01:42:30.000  -74.425545229  163.418471741    63.6986   5  12   0.6219   0.5494   1.7454   0.0819  -0.5406  -0.5630   0.00    0.0
2018/11/07 01:43:00.000  -74.425543536  163.418468452    63.6760   5  12   0.6214   0.5492   1.7430   0.0861  -0.5441  -0.5626   0.00    0.0
2018/11/07 01:43:30.000  -74.425544785  163.418474139    63.2411   5  12   0.6211   0.5492   1.7417   0.0899  -0.5478  -0.5624   0.00    0.0
2018/11/07 01:44:00.000  -74.425543448  163.418474322    63.2528   5  12   0.6210   0.5495   1.7416   0.0936  -0.5518  -0.5623   0.00    0.0
2018/11/07 01:44:30.000  -74.425545242  163.418472450    63.8750   5  12   0.6212   0.5499   1.7425   0.0971  -0.5561  -0.5625   0.00    0.0
2018/11/07 01:45:00.000  -74.425543712  163.418480407    63.1329   5  12   0.6215   0.5507   1.7445   0.1004  -0.5606  -0.5628   0.00    0.0
2018/11/07 01:45:30.000  -74.425544993  163.418479404    62.5192   5  12   0.6221   0.5517   1.7477   0.1036  -0.5654  -0.5633   0.00    0.0
2018/11/07 01:46:00.000  -74.425546192  163.418464207    63.9883   5  12   0.6228   0.5529   1.7520   0.1066  -0.5704  -0.5639   0.00    0.0
2018/11/07 01:46:30.000  -74.425546187  163.418480771    62.8925   5  12   0.6238   0.5544   1.7574   0.1095  -0.5757  -0.5648   0.00    0.0
2018/11/07 01:47:00.000  -74.425544499  163.418480288    62.9816   5  12   0.6250   0.5560   1.7637   0.1124  -0.5812  -0.5658   0.00    0.0
2018/11/07 01:47:30.000  -74.425544525  163.418481213    63.4451   5  12   0.6264   0.5579   1.7710   0.1151  -0.5869  -0.5669   0.00    0.0
2018/11/07 01:48:00.000  -74.425546635  163.418479553    63.2357   5  12   0.6260   0.5578   1.7693   0.1181  -0.5899  -0.5669   0.00    0.0
2018/11/07 01:48:30.000  -74.425546705  163.418474587    63.7289   5  12   0.6259   0.5579   1.7687   0.1210  -0.5931  -0.5671   0.00    0.0
2018/11/07 01:49:00.000  -74.425546979  163.418483052    63.7530   5  12   0.6259   0.5583   1.7691   0.1237  -0.5966  -0.5674   0.00    0.0
2018/11/07 01:49:30.000  -74.425547004  163.418481663    62.9259   5  12   0.6261   0.5588   1.7704   0.1264  -0.6003  -0.5679   0.00    0.0
2018/11/07 01:50:00.000  -74.425545993  163.418478713    62.6633   5  12   0.6266   0.5596   1.7728   0.1290  -0.6042  -0.5685   0.00    0.0
2018/11/07 01:50:30.000  -74.425545817  163.418485336    62.8131   5  12   0.6273   0.5606   1.7764   0.1316  -0.6084  -0.5694   0.00    0.0
2018/11/07 01:51:00.000  -74.425545094  163.418489177    62.5880   5  12   0.6282   0.5619   1.7809   0.1340  -0.6128  -0.5703   0.00    0.0
2018/11/07 01:51:30.000  -74.425548613  163.418481243    63.4713   5  12   0.6293   0.5634   1.7863   0.1364  -0.6174  -0.5715   0.00    0.0
2018/11/07 01:52:00.000  -74.425546092  163.418478725    62.5250   5  11   0.6620   0.5688   1.8293   0.1797  -0.6030  -0.5046   0.00    0.0
2018/11/07 01:52:30.000  -74.425545585  163.418474676    63.0056   5  11   0.6633   0.5706   1.8373   0.1811  -0.6080  -0.5054   0.00    0.0
2018/11/07 01:53:00.000  -74.425544965  163.418472314    63.4625   5  11   0.6626   0.5704   1.8366   0.1825  -0.6106  -0.5060   0.00    0.0
2018/11/07 01:53:30.000  -74.425546977  163.418480558    63.3319   5  11   0.6621   0.5705   1.8368   0.1839  -0.6133  -0.5067   0.00    0.0
2018/11/07 01:54:00.000  -74.425548194  163.418478108    63.1713   5  10   0.6731   0.6297   2.0924   0.0423  -0.8036  -0.3677   0.00    0.0
2018/11/07 01:54:30.000  -74.425546427  163.418475772    62.9482   5  10   0.6727   0.6306   2.0991   0.0511  -0.8084  -0.3695   0.00    0.0
2018/11/07 01:55:00.000  -74.425543799  163.418487598    61.3476   5   9   0.7730   0.6848   2.6383   0.3225  -1.0399  -0.8618   0.00    0.0
2018/11/07 01:55:30.000  -74.425543713  163.418479645    61.3527   5   9   0.7738   0.6883   2.6615   0.3272  -1.0517  -0.8692   0.00    0.0
2018/11/07 01:56:00.000  -74.425545911  163.418488267    62.0858   5   9   0.7749   0.6921   2.6867   0.3320  -1.0642  -0.8770   0.00    0.0
2018/11/07 01:56:30.000  -74.425545692  163.418475473    63.1057   5   9   0.7763   0.6963   2.7137   0.3369  -1.0773  -0.8852   0.00    0.0
2018/11/07 01:57:00.000  -74.425547107  163.418483305    62.9553   5   9   0.7780   0.7009   2.7425   0.3419  -1.0912  -0.8939   0.00    0.0
2018/11/07 01:57:30.000  -74.425548684  163.418475188    63.1566   5   9   0.7800   0.7058   2.7732   0.3470  -1.1057  -0.9030   0.00    0.0
2018/11/07 01:58:00.000  -74.425547068  163.418484298    62.7929   5   9   0.7795   0.7075   2.7880   0.3510  -1.1136  -0.9093   0.00    0.0
2018/11/07 01:58:30.000  -74.425548460  163.418481518    63.1746   5   9   0.7793   0.7095   2.8044   0.3551  -1.1222  -0.9159   0.00    0.0
2018/11/07 01:59:00.000  -74.425546037  163.418480957    62.2521   5   9   0.7794   0.7118   2.8225   0.3593  -1.1313  -0.9230   0.00    0.0
2018/11/07 01:59:30.000  -74.425545916  163.418492313    61.7325   5   9   0.7798   0.7144   2.8423   0.3636  -1.1411  -0.9304   0.00    0.0
2018/11/07 02:00:00.000  -74.425543936  163.418474930    62.6967   5   9   0.7805   0.7174   2.8639   0.3680  -1.1514  -0.9381   0.00    0.0
2018/11/07 02:00:30.000  -74.425542330  163.418496229    60.5502   5   9   0.7816   0.7208   2.8874   0.3725  -1.1625  -0.9463   0.00    0.0
2018/11/07 02:01:00.000  -74.425542623  163.418485476    60.9189   5   9   0.7830   0.7245   2.9126   0.3770  -1.1741  -0.9548   0.00    0.0
2018/11/07 02:01:30.000  -74.425542177  163.418489668    60.2717   5   9   0.7848   0.7285   2.9393   0.3817  -1.1862  -0.9636   0.00    0.0
2018/11/07 02:02:00.000  -74.425543752  163.418488474    60.9033   5   9   0.7869   0.7328   2.9674   0.3864  -1.1989  -0.9728   0.00    0.0
2018/11/07 02:02:30.000  -74.425546819  163.418487110    60.8245   5   9   0.7893   0.7375   2.9970   0.3913  -1.2120  -0.9823   0.00    0.0
2018/11/07 02:03:00.000  -74.425538642  163.418499449    58.3958   5   9   0.7891   0.7386   3.0101   0.3948  -1.2183  -0.9887   0.00    0.0
2018/11/07 02:03:30.000  -74.425542918  163.418483352    60.5346   5   9   0.7891   0.7401   3.0248   0.3984  -1.2250  -0.9955   0.00    0.0
2018/11/07 02:04:00.000  -74.425545073  163.418488082    61.2954   5   9   0.7895   0.7418   3.0408   0.4020  -1.2322  -1.0025   0.00    0.0
2018/11/07 02:04:30.000  -74.425543815  163.418485113    61.1774   5   9   0.7902   0.7438   3.0580   0.4057  -1.2397  -1.0097   0.00    0.0
2018/11/07 02:05:00.000  -74.425543381  163.418488678    61.5020   5   9   0.7912   0.7460   3.0764   0.4094  -1.2477  -1.0172   0.00    0.0
2018/11/07 02:05:30.000  -74.425543305  163.418493357    60.7111   5   9   0.7926   0.7486   3.0963   0.4132  -1.2561  -1.0249   0.00    0.0
2018/11/07 02:06:00.000  -74.425543595  163.418490678    59.6311   5   9   0.7943   0.7514   3.1172   0.4171  -1.2649  -1.0329   0.00    0.0
2018/11/07 02:06:30.000  -74.425541136  163.418502194    59.0954   5   9   0.7963   0.7545   3.1390   0.4209  -1.2739  -1.0410   0.00    0.0
2018/11/07 02:07:00.000  -74.425545715  163.418495123    60.7402   5   8   0.9765   0.7765   4.1230   0.5252  -1.4477  -1.6088   0.00    0.0
2018/11/07 02:07:30.000  -74.425543658  163.418499354    60.7545   5   8   0.9856   0.7826   4.1932   0.5367  -1.4718  -1.6384   0.00    0.0
2018/11/07 02:08:00.000  -74.425547450  163.418487074    63.3505   5   9   0.7343   0.7359   2.9395   0.3409  -1.1742  -0.8509   0.00    0.0
2018/11/07 02:08:30.000  -74.425549505  163.418486012    63.2343   5   9   0.7342   0.7364   2.9585   0.3457  -1.1808  -0.8603   0.00    0.0
2018/11/07 02:09:00.000  -74.425550171  163.418484941    64.2866   5   9   0.7344   0.7371   2.9786   0.3505  -1.1878  -0.8699   0.00    0.0
2018/11/07 02:09:30.000  -74.425549321  163.418479400    64.1387   5   9   0.7349   0.7381   2.9999   0.3554  -1.1951  -0.8797   0.00    0.0
2018/11/07 02:10:00.000  -74.425549066  163.418484545    62.3725   5   9   0.7357   0.7394   3.0223   0.3602  -1.2028  -0.8896   0.00    0.0
2018/11/07 02:10:30.000  -74.425550693  163.418484781    64.2722   5   9   0.7368   0.7410   3.0459   0.3650  -1.2108  -0.8996   0.00    0.0
2018/11/07 02:11:00.000  -74.425548136  163.418485984    62.9071   5   9   0.7383   0.7428   3.0706   0.3698  -1.2192  -0.9098   0.00    0.0
2018/11/07 02:11:30.000  -74.425551352  163.418495710    63.5641   5   9   0.7401   0.7449   3.0961   0.3746  -1.2278  -0.9202   0.00    0.0
2018/11/07 02:12:00.000  -74.425548937  163.418481517    63.7955   5   9   0.7422   0.7472   3.1225   0.3795  -1.2366  -0.9308   0.00    0.0
2018/11/07 02:12:30.000  -74.425550486  163.418464912    64.4016   5   9   0.7446   0.7498   3.1497   0.3843  -1.2457  -0.9414   0.00    0.0
2018/11/07 02:13:00.000  -74.425549553  163.418477169    63.9530   5   9   0.7446   0.7490   3.1633   0.3882  -1.2489  -0.9503   0.00    0.0
2018/11/07 02:13:30.000  -74.425551755  163.418474469    63.9264   5   9   0.7449   0.7485   3.1776   0.3921  -1.2523  -0.9591   0.00    0.0
2018/11/07 02:14:00.000  -74.425549240  163.418478904    64.3678   5   9   0.7454   0.7481   3.1925   0.3959  -1.2559  -0.9680   0.00    0.0
2018/11/07 02:14:30.000  -74.425549310  163.418486226    63.4986   5   9   0.7463   0.7480   3.2080   0.3997  -1.2595  -0.9770   0.00    0.0
2018/11/07 02:15:00.000  -74.425552136  163.418480746    64.2915   5   9   0.7475   0.7481   3.2241   0.4034  -1.2633  -0.9859   0.00    0.0
2018/11/07 02:15:30.000  -74.425549874  163.418484045    63.6428   5   9   0.7490   0.7484   3.2409   0.4072  -1.2673  -0.9949   0.00    0.0
2018/11/07 02:16:00.000  -74.425547531  163.418474074    63.0559   5   9   0.7508   0.7489   3.2581   0.4109  -1.2714  -1.0039   0.00    0.0
2018/11/07 02:16:30.000  -74.425547267  163.418481929    63.4399   5   9   0.7529   0.7496   3.2756   0.4145  -1.2755  -1.0130   0.00    0.0
2018/11/07 02:17:00.000  -74.425549421  163.418483509    63.1561   5   9   0.7553   0.7506   3.2935   0.4182  -1.2797  -1.0220   0.00    0.0
2018/11/07 02:17:30.000  -74.425547188  163.418478232    63.1943   5   9   0.7580   0.7517   3.3115   0.4219  -1.2839  -1.0311   0.00    0.0
2018/11/07 02:18:00.000  -74.425547968  163.418476915    63.6344   5   9   0.7581   0.7494   3.3159   0.4242  -1.2821  -1.0376   0.00    0.0
2018/11/07 02:18:30.000  -74.425547353  163.418483375    63.4226   5   9   0.7585   0.7473   3.3204   0.4265  -1.2803  -1.0441   0.00    0.0
2018/11/07 02:19:00.000  -74.425546725  163.418475899    63.9912   5   9   0.7592   0.7453   3.3251   0.4287  -1.2786  -1.0504   0.00    0.0
2018/11/07 02:19:30.000  -74.425547502  163.418483897    63.3348   5   9   0.7602   0.7436   3.3300   0.4309  -1.2768  -1.0566   0.00    0.0
2018/11/07 02:20:00.000  -74.425549237  163.418471812    65.6954   5   9   0.7614   0.7420   3.3350   0.4330  -1.2750  -1.0628   0.00    0.0
2018/11/07 02:20:30.000  -74.425545381  163.418480988    62.9625   5   9   0.7629   0.7408   3.3404   0.4351  -1.2733  -1.0689   0.00    0.0
2018/11/07 02:21:00.000  -74.425548362  163.418484698    63.1858   5   9   0.7648   0.7397   3.3458   0.4372  -1.2716  -1.0750   0.00    0.0
2018/11/07 02:21:30.000  -74.425549100  163.418473816    63.5449   5   9   0.7669   0.7388   3.3513   0.4392  -1.2699  -1.0810   0.00    0.0
2018/11/07 02:22:00.000  -74.425550907  163.418474319    64.3464   5   9   0.7693   0.7381   3.3568   0.4413  -1.2683  -1.0869   0.00    0.0
2018/11/07 02:22:30.000  -74.425547995  163.418479678    63.8070   5   9   0.7720   0.7377   3.3624   0.4434  -1.2666  -1.0929   0.00    0.0
2018/11/07 02:23:00.000  -74.425550026  163.418466339    65.4427   5   9   0.7719   0.7338   3.3545   0.4438  -1.2589  -1.0956   0.00    0.0
2018/11/07 02:23:30.000  -74.425548932  163.418482283    63.6567   5   9   0.7721   0.7302   3.3467   0.4442  -1.2513  -1.0983   0.00    0.0
2018/11/07 02:24:00.000  -74.425550812  163.418470403    64.0116   5   9   0.7726   0.7268   3.3390   0.4445  -1.2437  -1.1008   0.00    0.0
2018/11/07 02:24:30.000  -74.425550658  163.418475693    65.2547   5   9   0.7733   0.7236   3.3315   0.4449  -1.2362  -1.1033   0.00    0.0
2018/11/07 02:25:00.000  -74.425552867  163.418475208    65.6143   5   9   0.7743   0.7207   3.3241   0.4452  -1.2287  -1.1057   0.00    0.0
2018/11/07 02:25:30.000  -74.425550399  163.418478688    64.7557   5   9   0.7756   0.7181   3.3172   0.4456  -1.2215  -1.1081   0.00    0.0
2018/11/07 02:26:00.000  -74.425553113  163.418477086    65.1282   5   9   0.7772   0.7159   3.3105   0.4461  -1.2144  -1.1105   0.00    0.0
2018/11/07 02:26:30.000  -74.425553665  163.418476932    65.8254   5   9   0.7791   0.7138   3.3040   0.4465  -1.2075  -1.1129   0.00    0.0
2018/11/07 02:27:00.000  -74.425550946  163.418484051    65.3098   5   9   0.7813   0.7121   3.2979   0.4471  -1.2007  -1.1153   0.00    0.0
2018/11/07 02:27:30.000  -74.425550207  163.418480416    65.1518   5   9   0.7838   0.7107   3.2920   0.4477  -1.1941  -1.1178   0.00    0.0
2018/11/07 02:28:00.000  -74.425552299  163.418471412    65.7923   5   9   0.7833   0.7059   3.2732   0.4464  -1.1816  -1.1167   0.00    0.0
2018/11/07 02:28:30.000  -74.425548845  163.418486734    64.9998   5   9   0.7831   0.7015   3.2550   0.4452  -1.1694  -1.1157   0.00    0.0
2018/11/07 02:29:00.000  -74.425549759  163.418477197    65.3702   5   9   0.7832   0.6974   3.2372   0.4441  -1.1574  -1.1147   0.00    0.0
2018/11/07 02:29:30.000  -74.425546685  163.418486816    63.4279   5   9   0.7836   0.6936   3.2200   0.4430  -1.1458  -1.1137   0.00    0.0
2018/11/07 02:30:00.000  -74.425550887  163.418478925    65.3798   5   9   0.7843   0.6902   3.2034   0.4420  -1.1344  -1.1128   0.00    0.0
2018/11/07 02:30:30.000  -74.425551363  163.418473205    65.3753   5   9   0.7853   0.6872   3.1876   0.4412  -1.1235  -1.1121   0.00    0.0
2018/11/07 02:31:00.000  -74.425548519  163.418485927    63.7432   5   9   0.7867   0.6845   3.1725   0.4405  -1.1129  -1.1116   0.00    0.0
2018/11/07 02:31:30.000  -74.425551162  163.418475651    64.9720   5   9   0.7883   0.6822   3.1581   0.4399  -1.1027  -1.1112   0.00    0.0
2018/11/07 02:32:00.000  -74.425550544  163.418481059    64.7583   5   9   0.7903   0.6803   3.1444   0.4395  -1.0930  -1.1111   0.00    0.0
2018/11/07 02:32:30.000  -74.425549240  163.418487414    62.9460   5   9   0.7926   0.6788   3.1316   0.4392  -1.0836  -1.1111   0.00    0.0
2018/11/07 02:33:00.000  -74.425547100  163.418483658    63.2221   5   9   0.7919   0.6741   3.1067   0.4369  -1.0686  -1.1073   0.00    0.0
2018/11/07 02:33:30.000  -74.425552646  163.418478577    63.7894   5   9   0.7914   0.6697   3.0827   0.4348  -1.0541  -1.1038   0.00    0.0
2018/11/07 02:34:00.000  -74.425553208  163.418478954    64.3041   5   9   0.7912   0.6658   3.0597   0.4329  -1.0401  -1.1004   0.00    0.0
2018/11/07 02:34:30.000  -74.425553259  163.418471726    65.9236   5   9   0.7914   0.6623   3.0377   0.4311  -1.0265  -1.0973   0.00    0.0
2018/11/07 02:35:00.000  -74.425552238  163.418476134    65.1341   5   9   0.7919   0.6592   3.0168   0.4295  -1.0135  -1.0945   0.00    0.0
2018/11/07 02:35:30.000  -74.425552351  163.418481013    65.1609   5   9   0.7928   0.6565   2.9971   0.4281  -1.0012  -1.0921   0.00    0.0
2018/11/07 02:36:00.000  -74.425551739  163.418479550    64.8205   5   9   0.7940   0.6543   2.9785   0.4269  -0.9893  -1.0900   0.00    0.0
2018/11/07 02:36:30.000  -74.425555175  163.418472079    66.5806   5   9   0.7956   0.6525   2.9610   0.4260  -0.9781  -1.0882   0.00    0.0
2018/11/07 02:37:00.000  -74.425553479  163.418475143    65.7739   5   9   0.7975   0.6511   2.9446   0.4252  -0.9674  -1.0868   0.00    0.0
2018/11/07 02:37:30.000  -74.425552333  163.418487822    65.0090   5   9   0.7998   0.6501   2.9294   0.4247  -0.9572  -1.0857   0.00    0.0
2018/11/07 02:38:00.000  -74.425550005  163.418477583    65.1448   5   9   0.7989   0.6461   2.9030   0.4221  -0.9418  -1.0807   0.00    0.0
2018/11/07 02:38:30.000  -74.425550915  163.418490742    64.5498   5   8   0.8321   0.6526   3.4436   0.3863  -0.8010  -1.2655   0.00    0.0
2018/11/07 02:39:00.000  -74.425552924  163.418485579    65.4205   5   8   0.8325   0.6498   3.4242   0.3831  -0.7824  -1.2638   0.00    0.0
2018/11/07 02:39:30.000  -74.425554001  163.418482842    65.4718   5   8   0.8334   0.6474   3.4059   0.3801  -0.7642  -1.2624   0.00    0.0
2018/11/07 02:40:00.000  -74.425552835  163.418482059    64.9872   5   8   0.8346   0.6455   3.3888   0.3773  -0.7464  -1.2615   0.00    0.0
2018/11/07 02:40:30.000  -74.425553875  163.418479029    65.7164   5   8   0.8362   0.6440   3.3731   0.3747  -0.7291  -1.2610   0.00    0.0
2018/11/07 02:41:00.000  -74.425552325  163.418489143    64.4883   5   8   0.8382   0.6430   3.3586   0.3723  -0.7122  -1.2609   0.00    0.0
2018/11/07 02:41:30.000  -74.425553307  163.418478147    64.3425   5   8   0.8405   0.6425   3.3454   0.3702  -0.6956  -1.2613   0.00    0.0
2018/11/07 02:42:00.000  -74.425553177  163.418477979    66.0904   5   8   0.8433   0.6424   3.3335   0.3682  -0.6794  -1.2622   0.00    0.0
2018/11/07 02:42:30.000  -74.425554557  163.418481273    66.7449   5   8   0.8465   0.6427   3.3229   0.3665  -0.6636  -1.2636   0.00    0.0
2018/11/07 02:43:00.000  -74.425554670  163.418484498    65.8434   5   8   0.8460   0.6401   3.2986   0.3628  -0.6428  -1.2595   0.00    0.0
2018/11/07 02:43:30.000  -74.425555378  163.418480218    66.1416   5   8   0.8460   0.6379   3.2755   0.3594  -0.6223  -1.2560   0.00    0.0
2018/11/07 02:44:00.000  -74.425554088  163.418478320    65.5914   5   8   0.8463   0.6361   3.2538   0.3562  -0.6022  -1.2529   0.00    0.0
2018/11/07 02:44:30.000  -74.425553666  163.418482806    65.1976   5   8   0.8470   0.6348   3.2335   0.3532  -0.5825  -1.2503   0.00    0.0
2018/11/07 02:45:00.000  -74.425555976  163.418476081    65.0988   5   9   0.8439   0.6337   2.9657   0.3486  -0.5801  -1.2898   0.00    0.0
2018/11/07 02:45:30.000  -74.425552299  163.418470205    65.7190   5   9   0.8450   0.6331   2.9583   0.3454  -0.5658  -1.2898   0.00    0.0
2018/11/07 02:46:00.000  -74.425555917  163.418470716    66.0530   5   9   0.8465   0.6330   2.9521   0.3425  -0.5517  -1.2903   0.00    0.0
2018/11/07 02:46:30.000  -74.425553840  163.418480864    64.7224   5   9   0.8483   0.6333   2.9470   0.3398  -0.5379  -1.2913   0.00    0.0
2018/11/07 02:47:00.000  -74.425551435  163.418478835    65.0232   5   9   0.8505   0.6339   2.9431   0.3372  -0.5243  -1.2929   0.00    0.0
2018/11/07 02:47:30.000  -74.425552379  163.418479587    66.1681   5   9   0.8532   0.6350   2.9404   0.3348  -0.5109  -1.2950   0.00    0.0
2018/11/07 02:48:00.000  -74.425555611  163.418480241    66.6158   5   8   0.8568   0.6629   3.1775   0.3563   0.0318  -1.2471   0.00    0.0
2018/11/07 02:48:30.000  -74.425553253  163.418474751    65.3850   5   8   0.8557   0.6620   3.1666   0.3516   0.1468  -1.2453   0.00    0.0
2018/11/07 02:49:00.000  -74.425553423  163.418480476    65.6742   5   8   0.8550   0.6615   3.1569   0.3472   0.2038  -1.2440   0.00    0.0
2018/11/07 02:49:30.000  -74.425549608  163.418472804    63.9568   5   8   0.8547   0.6614   3.1484   0.3430   0.2470  -1.2432   0.00    0.0
2018/11/07 02:50:00.000  -74.425554171  163.418479391    66.2057   5   8   0.8548   0.6617   3.1412   0.3390   0.2829  -1.2430   0.00    0.0
2018/11/07 02:50:30.000  -74.425556964  163.418483811    67.6638   5   8   0.8554   0.6625   3.1357   0.3353   0.3142  -1.2434   0.00    0.0
2018/11/07 02:51:00.000  -74.425553105  163.418481109    66.2319   5   8   0.8564   0.6638   3.1315   0.3317   0.3422  -1.2444   0.00    0.0
2018/11/07 02:51:30.000  -74.425555212  163.418481051    65.9231   5   8   0.8578   0.6654   3.1288   0.3283   0.3678  -1.2460   0.00    0.0
2018/11/07 02:52:00.000  -74.425554823  163.418484341    66.6398   5   8   0.8597   0.6675   3.1274   0.3250   0.3916  -1.2481   0.00    0.0
2018/11/07 02:52:30.000  -74.425553249  163.418482107    65.1954   5   8   0.8619   0.6700   3.1276   0.3220   0.4139  -1.2509   0.00    0.0
2018/11/07 02:53:00.000  -74.425554921  163.418478666    66.1480   5   9   0.8143   0.6557   2.6165   0.2515   0.6441  -1.0431   0.00    0.0
2018/11/07 02:53:30.000  -74.425555489  163.418483980    66.9879   5   9   0.8141   0.6558   2.6151   0.2474   0.6522  -1.0452   0.00    0.0
2018/11/07 02:54:00.000  -74.425554116  163.418479009    65.5476   5   9   0.8142   0.6563   2.6145   0.2435   0.6603  -1.0476   0.00    0.0
2018/11/07 02:54:30.000  -74.425554252  163.418483952    66.5119   5   9   0.8147   0.6571   2.6150   0.2396   0.6685  -1.0505   0.00    0.0
2018/11/07 02:55:00.000  -74.425556280  163.418479934    66.4761   5   9   0.8156   0.6582   2.6165   0.2358   0.6768  -1.0537   0.00    0.0
2018/11/07 02:55:30.000  -74.425556058  163.418476102    66.2240   5   9   0.8170   0.6598   2.6194   0.2320   0.6854  -1.0575   0.00    0.0
2018/11/07 02:56:00.000  -74.425556296  163.418473905    66.5008   5   9   0.8187   0.6618   2.6233   0.2283   0.6941  -1.0617   0.00    0.0
2018/11/07 02:56:30.000  -74.425557212  163.418465135    66.8876   5   9   0.8209   0.6641   2.6285   0.2246   0.7030  -1.0664   0.00    0.0
2018/11/07 02:57:00.000  -74.425557489  163.418472457    66.9250   5   9   0.8234   0.6668   2.6348   0.2209   0.7122  -1.0715   0.00    0.0
2018/11/07 02:57:30.000  -74.425556064  163.418481712    66.3131   5   9   0.8263   0.6698   2.6423   0.2172   0.7216  -1.0772   0.00    0.0
2018/11/07 02:58:00.000  -74.425558055  163.418477725    66.4636   5   9   0.8258   0.6698   2.6377   0.2129   0.7269  -1.0782   0.00    0.0
2018/11/07 02:58:30.000  -74.425557773  163.418474019    66.9696   5   9   0.8257   0.6700   2.6340   0.2086   0.7324  -1.0797   0.00    0.0
2018/11/07 02:59:00.000  -74.425557855  163.418474841    66.3485   5   9   0.8260   0.6706   2.6313   0.2043   0.7380  -1.0815   0.00    0.0
2018/11/07 02:59:30.000  -74.425555662  163.418482934    66.8792   5   9   0.8267   0.6715   2.6298   0.2001   0.7438  -1.0838   0.00    0.0
2018/11/07 03:00:00.000  -74.425559629  163.418476313    66.9836   5   9   0.8277   0.6728   2.6294   0.1959   0.7498  -1.0866   0.00    0.0
2018/11/07 03:00:30.000  -74.425560390  163.418480556    67.8832   5   9   0.8292   0.6745   2.6305   0.1918   0.7562  -1.0899   0.00    0.0
2018/11/07 03:01:00.000  -74.425554489  163.418484135    66.0850   5   9   0.8311   0.6766   2.6328   0.1876   0.7629  -1.0937   0.00    0.0
2018/11/07 03:01:30.000  -74.425557064  163.418483064    66.7651   5   9   0.8334   0.6790   2.6364   0.1833   0.7698  -1.0980   0.00    0.0
2018/11/07 03:02:00.000  -74.425554841  163.418476688    66.0693   5   9   0.8360   0.6818   2.6413   0.1790   0.7771  -1.1028   0.00    0.0
2018/11/07 03:02:30.000  -74.425557539  163.418484511    66.6274   5   9   0.8390   0.6850   2.6474   0.1746   0.7848  -1.1081   0.00    0.0
2018/11/07 03:03:00.000  -74.425558186  163.418474877    67.0706   5   9   0.8387   0.6848   2.6402   0.1702   0.7875  -1.1084   0.00    0.0
2018/11/07 03:03:30.000  -74.425557827  163.418484721    66.8220   5   9   0.8386   0.6850   2.6342   0.1659   0.7905  -1.1091   0.00    0.0
2018/11/07 03:04:00.000  -74.425556232  163.418488580    66.5441   5   9   0.8390   0.6856   2.6293   0.1616   0.7938  -1.1103   0.00    0.0
2018/11/07 03:04:30.000  -74.425559044  163.418475417    66.7080   5   9   0.8397   0.6864   2.6256   0.1573   0.7973  -1.1119   0.00    0.0
2018/11/07 03:05:00.000  -74.425556590  163.418472237    67.5306   5   9   0.8409   0.6877   2.6232   0.1529   0.8012  -1.1141   0.00    0.0
2018/11/07 03:05:30.000  -74.425556666  163.418473192    66.2219   5   9   0.8424   0.6893   2.6225   0.1485   0.8055  -1.1168   0.00    0.0
2018/11/07 03:06:00.000  -74.425556856  163.418479359    65.7457   5   9   0.8444   0.6913   2.6230   0.1439   0.8102  -1.1200   0.00    0.0
2018/11/07 03:06:30.000  -74.425556595  163.418470216    65.4647   5   9   0.8467   0.6937   2.6248   0.1392   0.8152  -1.1237   0.00    0.0
2018/11/07 03:07:00.000  -74.425557246  163.418476682    65.6702   5   9   0.8494   0.6964   2.6280   0.1342   0.8207  -1.1279   0.00    0.0
2018/11/07 03:07:30.000  -74.425554406  163.418467519    65.0541   5   9   0.8525   0.6996   2.6324   0.1290   0.8266  -1.1326   0.00    0.0
2018/11/07 03:08:00.000  -74.425555146  163.418473044    65.4500   5   9   0.8522   0.6992   2.6230   0.1251   0.8270  -1.1321   0.00    0.0
2018/11/07 03:08:30.000  -74.425554934  163.418472159    64.9689   5   9   0.8522   0.6992   2.6147   0.1213   0.8276  -1.1321   0.00    0.0
2018/11/07 03:09:00.000  -74.425560154  163.418467348    66.5120   5   9   0.8526   0.6995   2.6077   0.1173   0.8286  -1.1325   0.00    0.0
2018/11/07 03:09:30.000  -74.425555930  163.418477419    65.5585   5   9   0.8533   0.7001   2.6020   0.1133   0.8300  -1.1334   0.00    0.0
2018/11/07 03:10:00.000  -74.425557776  163.418477776    65.2935   5   9   0.8545   0.7012   2.5977   0.1092   0.8317  -1.1349   0.00    0.0
2018/11/07 03:10:30.000  -74.425555688  163.418469519    65.2336   5   9   0.8560   0.7026   2.5950   0.1048   0.8341  -1.1369   0.00    0.0
2018/11/07 03:11:00.000  -74.425556513  163.418466598    65.4994   5  10   0.8438   0.5825   2.1510   0.2677   0.3552  -1.0358   0.00    0.0
2018/11/07 03:11:30.000  -74.425555384  163.418467007    65.2353   5  10   0.8461   0.5833   2.1529   0.2667   0.3588  -1.0392   0.00    0.0
2018/11/07 03:12:00.000  -74.425557701  163.418476505    66.4630   5  10   0.8488   0.5843   2.1559   0.2659   0.3625  -1.0431   0.00    0.0
2018/11/07 03:12:30.000  -74.425556984  163.418469706    65.3466   5  10   0.8519   0.5855   2.1598   0.2651   0.3663  -1.0474   0.00    0.0
2018/11/07 03:13:00.000  -74.425556953  163.418472714    65.6377   5  10   0.8517   0.5846   2.1542   0.2636   0.3683  -1.0477   0.00    0.0
2018/11/07 03:13:30.000  -74.425557545  163.418472662    65.9992   5  10   0.8519   0.5838   2.1496   0.2622   0.3702  -1.0484   0.00    0.0
2018/11/07 03:14:00.000  -74.425557472  163.418469846    65.9272   5  10   0.8524   0.5833   2.1460   0.2609   0.3721  -1.0495   0.00    0.0
2018/11/07 03:14:30.000  -74.425556768  163.418476411    65.4044   5  10   0.8533   0.5831   2.1433   0.2598   0.3740  -1.0510   0.00    0.0
2018/11/07 03:15:00.000  -74.425557648  163.418469759    65.5945   5  10   0.8546   0.5831   2.1417   0.2587   0.3761  -1.0529   0.00    0.0
2018/11/07 03:15:30.000  -74.425558007  163.418470115    66.4783   5  10   0.8563   0.5834   2.1415   0.2577   0.3783  -1.0553   0.00    0.0
2018/11/07 03:16:00.000  -74.425558281  163.418478109    65.4423   5  10   0.8583   0.5840   2.1422   0.2569   0.3807  -1.0582   0.00    0.0
2018/11/07 03:16:30.000  -74.425560466  163.418469205    65.5516   5  10   0.8607   0.5848   2.1439   0.2560   0.3832  -1.0614   0.00    0.0
2018/11/07 03:17:00.000  -74.425556459  163.418471504    65.3844   5  10   0.8634   0.5858   2.1467   0.2553   0.3860  -1.0651   0.00    0.0
2018/11/07 03:17:30.000  -74.425557647  163.418473530    65.6764   5  10   0.8665   0.5872   2.1504   0.2546   0.3889  -1.0692   0.00    0.0
2018/11/07 03:18:00.000  -74.425556442  163.418470397    65.2321   5  10   0.8664   0.5862   2.1446   0.2534   0.3892  -1.0692   0.00    0.0
2018/11/07 03:18:30.000  -74.425557483  163.418476436    65.4000   5  10   0.8666   0.5855   2.1397   0.2524   0.3896  -1.0697   0.00    0.0
2018/11/07 03:19:00.000  -74.425555866  163.418473419    64.6974   5  10   0.8672   0.5850   2.1359   0.2514   0.3902  -1.0706   0.00    0.0
2018/11/07 03:19:30.000  -74.425552958  163.418474484    64.3776   5  10   0.8681   0.5848   2.1331   0.2506   0.3908  -1.0719   0.00    0.0
2018/11/07 03:20:00.000  -74.425557542  163.418474453    65.5042   5  10   0.8694   0.5848   2.1312   0.2498   0.3917  -1.0736   0.00    0.0
2018/11/07 03:20:30.000  -74.425555303  163.418478737    65.2263   5  10   0.8711   0.5851   2.1307   0.2490   0.3929  -1.0757   0.00    0.0
2018/11/07 03:21:00.000  -74.425555091  163.418472882    65.2073   5  10   0.8731   0.5857   2.1312   0.2484   0.3943  -1.0783   0.00    0.0
2018/11/07 03:21:30.000  -74.425553389  163.418475447    64.9583   5  10   0.8755   0.5865   2.1326   0.2477   0.3960  -1.0812   0.00    0.0
2018/11/07 03:22:00.000  -74.425552715  163.418477857    64.8133   5  10   0.8782   0.5876   2.1351   0.2471   0.3980  -1.0845   0.00    0.0
2018/11/07 03:22:30.000  -74.425555168  163.418485520    65.9334   5  10   0.8812   0.5890   2.1385   0.2465   0.4002  -1.0882   0.00    0.0
2018/11/07 03:23:00.000  -74.425553408  163.418471028    64.7674   5  10   0.8811   0.5880   2.1324   0.2458   0.3991  -1.0881   0.00    0.0
2018/11/07 03:23:30.000  -74.425556967  163.418478629    65.5976   5  10   0.8813   0.5873   2.1274   0.2452   0.3983  -1.0883   0.00    0.0
2018/11/07 03:24:00.000  -74.425553524  163.418481704    64.9443   5  10   0.8819   0.5868   2.1233   0.2446   0.3977  -1.0889   0.00    0.0
2018/11/07 03:24:30.000  -74.425555270  163.418472023    65.1804   5  10   0.8828   0.5866   2.1203   0.2440   0.3973  -1.0899   0.00    0.0
2018/11/07 03:25:00.000  -74.425549035  163.418469884    63.4409   5  11   0.8389   0.5708   1.9418   0.1469   0.5218  -0.9772   0.00    0.0
2018/11/07 03:25:30.000  -74.425550832  163.418481319    63.2640   5  11   0.8408   0.5709   1.9430   0.1454   0.5222  -0.9802   0.00    0.0
2018/11/07 03:26:00.000  -74.425550200  163.418469876    63.8776   5  11   0.8430   0.5712   1.9452   0.1439   0.5229  -0.9834   0.00    0.0
2018/11/07 03:26:30.000  -74.425552946  163.418483676    64.1919   5  11   0.8455   0.5718   1.9483   0.1422   0.5240  -0.9870   0.00    0.0
2018/11/07 03:27:00.000  -74.425553299  163.418478249    64.7948   5  11   0.8483   0.5726   1.9522   0.1405   0.5253  -0.9910   0.00    0.0
2018/11/07 03:27:30.000  -74.425548026  163.418479419    63.4762   5  11   0.8515   0.5737   1.9570   0.1387   0.5271  -0.9952   0.00    0.0
2018/11/07 03:28:00.000  -74.425554412  163.418484932    64.7615   5  12   0.8260   0.5698   1.9425   0.0859   0.5139  -1.0176   0.00    0.0
2018/11/07 03:28:30.000  -74.425544434  163.418480762    63.1988   5  12   0.8261   0.5688   1.9405   0.0844   0.5126  -1.0185   0.00    0.0
