% program   : RTKLIB ver.2.4.3
% inp file  : _by_type/_obs/blake/20181105.18o
% inp file  : _by_type/_obs/base/20181105.18o
% inp file  : _by_type/_sp3+clk/igs20261.clk
% inp file  : _by_type/_sp3+clk/igs20261.sp3
% inp file  : _by_type/_nav/blake/20181105.18n
% obs start : 2018/11/05 00:00:00.0 GPST (week2026  86400.0s)
% obs end   : 2018/11/05 23:59:45.0 GPST (week2026 172785.0s)
% pos mode  : dgps
% freqs     : L1+L2
% solution  : combined
% elev mask : 15.0 deg
% dynamics  : off
% tidecorr  : off
% ionos opt : iono-free
% tropo opt : est ztd+grad
% ephemeris : precise
% navi sys  : gps glonass
% antenna1  :                       ( 0.0000  0.0000  0.0000)
% antenna2  :                       ( 0.0000  0.0000  0.0000)
% ref pos   : 90.000000000   0.000000000-6335367.6285
%
% (lat/lon/height=WGS84/ellipsoidal,Q=1:fix,2:float,3:sbas,4:dgps,5:single,6:ppp,ns=# of satellites)
%  GPST                  latitude(deg) longitude(deg)  height(m)   Q  ns   sdn(m)   sde(m)   sdu(m)  sdne(m)  sdeu(m)  sdun(m) age(s)  ratio
2018/11/05 00:00:00.000  -74.407206868  163.437670917    82.0595   5   8   0.8304   0.6466   2.5990   0.2489  -0.5270  -1.1374 -32115.00    0.0
2018/11/05 00:00:15.000  -74.407208565  163.437670649    81.6058   5   8   0.8298   0.6464   2.6032   0.2483  -0.5249  -1.1379 -32100.00    0.0
2018/11/05 00:00:30.000  -74.407208343  163.437666254    81.9619   5   8   0.8294   0.6463   2.6077   0.2477  -0.5229  -1.1386 -32085.00    0.0
2018/11/05 00:00:45.000  -74.407205049  163.437661783    80.8899   5   8   0.8291   0.6462   2.6126   0.2472  -0.5209  -1.1394 -32070.00    0.0
2018/11/05 00:01:00.000  -74.407206113  163.437664742    81.9415   5   8   0.8289   0.6463   2.6179   0.2466  -0.5190  -1.1404 -32055.00    0.0
2018/11/05 00:01:15.000  -74.407208133  163.437663498    81.4618   5   8   0.8288   0.6465   2.6235   0.2461  -0.5171  -1.1416 -32040.00    0.0
2018/11/05 00:01:30.000  -74.407206584  163.437668842    82.1450   5   8   0.8288   0.6467   2.6295   0.2457  -0.5153  -1.1429 -32025.00    0.0
2018/11/05 00:01:45.000  -74.407205300  163.437666828    81.2213   5   8   0.8288   0.6470   2.6358   0.2452  -0.5135  -1.1443 -32010.00    0.0
2018/11/05 00:02:00.000  -74.407205709  163.437664097    81.5024   5   8   0.8290   0.6475   2.6425   0.2448  -0.5117  -1.1459 -31995.00    0.0
2018/11/05 00:02:15.000  -74.407207865  163.437666813    81.4521   5   8   0.8293   0.6480   2.6496   0.2444  -0.5100  -1.1477 -31980.00    0.0
2018/11/05 00:02:30.000  -74.407206238  163.437666113    81.8449   5   8   0.8297   0.6486   2.6571   0.2440  -0.5083  -1.1496 -31965.00    0.0
2018/11/05 00:02:45.000  -74.407207093  163.437671973    81.8743   5   8   0.8282   0.6474   2.6575   0.2427  -0.5045  -1.1485 -31950.00    0.0
2018/11/05 00:03:00.000  -74.407206159  163.437665990    80.9138   5   8   0.8268   0.6463   2.6583   0.2415  -0.5008  -1.1475 -31935.00    0.0
2018/11/05 00:03:15.000  -74.407206959  163.437659824    80.9358   5   8   0.8255   0.6454   2.6595   0.2403  -0.4972  -1.1468 -31920.00    0.0
2018/11/05 00:03:30.000  -74.407205689  163.437661883    79.5811   5   8   0.8242   0.6445   2.6611   0.2392  -0.4936  -1.1461 -31905.00    0.0
2018/11/05 00:03:45.000  -74.407207812  163.437668412    79.9371   5   8   0.8231   0.6438   2.6629   0.2381  -0.4901  -1.1456 -31890.00    0.0
2018/11/05 00:04:00.000  -74.407206818  163.437664793    79.6417   5   8   0.8221   0.6431   2.6652   0.2370  -0.4866  -1.1453 -31875.00    0.0
2018/11/05 00:04:15.000  -74.407205927  163.437672061    80.4180   5   9   0.6894   0.6156   2.0161  -0.1624   0.2963  -0.7291 -31860.00    0.0
2018/11/05 00:04:30.000  -74.407203091  163.437671252    79.7113   5   9   0.6887   0.6153   2.0193  -0.1629   0.3005  -0.7295 -31845.00    0.0
2018/11/05 00:04:45.000  -74.407203478  163.437665801    79.8727   5   9   0.6882   0.6150   2.0228  -0.1634   0.3047  -0.7299 -31830.00    0.0
2018/11/05 00:05:00.000  -74.407204156  163.437670049    79.7567   5   9   0.6877   0.6148   2.0266  -0.1640   0.3090  -0.7304 -31815.00    0.0
2018/11/05 00:05:15.000  -74.407202882  163.437666409    79.5140   5   9   0.6873   0.6148   2.0308  -0.1647   0.3134  -0.7311 -31800.00    0.0
2018/11/05 00:05:30.000  -74.407205296  163.437665594    80.2249   5   9   0.6871   0.6148   2.0352  -0.1654   0.3178  -0.7318 -31785.00    0.0
2018/11/05 00:05:45.000  -74.407201529  163.437662100    79.0661   5   9   0.6868   0.6149   2.0399  -0.1662   0.3223  -0.7326 -31770.00    0.0
2018/11/05 00:06:00.000  -74.407205122  163.437664459    79.2461   5   9   0.6867   0.6151   2.0448  -0.1670   0.3268  -0.7335 -31755.00    0.0
2018/11/05 00:06:15.000  -74.407205519  163.437665083    79.3358   5   9   0.6866   0.6154   2.0501  -0.1679   0.3314  -0.7345 -31740.00    0.0
2018/11/05 00:06:30.000  -74.407202040  163.437666804    78.9091   5   9   0.6866   0.6157   2.0556  -0.1688   0.3361  -0.7356 -31725.00    0.0
2018/11/05 00:06:45.000  -74.407203442  163.437660982    79.8254   5   9   0.6867   0.6162   2.0613  -0.1698   0.3408  -0.7368 -31710.00    0.0
2018/11/05 00:07:00.000  -74.407204462  163.437669207    78.7490   5   9   0.6869   0.6167   2.0674  -0.1709   0.3456  -0.7380 -31695.00    0.0
2018/11/05 00:07:15.000  -74.407201990  163.437664742    78.8840   5   9   0.6871   0.6173   2.0738  -0.1719   0.3504  -0.7394 -31680.00    0.0
2018/11/05 00:07:30.000  -74.407199677  163.437663182    79.1488   5   9   0.6874   0.6181   2.0804  -0.1731   0.3554  -0.7408 -31665.00    0.0
2018/11/05 00:07:45.000  -74.407202391  163.437663749    79.8153   5   9   0.6864   0.6172   2.0825  -0.1734   0.3590  -0.7410 -31650.00    0.0
2018/11/05 00:08:00.000  -74.407203833  163.437674359    79.2547   5   9   0.6855   0.6165   2.0847  -0.1738   0.3626  -0.7412 -31635.00    0.0
2018/11/05 00:08:15.000  -74.407203167  163.437670361    78.8772   5   9   0.6846   0.6158   2.0873  -0.1742   0.3663  -0.7415 -31620.00    0.0
2018/11/05 00:08:30.000  -74.407201494  163.437662959    79.2645   5   9   0.6838   0.6152   2.0901  -0.1746   0.3701  -0.7418 -31605.00    0.0
2018/11/05 00:08:45.000  -74.407202169  163.437667788    79.6052   5   9   0.6831   0.6147   2.0931  -0.1751   0.3739  -0.7423 -31590.00    0.0
2018/11/05 00:09:00.000  -74.407200515  163.437658851    78.8653   5   9   0.6825   0.6142   2.0964  -0.1757   0.3777  -0.7428 -31575.00    0.0
2018/11/05 00:09:15.000  -74.407200630  163.437666188    78.9569   5   9   0.6819   0.6139   2.1000  -0.1763   0.3816  -0.7434 -31560.00    0.0
2018/11/05 00:09:30.000  -74.407201803  163.437663981    79.0848   5   9   0.6814   0.6136   2.1039  -0.1770   0.3856  -0.7442 -31545.00    0.0
2018/11/05 00:09:45.000  -74.407201302  163.437665597    79.9948   5   9   0.6810   0.6134   2.1080  -0.1777   0.3896  -0.7450 -31530.00    0.0
2018/11/05 00:10:00.000  -74.407205640  163.437668090    80.6002   5   9   0.6807   0.6134   2.1124  -0.1784   0.3937  -0.7458 -31515.00    0.0
2018/11/05 00:10:15.000  -74.407199239  163.437672205    79.1080   5   9   0.6805   0.6134   2.1172  -0.1793   0.3980  -0.7469 -31500.00    0.0
2018/11/05 00:10:30.000  -74.407199668  163.437665503    79.3563   5   9   0.6803   0.6135   2.1224  -0.1802   0.4024  -0.7480 -31485.00    0.0
2018/11/05 00:10:45.000  -74.407199350  163.437670779    79.4186   5   9   0.6803   0.6138   2.1278  -0.1812   0.4068  -0.7492 -31470.00    0.0
2018/11/05 00:11:00.000  -74.407203740  163.437675353    80.2565   5   9   0.6803   0.6141   2.1335  -0.1822   0.4113  -0.7505 -31455.00    0.0
2018/11/05 00:11:15.000  -74.407200409  163.437668342    79.5219   5   9   0.6803   0.6145   2.1394  -0.1833   0.4159  -0.7519 -31440.00    0.0
2018/11/05 00:11:30.000  -74.407200848  163.437677739    78.8987   5   9   0.6805   0.6150   2.1457  -0.1845   0.4206  -0.7534 -31425.00    0.0
2018/11/05 00:11:45.000  -74.407203628  163.437672660    79.7874   5   9   0.6807   0.6155   2.1523  -0.1857   0.4253  -0.7550 -31410.00    0.0
2018/11/05 00:12:00.000  -74.407199171  163.437666374    78.4482   5   9   0.6810   0.6162   2.1592  -0.1869   0.4302  -0.7567 -31395.00    0.0
2018/11/05 00:12:15.000  -74.407199620  163.437678250    80.4214   5   9   0.6814   0.6170   2.1664  -0.1882   0.4352  -0.7584 -31380.00    0.0
2018/11/05 00:12:30.000  -74.407201226  163.437677064    79.9302   5   9   0.6818   0.6178   2.1739  -0.1896   0.4402  -0.7603 -31365.00    0.0
2018/11/05 00:12:45.000  -74.407200101  163.437676459    78.8474   5   9   0.6810   0.6170   2.1762  -0.1900   0.4434  -0.7608 -31350.00    0.0
2018/11/05 00:13:00.000  -74.407199709  163.437677253    78.8730   5   9   0.6802   0.6164   2.1790  -0.1905   0.4469  -0.7613 -31335.00    0.0
2018/11/05 00:13:15.000  -74.407198561  163.437661128    78.1509   5   9   0.6794   0.6158   2.1820  -0.1911   0.4505  -0.7619 -31320.00    0.0
2018/11/05 00:13:30.000  -74.407196846  163.437671692    78.9619   5   9   0.6788   0.6153   2.1853  -0.1917   0.4541  -0.7626 -31305.00    0.0
2018/11/05 00:13:45.000  -74.407201035  163.437672588    79.8230   5   9   0.6782   0.6149   2.1889  -0.1924   0.4578  -0.7634 -31290.00    0.0
2018/11/05 00:14:00.000  -74.407199530  163.437676255    79.3377   5   9   0.6777   0.6146   2.1928  -0.1931   0.4616  -0.7643 -31275.00    0.0
2018/11/05 00:14:15.000  -74.407199093  163.437668053    79.0444   5   9   0.6773   0.6144   2.1969  -0.1939   0.4655  -0.7652 -31260.00    0.0
2018/11/05 00:14:30.000  -74.407197949  163.437670939    78.7298   5   9   0.6770   0.6143   2.2014  -0.1948   0.4695  -0.7663 -31245.00    0.0
2018/11/05 00:14:45.000  -74.407197334  163.437676190    78.9761   5   9   0.6767   0.6142   2.2061  -0.1957   0.4735  -0.7675 -31230.00    0.0
2018/11/05 00:15:00.000  -74.407197460  163.437686235    78.9235   5   9   0.6765   0.6143   2.2111  -0.1966   0.4777  -0.7687 -31215.00    0.0
2018/11/05 00:15:15.000  -74.407196553  163.437665287    78.6770   5   9   0.6764   0.6145   2.2166  -0.1977   0.4819  -0.7701 -31200.00    0.0
2018/11/05 00:15:30.000  -74.407199571  163.437674814    79.1605   5   9   0.6764   0.6147   2.2223  -0.1988   0.4863  -0.7716 -31185.00    0.0
2018/11/05 00:15:45.000  -74.407199080  163.437672114    78.7382   5   9   0.6765   0.6151   2.2284  -0.1999   0.4908  -0.7733 -31170.00    0.0
2018/11/05 00:16:00.000  -74.407197988  163.437666060    78.3750   5   9   0.6766   0.6155   2.2347  -0.2012   0.4954  -0.7750 -31155.00    0.0
2018/11/05 00:16:15.000  -74.407195906  163.437673062    78.3816   5   9   0.6768   0.6161   2.2414  -0.2024   0.5001  -0.7768 -31140.00    0.0
2018/11/05 00:16:30.000  -74.407196538  163.437683398    78.4662   5   9   0.6771   0.6167   2.2484  -0.2038   0.5049  -0.7787 -31125.00    0.0
2018/11/05 00:16:45.000  -74.407194435  163.437670958    79.1494   5   9   0.6775   0.6174   2.2557  -0.2052   0.5098  -0.7807 -31110.00    0.0
2018/11/05 00:17:00.000  -74.407197159  163.437671577    78.6518   5   9   0.6780   0.6182   2.2633  -0.2066   0.5148  -0.7828 -31095.00    0.0
2018/11/05 00:17:15.000  -74.407196155  163.437666429    79.3074   5   9   0.6785   0.6191   2.2713  -0.2081   0.5199  -0.7850 -31080.00    0.0
2018/11/05 00:17:30.000  -74.407195218  163.437668696    78.0086   5   9   0.6791   0.6201   2.2795  -0.2097   0.5252  -0.7873 -31065.00    0.0
2018/11/05 00:17:45.000  -74.407197811  163.437666558    79.3083   5   9   0.6784   0.6195   2.2824  -0.2104   0.5286  -0.7881 -31050.00    0.0
2018/11/05 00:18:00.000  -74.407194516  163.437666893    78.6001   5   9   0.6777   0.6190   2.2856  -0.2110   0.5320  -0.7889 -31035.00    0.0
2018/11/05 00:18:15.000  -74.407197383  163.437671986    78.7081   5   9   0.6771   0.6186   2.2890  -0.2118   0.5355  -0.7898 -31020.00    0.0
2018/11/05 00:18:30.000  -74.407194613  163.437668841    78.4547   5   9   0.6766   0.6183   2.2927  -0.2125   0.5391  -0.7909 -31005.00    0.0
2018/11/05 00:18:45.000  -74.407195205  163.437680285    78.6417   5   9   0.6762   0.6180   2.2967  -0.2134   0.5427  -0.7920 -30990.00    0.0
2018/11/05 00:19:00.000  -74.407195077  163.437679129    78.6163   5   9   0.6758   0.6178   2.3010  -0.2143   0.5465  -0.7932 -30975.00    0.0
2018/11/05 00:19:15.000  -74.407195397  163.437671818    78.6861   5   9   0.6756   0.6178   2.3056  -0.2152   0.5504  -0.7945 -30960.00    0.0
2018/11/05 00:19:30.000  -74.407195589  163.437673577    77.7985   5   9   0.6754   0.6178   2.3105  -0.2162   0.5544  -0.7959 -30945.00    0.0
2018/11/05 00:19:45.000  -74.407195045  163.437665642    78.3794   5   9   0.6752   0.6179   2.3157  -0.2173   0.5584  -0.7974 -30930.00    0.0
2018/11/05 00:20:00.000  -74.407194470  163.437674499    78.5035   5  10   0.6523   0.6087   2.0706  -0.2576   0.6550  -0.6750 -30915.00    0.0
2018/11/05 00:20:15.000  -74.407196854  163.437677194    78.7686   5  10   0.6524   0.6091   2.0768  -0.2586   0.6586  -0.6771 -30900.00    0.0
2018/11/05 00:20:30.000  -74.407195436  163.437680600    78.3763   5  10   0.6526   0.6096   2.0833  -0.2596   0.6623  -0.6792 -30885.00    0.0
2018/11/05 00:20:45.000  -74.407194500  163.437673127    78.1337   5  10   0.6528   0.6102   2.0901  -0.2606   0.6662  -0.6814 -30870.00    0.0
2018/11/05 00:21:00.000  -74.407194506  163.437676104    78.3582   5  10   0.6531   0.6108   2.0972  -0.2617   0.6702  -0.6837 -30855.00    0.0
2018/11/05 00:21:15.000  -74.407194096  163.437681264    78.7343   5  10   0.6535   0.6116   2.1046  -0.2629   0.6743  -0.6861 -30840.00    0.0
2018/11/05 00:21:30.000  -74.407193083  163.437673525    78.3132   5  10   0.6539   0.6124   2.1123  -0.2642   0.6786  -0.6886 -30825.00    0.0
2018/11/05 00:21:45.000  -74.407193039  163.437680021    78.9539   5  10   0.6545   0.6134   2.1203  -0.2655   0.6830  -0.6912 -30810.00    0.0
2018/11/05 00:22:00.000  -74.407194196  163.437679997    79.2920   5  10   0.6551   0.6144   2.1287  -0.2669   0.6875  -0.6939 -30795.00    0.0
2018/11/05 00:22:15.000  -74.407195981  163.437677876    79.5797   5  10   0.6558   0.6155   2.1373  -0.2683   0.6921  -0.6967 -30780.00    0.0
2018/11/05 00:22:30.000  -74.407193321  163.437676215    78.2434   5  10   0.6565   0.6168   2.1462  -0.2698   0.6969  -0.6996 -30765.00    0.0
2018/11/05 00:22:45.000  -74.407193431  163.437677777    79.0610   5  10   0.6560   0.6164   2.1501  -0.2703   0.6994  -0.7011 -30750.00    0.0
2018/11/05 00:23:00.000  -74.407196047  163.437681735    80.2510   5  10   0.6555   0.6160   2.1542  -0.2708   0.7020  -0.7027 -30735.00    0.0
2018/11/05 00:23:15.000  -74.407194294  163.437684974    79.3207   5  10   0.6551   0.6158   2.1586  -0.2714   0.7047  -0.7044 -30720.00    0.0
2018/11/05 00:23:30.000  -74.407195464  163.437679957    79.2644   5  10   0.6548   0.6157   2.1633  -0.2720   0.7075  -0.7062 -30705.00    0.0
2018/11/05 00:23:45.000  -74.407194981  163.437682502    79.0103   5  10   0.6546   0.6156   2.1683  -0.2727   0.7104  -0.7081 -30690.00    0.0
2018/11/05 00:24:00.000  -74.407194933  163.437683458    78.6309   5  10   0.6544   0.6157   2.1735  -0.2735   0.7135  -0.7100 -30675.00    0.0
2018/11/05 00:24:15.000  -74.407195156  163.437681749    78.6168   5  10   0.6543   0.6158   2.1791  -0.2743   0.7167  -0.7121 -30660.00    0.0
2018/11/05 00:24:30.000  -74.407196080  163.437683208    79.6467   5  10   0.6543   0.6160   2.1849  -0.2752   0.7200  -0.7142 -30645.00    0.0
2018/11/05 00:24:45.000  -74.407197367  163.437683424    79.9680   5  10   0.6544   0.6163   2.1910  -0.2761   0.7234  -0.7165 -30630.00    0.0
2018/11/05 00:25:00.000  -74.407195894  163.437690579    80.8226   5  10   0.6545   0.6167   2.1974  -0.2771   0.7270  -0.7188 -30615.00    0.0
2018/11/05 00:25:15.000  -74.407197406  163.437681022    79.3876   5  10   0.6548   0.6173   2.2043  -0.2782   0.7308  -0.7213 -30600.00    0.0
2018/11/05 00:25:30.000  -74.407197227  163.437677169    79.8450   5  10   0.6551   0.6179   2.2114  -0.2794   0.7347  -0.7239 -30585.00    0.0
2018/11/05 00:25:45.000  -74.407193753  163.437685041    79.8465   5  10   0.6555   0.6186   2.2189  -0.2807   0.7387  -0.7266 -30570.00    0.0
2018/11/05 00:26:00.000  -74.407196844  163.437683398    80.1534   5  10   0.6560   0.6194   2.2266  -0.2820   0.7429  -0.7294 -30555.00    0.0
2018/11/05 00:26:15.000  -74.407197290  163.437684972    80.8870   5  10   0.6566   0.6204   2.2347  -0.2833   0.7472  -0.7323 -30540.00    0.0
2018/11/05 00:26:30.000  -74.407195086  163.437680439    80.0751   5  10   0.6572   0.6214   2.2430  -0.2848   0.7516  -0.7353 -30525.00    0.0
2018/11/05 00:26:45.000  -74.407196204  163.437683785    80.9035   5  10   0.6579   0.6225   2.2517  -0.2863   0.7561  -0.7383 -30510.00    0.0
2018/11/05 00:27:00.000  -74.407195748  163.437683713    80.1399   5  10   0.6587   0.6236   2.2607  -0.2878   0.7608  -0.7415 -30495.00    0.0
2018/11/05 00:27:15.000  -74.407196496  163.437676129    80.7422   5  10   0.6596   0.6249   2.2700  -0.2895   0.7657  -0.7448 -30480.00    0.0
2018/11/05 00:27:30.000  -74.407196676  163.437685718    80.2158   5  10   0.6605   0.6263   2.2796  -0.2912   0.7706  -0.7482 -30465.00    0.0
2018/11/05 00:27:45.000  -74.407197640  163.437678555    80.5306   5  10   0.6602   0.6261   2.2839  -0.2918   0.7732  -0.7501 -30450.00    0.0
2018/11/05 00:28:00.000  -74.407194630  163.437681053    79.1576   5  10   0.6599   0.6259   2.2882  -0.2925   0.7758  -0.7521 -30435.00    0.0
2018/11/05 00:28:15.000  -74.407197100  163.437680631    80.1960   5  10   0.6596   0.6257   2.2928  -0.2932   0.7784  -0.7541 -30420.00    0.0
2018/11/05 00:28:30.000  -74.407193847  163.437679282    80.0063   5  10   0.6595   0.6257   2.2978  -0.2939   0.7812  -0.7562 -30405.00    0.0
2018/11/05 00:28:45.000  -74.407196526  163.437689003    80.4327   5  10   0.6594   0.6258   2.3030  -0.2948   0.7841  -0.7584 -30390.00    0.0
2018/11/05 00:29:00.000  -74.407195464  163.437684419    80.2338   5  10   0.6594   0.6259   2.3084  -0.2957   0.7871  -0.7607 -30375.00    0.0
2018/11/05 00:29:15.000  -74.407196851  163.437686586    80.8175   5  10   0.6595   0.6261   2.3142  -0.2966   0.7903  -0.7631 -30360.00    0.0
2018/11/05 00:29:30.000  -74.407196202  163.437674299    80.3922   5  10   0.6596   0.6265   2.3202  -0.2976   0.7936  -0.7656 -30345.00    0.0
2018/11/05 00:29:45.000  -74.407193014  163.437677724    79.4621   5  10   0.6599   0.6269   2.3266  -0.2987   0.7970  -0.7682 -30330.00    0.0
2018/11/05 00:30:00.000  -74.407196469  163.437683940    79.5960   5  10   0.6602   0.6274   2.3332  -0.2999   0.8005  -0.7708 -30315.00    0.0
2018/11/05 00:30:15.000  -74.407195828  163.437679001    80.0628   5  10   0.6606   0.6281   2.3403  -0.3011   0.8042  -0.7737 -30300.00    0.0
2018/11/05 00:30:30.000  -74.407195670  163.437682995    80.5636   5  10   0.6611   0.6288   2.3476  -0.3024   0.8081  -0.7766 -30285.00    0.0
2018/11/05 00:30:45.000  -74.407196665  163.437682488    80.5518   5  10   0.6617   0.6297   2.3553  -0.3038   0.8121  -0.7796 -30270.00    0.0
2018/11/05 00:31:00.000  -74.407193175  163.437669694    79.4666   5  10   0.6623   0.6306   2.3632  -0.3052   0.8163  -0.7828 -30255.00    0.0
2018/11/05 00:31:15.000  -74.407197183  163.437688516    80.7150   5  10   0.6631   0.6316   2.3715  -0.3067   0.8205  -0.7860 -30240.00    0.0
2018/11/05 00:31:30.000  -74.407194366  163.437689615    80.4745   5  10   0.6639   0.6327   2.3800  -0.3083   0.8249  -0.7893 -30225.00    0.0
2018/11/05 00:31:45.000  -74.407194971  163.437673015    79.8689   5  10   0.6648   0.6339   2.3888  -0.3099   0.8294  -0.7927 -30210.00    0.0
2018/11/05 00:32:00.000  -74.407194621  163.437686857    80.3942   5  10   0.6658   0.6352   2.3979  -0.3116   0.8340  -0.7962 -30195.00    0.0
2018/11/05 00:32:15.000  -74.407194213  163.437683731    80.3314   5  10   0.6668   0.6366   2.4073  -0.3134   0.8388  -0.7999 -30180.00    0.0
2018/11/05 00:32:30.000  -74.407196411  163.437674031    79.4116   5  10   0.6679   0.6381   2.4170  -0.3152   0.8436  -0.8036 -30165.00    0.0
2018/11/05 00:32:45.000  -74.407193953  163.437676632    79.8132   5  10   0.6677   0.6378   2.4207  -0.3158   0.8458  -0.8055 -30150.00    0.0
2018/11/05 00:33:00.000  -74.407195311  163.437677905    79.6523   5  10   0.6676   0.6377   2.4248  -0.3165   0.8481  -0.8076 -30135.00    0.0
2018/11/05 00:33:15.000  -74.407193839  163.437673470    79.0149   5  10   0.6675   0.6376   2.4291  -0.3173   0.8505  -0.8098 -30120.00    0.0
2018/11/05 00:33:30.000  -74.407194485  163.437678413    80.1122   5  10   0.6675   0.6376   2.4337  -0.3181   0.8530  -0.8121 -30105.00    0.0
2018/11/05 00:33:45.000  -74.407195480  163.437684044    80.5296   5  10   0.6676   0.6377   2.4385  -0.3190   0.8556  -0.8144 -30090.00    0.0
2018/11/05 00:34:00.000  -74.407194958  163.437675835    79.8777   5  11   0.6551   0.6379   2.3490  -0.3186   0.8610  -0.8685 -30075.00    0.0
2018/11/05 00:34:15.000  -74.407195667  163.437685397    80.1651   5  11   0.6552   0.6382   2.3548  -0.3196   0.8638  -0.8709 -30060.00    0.0
2018/11/05 00:34:30.000  -74.407194460  163.437680264    80.0024   5  11   0.6555   0.6386   2.3609  -0.3207   0.8666  -0.8734 -30045.00    0.0
2018/11/05 00:34:45.000  -74.407195836  163.437685247    80.4608   5  11   0.6558   0.6390   2.3673  -0.3219   0.8696  -0.8760 -30030.00    0.0
2018/11/05 00:35:00.000  -74.407196467  163.437674327    80.2193   5  11   0.6562   0.6396   2.3739  -0.3231   0.8727  -0.8788 -30015.00    0.0
2018/11/05 00:35:15.000  -74.407195699  163.437679507    80.2815   5  11   0.6567   0.6403   2.3809  -0.3244   0.8760  -0.8816 -30000.00    0.0
2018/11/05 00:35:30.000  -74.407195440  163.437673096    80.1330   5  11   0.6572   0.6410   2.3881  -0.3258   0.8794  -0.8846 -29985.00    0.0
2018/11/05 00:35:45.000  -74.407196379  163.437680000    80.1255   5  11   0.6579   0.6419   2.3957  -0.3272   0.8830  -0.8876 -29970.00    0.0
2018/11/05 00:36:00.000  -74.407193559  163.437678398    79.8792   5  11   0.6586   0.6428   2.4034  -0.3286   0.8866  -0.8908 -29955.00    0.0
2018/11/05 00:36:15.000  -74.407194535  163.437659702    78.9903   5  11   0.6594   0.6439   2.4115  -0.3301   0.8903  -0.8940 -29940.00    0.0
2018/11/05 00:36:30.000  -74.407195428  163.437670397    79.7843   5  11   0.6602   0.6450   2.4197  -0.3317   0.8942  -0.8973 -29925.00    0.0
2018/11/05 00:36:45.000  -74.407192444  163.437665707    78.0955   5  11   0.6611   0.6462   2.4282  -0.3333   0.8981  -0.9007 -29910.00    0.0
2018/11/05 00:37:00.000  -74.407192979  163.437667458    78.5860   5  11   0.6621   0.6475   2.4370  -0.3350   0.9022  -0.9042 -29895.00    0.0
2018/11/05 00:37:15.000  -74.407193746  163.437672126    79.2013   5  11   0.6632   0.6488   2.4460  -0.3367   0.9064  -0.9078 -29880.00    0.0
2018/11/05 00:37:30.000  -74.407193282  163.437666239    77.6397   5  11   0.6643   0.6503   2.4552  -0.3385   0.9106  -0.9115 -29865.00    0.0
2018/11/05 00:37:45.000  -74.407192668  163.437664061    78.3225   5  11   0.6642   0.6500   2.4585  -0.3391   0.9121  -0.9132 -29850.00    0.0
2018/11/05 00:38:00.000  -74.407193279  163.437665793    78.8537   5  11   0.6640   0.6498   2.4622  -0.3397   0.9138  -0.9149 -29835.00    0.0
2018/11/05 00:38:15.000  -74.407192039  163.437671531    78.8069   5  11   0.6640   0.6497   2.4660  -0.3404   0.9155  -0.9167 -29820.00    0.0
2018/11/05 00:38:30.000  -74.407193748  163.437669424    78.4171   5  11   0.6640   0.6496   2.4701  -0.3412   0.9173  -0.9187 -29805.00    0.0
2018/11/05 00:38:45.000  -74.407193470  163.437667917    78.4030   5  11   0.6641   0.6496   2.4744  -0.3420   0.9192  -0.9206 -29790.00    0.0
2018/11/05 00:39:00.000  -74.407192500  163.437661352    78.4651   5  11   0.6643   0.6498   2.4788  -0.3428   0.9212  -0.9227 -29775.00    0.0
2018/11/05 00:39:15.000  -74.407195299  163.437672034    79.5338   5  11   0.6645   0.6499   2.4835  -0.3437   0.9233  -0.9249 -29760.00    0.0
2018/11/05 00:39:30.000  -74.407195087  163.437669890    79.0559   5  11   0.6648   0.6502   2.4884  -0.3446   0.9255  -0.9271 -29745.00    0.0
2018/11/05 00:39:45.000  -74.407191698  163.437667333    78.7700   5  11   0.6652   0.6506   2.4935  -0.3456   0.9277  -0.9294 -29730.00    0.0
2018/11/05 00:40:00.000  -74.407192162  163.437673488    78.9407   5  11   0.6656   0.6510   2.4989  -0.3466   0.9301  -0.9317 -29715.00    0.0
2018/11/05 00:40:15.000  -74.407193081  163.437671570    79.0693   5  11   0.6662   0.6516   2.5045  -0.3477   0.9326  -0.9342 -29700.00    0.0
2018/11/05 00:40:30.000  -74.407193928  163.437671319    79.4195   5  11   0.6668   0.6522   2.5104  -0.3488   0.9353  -0.9368 -29685.00    0.0
2018/11/05 00:40:45.000  -74.407194185  163.437668420    79.3217   5  11   0.6675   0.6529   2.5164  -0.3500   0.9380  -0.9395 -29670.00    0.0
2018/11/05 00:41:00.000  -74.407194039  163.437674660    79.5004   5  11   0.6682   0.6537   2.5227  -0.3512   0.9407  -0.9422 -29655.00    0.0
2018/11/05 00:41:15.000  -74.407194503  163.437660630    78.7036   5  11   0.6690   0.6546   2.5291  -0.3525   0.9436  -0.9450 -29640.00    0.0
2018/11/05 00:41:30.000  -74.407193321  163.437673033    79.5316   5  11   0.6699   0.6556   2.5357  -0.3537   0.9465  -0.9478 -29625.00    0.0
2018/11/05 00:41:45.000  -74.407193837  163.437675140    80.2892   5  11   0.6708   0.6566   2.5425  -0.3551   0.9495  -0.9507 -29610.00    0.0
2018/11/05 00:42:00.000  -74.407193382  163.437668239    79.4781   5  11   0.6718   0.6577   2.5495  -0.3564   0.9526  -0.9537 -29595.00    0.0
2018/11/05 00:42:15.000  -74.407194656  163.437672351    79.4110   5  11   0.6729   0.6589   2.5566  -0.3578   0.9557  -0.9567 -29580.00    0.0
2018/11/05 00:42:30.000  -74.407194793  163.437679619    79.9789   5  11   0.6740   0.6601   2.5639  -0.3592   0.9589  -0.9598 -29565.00    0.0
2018/11/05 00:42:45.000  -74.407192032  163.437670394    78.4427   5  11   0.6738   0.6596   2.5653  -0.3595   0.9593  -0.9608 -29550.00    0.0
2018/11/05 00:43:00.000  -74.407198279  163.437676136    80.8960   5  11   0.6737   0.6592   2.5668  -0.3598   0.9599  -0.9619 -29535.00    0.0
2018/11/05 00:43:15.000  -74.407195330  163.437688473    80.5528   5  11   0.6736   0.6588   2.5686  -0.3602   0.9606  -0.9631 -29520.00    0.0
2018/11/05 00:43:30.000  -74.407196055  163.437680070    79.6137   5  11   0.6736   0.6585   2.5705  -0.3606   0.9613  -0.9643 -29505.00    0.0
2018/11/05 00:43:45.000  -74.407192851  163.437672948    79.1862   5  11   0.6737   0.6583   2.5726  -0.3611   0.9621  -0.9656 -29490.00    0.0
2018/11/05 00:44:00.000  -74.407195545  163.437683571    79.5196   5  11   0.6738   0.6582   2.5748  -0.3615   0.9629  -0.9670 -29475.00    0.0
2018/11/05 00:44:15.000  -74.407194910  163.437671890    79.0964   5  11   0.6740   0.6582   2.5772  -0.3620   0.9638  -0.9684 -29460.00    0.0
2018/11/05 00:44:30.000  -74.407197145  163.437676365    79.9822   5  11   0.6742   0.6582   2.5797  -0.3626   0.9648  -0.9698 -29445.00    0.0
2018/11/05 00:44:45.000  -74.407195999  163.437681196    79.0222   5  11   0.6745   0.6583   2.5824  -0.3631   0.9659  -0.9713 -29430.00    0.0
2018/11/05 00:45:00.000  -74.407194456  163.437669639    79.2500   5  11   0.6749   0.6585   2.5852  -0.3637   0.9669  -0.9729 -29415.00    0.0
2018/11/05 00:45:15.000  -74.407196476  163.437680875    79.2415   5  11   0.6754   0.6587   2.5882  -0.3644   0.9682  -0.9745 -29400.00    0.0
2018/11/05 00:45:30.000  -74.407195049  163.437678253    79.2217   5  11   0.6759   0.6591   2.5915  -0.3650   0.9694  -0.9762 -29385.00    0.0
2018/11/05 00:45:45.000  -74.407195368  163.437671538    79.1110   5  11   0.6765   0.6595   2.5948  -0.3657   0.9707  -0.9780 -29370.00    0.0
2018/11/05 00:46:00.000  -74.407198580  163.437674108    79.2652   5  11   0.6771   0.6599   2.5983  -0.3665   0.9721  -0.9797 -29355.00    0.0
2018/11/05 00:46:15.000  -74.407197014  163.437668687    78.5797   5  11   0.6778   0.6605   2.6019  -0.3672   0.9735  -0.9815 -29340.00    0.0
2018/11/05 00:46:30.000  -74.407196598  163.437667010    79.0911   5  11   0.6786   0.6611   2.6056  -0.3680   0.9749  -0.9834 -29325.00    0.0
2018/11/05 00:46:45.000  -74.407198344  163.437685222    79.9023   5  11   0.6794   0.6617   2.6095  -0.3688   0.9764  -0.9853 -29310.00    0.0
2018/11/05 00:47:00.000  -74.407197580  163.437671721    80.0476   5  11   0.6803   0.6625   2.6135  -0.3696   0.9779  -0.9872 -29295.00    0.0
2018/11/05 00:47:15.000  -74.407196350  163.437671158    79.7249   5  11   0.6812   0.6633   2.6175  -0.3704   0.9795  -0.9892 -29280.00    0.0
2018/11/05 00:47:30.000  -74.407196818  163.437673689    80.0616   5  11   0.6822   0.6641   2.6217  -0.3712   0.9810  -0.9911 -29265.00    0.0
2018/11/05 00:47:45.000  -74.407198401  163.437673908    80.1116   5  11   0.6819   0.6633   2.6202  -0.3710   0.9801  -0.9912 -29250.00    0.0
2018/11/05 00:48:00.000  -74.407197328  163.437669916    79.2474   5  11   0.6816   0.6626   2.6187  -0.3709   0.9792  -0.9913 -29235.00    0.0
2018/11/05 00:48:15.000  -74.407195003  163.437668678    79.1580   5  11   0.6814   0.6619   2.6174  -0.3707   0.9783  -0.9914 -29220.00    0.0
2018/11/05 00:48:30.000  -74.407193859  163.437663622    78.3963   5  11   0.6813   0.6612   2.6161  -0.3706   0.9775  -0.9915 -29205.00    0.0
2018/11/05 00:48:45.000  -74.407196430  163.437667897    79.1172   5  11   0.6812   0.6607   2.6150  -0.3705   0.9767  -0.9917 -29190.00    0.0
2018/11/05 00:49:00.000  -74.407200683  163.437676294    81.1146   5  11   0.6812   0.6602   2.6140  -0.3704   0.9760  -0.9919 -29175.00    0.0
2018/11/05 00:49:15.000  -74.407195571  163.437662341    79.0293   5  11   0.6812   0.6598   2.6131  -0.3703   0.9753  -0.9922 -29160.00    0.0
2018/11/05 00:49:30.000  -74.407198369  163.437671649    79.8396   5  11   0.6813   0.6594   2.6123  -0.3703   0.9746  -0.9925 -29145.00    0.0
2018/11/05 00:49:45.000  -74.407198660  163.437674484    80.5817   5  11   0.6815   0.6591   2.6117  -0.3703   0.9740  -0.9928 -29130.00    0.0
2018/11/05 00:50:00.000  -74.407195415  163.437675155    80.3718   5  11   0.6817   0.6589   2.6111  -0.3703   0.9735  -0.9931 -29115.00    0.0
2018/11/05 00:50:15.000  -74.407198916  163.437672841    80.6071   5  11   0.6820   0.6588   2.6108  -0.3703   0.9730  -0.9936 -29100.00    0.0
2018/11/05 00:50:30.000  -74.407196388  163.437670083    79.2582   5  11   0.6823   0.6587   2.6106  -0.3704   0.9725  -0.9940 -29085.00    0.0
2018/11/05 00:50:45.000  -74.407197794  163.437676232    79.9597   5  11   0.6827   0.6587   2.6105  -0.3704   0.9721  -0.9945 -29070.00    0.0
2018/11/05 00:51:00.000  -74.407197284  163.437671201    79.0859   5  11   0.6832   0.6587   2.6105  -0.3705   0.9717  -0.9950 -29055.00    0.0
2018/11/05 00:51:15.000  -74.407196957  163.437671055    79.3536   5  11   0.6837   0.6589   2.6106  -0.3706   0.9713  -0.9955 -29040.00    0.0
2018/11/05 00:51:30.000  -74.407195149  163.437684704    80.0600   5  11   0.6842   0.6590   2.6108  -0.3707   0.9710  -0.9961 -29025.00    0.0
2018/11/05 00:51:45.000  -74.407200027  163.437672326    80.3955   5  11   0.6848   0.6593   2.6111  -0.3708   0.9706  -0.9967 -29010.00    0.0
2018/11/05 00:52:00.000  -74.407199738  163.437682573    80.3782   5  11   0.6855   0.6596   2.6116  -0.3709   0.9703  -0.9972 -28995.00    0.0
2018/11/05 00:52:15.000  -74.407199033  163.437675565    78.8870   5  11   0.6862   0.6599   2.6121  -0.3711   0.9701  -0.9979 -28980.00    0.0
2018/11/05 00:52:30.000  -74.407197857  163.437677016    79.0973   5  11   0.6870   0.6603   2.6127  -0.3712   0.9698  -0.9985 -28965.00    0.0
2018/11/05 00:52:45.000  -74.407199615  163.437684681    80.2380   5  11   0.6865   0.6591   2.6077  -0.3704   0.9672  -0.9973 -28950.00    0.0
2018/11/05 00:53:00.000  -74.407196713  163.437686009    80.0427   5  11   0.6860   0.6580   2.6029  -0.3697   0.9647  -0.9962 -28935.00    0.0
2018/11/05 00:53:15.000  -74.407197851  163.437678498    80.6431   5  11   0.6857   0.6569   2.5982  -0.3689   0.9622  -0.9951 -28920.00    0.0
2018/11/05 00:53:30.000  -74.407198673  163.437678091    79.6557   5  11   0.6853   0.6559   2.5936  -0.3682   0.9597  -0.9940 -28905.00    0.0
2018/11/05 00:53:45.000  -74.407198731  163.437683941    80.1302   5  11   0.6851   0.6550   2.5891  -0.3675   0.9573  -0.9929 -28890.00    0.0
2018/11/05 00:54:00.000  -74.407198858  163.437673578    79.9781   5  11   0.6848   0.6542   2.5847  -0.3668   0.9549  -0.9919 -28875.00    0.0
2018/11/05 00:54:15.000  -74.407199960  163.437678856    80.4577   5  11   0.6847   0.6534   2.5805  -0.3661   0.9526  -0.9909 -28860.00    0.0
2018/11/05 00:54:30.000  -74.407201006  163.437684844    79.7706   5  11   0.6846   0.6526   2.5764  -0.3654   0.9502  -0.9899 -28845.00    0.0
2018/11/05 00:54:45.000  -74.407199293  163.437684298    80.1069   5  11   0.6845   0.6520   2.5724  -0.3648   0.9480  -0.9890 -28830.00    0.0
2018/11/05 00:55:00.000  -74.407199997  163.437679614    80.3594   5  11   0.6845   0.6514   2.5685  -0.3641   0.9457  -0.9881 -28815.00    0.0
2018/11/05 00:55:15.000  -74.407197435  163.437676761    79.5528   5  11   0.6846   0.6508   2.5649  -0.3635   0.9436  -0.9873 -28800.00    0.0
2018/11/05 00:55:30.000  -74.407196404  163.437673930    79.8193   5  11   0.6847   0.6504   2.5615  -0.3629   0.9414  -0.9865 -28785.00    0.0
2018/11/05 00:55:45.000  -74.407197039  163.437673438    79.3364   5  11   0.6849   0.6500   2.5581  -0.3624   0.9393  -0.9857 -28770.00    0.0
2018/11/05 00:56:00.000  -74.407197063  163.437675887    79.6882   5  11   0.6851   0.6497   2.5549  -0.3618   0.9373  -0.9850 -28755.00    0.0
2018/11/05 00:56:15.000  -74.407196277  163.437677861    79.1579   5  11   0.6854   0.6494   2.5518  -0.3612   0.9352  -0.9842 -28740.00    0.0
2018/11/05 00:56:30.000  -74.407200195  163.437684434    80.9823   5  11   0.6858   0.6492   2.5489  -0.3607   0.9332  -0.9836 -28725.00    0.0
2018/11/05 00:56:45.000  -74.407197578  163.437678451    80.7519   5  11   0.6862   0.6491   2.5461  -0.3602   0.9313  -0.9829 -28710.00    0.0
2018/11/05 00:57:00.000  -74.407200053  163.437666881    80.1967   5  11   0.6866   0.6490   2.5434  -0.3596   0.9293  -0.9823 -28695.00    0.0
2018/11/05 00:57:15.000  -74.407201906  163.437674442    80.4473   5  11   0.6871   0.6490   2.5408  -0.3591   0.9274  -0.9817 -28680.00    0.0
2018/11/05 00:57:30.000  -74.407198598  163.437674384    79.9187   5  11   0.6877   0.6491   2.5384  -0.3586   0.9255  -0.9811 -28665.00    0.0
2018/11/05 00:57:45.000  -74.407200016  163.437675415    80.3927   5  11   0.6870   0.6476   2.5307  -0.3573   0.9216  -0.9788 -28650.00    0.0
2018/11/05 00:58:00.000  -74.407197659  163.437668198    79.7440   5  11   0.6864   0.6462   2.5231  -0.3560   0.9177  -0.9766 -28635.00    0.0
2018/11/05 00:58:15.000  -74.407198838  163.437682280    80.9451   5  11   0.6859   0.6449   2.5157  -0.3547   0.9138  -0.9745 -28620.00    0.0
2018/11/05 00:58:30.000  -74.407200073  163.437677515    80.5449   5  11   0.6854   0.6437   2.5085  -0.3535   0.9100  -0.9724 -28605.00    0.0
2018/11/05 00:58:45.000  -74.407200776  163.437679484    80.0604   5  11   0.6850   0.6425   2.5014  -0.3522   0.9062  -0.9703 -28590.00    0.0
2018/11/05 00:59:00.000  -74.407191341  163.437663876    77.4146   5  10   0.9348   0.6735   3.5499  -0.5041   1.1549  -1.5954 -28575.00    0.0
2018/11/05 00:59:15.000  -74.407189214  163.437664005    76.5478   5  10   0.9336   0.6721   3.5396  -0.5020   1.1497  -1.5916 -28560.00    0.0
2018/11/05 00:59:30.000  -74.407190494  163.437664172    76.5883   5  10   0.9325   0.6707   3.5295  -0.4999   1.1445  -1.5878 -28545.00    0.0
2018/11/05 00:59:45.000  -74.407193062  163.437669071    76.7250   5  10   0.9315   0.6694   3.5195  -0.4979   1.1394  -1.5841 -28530.00    0.0
2018/11/05 01:00:00.000  -74.407193180  163.437666562    77.1034   5  10   0.9305   0.6681   3.5096  -0.4958   1.1342  -1.5804 -28515.00    0.0
2018/11/05 01:00:15.000  -74.407192487  163.437668026    76.1640   5  10   0.9297   0.6669   3.5002  -0.4938   1.1292  -1.5769 -28500.00    0.0
2018/11/05 01:00:30.000  -74.407190330  163.437674384    76.0203   5  10   0.9289   0.6658   3.4909  -0.4918   1.1241  -1.5734 -28485.00    0.0
2018/11/05 01:00:45.000  -74.407192954  163.437670388    76.7455   5  10   0.9281   0.6648   3.4818  -0.4898   1.1191  -1.5700 -28470.00    0.0
2018/11/05 01:01:00.000  -74.407189831  163.437670370    75.9051   5  10   0.9275   0.6638   3.4728  -0.4878   1.1142  -1.5667 -28455.00    0.0
2018/11/05 01:01:15.000  -74.407191271  163.437672957    75.7971   5  10   0.9268   0.6629   3.4641  -0.4858   1.1092  -1.5635 -28440.00    0.0
2018/11/05 01:01:30.000  -74.407188549  163.437656153    76.0109   5  10   0.9263   0.6621   3.4555  -0.4838   1.1043  -1.5603 -28425.00    0.0
2018/11/05 01:01:45.000  -74.407196146  163.437673096    78.0940   5  10   0.9258   0.6613   3.4472  -0.4819   1.0994  -1.5572 -28410.00    0.0
2018/11/05 01:02:00.000  -74.407191191  163.437660211    75.9620   5  10   0.9254   0.6606   3.4391  -0.4799   1.0945  -1.5541 -28395.00    0.0
2018/11/05 01:02:15.000  -74.407189562  163.437656033    75.3617   5   9   0.9291   0.6600   3.6821  -0.4771   1.0835  -1.5880 -28380.00    0.0
2018/11/05 01:02:30.000  -74.407190210  163.437663560    75.3707   5   9   0.9290   0.6594   3.6773  -0.4751   1.0787  -1.5860 -28365.00    0.0
2018/11/05 01:02:45.000  -74.407191274  163.437670106    76.0648   5   9   0.9265   0.6572   3.6610  -0.4717   1.0708  -1.5792 -28350.00    0.0
2018/11/05 01:03:00.000  -74.407189287  163.437667367    75.1059   5   9   0.9241   0.6552   3.6449  -0.4684   1.0629  -1.5726 -28335.00    0.0
2018/11/05 01:03:15.000  -74.407191380  163.437672054    76.3905   5   9   0.9218   0.6532   3.6291  -0.4651   1.0551  -1.5660 -28320.00    0.0
2018/11/05 01:03:30.000  -74.407189338  163.437666905    74.6132   5   9   0.9196   0.6513   3.6136  -0.4618   1.0474  -1.5596 -28305.00    0.0
2018/11/05 01:03:45.000  -74.407190604  163.437668817    75.9592   5   9   0.9174   0.6494   3.5983  -0.4585   1.0397  -1.5533 -28290.00    0.0
2018/11/05 01:04:00.000  -74.407193481  163.437668833    76.4430   5   9   0.9154   0.6477   3.5834  -0.4553   1.0321  -1.5471 -28275.00    0.0
2018/11/05 01:04:15.000  -74.407192900  163.437677559    76.6731   5   9   0.9134   0.6460   3.5687  -0.4521   1.0245  -1.5410 -28260.00    0.0
2018/11/05 01:04:30.000  -74.407192255  163.437668908    76.9987   5   9   0.9115   0.6444   3.5544  -0.4490   1.0170  -1.5351 -28245.00    0.0
2018/11/05 01:04:45.000  -74.407193597  163.437670001    76.9106   5   9   0.9097   0.6429   3.5405  -0.4458   1.0096  -1.5292 -28230.00    0.0
2018/11/05 01:05:00.000  -74.407190497  163.437661913    75.0633   5   9   0.9080   0.6415   3.5269  -0.4427   1.0022  -1.5235 -28215.00    0.0
2018/11/05 01:05:15.000  -74.407200214  163.437671117    79.9217   5  10   0.7469   0.6362   2.6681  -0.3957   0.9089  -1.0630 -28200.00    0.0
2018/11/05 01:05:30.000  -74.407199083  163.437675280    79.4749   5  10   0.7467   0.6352   2.6640  -0.3944   0.9053  -1.0614 -28185.00    0.0
2018/11/05 01:05:45.000  -74.407198692  163.437673349    79.4097   5  10   0.7465   0.6344   2.6601  -0.3933   0.9018  -1.0599 -28170.00    0.0
2018/11/05 01:06:00.000  -74.407197975  163.437668078    78.2982   5  10   0.7465   0.6336   2.6565  -0.3921   0.8983  -1.0585 -28155.00    0.0
2018/11/05 01:06:15.000  -74.407199539  163.437662226    80.1482   5  10   0.7465   0.6329   2.6531  -0.3910   0.8949  -1.0571 -28140.00    0.0
2018/11/05 01:06:30.000  -74.407195532  163.437667295    77.6851   5  10   0.7466   0.6323   2.6499  -0.3899   0.8915  -1.0558 -28125.00    0.0
2018/11/05 01:06:45.000  -74.407194016  163.437669863    77.8266   5  10   0.7467   0.6317   2.6470  -0.3888   0.8882  -1.0546 -28110.00    0.0
2018/11/05 01:07:00.000  -74.407196769  163.437663377    77.5855   5  10   0.7469   0.6312   2.6443  -0.3877   0.8849  -1.0534 -28095.00    0.0
2018/11/05 01:07:15.000  -74.407197775  163.437670316    78.7828   5  10   0.7472   0.6308   2.6419  -0.3867   0.8816  -1.0523 -28080.00    0.0
2018/11/05 01:07:30.000  -74.407197081  163.437661913    77.8843   5  10   0.7475   0.6305   2.6397  -0.3857   0.8784  -1.0512 -28065.00    0.0
2018/11/05 01:07:45.000  -74.407198526  163.437668418    77.9873   5  10   0.7464   0.6287   2.6308  -0.3838   0.8731  -1.0481 -28050.00    0.0
2018/11/05 01:08:00.000  -74.407196131  163.437661822    78.0337   5  10   0.7454   0.6270   2.6222  -0.3818   0.8679  -1.0450 -28035.00    0.0
2018/11/05 01:08:15.000  -74.407194229  163.437678157    77.4361   5  10   0.7445   0.6253   2.6137  -0.3800   0.8627  -1.0419 -28020.00    0.0
2018/11/05 01:08:30.000  -74.407198500  163.437671339    78.0791   5  10   0.7436   0.6238   2.6056  -0.3781   0.8575  -1.0390 -28005.00    0.0
2018/11/05 01:08:45.000  -74.407199113  163.437673926    78.8205   5  10   0.7428   0.6223   2.5977  -0.3763   0.8525  -1.0361 -27990.00    0.0
2018/11/05 01:09:00.000  -74.407199234  163.437666100    79.0604   5  10   0.7421   0.6209   2.5900  -0.3745   0.8475  -1.0333 -27975.00    0.0
2018/11/05 01:09:15.000  -74.407197532  163.437666845    77.5819   5  10   0.7414   0.6195   2.5826  -0.3728   0.8425  -1.0305 -27960.00    0.0
2018/11/05 01:09:30.000  -74.407201475  163.437674050    79.7306   5  10   0.7408   0.6183   2.5755  -0.3711   0.8377  -1.0279 -27945.00    0.0
2018/11/05 01:09:45.000  -74.407198194  163.437673564    78.0225   5  10   0.7403   0.6171   2.5686  -0.3694   0.8329  -1.0253 -27930.00    0.0
2018/11/05 01:10:00.000  -74.407198541  163.437666111    78.4029   5  10   0.7398   0.6160   2.5621  -0.3677   0.8281  -1.0228 -27915.00    0.0
2018/11/05 01:10:15.000  -74.407199971  163.437671047    79.2356   5  10   0.7395   0.6150   2.5560  -0.3662   0.8235  -1.0204 -27900.00    0.0
2018/11/05 01:10:30.000  -74.407200580  163.437675718    79.9580   5  10   0.7392   0.6141   2.5502  -0.3646   0.8189  -1.0181 -27885.00    0.0
2018/11/05 01:10:45.000  -74.407200167  163.437668975    78.5159   5  10   0.7390   0.6132   2.5447  -0.3631   0.8144  -1.0159 -27870.00    0.0
2018/11/05 01:11:00.000  -74.407200757  163.437671541    78.9970   5  10   0.7388   0.6125   2.5395  -0.3616   0.8100  -1.0138 -27855.00    0.0
2018/11/05 01:11:15.000  -74.407199359  163.437670971    78.2590   5  10   0.7387   0.6117   2.5346  -0.3601   0.8056  -1.0118 -27840.00    0.0
2018/11/05 01:11:30.000  -74.407196204  163.437670272    77.7493   5  10   0.7387   0.6111   2.5300  -0.3587   0.8013  -1.0098 -27825.00    0.0
2018/11/05 01:11:45.000  -74.407197892  163.437670219    79.3201   5  10   0.7388   0.6106   2.5258  -0.3573   0.7970  -1.0080 -27810.00    0.0
2018/11/05 01:12:00.000  -74.407196813  163.437670091    78.3036   5  10   0.7389   0.6101   2.5218  -0.3559   0.7928  -1.0062 -27795.00    0.0
2018/11/05 01:12:15.000  -74.407193627  163.437664232    77.3818   5  10   0.7391   0.6097   2.5182  -0.3546   0.7887  -1.0045 -27780.00    0.0
2018/11/05 01:12:30.000  -74.407197061  163.437665799    77.7961   5  10   0.7394   0.6093   2.5149  -0.3533   0.7846  -1.0030 -27765.00    0.0
2018/11/05 01:12:45.000  -74.407199312  163.437664295    79.2115   5  10   0.7382   0.6077   2.5046  -0.3511   0.7786  -0.9992 -27750.00    0.0
2018/11/05 01:13:00.000  -74.407197443  163.437666395    78.3277   5  10   0.7372   0.6061   2.4947  -0.3490   0.7727  -0.9956 -27735.00    0.0
2018/11/05 01:13:15.000  -74.407199613  163.437679979    79.3356   5  10   0.7362   0.6046   2.4852  -0.3469   0.7669  -0.9921 -27720.00    0.0
2018/11/05 01:13:30.000  -74.407195463  163.437665564    78.2378   5  10   0.7354   0.6031   2.4759  -0.3449   0.7611  -0.9887 -27705.00    0.0
2018/11/05 01:13:45.000  -74.407202292  163.437674192    80.7809   5  10   0.7345   0.6018   2.4670  -0.3429   0.7554  -0.9854 -27690.00    0.0
2018/11/05 01:14:00.000  -74.407197434  163.437671671    79.1763   5  10   0.7338   0.6005   2.4585  -0.3409   0.7498  -0.9822 -27675.00    0.0
2018/11/05 01:14:15.000  -74.407200014  163.437678974    79.5170   5  10   0.7331   0.5993   2.4502  -0.3390   0.7443  -0.9791 -27660.00    0.0
2018/11/05 01:14:30.000  -74.407198736  163.437670509    78.1566   5  10   0.7325   0.5981   2.4423  -0.3371   0.7389  -0.9761 -27645.00    0.0
2018/11/05 01:14:45.000  -74.407200515  163.437676700    79.0470   5  10   0.7320   0.5971   2.4348  -0.3352   0.7335  -0.9732 -27630.00    0.0
2018/11/05 01:15:00.000  -74.407197038  163.437674223    79.0625   5  10   0.7315   0.5961   2.4276  -0.3334   0.7282  -0.9704 -27615.00    0.0
2018/11/05 01:15:15.000  -74.407198514  163.437665865    79.3312   5  10   0.7312   0.5953   2.4209  -0.3316   0.7230  -0.9677 -27600.00    0.0
2018/11/05 01:15:30.000  -74.407200376  163.437671169    79.3609   5  10   0.7309   0.5945   2.4146  -0.3299   0.7178  -0.9651 -27585.00    0.0
2018/11/05 01:15:45.000  -74.407197255  163.437668006    78.9157   5  10   0.7307   0.5938   2.4086  -0.3282   0.7128  -0.9627 -27570.00    0.0
2018/11/05 01:16:00.000  -74.407200451  163.437671676    79.1985   5  10   0.7305   0.5931   2.4030  -0.3266   0.7078  -0.9603 -27555.00    0.0
2018/11/05 01:16:15.000  -74.407198152  163.437665690    78.0436   5  10   0.7305   0.5926   2.3977  -0.3249   0.7028  -0.9581 -27540.00    0.0
2018/11/05 01:16:30.000  -74.407199084  163.437674170    78.1699   5  10   0.7305   0.5921   2.3928  -0.3234   0.6980  -0.9559 -27525.00    0.0
2018/11/05 01:16:45.000  -74.407199378  163.437672402    78.6732   5  10   0.7306   0.5917   2.3883  -0.3218   0.6931  -0.9538 -27510.00    0.0
2018/11/05 01:17:00.000  -74.407197619  163.437678220    78.4038   5  10   0.7307   0.5914   2.3841  -0.3203   0.6884  -0.9519 -27495.00    0.0
2018/11/05 01:17:15.000  -74.407199531  163.437670288    79.1225   5  10   0.7309   0.5911   2.3802  -0.3188   0.6837  -0.9500 -27480.00    0.0
2018/11/05 01:17:30.000  -74.407198301  163.437673791    77.6740   5  10   0.7312   0.5910   2.3768  -0.3173   0.6790  -0.9483 -27465.00    0.0
2018/11/05 01:17:45.000  -74.407194276  163.437667260    76.4504   5  10   0.7302   0.5895   2.3665  -0.3152   0.6728  -0.9445 -27450.00    0.0
2018/11/05 01:18:00.000  -74.407197366  163.437665297    78.7508   5  10   0.7292   0.5882   2.3566  -0.3130   0.6666  -0.9409 -27435.00    0.0
2018/11/05 01:18:15.000  -74.407197596  163.437667732    78.1243   5  10   0.7284   0.5869   2.3470  -0.3108   0.6605  -0.9373 -27420.00    0.0
2018/11/05 01:18:30.000  -74.407196021  163.437674217    78.2404   5  10   0.7275   0.5857   2.3378  -0.3088   0.6544  -0.9339 -27405.00    0.0
2018/11/05 01:18:45.000  -74.407200361  163.437674633    79.8802   5  10   0.7268   0.5845   2.3289  -0.3067   0.6484  -0.9306 -27390.00    0.0
2018/11/05 01:19:00.000  -74.407198244  163.437657514    79.1333   5  10   0.7261   0.5835   2.3204  -0.3047   0.6425  -0.9274 -27375.00    0.0
2018/11/05 01:19:15.000  -74.407197822  163.437673695    78.4029   5  10   0.7255   0.5825   2.3124  -0.3027   0.6367  -0.9243 -27360.00    0.0
2018/11/05 01:19:30.000  -74.407198718  163.437669051    78.6756   5  10   0.7250   0.5816   2.3047  -0.3008   0.6310  -0.9213 -27345.00    0.0
2018/11/05 01:19:45.000  -74.407200144  163.437672826    79.1909   5  10   0.7246   0.5808   2.2973  -0.2989   0.6253  -0.9184 -27330.00    0.0
2018/11/05 01:20:00.000  -74.407198323  163.437670881    78.0433   5  10   0.7242   0.5801   2.2904  -0.2970   0.6196  -0.9157 -27315.00    0.0
2018/11/05 01:20:15.000  -74.407197319  163.437666739    77.7920   5  10   0.7239   0.5794   2.2840  -0.2952   0.6141  -0.9131 -27300.00    0.0
2018/11/05 01:20:30.000  -74.407200824  163.437666328    78.6375   5  10   0.7237   0.5789   2.2780  -0.2934   0.6086  -0.9106 -27285.00    0.0
2018/11/05 01:20:45.000  -74.407198132  163.437673059    77.6502   5  10   0.7236   0.5784   2.2724  -0.2917   0.6032  -0.9082 -27270.00    0.0
2018/11/05 01:21:00.000  -74.407199048  163.437669889    78.3097   5  10   0.7236   0.5780   2.2671  -0.2899   0.5978  -0.9059 -27255.00    0.0
2018/11/05 01:21:15.000  -74.407200431  163.437663862    77.8488   5  10   0.7236   0.5777   2.2623  -0.2883   0.5925  -0.9037 -27240.00    0.0
2018/11/05 01:21:30.000  -74.407200874  163.437668713    78.2922   5  10   0.7237   0.5774   2.2578  -0.2866   0.5872  -0.9016 -27225.00    0.0
2018/11/05 01:21:45.000  -74.407198865  163.437666031    77.5869   5  10   0.7238   0.5772   2.2537  -0.2850   0.5819  -0.8997 -27210.00    0.0
2018/11/05 01:22:00.000  -74.407199278  163.437673741    77.4886   5  10   0.7241   0.5771   2.2499  -0.2834   0.5767  -0.8978 -27195.00    0.0
2018/11/05 01:22:15.000  -74.407198921  163.437665427    77.9461   5  10   0.7244   0.5771   2.2466  -0.2819   0.5715  -0.8960 -27180.00    0.0
2018/11/05 01:22:30.000  -74.407198929  163.437670567    78.4530   5  10   0.7248   0.5771   2.2436  -0.2803   0.5663  -0.8944 -27165.00    0.0
2018/11/05 01:22:45.000  -74.407199774  163.437661037    78.5751   5  10   0.7239   0.5760   2.2339  -0.2781   0.5599  -0.8909 -27150.00    0.0
2018/11/05 01:23:00.000  -74.407199088  163.437665811    78.4290   5  10   0.7230   0.5749   2.2246  -0.2760   0.5535  -0.8875 -27135.00    0.0
2018/11/05 01:23:15.000  -74.407200803  163.437664738    79.2702   5  10   0.7223   0.5739   2.2157  -0.2739   0.5472  -0.8842 -27120.00    0.0
2018/11/05 01:23:30.000  -74.407199663  163.437661454    77.8983   5  10   0.7216   0.5729   2.2072  -0.2718   0.5409  -0.8810 -27105.00    0.0
2018/11/05 01:23:45.000  -74.407198130  163.437661582    78.4483   5  10   0.7210   0.5721   2.1990  -0.2698   0.5347  -0.8779 -27090.00    0.0
2018/11/05 01:24:00.000  -74.407201460  163.437667218    78.8141   5  10   0.7204   0.5713   2.1913  -0.2678   0.5286  -0.8750 -27075.00    0.0
2018/11/05 01:24:15.000  -74.407201725  163.437665049    78.2340   5  10   0.7200   0.5706   2.1840  -0.2658   0.5224  -0.8721 -27060.00    0.0
2018/11/05 01:24:30.000  -74.407200986  163.437668759    78.6886   5  10   0.7196   0.5699   2.1771  -0.2639   0.5164  -0.8694 -27045.00    0.0
2018/11/05 01:24:45.000  -74.407201641  163.437665512    78.6008   5  10   0.7193   0.5694   2.1705  -0.2620   0.5103  -0.8668 -27030.00    0.0
2018/11/05 01:25:00.000  -74.407197842  163.437671693    77.8285   5  10   0.7190   0.5689   2.1644  -0.2601   0.5043  -0.8643 -27015.00    0.0
2018/11/05 01:25:15.000  -74.407201454  163.437676652    79.0723   5  10   0.7189   0.5685   2.1588  -0.2583   0.4984  -0.8619 -27000.00    0.0
2018/11/05 01:25:30.000  -74.407198034  163.437669510    77.9555   5  10   0.7188   0.5682   2.1535  -0.2565   0.4924  -0.8597 -26985.00    0.0
2018/11/05 01:25:45.000  -74.407197624  163.437676299    78.2103   5  10   0.7188   0.5680   2.1487  -0.2547   0.4865  -0.8575 -26970.00    0.0
2018/11/05 01:26:00.000  -74.407200836  163.437665024    78.4539   5  10   0.7189   0.5679   2.1442  -0.2529   0.4806  -0.8555 -26955.00    0.0
2018/11/05 01:26:15.000  -74.407201866  163.437668869    78.8720   5  11   0.6197   0.5503   1.7958  -0.1103   0.2502  -0.5515 -26940.00    0.0
2018/11/05 01:26:30.000  -74.407200258  163.437672376    78.6377   5  11   0.6200   0.5506   1.7954  -0.1082   0.2430  -0.5509 -26925.00    0.0
2018/11/05 01:26:45.000  -74.407200025  163.437667687    78.8144   5  11   0.6204   0.5509   1.7953  -0.1061   0.2356  -0.5502 -26910.00    0.0
2018/11/05 01:27:00.000  -74.407200849  163.437670837    78.6338   5  11   0.6208   0.5513   1.7954  -0.1040   0.2279  -0.5497 -26895.00    0.0
2018/11/05 01:27:15.000  -74.407199712  163.437665415    78.9955   5  11   0.6213   0.5517   1.7958  -0.1018   0.2199  -0.5491 -26880.00    0.0
2018/11/05 01:27:30.000  -74.407200259  163.437679725    78.4938   5  11   0.6219   0.5522   1.7966  -0.0995   0.2116  -0.5486 -26865.00    0.0
2018/11/05 01:27:45.000  -74.407200390  163.437670856    78.2960   5  11   0.6214   0.5516   1.7922  -0.0971   0.2034  -0.5476 -26850.00    0.0
2018/11/05 01:28:00.000  -74.407199229  163.437668855    78.8996   5  11   0.6211   0.5511   1.7880  -0.0946   0.1950  -0.5466 -26835.00    0.0
2018/11/05 01:28:15.000  -74.407199630  163.437661661    77.8845   5  11   0.6207   0.5506   1.7842  -0.0921   0.1862  -0.5457 -26820.00    0.0
2018/11/05 01:28:30.000  -74.407199452  163.437676840    77.8682   5  11   0.6205   0.5502   1.7806  -0.0895   0.1769  -0.5448 -26805.00    0.0
2018/11/05 01:28:45.000  -74.407200772  163.437677561    77.9380   5  11   0.6203   0.5498   1.7773  -0.0868   0.1672  -0.5440 -26790.00    0.0
2018/11/05 01:29:00.000  -74.407200185  163.437667196    78.6931   5  11   0.6201   0.5496   1.7743  -0.0840   0.1568  -0.5432 -26775.00    0.0
2018/11/05 01:29:15.000  -74.407201331  163.437661543    79.0803   5  11   0.6200   0.5494   1.7716  -0.0812   0.1458  -0.5424 -26760.00    0.0
2018/11/05 01:29:30.000  -74.407200354  163.437675934    78.6100   5  11   0.6199   0.5492   1.7692  -0.0783   0.1337  -0.5417 -26745.00    0.0
2018/11/05 01:29:45.000  -74.407200935  163.437668483    79.2126   5  11   0.6199   0.5491   1.7671  -0.0752   0.1205  -0.5410 -26730.00    0.0
2018/11/05 01:30:00.000  -74.407200393  163.437667910    78.6545   5  11   0.6200   0.5491   1.7653  -0.0721   0.1055  -0.5404 -26715.00    0.0
2018/11/05 01:30:15.000  -74.407200607  163.437667542    79.1008   5  11   0.6201   0.5492   1.7639  -0.0688   0.0879  -0.5398 -26700.00    0.0
2018/11/05 01:30:30.000  -74.407200344  163.437663816    79.0220   5  12   0.6128   0.5268   1.6973  -0.1390  -0.2644  -0.5803 -26685.00    0.0
2018/11/05 01:30:45.000  -74.407202337  163.437662511    78.1873   5  12   0.6129   0.5270   1.6976  -0.1378  -0.2698  -0.5799 -26670.00    0.0
2018/11/05 01:31:00.000  -74.407201169  163.437664965    78.6297   5  12   0.6130   0.5272   1.6982  -0.1367  -0.2751  -0.5795 -26655.00    0.0
2018/11/05 01:31:15.000  -74.407200611  163.437664070    78.2605   5  12   0.6132   0.5275   1.6991  -0.1355  -0.2805  -0.5791 -26640.00    0.0
2018/11/05 01:31:30.000  -74.407197325  163.437661290    78.2774   5  12   0.6135   0.5279   1.7002  -0.1344  -0.2858  -0.5788 -26625.00    0.0
2018/11/05 01:31:45.000  -74.407198980  163.437672704    78.3199   5  12   0.6138   0.5284   1.7016  -0.1333  -0.2911  -0.5785 -26610.00    0.0
2018/11/05 01:32:00.000  -74.407202388  163.437669888    79.0639   5  12   0.6141   0.5289   1.7033  -0.1322  -0.2964  -0.5783 -26595.00    0.0
2018/11/05 01:32:15.000  -74.407197078  163.437670900    78.0623   5  12   0.6145   0.5294   1.7053  -0.1310  -0.3018  -0.5782 -26580.00    0.0
2018/11/05 01:32:30.000  -74.407201514  163.437671871    77.9617   5  12   0.6150   0.5300   1.7076  -0.1299  -0.3071  -0.5780 -26565.00    0.0
2018/11/05 01:32:45.000  -74.407199352  163.437671380    77.9925   5  12   0.6145   0.5296   1.7049  -0.1285  -0.3107  -0.5772 -26550.00    0.0
2018/11/05 01:33:00.000  -74.407199129  163.437663587    78.5653   5  12   0.6141   0.5292   1.7024  -0.1271  -0.3144  -0.5763 -26535.00    0.0
2018/11/05 01:33:15.000  -74.407198494  163.437668748    77.7285   5  12   0.6138   0.5289   1.7002  -0.1256  -0.3181  -0.5756 -26520.00    0.0
2018/11/05 01:33:30.000  -74.407199974  163.437664267    78.5592   5  12   0.6134   0.5286   1.6983  -0.1242  -0.3218  -0.5748 -26505.00    0.0
2018/11/05 01:33:45.000  -74.407200026  163.437671069    77.7405   5  12   0.6132   0.5284   1.6967  -0.1228  -0.3256  -0.5742 -26490.00    0.0
2018/11/05 01:34:00.000  -74.407199975  163.437666280    79.0319   5  12   0.6130   0.5283   1.6954  -0.1214  -0.3294  -0.5735 -26475.00    0.0
2018/11/05 01:34:15.000  -74.407201267  163.437667091    78.5798   5  12   0.6128   0.5282   1.6943  -0.1200  -0.3332  -0.5729 -26460.00    0.0
2018/11/05 01:34:30.000  -74.407199948  163.437663099    77.9863   5  12   0.6127   0.5282   1.6935  -0.1186  -0.3370  -0.5724 -26445.00    0.0
2018/11/05 01:34:45.000  -74.407200256  163.437671296    77.9241   5  12   0.6126   0.5282   1.6930  -0.1172  -0.3409  -0.5719 -26430.00    0.0
2018/11/05 01:35:00.000  -74.407200233  163.437672575    78.5672   5  12   0.6126   0.5283   1.6927  -0.1157  -0.3448  -0.5714 -26415.00    0.0
2018/11/05 01:35:15.000  -74.407199275  163.437666364    78.5382   5  12   0.6127   0.5285   1.6929  -0.1144  -0.3488  -0.5710 -26400.00    0.0
2018/11/05 01:35:30.000  -74.407200705  163.437668291    77.9778   5  12   0.6128   0.5288   1.6934  -0.1130  -0.3528  -0.5707 -26385.00    0.0
2018/11/05 01:35:45.000  -74.407201858  163.437667413    78.6701   5  12   0.6129   0.5291   1.6941  -0.1116  -0.3569  -0.5704 -26370.00    0.0
2018/11/05 01:36:00.000  -74.407199898  163.437658394    78.8636   5  12   0.6131   0.5294   1.6951  -0.1102  -0.3609  -0.5701 -26355.00    0.0
2018/11/05 01:36:15.000  -74.407200667  163.437672115    78.9873   5  12   0.6134   0.5299   1.6965  -0.1088  -0.3651  -0.5699 -26340.00    0.0
2018/11/05 01:36:30.000  -74.407199192  163.437673817    78.1724   5  12   0.6137   0.5304   1.6981  -0.1074  -0.3692  -0.5698 -26325.00    0.0
2018/11/05 01:36:45.000  -74.407200168  163.437672198    78.2785   5  12   0.6141   0.5309   1.7000  -0.1060  -0.3734  -0.5697 -26310.00    0.0
2018/11/05 01:37:00.000  -74.407201452  163.437663002    78.9493   5  12   0.6145   0.5315   1.7021  -0.1046  -0.3777  -0.5696 -26295.00    0.0
2018/11/05 01:37:15.000  -74.407200497  163.437660136    79.0632   5  12   0.6149   0.5322   1.7046  -0.1031  -0.3820  -0.5696 -26280.00    0.0
2018/11/05 01:37:30.000  -74.407200900  163.437667704    78.3184   5  12   0.6155   0.5329   1.7073  -0.1017  -0.3863  -0.5697 -26265.00    0.0
2018/11/05 01:37:45.000  -74.407201125  163.437671683    78.3592   5  12   0.6151   0.5326   1.7050  -0.1000  -0.3891  -0.5689 -26250.00    0.0
2018/11/05 01:38:00.000  -74.407202782  163.437670640    78.7029   5  12   0.6147   0.5323   1.7029  -0.0982  -0.3919  -0.5682 -26235.00    0.0
2018/11/05 01:38:15.000  -74.407202772  163.437662453    78.6953   5  12   0.6144   0.5321   1.7011  -0.0964  -0.3947  -0.5676 -26220.00    0.0
2018/11/05 01:38:30.000  -74.407202471  163.437670521    78.6698   5  12   0.6141   0.5319   1.6996  -0.0946  -0.3976  -0.5671 -26205.00    0.0
2018/11/05 01:38:45.000  -74.407199491  163.437660416    78.4349   5  12   0.6139   0.5318   1.6984  -0.0928  -0.4006  -0.5665 -26190.00    0.0
2018/11/05 01:39:00.000  -74.407201278  163.437665415    78.8334   5  12   0.6138   0.5318   1.6974  -0.0910  -0.4036  -0.5660 -26175.00    0.0
2018/11/05 01:39:15.000  -74.407200420  163.437672841    78.9343   5  12   0.6136   0.5318   1.6967  -0.0891  -0.4066  -0.5656 -26160.00    0.0
2018/11/05 01:39:30.000  -74.407199558  163.437666609    78.7024   5  12   0.6136   0.5319   1.6964  -0.0872  -0.4097  -0.5652 -26145.00    0.0
2018/11/05 01:39:45.000  -74.407199630  163.437666050    77.9136   5  12   0.6136   0.5320   1.6963  -0.0853  -0.4129  -0.5649 -26130.00    0.0
2018/11/05 01:40:00.000  -74.407199563  163.437674082    78.0403   5  12   0.6136   0.5323   1.6965  -0.0834  -0.4161  -0.5646 -26115.00    0.0
2018/11/05 01:40:15.000  -74.407199225  163.437668665    77.9518   5  12   0.6137   0.5325   1.6971  -0.0815  -0.4194  -0.5644 -26100.00    0.0
2018/11/05 01:40:30.000  -74.407201184  163.437665250    79.0468   5  12   0.6139   0.5329   1.6980  -0.0795  -0.4227  -0.5642 -26085.00    0.0
2018/11/05 01:40:45.000  -74.407198865  163.437660502    78.7561   5  12   0.6141   0.5333   1.6991  -0.0776  -0.4261  -0.5641 -26070.00    0.0
2018/11/05 01:41:00.000  -74.407199908  163.437659491    78.3200   5  12   0.6144   0.5338   1.7006  -0.0756  -0.4296  -0.5640 -26055.00    0.0
2018/11/05 01:41:15.000  -74.407202310  163.437660498    78.8647   5  12   0.6147   0.5343   1.7023  -0.0735  -0.4331  -0.5639 -26040.00    0.0
2018/11/05 01:41:30.000  -74.407200134  163.437656380    78.1542   5  12   0.6151   0.5349   1.7044  -0.0714  -0.4367  -0.5640 -26025.00    0.0
2018/11/05 01:41:45.000  -74.407201464  163.437663768    78.7685   5  12   0.6155   0.5355   1.7067  -0.0693  -0.4403  -0.5640 -26010.00    0.0
2018/11/05 01:42:00.000  -74.407201106  163.437658552    78.5312   5  12   0.6159   0.5362   1.7093  -0.0671  -0.4440  -0.5641 -25995.00    0.0
