% program   : RTKLIB ver.2.4.3
% inp file  : _by_type/_obs/hillary/20181110_20181112.18o
% inp file  : _by_type/_obs/base/20181109.18o
% inp file  : _by_type/_sp3+clk/igs20266.clk
% inp file  : _by_type/_sp3+clk/igs20266.sp3
% inp file  : _by_type/_nav/hillary/20181110_20181112.18n
% obs start : 2018/11/10 00:00:00.0 GPST (week2026 518400.0s)
% obs end   : 2018/11/12 23:59:45.0 GPST (week2027 172785.0s)
% pos mode  : dgps
% freqs     : L1+L2
% solution  : combined
% elev mask : 15.0 deg
% dynamics  : off
% tidecorr  : off
% ionos opt : iono-free
% tropo opt : est ztd+grad
% ephemeris : precise
% navi sys  : gps glonass
% antenna1  :                       ( 0.0000  0.0000  0.0000)
% antenna2  :                       ( 0.0000  0.0000  0.0000)
% ref pos   : 90.000000000   0.000000000-6335367.6285
%
% (lat/lon/height=WGS84/ellipsoidal,Q=1:fix,2:float,3:sbas,4:dgps,5:single,6:ppp,ns=# of satellites)
%  GPST                  latitude(deg) longitude(deg)  height(m)   Q  ns   sdn(m)   sde(m)   sdu(m)  sdne(m)  sdeu(m)  sdun(m) age(s)  ratio
2018/11/10 00:00:00.000  -74.393413470  163.452954742    98.6513   5  10   0.6524   0.6086   2.0826  -0.2591   0.6606  -0.6776  15.00    0.0
2018/11/10 00:00:15.000  -74.393410332  163.452954751    97.5195   5  10   0.6525   0.6090   2.0889  -0.2600   0.6642  -0.6796  30.00    0.0
2018/11/10 00:00:30.000  -74.393411832  163.452942564    98.2734   5  10   0.6527   0.6095   2.0955  -0.2610   0.6680  -0.6818  45.00    0.0
2018/11/10 00:00:45.000  -74.393408934  163.452951404    97.5959   5  10   0.6529   0.6101   2.1024  -0.2620   0.6719  -0.6841  60.00    0.0
2018/11/10 00:01:00.000  -74.393409291  163.452952606    97.1141   5  10   0.6532   0.6107   2.1096  -0.2632   0.6759  -0.6864  75.00    0.0
2018/11/10 00:01:15.000  -74.393409711  163.452936982    97.7374   5  10   0.6536   0.6115   2.1171  -0.2644   0.6800  -0.6889  90.00    0.0
2018/11/10 00:01:30.000  -74.393412740  163.452945143    97.3444   5  10   0.6541   0.6124   2.1249  -0.2656   0.6843  -0.6914 105.00    0.0
2018/11/10 00:01:45.000  -74.393409988  163.452948911    97.6543   5  10   0.6547   0.6133   2.1330  -0.2669   0.6887  -0.6941 120.00    0.0
2018/11/10 00:02:00.000  -74.393412817  163.452949859    98.1451   5  10   0.6553   0.6144   2.1414  -0.2683   0.6933  -0.6969 135.00    0.0
2018/11/10 00:02:15.000  -74.393408442  163.452948914    97.4919   5  10   0.6560   0.6155   2.1502  -0.2697   0.6979  -0.6997 150.00    0.0
2018/11/10 00:02:30.000  -74.393407448  163.452941836    98.0574   5  10   0.6568   0.6167   2.1592  -0.2713   0.7028  -0.7027 165.00    0.0
2018/11/10 00:02:45.000  -74.393407311  163.452943099    96.6126   5  10   0.6563   0.6163   2.1632  -0.2717   0.7052  -0.7042 180.00    0.0
2018/11/10 00:03:00.000  -74.393410895  163.452946520    98.9036   5  10   0.6558   0.6160   2.1674  -0.2723   0.7078  -0.7059 195.00    0.0
2018/11/10 00:03:15.000  -74.393409942  163.452938203    98.0879   5  10   0.6555   0.6158   2.1718  -0.2729   0.7105  -0.7076 210.00    0.0
2018/11/10 00:03:30.000  -74.393408084  163.452938873    96.8318   5  10   0.6552   0.6157   2.1766  -0.2735   0.7134  -0.7095 225.00    0.0
2018/11/10 00:03:45.000  -74.393411169  163.452941262    98.8921   5  10   0.6549   0.6156   2.1816  -0.2742   0.7163  -0.7114 240.00    0.0
2018/11/10 00:04:00.000  -74.393412078  163.452948400    97.8764   5  10   0.6548   0.6157   2.1869  -0.2750   0.7194  -0.7134 255.00    0.0
2018/11/10 00:04:15.000  -74.393410644  163.452946127    97.5345   5  10   0.6547   0.6158   2.1925  -0.2759   0.7226  -0.7155 270.00    0.0
2018/11/10 00:04:30.000  -74.393410121  163.452942238    97.7666   5  10   0.6547   0.6161   2.1984  -0.2768   0.7259  -0.7177 285.00    0.0
2018/11/10 00:04:45.000  -74.393413437  163.452948544    97.2906   5  10   0.6548   0.6164   2.2046  -0.2777   0.7294  -0.7200 300.00    0.0
2018/11/10 00:05:00.000  -74.393412326  163.452944283    98.4712   5  10   0.6550   0.6168   2.2111  -0.2788   0.7330  -0.7224 315.00    0.0
2018/11/10 00:05:15.000  -74.393410720  163.452945862    98.0612   5  10   0.6552   0.6174   2.2180  -0.2799   0.7368  -0.7250 330.00    0.0
2018/11/10 00:05:30.000  -74.393412161  163.452942441    98.4307   5  10   0.6556   0.6180   2.2252  -0.2811   0.7407  -0.7276 345.00    0.0
2018/11/10 00:05:45.000  -74.393407467  163.452948231    96.1721   5  10   0.6560   0.6187   2.2327  -0.2823   0.7447  -0.7303 360.00    0.0
2018/11/10 00:06:00.000  -74.393410051  163.452951415    98.7281   5  10   0.6565   0.6196   2.2406  -0.2836   0.7489  -0.7332 375.00    0.0
2018/11/10 00:06:15.000  -74.393407569  163.452951483    97.9392   5  10   0.6571   0.6205   2.2487  -0.2850   0.7532  -0.7361 390.00    0.0
2018/11/10 00:06:30.000  -74.393407414  163.452947672    97.9537   5  10   0.6577   0.6215   2.2571  -0.2864   0.7576  -0.7391 405.00    0.0
2018/11/10 00:06:45.000  -74.393411142  163.452947269    98.0671   5  10   0.6585   0.6226   2.2659  -0.2879   0.7622  -0.7423 420.00    0.0
2018/11/10 00:07:00.000  -74.393406560  163.452938236    97.0749   5  10   0.6593   0.6238   2.2749  -0.2895   0.7669  -0.7455 435.00    0.0
2018/11/10 00:07:15.000  -74.393409199  163.452945895    96.7685   5  10   0.6602   0.6251   2.2843  -0.2911   0.7717  -0.7489 450.00    0.0
2018/11/10 00:07:30.000  -74.393408353  163.452952489    97.1224   5  10   0.6611   0.6265   2.2940  -0.2928   0.7767  -0.7523 465.00    0.0
2018/11/10 00:07:45.000  -74.393410317  163.452954446    96.5321   5  10   0.6608   0.6262   2.2981  -0.2934   0.7791  -0.7542 480.00    0.0
2018/11/10 00:08:00.000  -74.393410812  163.452946392    97.0015   5  10   0.6605   0.6260   2.3025  -0.2941   0.7817  -0.7562 495.00    0.0
2018/11/10 00:08:15.000  -74.393411708  163.452937304    97.2616   5  10   0.6603   0.6259   2.3071  -0.2948   0.7844  -0.7583 510.00    0.0
2018/11/10 00:08:30.000  -74.393410417  163.452946211    97.2110   5  10   0.6602   0.6259   2.3121  -0.2956   0.7872  -0.7604 525.00    0.0
2018/11/10 00:08:45.000  -74.393409919  163.452940677    96.7885   5  10   0.6601   0.6259   2.3173  -0.2965   0.7901  -0.7627 540.00    0.0
2018/11/10 00:09:00.000  -74.393409872  163.452953420    97.4232   5  10   0.6601   0.6261   2.3229  -0.2974   0.7932  -0.7650 555.00    0.0
2018/11/10 00:09:15.000  -74.393411307  163.452953143    97.5871   5  10   0.6602   0.6263   2.3287  -0.2984   0.7963  -0.7675 570.00    0.0
2018/11/10 00:09:30.000  -74.393408797  163.452942696    97.4586   5  10   0.6604   0.6267   2.3348  -0.2994   0.7996  -0.7700 585.00    0.0
2018/11/10 00:09:45.000  -74.393409875  163.452948000    97.1413   5  10   0.6606   0.6271   2.3411  -0.3005   0.8030  -0.7727 600.00    0.0
2018/11/10 00:10:00.000  -74.393408744  163.452947547    97.2752   5  10   0.6610   0.6277   2.3478  -0.3017   0.8066  -0.7754 615.00    0.0
2018/11/10 00:10:15.000  -74.393409020  163.452942266    96.4594   5  10   0.6614   0.6283   2.3549  -0.3029   0.8103  -0.7782 630.00    0.0
2018/11/10 00:10:30.000  -74.393409936  163.452949704    97.6600   5  10   0.6619   0.6291   2.3623  -0.3042   0.8142  -0.7812 645.00    0.0
2018/11/10 00:10:45.000  -74.393410675  163.452952912    96.7275   5  10   0.6625   0.6299   2.3699  -0.3056   0.8181  -0.7843 660.00    0.0
2018/11/10 00:11:00.000  -74.393409004  163.452950306    96.6023   5  10   0.6632   0.6308   2.3779  -0.3070   0.8222  -0.7874 675.00    0.0
2018/11/10 00:11:15.000  -74.393409163  163.452940615    96.6232   5  10   0.6640   0.6319   2.3861  -0.3085   0.8264  -0.7907 690.00    0.0
2018/11/10 00:11:30.000  -74.393410231  163.452943123    97.0374   5  10   0.6648   0.6330   2.3946  -0.3101   0.8308  -0.7940 705.00    0.0
2018/11/10 00:11:45.000  -74.393408538  163.452938344    96.5559   5  10   0.6657   0.6342   2.4034  -0.3117   0.8353  -0.7975 720.00    0.0
2018/11/10 00:12:00.000  -74.393410462  163.452945143    96.5472   5  10   0.6667   0.6355   2.4125  -0.3134   0.8398  -0.8010 735.00    0.0
2018/11/10 00:12:15.000  -74.393409350  163.452939032    96.5864   5  10   0.6678   0.6369   2.4219  -0.3151   0.8446  -0.8047 750.00    0.0
2018/11/10 00:12:30.000  -74.393406988  163.452936735    96.4279   5  10   0.6689   0.6383   2.4315  -0.3169   0.8494  -0.8084 765.00    0.0
2018/11/10 00:12:45.000  -74.393407244  163.452940200    95.7068   5  10   0.6687   0.6381   2.4353  -0.3176   0.8516  -0.8105 780.00    0.0
2018/11/10 00:13:00.000  -74.393408639  163.452938396    95.7533   5  10   0.6686   0.6380   2.4393  -0.3183   0.8538  -0.8126 795.00    0.0
2018/11/10 00:13:15.000  -74.393407597  163.452948379    97.1452   5  10   0.6685   0.6379   2.4436  -0.3191   0.8562  -0.8148 810.00    0.0
2018/11/10 00:13:30.000  -74.393413832  163.452955499    98.2396   5  11   0.6558   0.6379   2.3528  -0.3186   0.8613  -0.8691 825.00    0.0
2018/11/10 00:13:45.000  -74.393407849  163.452945207    96.0421   5  11   0.6559   0.6380   2.3581  -0.3195   0.8638  -0.8714 840.00    0.0
2018/11/10 00:14:00.000  -74.393411640  163.452943729    96.7338   5  11   0.6560   0.6382   2.3637  -0.3205   0.8665  -0.8737 855.00    0.0
2018/11/10 00:14:15.000  -74.393408697  163.452951225    97.2760   5  11   0.6562   0.6385   2.3695  -0.3216   0.8692  -0.8761 870.00    0.0
2018/11/10 00:14:30.000  -74.393406290  163.452936729    95.8755   5  11   0.6564   0.6389   2.3756  -0.3227   0.8720  -0.8787 885.00    0.0
2018/11/10 00:14:45.000  -74.393408326  163.452938968    95.8116   5  11   0.6568   0.6393   2.3819  -0.3238   0.8750  -0.8813 900.00    0.0
2018/11/10 00:15:00.000  -74.393407823  163.452938894    97.2830   5  11   0.6572   0.6399   2.3885  -0.3250   0.8781  -0.8840 915.00    0.0
2018/11/10 00:15:15.000  -74.393408650  163.452936894    96.7337   5  11   0.6577   0.6405   2.3954  -0.3263   0.8813  -0.8869 930.00    0.0
2018/11/10 00:15:30.000  -74.393407516  163.452940367    96.6874   5  11   0.6582   0.6413   2.4026  -0.3277   0.8847  -0.8898 945.00    0.0
2018/11/10 00:15:45.000  -74.393408227  163.452939798    96.7160   5  11   0.6589   0.6422   2.4101  -0.3291   0.8881  -0.8929 960.00    0.0
2018/11/10 00:16:00.000  -74.393408637  163.452929156    96.3893   5  11   0.6596   0.6431   2.4178  -0.3305   0.8917  -0.8960 975.00    0.0
2018/11/10 00:16:15.000  -74.393407916  163.452947134    96.5264   5  11   0.6604   0.6441   2.4258  -0.3320   0.8954  -0.8992 990.00    0.0
2018/11/10 00:16:30.000  -74.393407017  163.452945657    96.4112   5  11   0.6613   0.6452   2.4339  -0.3336   0.8992  -0.9026 1005.00    0.0
2018/11/10 00:16:45.000  -74.393409024  163.452943091    96.2621   5  11   0.6622   0.6464   2.4424  -0.3351   0.9031  -0.9060 1020.00    0.0
2018/11/10 00:17:00.000  -74.393408196  163.452948392    97.2727   5  11   0.6632   0.6477   2.4510  -0.3368   0.9071  -0.9095 1035.00    0.0
2018/11/10 00:17:15.000  -74.393406261  163.452938072    95.9639   5  11   0.6643   0.6490   2.4599  -0.3385   0.9112  -0.9130 1050.00    0.0
2018/11/10 00:17:30.000  -74.393410610  163.452949290    97.6887   5  11   0.6654   0.6505   2.4691  -0.3402   0.9153  -0.9167 1065.00    0.0
2018/11/10 00:17:45.000  -74.393409733  163.452951913    96.7709   5  11   0.6653   0.6502   2.4724  -0.3408   0.9169  -0.9184 1080.00    0.0
2018/11/10 00:18:00.000  -74.393408704  163.452947762    97.0370   5  11   0.6652   0.6500   2.4760  -0.3414   0.9184  -0.9201 1095.00    0.0
2018/11/10 00:18:15.000  -74.393408801  163.452949361    96.7906   5  11   0.6651   0.6499   2.4797  -0.3421   0.9201  -0.9219 1110.00    0.0
2018/11/10 00:18:30.000  -74.393409023  163.452949227    97.4669   5  11   0.6652   0.6498   2.4837  -0.3429   0.9218  -0.9238 1125.00    0.0
2018/11/10 00:18:45.000  -74.393407264  163.452954442    96.9417   5  11   0.6653   0.6498   2.4878  -0.3437   0.9237  -0.9258 1140.00    0.0
2018/11/10 00:19:00.000  -74.393408290  163.452944022    96.3834   5  11   0.6655   0.6499   2.4922  -0.3445   0.9256  -0.9278 1155.00    0.0
2018/11/10 00:19:15.000  -74.393411875  163.452944486    98.3800   5  11   0.6657   0.6501   2.4968  -0.3453   0.9276  -0.9300 1170.00    0.0
2018/11/10 00:19:30.000  -74.393406732  163.452949687    96.0147   5  11   0.6660   0.6503   2.5015  -0.3463   0.9297  -0.9321 1185.00    0.0
2018/11/10 00:19:45.000  -74.393410514  163.452950803    97.1048   5  11   0.6664   0.6507   2.5065  -0.3472   0.9319  -0.9344 1200.00    0.0
2018/11/10 00:20:00.000  -74.393410949  163.452959739    97.7416   5  11   0.6668   0.6511   2.5117  -0.3482   0.9342  -0.9368 1215.00    0.0
2018/11/10 00:20:15.000  -74.393409405  163.452952982    96.7317   5  11   0.6674   0.6516   2.5172  -0.3493   0.9367  -0.9392 1230.00    0.0
2018/11/10 00:20:30.000  -74.393410628  163.452956484    96.9504   5  11   0.6680   0.6523   2.5229  -0.3504   0.9392  -0.9418 1245.00    0.0
2018/11/10 00:20:45.000  -74.393410447  163.452945338    97.1488   5  11   0.6687   0.6530   2.5288  -0.3515   0.9418  -0.9444 1260.00    0.0
2018/11/10 00:21:00.000  -74.393407544  163.452944520    96.0350   5  11   0.6694   0.6538   2.5348  -0.3527   0.9445  -0.9470 1275.00    0.0
2018/11/10 00:21:15.000  -74.393407565  163.452947623    97.0817   5  11   0.6702   0.6546   2.5411  -0.3539   0.9472  -0.9498 1290.00    0.0
2018/11/10 00:21:30.000  -74.393408886  163.452940397    96.2653   5  11   0.6711   0.6555   2.5475  -0.3551   0.9500  -0.9526 1305.00    0.0
2018/11/10 00:21:45.000  -74.393410101  163.452938618    97.0309   5  11   0.6720   0.6565   2.5541  -0.3564   0.9529  -0.9554 1320.00    0.0
2018/11/10 00:22:00.000  -74.393407086  163.452939258    95.6033   5  11   0.6730   0.6576   2.5609  -0.3577   0.9559  -0.9583 1335.00    0.0
2018/11/10 00:22:15.000  -74.393407581  163.452933750    95.1385   5  11   0.6741   0.6588   2.5678  -0.3591   0.9589  -0.9613 1350.00    0.0
2018/11/10 00:22:30.000  -74.393408619  163.452935467    96.7888   5  11   0.6752   0.6600   2.5749  -0.3604   0.9620  -0.9643 1365.00    0.0
2018/11/10 00:22:45.000  -74.393409322  163.452933007    96.2602   5  11   0.6750   0.6594   2.5760  -0.3607   0.9623  -0.9653 1380.00    0.0
2018/11/10 00:23:00.000  -74.393407409  163.452933659    95.0216   5  11   0.6749   0.6590   2.5774  -0.3610   0.9628  -0.9664 1395.00    0.0
2018/11/10 00:23:15.000  -74.393407197  163.452935306    95.9943   5  11   0.6748   0.6586   2.5790  -0.3613   0.9633  -0.9675 1410.00    0.0
2018/11/10 00:23:30.000  -74.393410614  163.452937153    96.0699   5  11   0.6748   0.6583   2.5806  -0.3617   0.9639  -0.9687 1425.00    0.0
2018/11/10 00:23:45.000  -74.393406969  163.452932156    95.5631   5  11   0.6749   0.6581   2.5825  -0.3621   0.9646  -0.9699 1440.00    0.0
2018/11/10 00:24:00.000  -74.393408596  163.452926691    95.3065   5  11   0.6750   0.6579   2.5845  -0.3626   0.9653  -0.9712 1455.00    0.0
2018/11/10 00:24:15.000  -74.393407251  163.452934413    96.8928   5  11   0.6752   0.6578   2.5866  -0.3630   0.9661  -0.9725 1470.00    0.0
2018/11/10 00:24:30.000  -74.393406609  163.452939791    95.9190   5  11   0.6754   0.6578   2.5889  -0.3635   0.9669  -0.9739 1485.00    0.0
2018/11/10 00:24:45.000  -74.393409418  163.452937003    96.5711   5  11   0.6757   0.6579   2.5913  -0.3640   0.9679  -0.9753 1500.00    0.0
2018/11/10 00:25:00.000  -74.393406100  163.452934016    95.6468   5  11   0.6761   0.6580   2.5938  -0.3646   0.9688  -0.9768 1515.00    0.0
2018/11/10 00:25:15.000  -74.393405889  163.452938880    96.2708   5  11   0.6766   0.6583   2.5966  -0.3652   0.9699  -0.9783 1530.00    0.0
2018/11/10 00:25:30.000  -74.393408067  163.452931655    96.1947   5  11   0.6771   0.6586   2.5996  -0.3658   0.9710  -0.9799 1545.00    0.0
2018/11/10 00:25:45.000  -74.393408280  163.452933400    96.6891   5  11   0.6777   0.6589   2.6027  -0.3665   0.9722  -0.9816 1560.00    0.0
2018/11/10 00:26:00.000  -74.393408944  163.452939032    96.8626   5  11   0.6783   0.6594   2.6059  -0.3671   0.9734  -0.9833 1575.00    0.0
2018/11/10 00:26:15.000  -74.393406710  163.452950550    96.5336   5  11   0.6790   0.6599   2.6092  -0.3678   0.9746  -0.9850 1590.00    0.0
2018/11/10 00:26:30.000  -74.393407731  163.452951151    96.1864   5  11   0.6797   0.6605   2.6126  -0.3685   0.9759  -0.9868 1605.00    0.0
2018/11/10 00:26:45.000  -74.393409947  163.452949691    97.4574   5  11   0.6805   0.6611   2.6162  -0.3693   0.9772  -0.9886 1620.00    0.0
2018/11/10 00:27:00.000  -74.393408395  163.452946316    96.2350   5  11   0.6814   0.6618   2.6198  -0.3700   0.9786  -0.9904 1635.00    0.0
2018/11/10 00:27:15.000  -74.393407904  163.452954558    96.6559   5  11   0.6823   0.6626   2.6236  -0.3708   0.9800  -0.9922 1650.00    0.0
2018/11/10 00:27:30.000  -74.393408474  163.452943547    96.9819   5  11   0.6833   0.6634   2.6275  -0.3716   0.9814  -0.9941 1665.00    0.0
2018/11/10 00:27:45.000  -74.393406653  163.452935279    95.7763   5  11   0.6830   0.6625   2.6256  -0.3713   0.9803  -0.9940 1680.00    0.0
2018/11/10 00:28:00.000  -74.393406745  163.452925486    95.1583   5  11   0.6827   0.6617   2.6238  -0.3711   0.9792  -0.9940 1695.00    0.0
2018/11/10 00:28:15.000  -74.393409815  163.452943102    96.3971   5  11   0.6825   0.6610   2.6222  -0.3709   0.9782  -0.9941 1710.00    0.0
2018/11/10 00:28:30.000  -74.393408942  163.452942449    96.7893   5  11   0.6824   0.6603   2.6206  -0.3707   0.9773  -0.9941 1725.00    0.0
2018/11/10 00:28:45.000  -74.393407713  163.452938615    95.8732   5  11   0.6823   0.6597   2.6192  -0.3706   0.9763  -0.9942 1740.00    0.0
2018/11/10 00:29:00.000  -74.393406980  163.452939189    96.1680   5  11   0.6823   0.6592   2.6179  -0.3704   0.9754  -0.9943 1755.00    0.0
2018/11/10 00:29:15.000  -74.393407998  163.452930835    95.0530   5  11   0.6823   0.6587   2.6167  -0.3703   0.9746  -0.9945 1770.00    0.0
2018/11/10 00:29:30.000  -74.393406512  163.452934742    95.5476   5  11   0.6824   0.6583   2.6156  -0.3702   0.9738  -0.9947 1785.00    0.0
2018/11/10 00:29:45.000  -74.393407624  163.452935174    95.4696   5  11   0.6825   0.6580   2.6147  -0.3701   0.9730  -0.9949 1800.00    0.0
2018/11/10 00:30:00.000  -74.393407544  163.452935645    95.3715   5  11   0.6827   0.6577   2.6138  -0.3701   0.9723  -0.9951 1815.00    0.0
2018/11/10 00:30:15.000  -74.393408704  163.452933172    95.6060   5  11   0.6830   0.6576   2.6131  -0.3700   0.9716  -0.9954 1830.00    0.0
2018/11/10 00:30:30.000  -74.393408382  163.452931606    95.0427   5  11   0.6833   0.6575   2.6126  -0.3700   0.9710  -0.9958 1845.00    0.0
2018/11/10 00:30:45.000  -74.393406850  163.452934210    94.5282   5  11   0.6837   0.6574   2.6122  -0.3700   0.9704  -0.9961 1860.00    0.0
2018/11/10 00:31:00.000  -74.393407866  163.452935097    95.0343   5  11   0.6841   0.6574   2.6119  -0.3700   0.9699  -0.9965 1875.00    0.0
2018/11/10 00:31:15.000  -74.393406388  163.452938634    95.1211   5  11   0.6846   0.6575   2.6116  -0.3701   0.9693  -0.9969 1890.00    0.0
2018/11/10 00:31:30.000  -74.393407487  163.452933248    95.7026   5  11   0.6851   0.6576   2.6115  -0.3701   0.9688  -0.9974 1905.00    0.0
2018/11/10 00:31:45.000  -74.393406436  163.452941740    96.0890   5  11   0.6857   0.6578   2.6115  -0.3702   0.9683  -0.9978 1920.00    0.0
2018/11/10 00:32:00.000  -74.393406541  163.452937716    96.2173   5  11   0.6864   0.6581   2.6116  -0.3702   0.9679  -0.9983 1935.00    0.0
2018/11/10 00:32:15.000  -74.393409059  163.452946124    96.8602   5  11   0.6871   0.6584   2.6117  -0.3703   0.9674  -0.9988 1950.00    0.0
2018/11/10 00:32:30.000  -74.393406682  163.452936787    95.9145   5  11   0.6878   0.6588   2.6120  -0.3704   0.9670  -0.9993 1965.00    0.0
2018/11/10 00:32:45.000  -74.393407331  163.452932287    95.6195   5  11   0.6873   0.6576   2.6068  -0.3695   0.9643  -0.9981 1980.00    0.0
2018/11/10 00:33:00.000  -74.393406446  163.452941569    95.8866   5  11   0.6869   0.6565   2.6016  -0.3687   0.9616  -0.9968 1995.00    0.0
2018/11/10 00:33:15.000  -74.393407492  163.452933678    95.5456   5  11   0.6865   0.6554   2.5966  -0.3679   0.9590  -0.9956 2010.00    0.0
2018/11/10 00:33:30.000  -74.393409923  163.452940008    95.8640   5  11   0.6861   0.6543   2.5918  -0.3671   0.9563  -0.9944 2025.00    0.0
2018/11/10 00:33:45.000  -74.393407966  163.452932810    96.3334   5  11   0.6858   0.6534   2.5870  -0.3664   0.9538  -0.9933 2040.00    0.0
2018/11/10 00:34:00.000  -74.393410989  163.452939720    97.1859   5  11   0.6856   0.6525   2.5824  -0.3656   0.9512  -0.9922 2055.00    0.0
2018/11/10 00:34:15.000  -74.393409260  163.452939866    95.3601   5  11   0.6854   0.6516   2.5779  -0.3649   0.9487  -0.9911 2070.00    0.0
2018/11/10 00:34:30.000  -74.393408230  163.452937095    95.7304   5  11   0.6853   0.6509   2.5735  -0.3641   0.9463  -0.9900 2085.00    0.0
2018/11/10 00:34:45.000  -74.393407230  163.452941123    95.3337   5  11   0.6853   0.6502   2.5692  -0.3634   0.9439  -0.9890 2100.00    0.0
2018/11/10 00:35:00.000  -74.393407472  163.452944766    96.3227   5  11   0.6852   0.6495   2.5651  -0.3627   0.9415  -0.9880 2115.00    0.0
2018/11/10 00:35:15.000  -74.393406483  163.452938561    95.6334   5  11   0.6853   0.6490   2.5612  -0.3621   0.9392  -0.9870 2130.00    0.0
2018/11/10 00:35:30.000  -74.393406391  163.452941064    95.2130   5  11   0.6854   0.6485   2.5574  -0.3614   0.9369  -0.9862 2145.00    0.0
2018/11/10 00:35:45.000  -74.393408632  163.452936245    95.7221   5  11   0.6856   0.6481   2.5538  -0.3608   0.9347  -0.9853 2160.00    0.0
2018/11/10 00:36:00.000  -74.393405276  163.452942211    95.1538   5  11   0.6858   0.6478   2.5503  -0.3602   0.9325  -0.9844 2175.00    0.0
2018/11/10 00:36:15.000  -74.393406313  163.452943439    96.5427   5  11   0.6861   0.6475   2.5470  -0.3596   0.9303  -0.9836 2190.00    0.0
2018/11/10 00:36:30.000  -74.393404206  163.452940640    94.6914   5  11   0.6864   0.6473   2.5437  -0.3590   0.9282  -0.9828 2205.00    0.0
2018/11/10 00:36:45.000  -74.393404303  163.452937771    95.0864   5  11   0.6868   0.6472   2.5406  -0.3584   0.9261  -0.9821 2220.00    0.0
2018/11/10 00:37:00.000  -74.393409082  163.452938393    96.4790   5  11   0.6873   0.6471   2.5377  -0.3578   0.9240  -0.9814 2235.00    0.0
2018/11/10 00:37:15.000  -74.393406884  163.452944760    95.4743   5  11   0.6877   0.6470   2.5349  -0.3572   0.9219  -0.9807 2250.00    0.0
2018/11/10 00:37:30.000  -74.393403568  163.452932010    94.3509   5  11   0.6883   0.6471   2.5322  -0.3567   0.9199  -0.9800 2265.00    0.0
2018/11/10 00:37:45.000  -74.393405599  163.452932670    95.3640   5  11   0.6876   0.6455   2.5243  -0.3553   0.9158  -0.9777 2280.00    0.0
2018/11/10 00:38:00.000  -74.393407232  163.452933439    95.7993   5  11   0.6870   0.6441   2.5165  -0.3539   0.9118  -0.9754 2295.00    0.0
2018/11/10 00:38:15.000  -74.393402892  163.452935079    94.9293   5  10   0.9405   0.6758   3.5819  -0.5085   1.1652  -1.6096 2310.00    0.0
2018/11/10 00:38:30.000  -74.393402573  163.452934168    94.4194   5  10   0.9391   0.6741   3.5705  -0.5062   1.1597  -1.6053 2325.00    0.0
2018/11/10 00:38:45.000  -74.393405877  163.452933501    95.3732   5  10   0.9377   0.6725   3.5592  -0.5040   1.1541  -1.6010 2340.00    0.0
2018/11/10 00:39:00.000  -74.393403944  163.452936967    94.6250   5  10   0.9364   0.6709   3.5481  -0.5018   1.1485  -1.5968 2355.00    0.0
2018/11/10 00:39:15.000  -74.393401333  163.452936944    94.4626   5  10   0.9351   0.6694   3.5370  -0.4995   1.1430  -1.5926 2370.00    0.0
2018/11/10 00:39:30.000  -74.393405152  163.452940312    94.8736   5  10   0.9339   0.6680   3.5261  -0.4973   1.1375  -1.5884 2385.00    0.0
2018/11/10 00:39:45.000  -74.393405385  163.452926734    94.4602   5  10   0.9327   0.6666   3.5153  -0.4951   1.1320  -1.5844 2400.00    0.0
2018/11/10 00:40:00.000  -74.393403871  163.452930490    94.3721   5  10   0.9316   0.6653   3.5047  -0.4929   1.1266  -1.5803 2415.00    0.0
2018/11/10 00:40:15.000  -74.393406713  163.452940503    96.2123   5  10   0.9306   0.6641   3.4945  -0.4907   1.1212  -1.5765 2430.00    0.0
2018/11/10 00:40:30.000  -74.393402944  163.452934148    94.5764   5  10   0.9297   0.6630   3.4844  -0.4886   1.1159  -1.5727 2445.00    0.0
2018/11/10 00:40:45.000  -74.393405301  163.452931476    96.6460   5  10   0.9289   0.6619   3.4745  -0.4864   1.1106  -1.5689 2460.00    0.0
2018/11/10 00:41:00.000  -74.393405427  163.452936800    95.5252   5  10   0.9281   0.6609   3.4649  -0.4843   1.1053  -1.5653 2475.00    0.0
2018/11/10 00:41:15.000  -74.393403876  163.452929847    95.4670   5  10   0.9274   0.6599   3.4554  -0.4822   1.1001  -1.5617 2490.00    0.0
2018/11/10 00:41:30.000  -74.393403298  163.452937960    94.5707   5  10   0.9267   0.6590   3.4461  -0.4801   1.0949  -1.5582 2505.00    0.0
2018/11/10 00:41:45.000  -74.393403045  163.452939444    94.6288   5  10   0.9261   0.6582   3.4371  -0.4780   1.0898  -1.5548 2520.00    0.0
2018/11/10 00:42:00.000  -74.393403481  163.452938841    94.0919   5   9   0.9298   0.6576   3.6810  -0.4749   1.0783  -1.5890 2535.00    0.0
2018/11/10 00:42:15.000  -74.393405911  163.452933315    95.3968   5   9   0.9295   0.6569   3.6751  -0.4728   1.0732  -1.5866 2550.00    0.0
2018/11/10 00:42:30.000  -74.393406836  163.452946168    96.4460   5   9   0.9292   0.6563   3.6695  -0.4707   1.0681  -1.5842 2565.00    0.0
2018/11/10 00:42:45.000  -74.393402601  163.452943056    94.6563   5   9   0.9267   0.6541   3.6523  -0.4672   1.0599  -1.5771 2580.00    0.0
2018/11/10 00:43:00.000  -74.393403574  163.452939763    95.2163   5   9   0.9242   0.6520   3.6356  -0.4638   1.0518  -1.5701 2595.00    0.0
2018/11/10 00:43:15.000  -74.393402508  163.452937286    94.0649   5   9   0.9218   0.6500   3.6191  -0.4603   1.0437  -1.5633 2610.00    0.0
2018/11/10 00:43:30.000  -74.393405166  163.452936948    95.6768   5   9   0.9195   0.6481   3.6029  -0.4570   1.0357  -1.5566 2625.00    0.0
2018/11/10 00:43:45.000  -74.393402335  163.452933031    94.1230   5   9   0.9172   0.6462   3.5870  -0.4536   1.0278  -1.5500 2640.00    0.0
2018/11/10 00:44:00.000  -74.393403973  163.452943287    95.5749   5   9   0.9151   0.6445   3.5714  -0.4503   1.0200  -1.5435 2655.00    0.0
2018/11/10 00:44:15.000  -74.393403341  163.452936480    94.5929   5   9   0.9131   0.6428   3.5562  -0.4470   1.0122  -1.5371 2670.00    0.0
2018/11/10 00:44:30.000  -74.393398342  163.452936363    91.4970   5   9   0.9111   0.6412   3.5414  -0.4437   1.0045  -1.5309 2685.00    0.0
2018/11/10 00:44:45.000  -74.393407602  163.452942513    95.2196   5  10   0.7479   0.6356   2.6730  -0.3958   0.9095  -1.0656 2700.00    0.0
2018/11/10 00:45:00.000  -74.393407169  163.452933218    95.2520   5  10   0.7475   0.6345   2.6680  -0.3944   0.9056  -1.0638 2715.00    0.0
2018/11/10 00:45:15.000  -74.393407028  163.452928399    94.7373   5  10   0.7473   0.6335   2.6634  -0.3931   0.9019  -1.0620 2730.00    0.0
2018/11/10 00:45:30.000  -74.393403246  163.452942954    94.2438   5  10   0.7471   0.6326   2.6591  -0.3919   0.8981  -1.0604 2745.00    0.0
2018/11/10 00:45:45.000  -74.393404648  163.452943502    95.2750   5  10   0.7469   0.6318   2.6549  -0.3906   0.8945  -1.0588 2760.00    0.0
2018/11/10 00:46:00.000  -74.393404291  163.452945544    95.7384   5  10   0.7468   0.6310   2.6510  -0.3894   0.8909  -1.0572 2775.00    0.0
2018/11/10 00:46:15.000  -74.393403953  163.452943307    94.8645   5  10   0.7468   0.6303   2.6473  -0.3882   0.8873  -1.0558 2790.00    0.0
2018/11/10 00:46:30.000  -74.393409784  163.452947930    96.8123   5  10   0.7469   0.6296   2.6439  -0.3871   0.8838  -1.0544 2805.00    0.0
2018/11/10 00:46:45.000  -74.393406767  163.452943911    95.8818   5  10   0.7470   0.6291   2.6407  -0.3859   0.8803  -1.0530 2820.00    0.0
2018/11/10 00:47:00.000  -74.393405115  163.452942561    94.8406   5  10   0.7472   0.6286   2.6378  -0.3848   0.8769  -1.0517 2835.00    0.0
2018/11/10 00:47:15.000  -74.393406032  163.452938534    94.0991   5  10   0.7475   0.6281   2.6351  -0.3838   0.8736  -1.0505 2850.00    0.0
2018/11/10 00:47:30.000  -74.393403270  163.452950253    94.4569   5  10   0.7478   0.6278   2.6327  -0.3827   0.8702  -1.0494 2865.00    0.0
2018/11/10 00:47:45.000  -74.393408963  163.452943248    95.1472   5  10   0.7467   0.6261   2.6237  -0.3808   0.8649  -1.0462 2880.00    0.0
2018/11/10 00:48:00.000  -74.393406933  163.452955028    95.1743   5  10   0.7457   0.6244   2.6148  -0.3788   0.8596  -1.0430 2895.00    0.0
2018/11/10 00:48:15.000  -74.393408540  163.452951746    95.4954   5  10   0.7447   0.6227   2.6062  -0.3769   0.8543  -1.0399 2910.00    0.0
2018/11/10 00:48:30.000  -74.393407193  163.452948974    95.3704   5  10   0.7439   0.6211   2.5978  -0.3750   0.8490  -1.0369 2925.00    0.0
2018/11/10 00:48:45.000  -74.393409548  163.452952528    94.9300   5  10   0.7430   0.6197   2.5897  -0.3732   0.8439  -1.0339 2940.00    0.0
2018/11/10 00:49:00.000  -74.393408111  163.452951804    95.8314   5  10   0.7423   0.6183   2.5819  -0.3713   0.8388  -1.0310 2955.00    0.0
2018/11/10 00:49:15.000  -74.393404890  163.452955194    94.0861   5  10   0.7416   0.6169   2.5744  -0.3696   0.8337  -1.0282 2970.00    0.0
2018/11/10 00:49:30.000  -74.393404615  163.452945376    95.0033   5  10   0.7410   0.6157   2.5671  -0.3678   0.8288  -1.0255 2985.00    0.0
2018/11/10 00:49:45.000  -74.393407091  163.452944212    94.3089   5  10   0.7405   0.6145   2.5601  -0.3661   0.8239  -1.0228 3000.00    0.0
2018/11/10 00:50:00.000  -74.393405475  163.452949458    94.2359   5  10   0.7400   0.6134   2.5534  -0.3644   0.8190  -1.0202 3015.00    0.0
2018/11/10 00:50:15.000  -74.393404837  163.452951930    94.0944   5  10   0.7396   0.6124   2.5472  -0.3628   0.8143  -1.0178 3030.00    0.0
2018/11/10 00:50:30.000  -74.393405053  163.452952875    94.8672   5  10   0.7393   0.6115   2.5412  -0.3612   0.8097  -1.0155 3045.00    0.0
2018/11/10 00:50:45.000  -74.393408823  163.452948075    94.9278   5  10   0.7391   0.6106   2.5355  -0.3596   0.8051  -1.0132 3060.00    0.0
2018/11/10 00:51:00.000  -74.393408981  163.452958024    96.0297   5  10   0.7389   0.6099   2.5301  -0.3581   0.8006  -1.0110 3075.00    0.0
2018/11/10 00:51:15.000  -74.393407622  163.452953884    95.4221   5  10   0.7389   0.6092   2.5251  -0.3566   0.7961  -1.0089 3090.00    0.0
2018/11/10 00:51:30.000  -74.393407620  163.452940112    95.0415   5  10   0.7388   0.6086   2.5204  -0.3552   0.7917  -1.0069 3105.00    0.0
2018/11/10 00:51:45.000  -74.393409061  163.452943881    95.6303   5  10   0.7389   0.6080   2.5160  -0.3537   0.7874  -1.0050 3120.00    0.0
2018/11/10 00:52:00.000  -74.393404330  163.452939311    94.2515   5  10   0.7390   0.6076   2.5119  -0.3523   0.7831  -1.0032 3135.00    0.0
2018/11/10 00:52:15.000  -74.393406919  163.452942025    94.9931   5  10   0.7392   0.6072   2.5081  -0.3510   0.7789  -1.0015 3150.00    0.0
2018/11/10 00:52:30.000  -74.393406709  163.452935625    94.0855   5  10   0.7395   0.6069   2.5047  -0.3496   0.7747  -0.9999 3165.00    0.0
2018/11/10 00:52:45.000  -74.393405851  163.452944513    95.2673   5  10   0.7384   0.6052   2.4946  -0.3475   0.7687  -0.9962 3180.00    0.0
2018/11/10 00:53:00.000  -74.393405226  163.452935330    94.4926   5  10   0.7373   0.6036   2.4846  -0.3453   0.7627  -0.9925 3195.00    0.0
2018/11/10 00:53:15.000  -74.393404420  163.452939760    94.6266   5  10   0.7364   0.6021   2.4750  -0.3432   0.7568  -0.9890 3210.00    0.0
2018/11/10 00:53:30.000  -74.393407725  163.452944419    94.7014   5  10   0.7355   0.6007   2.4656  -0.3411   0.7510  -0.9855 3225.00    0.0
2018/11/10 00:53:45.000  -74.393407125  163.452945118    94.6348   5  10   0.7346   0.5994   2.4566  -0.3391   0.7452  -0.9822 3240.00    0.0
2018/11/10 00:54:00.000  -74.393405065  163.452944119    93.8610   5  10   0.7339   0.5981   2.4480  -0.3371   0.7396  -0.9789 3255.00    0.0
2018/11/10 00:54:15.000  -74.393405867  163.452933063    95.4612   5  10   0.7332   0.5969   2.4397  -0.3351   0.7340  -0.9758 3270.00    0.0
2018/11/10 00:54:30.000  -74.393408822  163.452942324    95.1853   5  10   0.7326   0.5958   2.4317  -0.3332   0.7285  -0.9727 3285.00    0.0
2018/11/10 00:54:45.000  -74.393407709  163.452942320    95.3408   5  10   0.7321   0.5947   2.4241  -0.3313   0.7230  -0.9698 3300.00    0.0
2018/11/10 00:55:00.000  -74.393407984  163.452945394    95.1182   5  10   0.7316   0.5938   2.4169  -0.3295   0.7177  -0.9669 3315.00    0.0
2018/11/10 00:55:15.000  -74.393405113  163.452941873    94.4321   5  10   0.7313   0.5930   2.4101  -0.3277   0.7124  -0.9642 3330.00    0.0
2018/11/10 00:55:30.000  -74.393405836  163.452945319    94.9923   5  10   0.7310   0.5922   2.4037  -0.3260   0.7072  -0.9617 3345.00    0.0
2018/11/10 00:55:45.000  -74.393406561  163.452946306    95.5539   5  10   0.7308   0.5915   2.3977  -0.3242   0.7021  -0.9592 3360.00    0.0
2018/11/10 00:56:00.000  -74.393406562  163.452944416    95.5065   5  10   0.7307   0.5909   2.3920  -0.3226   0.6971  -0.9568 3375.00    0.0
2018/11/10 00:56:15.000  -74.393407790  163.452956182    95.6091   5  10   0.7306   0.5904   2.3867  -0.3209   0.6921  -0.9545 3390.00    0.0
2018/11/10 00:56:30.000  -74.393411911  163.452950663    97.3373   5  10   0.7306   0.5900   2.3818  -0.3193   0.6872  -0.9524 3405.00    0.0
2018/11/10 00:56:45.000  -74.393411784  163.452957010    96.5752   5  10   0.7307   0.5896   2.3772  -0.3178   0.6823  -0.9503 3420.00    0.0
2018/11/10 00:57:00.000  -74.393408739  163.452957229    96.6860   5  10   0.7308   0.5893   2.3730  -0.3162   0.6775  -0.9484 3435.00    0.0
2018/11/10 00:57:15.000  -74.393406298  163.452941435    94.3159   5  10   0.7311   0.5891   2.3692  -0.3147   0.6727  -0.9465 3450.00    0.0
2018/11/10 00:57:30.000  -74.393408547  163.452946580    96.2721   5  10   0.7314   0.5889   2.3657  -0.3132   0.6680  -0.9447 3465.00    0.0
2018/11/10 00:57:45.000  -74.393408803  163.452948546    96.0772   5  10   0.7303   0.5874   2.3552  -0.3109   0.6616  -0.9409 3480.00    0.0
2018/11/10 00:58:00.000  -74.393408077  163.452951892    95.4227   5  10   0.7293   0.5861   2.3453  -0.3087   0.6554  -0.9372 3495.00    0.0
2018/11/10 00:58:15.000  -74.393411245  163.452947419    95.6069   5  10   0.7285   0.5848   2.3357  -0.3066   0.6492  -0.9337 3510.00    0.0
2018/11/10 00:58:30.000  -74.393409118  163.452951587    95.5777   5  10   0.7277   0.5836   2.3265  -0.3045   0.6432  -0.9303 3525.00    0.0
2018/11/10 00:58:45.000  -74.393410141  163.452955789    96.9019   5  10   0.7269   0.5825   2.3177  -0.3024   0.6372  -0.9269 3540.00    0.0
2018/11/10 00:59:00.000  -74.393409350  163.452952814    95.3464   5  10   0.7263   0.5815   2.3093  -0.3004   0.6312  -0.9237 3555.00    0.0
2018/11/10 00:59:15.000  -74.393407879  163.452947985    95.5964   5  10   0.7257   0.5806   2.3012  -0.2984   0.6254  -0.9206 3570.00    0.0
2018/11/10 00:59:30.000  -74.393406400  163.452950698    94.7004   5  10   0.7252   0.5797   2.2935  -0.2965   0.6196  -0.9176 3585.00    0.0
2018/11/10 00:59:45.000  -74.393408890  163.452944808    95.2983   5  10   0.7247   0.5789   2.2863  -0.2945   0.6138  -0.9148 3600.00    0.0
2018/11/10 01:00:00.000  -74.393409159  163.452947900    96.4899   5  10   0.7244   0.5782   2.2794  -0.2927   0.6082  -0.9120 3615.00    0.0
2018/11/10 01:00:15.000  -74.393407778  163.452940098    95.0448   5  10   0.7241   0.5776   2.2729  -0.2908   0.6026  -0.9094 3630.00    0.0
2018/11/10 01:00:30.000  -74.393410132  163.452941935    96.0870   5  10   0.7239   0.5771   2.2669  -0.2890   0.5970  -0.9069 3645.00    0.0
2018/11/10 01:00:45.000  -74.393407308  163.452952859    95.8514   5  10   0.7238   0.5766   2.2613  -0.2873   0.5915  -0.9045 3660.00    0.0
2018/11/10 01:01:00.000  -74.393407942  163.452945775    95.7316   5  10   0.7237   0.5762   2.2561  -0.2855   0.5861  -0.9022 3675.00    0.0
2018/11/10 01:01:15.000  -74.393407653  163.452944760    94.8964   5  10   0.7238   0.5759   2.2512  -0.2838   0.5807  -0.9001 3690.00    0.0
2018/11/10 01:01:30.000  -74.393414002  163.452950824    95.7079   5  10   0.7239   0.5757   2.2467  -0.2821   0.5753  -0.8980 3705.00    0.0
2018/11/10 01:01:45.000  -74.393406902  163.452940456    94.7199   5  10   0.7240   0.5755   2.2426  -0.2805   0.5700  -0.8960 3720.00    0.0
2018/11/10 01:02:00.000  -74.393409029  163.452946184    95.5105   5  10   0.7243   0.5755   2.2389  -0.2789   0.5647  -0.8942 3735.00    0.0
2018/11/10 01:02:15.000  -74.393408029  163.452937372    95.7140   5  10   0.7246   0.5755   2.2355  -0.2773   0.5595  -0.8924 3750.00    0.0
2018/11/10 01:02:30.000  -74.393408735  163.452933580    95.2369   5  10   0.7250   0.5755   2.2325  -0.2758   0.5542  -0.8908 3765.00    0.0
2018/11/10 01:02:45.000  -74.393408555  163.452937828    94.7738   5  10   0.7241   0.5744   2.2230  -0.2736   0.5478  -0.8873 3780.00    0.0
2018/11/10 01:03:00.000  -74.393410772  163.452938891    94.8794   5  10   0.7232   0.5734   2.2137  -0.2714   0.5414  -0.8839 3795.00    0.0
2018/11/10 01:03:15.000  -74.393411882  163.452936807    95.8594   5  10   0.7225   0.5724   2.2049  -0.2693   0.5350  -0.8806 3810.00    0.0
2018/11/10 01:03:30.000  -74.393408413  163.452935138    95.5296   5  10   0.7218   0.5715   2.1964  -0.2672   0.5287  -0.8774 3825.00    0.0
2018/11/10 01:03:45.000  -74.393409028  163.452937260    95.3509   5  10   0.7212   0.5706   2.1884  -0.2652   0.5225  -0.8744 3840.00    0.0
2018/11/10 01:04:00.000  -74.393408258  163.452933260    95.5143   5  10   0.7207   0.5699   2.1808  -0.2631   0.5162  -0.8714 3855.00    0.0
2018/11/10 01:04:15.000  -74.393409250  163.452944048    95.5631   5  10   0.7202   0.5692   2.1735  -0.2612   0.5101  -0.8686 3870.00    0.0
2018/11/10 01:04:30.000  -74.393407910  163.452942508    95.3485   5  10   0.7199   0.5686   2.1666  -0.2592   0.5039  -0.8659 3885.00    0.0
2018/11/10 01:04:45.000  -74.393412922  163.452934478    97.0288   5  10   0.7196   0.5681   2.1602  -0.2573   0.4978  -0.8633 3900.00    0.0
2018/11/10 01:05:00.000  -74.393408885  163.452935141    96.3811   5  10   0.7193   0.5676   2.1541  -0.2554   0.4918  -0.8608 3915.00    0.0
2018/11/10 01:05:15.000  -74.393408409  163.452932952    95.6359   5  10   0.7192   0.5673   2.1485  -0.2536   0.4857  -0.8585 3930.00    0.0
2018/11/10 01:05:30.000  -74.393407892  163.452934038    95.4885   5  10   0.7191   0.5670   2.1433  -0.2517   0.4797  -0.8563 3945.00    0.0
2018/11/10 01:05:45.000  -74.393410345  163.452937127    96.0748   5  11   0.6197   0.5495   1.7942  -0.1083   0.2501  -0.5523 3960.00    0.0
2018/11/10 01:06:00.000  -74.393408734  163.452937596    95.5204   5  11   0.6199   0.5496   1.7932  -0.1062   0.2430  -0.5515 3975.00    0.0
2018/11/10 01:06:15.000  -74.393406749  163.452933964    95.4957   5  11   0.6202   0.5498   1.7925  -0.1040   0.2356  -0.5508 3990.00    0.0
2018/11/10 01:06:30.000  -74.393408280  163.452940899    95.3923   5  11   0.6205   0.5501   1.7920  -0.1017   0.2280  -0.5502 4005.00    0.0
2018/11/10 01:06:45.000  -74.393406793  163.452934948    95.4473   5  11   0.6209   0.5504   1.7919  -0.0994   0.2201  -0.5496 4020.00    0.0
2018/11/10 01:07:00.000  -74.393409119  163.452946099    94.6108   5  11   0.6213   0.5508   1.7921  -0.0971   0.2118  -0.5490 4035.00    0.0
2018/11/10 01:07:15.000  -74.393407798  163.452940769    95.0741   5  11   0.6218   0.5513   1.7925  -0.0947   0.2032  -0.5485 4050.00    0.0
2018/11/10 01:07:30.000  -74.393408199  163.452937806    94.5161   5  11   0.6223   0.5518   1.7933  -0.0923   0.1941  -0.5480 4065.00    0.0
2018/11/10 01:07:45.000  -74.393406755  163.452938581    95.7284   5  11   0.6219   0.5513   1.7888  -0.0898   0.1854  -0.5471 4080.00    0.0
2018/11/10 01:08:00.000  -74.393410499  163.452940157    95.6773   5  11   0.6215   0.5508   1.7847  -0.0871   0.1762  -0.5462 4095.00    0.0
2018/11/10 01:08:15.000  -74.393407649  163.452943769    94.8728   5  11   0.6212   0.5503   1.7809  -0.0843   0.1665  -0.5453 4110.00    0.0
2018/11/10 01:08:30.000  -74.393407425  163.452939334    95.4040   5  11   0.6210   0.5499   1.7774  -0.0814   0.1561  -0.5444 4125.00    0.0
2018/11/10 01:08:45.000  -74.393409112  163.452942711    95.9217   5  11   0.6208   0.5496   1.7742  -0.0785   0.1451  -0.5436 4140.00    0.0
2018/11/10 01:09:00.000  -74.393407483  163.452944329    95.1829   5  11   0.6206   0.5493   1.7713  -0.0754   0.1331  -0.5429 4155.00    0.0
2018/11/10 01:09:15.000  -74.393409126  163.452939918    95.5610   5  11   0.6205   0.5491   1.7687  -0.0722   0.1199  -0.5421 4170.00    0.0
2018/11/10 01:09:30.000  -74.393410512  163.452951145    95.1344   5  11   0.6205   0.5490   1.7663  -0.0689   0.1049  -0.5414 4185.00    0.0
2018/11/10 01:09:45.000  -74.393408680  163.452935649    94.4801   5  12   0.6130   0.5263   1.6981  -0.1388  -0.2590  -0.5818 4200.00    0.0
2018/11/10 01:10:00.000  -74.393409982  163.452939865    95.1372   5  12   0.6130   0.5263   1.6975  -0.1376  -0.2641  -0.5812 4215.00    0.0
2018/11/10 01:10:15.000  -74.393407346  163.452941861    94.6793   5  12   0.6130   0.5264   1.6972  -0.1364  -0.2693  -0.5807 4230.00    0.0
2018/11/10 01:10:30.000  -74.393409445  163.452938504    95.1102   5  12   0.6130   0.5265   1.6972  -0.1352  -0.2745  -0.5802 4245.00    0.0
2018/11/10 01:10:45.000  -74.393409962  163.452937412    95.4388   5  12   0.6131   0.5267   1.6975  -0.1340  -0.2796  -0.5797 4260.00    0.0
2018/11/10 01:11:00.000  -74.393411882  163.452937624    94.7999   5  12   0.6133   0.5270   1.6981  -0.1328  -0.2848  -0.5794 4275.00    0.0
2018/11/10 01:11:15.000  -74.393411056  163.452936962    95.6713   5  12   0.6135   0.5274   1.6989  -0.1317  -0.2899  -0.5790 4290.00    0.0
2018/11/10 01:11:30.000  -74.393409741  163.452929852    95.8125   5  12   0.6137   0.5277   1.7001  -0.1305  -0.2951  -0.5787 4305.00    0.0
2018/11/10 01:11:45.000  -74.393409353  163.452933969    95.6917   5  12   0.6140   0.5282   1.7015  -0.1293  -0.3002  -0.5785 4320.00    0.0
2018/11/10 01:12:00.000  -74.393410566  163.452936000    95.5455   5  12   0.6144   0.5287   1.7032  -0.1282  -0.3054  -0.5782 4335.00    0.0
2018/11/10 01:12:15.000  -74.393412350  163.452936085    96.1385   5  12   0.6148   0.5293   1.7052  -0.1270  -0.3105  -0.5781 4350.00    0.0
2018/11/10 01:12:30.000  -74.393412180  163.452930890    95.4869   5  12   0.6153   0.5299   1.7074  -0.1258  -0.3157  -0.5780 4365.00    0.0
2018/11/10 01:12:45.000  -74.393410897  163.452932824    95.3127   5  12   0.6148   0.5295   1.7050  -0.1243  -0.3194  -0.5771 4380.00    0.0
2018/11/10 01:13:00.000  -74.393411009  163.452923446    95.9824   5  12   0.6144   0.5291   1.7026  -0.1228  -0.3229  -0.5763 4395.00    0.0
2018/11/10 01:13:15.000  -74.393410127  163.452925744    95.7551   5  12   0.6140   0.5288   1.7004  -0.1213  -0.3265  -0.5755 4410.00    0.0
2018/11/10 01:13:30.000  -74.393410937  163.452926213    95.5480   5  12   0.6137   0.5285   1.6985  -0.1199  -0.3301  -0.5748 4425.00    0.0
2018/11/10 01:13:45.000  -74.393411151  163.452928435    95.0924   5  12   0.6135   0.5283   1.6970  -0.1184  -0.3338  -0.5742 4440.00    0.0
2018/11/10 01:14:00.000  -74.393409130  163.452935394    95.3081   5  12   0.6133   0.5282   1.6956  -0.1170  -0.3374  -0.5735 4455.00    0.0
2018/11/10 01:14:15.000  -74.393413061  163.452932458    95.5769   5  12   0.6131   0.5281   1.6946  -0.1155  -0.3412  -0.5729 4470.00    0.0
2018/11/10 01:14:30.000  -74.393411604  163.452930928    95.0075   5  12   0.6130   0.5281   1.6938  -0.1140  -0.3449  -0.5724 4485.00    0.0
2018/11/10 01:14:45.000  -74.393411896  163.452929524    95.0032   5  12   0.6129   0.5282   1.6934  -0.1126  -0.3487  -0.5719 4500.00    0.0
2018/11/10 01:15:00.000  -74.393409634  163.452925478    95.8150   5  12   0.6129   0.5283   1.6932  -0.1111  -0.3525  -0.5715 4515.00    0.0
2018/11/10 01:15:15.000  -74.393409202  163.452928216    95.4811   5  12   0.6130   0.5285   1.6934  -0.1096  -0.3564  -0.5711 4530.00    0.0
2018/11/10 01:15:30.000  -74.393412488  163.452931222    95.4597   5  12   0.6131   0.5288   1.6938  -0.1082  -0.3603  -0.5708 4545.00    0.0
2018/11/10 01:15:45.000  -74.393410119  163.452920974    94.7712   5  12   0.6133   0.5291   1.6946  -0.1067  -0.3642  -0.5705 4560.00    0.0
2018/11/10 01:16:00.000  -74.393413144  163.452925744    95.2265   5  12   0.6135   0.5295   1.6956  -0.1052  -0.3682  -0.5703 4575.00    0.0
2018/11/10 01:16:15.000  -74.393409276  163.452924721    94.8654   5  12   0.6137   0.5299   1.6970  -0.1037  -0.3723  -0.5701 4590.00    0.0
2018/11/10 01:16:30.000  -74.393410023  163.452924095    94.7591   5  12   0.6140   0.5304   1.6986  -0.1023  -0.3764  -0.5699 4605.00    0.0
2018/11/10 01:16:45.000  -74.393409657  163.452922106    94.9827   5  12   0.6144   0.5310   1.7005  -0.1008  -0.3805  -0.5698 4620.00    0.0
2018/11/10 01:17:00.000  -74.393412510  163.452935207    95.0620   5  12   0.6148   0.5316   1.7027  -0.0993  -0.3847  -0.5698 4635.00    0.0
2018/11/10 01:17:15.000  -74.393410508  163.452921498    95.4809   5  12   0.6153   0.5323   1.7051  -0.0977  -0.3889  -0.5698 4650.00    0.0
2018/11/10 01:17:30.000  -74.393410377  163.452925623    95.0629   5  12   0.6158   0.5330   1.7079  -0.0962  -0.3932  -0.5698 4665.00    0.0
2018/11/10 01:17:45.000  -74.393409168  163.452920877    95.0269   5  12   0.6154   0.5327   1.7056  -0.0944  -0.3958  -0.5691 4680.00    0.0
2018/11/10 01:18:00.000  -74.393412369  163.452928405    95.2683   5  12   0.6150   0.5324   1.7035  -0.0926  -0.3986  -0.5685 4695.00    0.0
2018/11/10 01:18:15.000  -74.393410545  163.452923091    95.2175   5  12   0.6147   0.5322   1.7018  -0.0907  -0.4013  -0.5679 4710.00    0.0
2018/11/10 01:18:30.000  -74.393410579  163.452930751    95.8259   5  12   0.6145   0.5321   1.7003  -0.0887  -0.4042  -0.5673 4725.00    0.0
2018/11/10 01:18:45.000  -74.393411073  163.452933309    95.8250   5  12   0.6143   0.5320   1.6991  -0.0868  -0.4071  -0.5668 4740.00    0.0
2018/11/10 01:19:00.000  -74.393410038  163.452936695    95.3237   5  12   0.6141   0.5320   1.6982  -0.0848  -0.4100  -0.5663 4755.00    0.0
2018/11/10 01:19:15.000  -74.393410761  163.452934925    95.9019   5  12   0.6140   0.5320   1.6975  -0.0828  -0.4130  -0.5659 4770.00    0.0
2018/11/10 01:19:30.000  -74.393412505  163.452934596    95.2298   5  12   0.6140   0.5321   1.6972  -0.0808  -0.4161  -0.5655 4785.00    0.0
2018/11/10 01:19:45.000  -74.393411877  163.452935262    95.8131   5  12   0.6140   0.5323   1.6971  -0.0788  -0.4192  -0.5652 4800.00    0.0
2018/11/10 01:20:00.000  -74.393410350  163.452931757    95.6997   5  12   0.6140   0.5325   1.6974  -0.0767  -0.4223  -0.5649 4815.00    0.0
2018/11/10 01:20:15.000  -74.393409773  163.452931458    95.6402   5  12   0.6141   0.5328   1.6980  -0.0746  -0.4256  -0.5647 4830.00    0.0
2018/11/10 01:20:30.000  -74.393408761  163.452934153    95.1680   5  12   0.6143   0.5331   1.6989  -0.0724  -0.4289  -0.5645 4845.00    0.0
2018/11/10 01:20:45.000  -74.393412250  163.452932089    95.9676   5  12   0.6145   0.5336   1.7001  -0.0702  -0.4322  -0.5644 4860.00    0.0
2018/11/10 01:21:00.000  -74.393409391  163.452918721    95.0312   5  12   0.6148   0.5340   1.7015  -0.0680  -0.4356  -0.5644 4875.00    0.0
2018/11/10 01:21:15.000  -74.393409381  163.452932958    94.9362   5  12   0.6151   0.5346   1.7033  -0.0657  -0.4391  -0.5643 4890.00    0.0
2018/11/10 01:21:30.000  -74.393409143  163.452931899    94.8564   5  12   0.6154   0.5352   1.7053  -0.0633  -0.4426  -0.5643 4905.00    0.0
2018/11/10 01:21:45.000  -74.393411043  163.452936987    94.3605   5  12   0.6159   0.5358   1.7077  -0.0608  -0.4462  -0.5644 4920.00    0.0
2018/11/10 01:22:00.000  -74.393412593  163.452929874    95.6394   5  12   0.6163   0.5366   1.7103  -0.0583  -0.4498  -0.5645 4935.00    0.0
2018/11/10 01:22:15.000  -74.393411210  163.452931005    95.5520   5  12   0.6168   0.5373   1.7132  -0.0557  -0.4535  -0.5647 4950.00    0.0
2018/11/10 01:22:30.000  -74.393410385  163.452926258    96.4031   5  12   0.6174   0.5382   1.7164  -0.0529  -0.4572  -0.5649 4965.00    0.0
2018/11/10 01:22:45.000  -74.393410771  163.452935940    95.8192   5  12   0.6171   0.5379   1.7144  -0.0494  -0.4594  -0.5644 4980.00    0.0
2018/11/10 01:23:00.000  -74.393410808  163.452934182    95.8998   5  12   0.6168   0.5378   1.7127  -0.0458  -0.4617  -0.5639 4995.00    0.0
2018/11/10 01:23:15.000  -74.393410241  163.452938837    95.0272   5  12   0.6165   0.5376   1.7114  -0.0419  -0.4640  -0.5635 5010.00    0.0
2018/11/10 01:23:30.000  -74.393413389  163.452941976    95.8812   5  12   0.6163   0.5376   1.7103  -0.0377  -0.4664  -0.5631 5025.00    0.0
2018/11/10 01:23:45.000  -74.393411638  163.452935144    95.5613   5  12   0.6162   0.5376   1.7095  -0.0329  -0.4688  -0.5627 5040.00    0.0
2018/11/10 01:24:00.000  -74.393409911  163.452931539    96.0733   5  12   0.6161   0.5377   1.7090  -0.0274  -0.4713  -0.5624 5055.00    0.0
2018/11/10 01:24:15.000  -74.393409993  163.452923743    95.5662   5  12   0.6160   0.5378   1.7088  -0.0206  -0.4739  -0.5622 5070.00    0.0
2018/11/10 01:24:30.000  -74.393411419  163.452925873    96.1545   5  12   0.6160   0.5380   1.7089  -0.0098  -0.4765  -0.5620 5085.00    0.0
2018/11/10 01:24:45.000  -74.393410269  163.452930040    95.7809   5  12   0.6161   0.5382   1.7093   0.0151  -0.4792  -0.5619 5100.00    0.0
2018/11/10 01:25:00.000  -74.393410558  163.452931725    95.3329   5  12   0.6162   0.5385   1.7099   0.0235  -0.4819  -0.5618 5115.00    0.0
2018/11/10 01:25:15.000  -74.393412796  163.452936783    95.1322   5  12   0.6164   0.5389   1.7109   0.0295  -0.4848  -0.5617 5130.00    0.0
2018/11/10 01:25:30.000  -74.393410470  163.452929938    95.2808   5  12   0.6166   0.5393   1.7122   0.0345  -0.4876  -0.5617 5145.00    0.0
2018/11/10 01:25:45.000  -74.393413878  163.452941887    94.4468   5  12   0.6169   0.5398   1.7137   0.0389  -0.4906  -0.5618 5160.00    0.0
2018/11/10 01:26:00.000  -74.393409298  163.452931819    95.0314   5  12   0.6172   0.5404   1.7156   0.0427  -0.4936  -0.5619 5175.00    0.0
2018/11/10 01:26:15.000  -74.393410530  163.452936771    95.0827   5  12   0.6175   0.5410   1.7177   0.0462  -0.4967  -0.5620 5190.00    0.0
2018/11/10 01:26:30.000  -74.393410444  163.452937453    94.8606   5  12   0.6180   0.5417   1.7201   0.0495  -0.4998  -0.5622 5205.00    0.0
2018/11/10 01:26:45.000  -74.393410682  163.452930529    94.7711   5  12   0.6184   0.5425   1.7228   0.0525  -0.5030  -0.5624 5220.00    0.0
2018/11/10 01:27:00.000  -74.393410597  163.452946521    94.4583   5  12   0.6190   0.5433   1.7257   0.0554  -0.5063  -0.5627 5235.00    0.0
2018/11/10 01:27:15.000  -74.393409878  163.452932990    95.2610   5  12   0.6195   0.5441   1.7290   0.0581  -0.5096  -0.5630 5250.00    0.0
2018/11/10 01:27:30.000  -74.393411467  163.452936675    94.9509   5  12   0.6202   0.5450   1.7325   0.0607  -0.5130  -0.5634 5265.00    0.0
2018/11/10 01:27:45.000  -74.393408493  163.452933263    95.1807   5  12   0.6199   0.5449   1.7310   0.0633  -0.5149  -0.5631 5280.00    0.0
2018/11/10 01:28:00.000  -74.393409967  163.452933796    95.8079   5  12   0.6196   0.5448   1.7298   0.0660  -0.5168  -0.5628 5295.00    0.0
2018/11/10 01:28:15.000  -74.393411503  163.452935735    95.5395   5  12   0.6194   0.5447   1.7288   0.0685  -0.5188  -0.5626 5310.00    0.0
2018/11/10 01:28:30.000  -74.393411952  163.452939634    95.5025   5  12   0.6193   0.5448   1.7281   0.0709  -0.5208  -0.5624 5325.00    0.0
2018/11/10 01:28:45.000  -74.393413026  163.452929090    95.7022   5  12   0.6192   0.5448   1.7277   0.0733  -0.5229  -0.5622 5340.00    0.0
2018/11/10 01:29:00.000  -74.393411284  163.452930539    95.3235   5  12   0.6192   0.5450   1.7276   0.0755  -0.5251  -0.5621 5355.00    0.0
2018/11/10 01:29:15.000  -74.393409812  163.452930516    94.9427   5  12   0.6192   0.5452   1.7277   0.0777  -0.5274  -0.5620 5370.00    0.0
2018/11/10 01:29:30.000  -74.393409765  163.452935344    94.7787   5  12   0.6192   0.5454   1.7282   0.0798  -0.5297  -0.5620 5385.00    0.0
2018/11/10 01:29:45.000  -74.393410641  163.452929501    94.8347   5  12   0.6193   0.5457   1.7289   0.0818  -0.5320  -0.5621 5400.00    0.0
2018/11/10 01:30:00.000  -74.393411284  163.452938274    94.4888   5  12   0.6195   0.5461   1.7299   0.0838  -0.5345  -0.5621 5415.00    0.0
2018/11/10 01:30:15.000  -74.393410865  163.452927034    94.9038   5  12   0.6197   0.5465   1.7312   0.0857  -0.5370  -0.5623 5430.00    0.0
2018/11/10 01:30:30.000  -74.393412297  163.452936514    94.2379   5  12   0.6200   0.5470   1.7328   0.0876  -0.5396  -0.5625 5445.00    0.0
2018/11/10 01:30:45.000  -74.393410664  163.452938825    94.3469   5  12   0.6203   0.5476   1.7347   0.0894  -0.5422  -0.5627 5460.00    0.0
2018/11/10 01:31:00.000  -74.393412304  163.452925946    95.3410   5  12   0.6207   0.5482   1.7368   0.0911  -0.5449  -0.5629 5475.00    0.0
2018/11/10 01:31:15.000  -74.393410939  163.452932206    93.9538   5  12   0.6211   0.5489   1.7392   0.0929  -0.5477  -0.5633 5490.00    0.0
2018/11/10 01:31:30.000  -74.393410035  163.452935915    94.4622   5  12   0.6216   0.5497   1.7419   0.0946  -0.5505  -0.5636 5505.00    0.0
2018/11/10 01:31:45.000  -74.393409018  163.452939483    93.7882   5  12   0.6222   0.5505   1.7448   0.0962  -0.5534  -0.5640 5520.00    0.0
2018/11/10 01:32:00.000  -74.393411226  163.452934527    94.9552   5  12   0.6227   0.5513   1.7480   0.0978  -0.5564  -0.5645 5535.00    0.0
2018/11/10 01:32:15.000  -74.393408163  163.452940373    94.7774   5  12   0.6234   0.5522   1.7515   0.0994  -0.5594  -0.5649 5550.00    0.0
2018/11/10 01:32:30.000  -74.393414923  163.452934757    94.8391   5  12   0.6241   0.5532   1.7552   0.1010  -0.5624  -0.5655 5565.00    0.0
2018/11/10 01:32:45.000  -74.393410565  163.452937847    94.2779   5  12   0.6238   0.5531   1.7541   0.1027  -0.5641  -0.5653 5580.00    0.0
2018/11/10 01:33:00.000  -74.393410519  163.452931761    94.3520   5  12   0.6236   0.5530   1.7532   0.1044  -0.5657  -0.5652 5595.00    0.0
2018/11/10 01:33:15.000  -74.393410156  163.452933506    93.9977   5  12   0.6235   0.5530   1.7526   0.1060  -0.5674  -0.5651 5610.00    0.0
2018/11/10 01:33:30.000  -74.393408552  163.452934952    95.0482   5  12   0.6234   0.5531   1.7522   0.1076  -0.5692  -0.5651 5625.00    0.0
2018/11/10 01:33:45.000  -74.393409400  163.452946708    93.8605   5  12   0.6234   0.5532   1.7521   0.1091  -0.5710  -0.5652 5640.00    0.0
2018/11/10 01:34:00.000  -74.393411589  163.452939582    95.0808   5  12   0.6234   0.5534   1.7523   0.1106  -0.5729  -0.5653 5655.00    0.0
2018/11/10 01:34:15.000  -74.393411865  163.452929680    95.3756   5  12   0.6234   0.5536   1.7528   0.1121  -0.5749  -0.5654 5670.00    0.0
2018/11/10 01:34:30.000  -74.393411729  163.452943369    94.8889   5  12   0.6236   0.5539   1.7535   0.1136  -0.5769  -0.5656 5685.00    0.0
2018/11/10 01:34:45.000  -74.393410013  163.452943068    94.3446   5  12   0.6237   0.5543   1.7545   0.1151  -0.5790  -0.5658 5700.00    0.0
2018/11/10 01:35:00.000  -74.393412098  163.452945496    93.8887   5  12   0.6240   0.5547   1.7557   0.1165  -0.5811  -0.5660 5715.00    0.0
2018/11/10 01:35:15.000  -74.393411083  163.452934533    94.9164   5  12   0.6242   0.5552   1.7573   0.1179  -0.5834  -0.5663 5730.00    0.0
2018/11/10 01:35:30.000  -74.393411433  163.452931988    94.5585   5  12   0.6246   0.5557   1.7591   0.1193  -0.5857  -0.5667 5745.00    0.0
2018/11/10 01:35:45.000  -74.393410655  163.452948878    93.7996   5  12   0.6250   0.5563   1.7611   0.1207  -0.5880  -0.5671 5760.00    0.0
2018/11/10 01:36:00.000  -74.393409969  163.452931609    94.5780   5  12   0.6254   0.5570   1.7635   0.1220  -0.5904  -0.5675 5775.00    0.0
2018/11/10 01:36:15.000  -74.393411223  163.452945443    94.0168   5  12   0.6259   0.5577   1.7660   0.1233  -0.5929  -0.5679 5790.00    0.0
2018/11/10 01:36:30.000  -74.393412694  163.452940215    95.0726   5  12   0.6264   0.5585   1.7688   0.1246  -0.5954  -0.5684 5805.00    0.0
2018/11/10 01:36:45.000  -74.393412398  163.452940515    94.8107   5  12   0.6270   0.5593   1.7719   0.1259  -0.5980  -0.5690 5820.00    0.0
2018/11/10 01:37:00.000  -74.393410607  163.452941929    94.5287   5  12   0.6277   0.5602   1.7751   0.1272  -0.6006  -0.5696 5835.00    0.0
2018/11/10 01:37:15.000  -74.393410518  163.452940420    94.4308   5  12   0.6284   0.5611   1.7786   0.1284  -0.6033  -0.5702 5850.00    0.0
2018/11/10 01:37:30.000  -74.393411119  163.452932044    95.2329   5  12   0.6291   0.5621   1.7824   0.1297  -0.6060  -0.5708 5865.00    0.0
2018/11/10 01:37:45.000  -74.393409825  163.452936839    94.2860   5  12   0.6290   0.5620   1.7815   0.1310  -0.6073  -0.5709 5880.00    0.0
2018/11/10 01:38:00.000  -74.393412112  163.452929662    94.4415   5  12   0.6288   0.5620   1.7809   0.1323  -0.6087  -0.5710 5895.00    0.0
2018/11/10 01:38:15.000  -74.393411167  163.452931758    94.7899   5  12   0.6288   0.5620   1.7806   0.1336  -0.6102  -0.5712 5910.00    0.0
2018/11/10 01:38:30.000  -74.393411477  163.452933041    94.5212   5  12   0.6287   0.5621   1.7805   0.1348  -0.6117  -0.5713 5925.00    0.0
2018/11/10 01:38:45.000  -74.393411998  163.452936393    94.9737   5  12   0.6287   0.5622   1.7806   0.1361  -0.6132  -0.5716 5940.00    0.0
2018/11/10 01:39:00.000  -74.393410323  163.452931406    94.9842   5  12   0.6288   0.5624   1.7810   0.1374  -0.6148  -0.5718 5955.00    0.0
2018/11/10 01:39:15.000  -74.393410211  163.452930754    95.2793   5  12   0.6289   0.5627   1.7817   0.1386  -0.6165  -0.5721 5970.00    0.0
2018/11/10 01:39:30.000  -74.393413045  163.452932220    95.1770   5  11   0.6603   0.5667   1.8186   0.1805  -0.5990  -0.5054 5985.00    0.0
2018/11/10 01:39:45.000  -74.393410960  163.452940686    94.6372   5  11   0.6604   0.5670   1.8200   0.1812  -0.6009  -0.5057 6000.00    0.0
2018/11/10 01:40:00.000  -74.393414090  163.452929824    95.0691   5  11   0.6605   0.5674   1.8217   0.1819  -0.6028  -0.5060 6015.00    0.0
2018/11/10 01:40:15.000  -74.393411752  163.452943869    94.0501   5  11   0.6607   0.5679   1.8236   0.1826  -0.6047  -0.5064 6030.00    0.0
2018/11/10 01:40:30.000  -74.393412858  163.452945726    94.8903   5  11   0.6609   0.5684   1.8259   0.1833  -0.6067  -0.5068 6045.00    0.0
2018/11/10 01:40:45.000  -74.393411685  163.452928537    95.1807   5  11   0.6612   0.5690   1.8283   0.1840  -0.6087  -0.5072 6060.00    0.0
2018/11/10 01:41:00.000  -74.393412343  163.452937122    94.6432   5  11   0.6616   0.5696   1.8310   0.1847  -0.6108  -0.5076 6075.00    0.0
2018/11/10 01:41:15.000  -74.393413355  163.452942847    93.8684   5  11   0.6620   0.5703   1.8339   0.1854  -0.6130  -0.5080 6090.00    0.0
2018/11/10 01:41:30.000  -74.393412134  163.452946612    94.2367   5  10   0.6737   0.6298   2.0895   0.0458  -0.8018  -0.3695 6105.00    0.0
2018/11/10 01:41:45.000  -74.393412289  163.452947401    93.8512   5  10   0.6741   0.6309   2.0958   0.0488  -0.8053  -0.3698 6120.00    0.0
2018/11/10 01:42:00.000  -74.393412285  163.452944779    93.8144   5  10   0.6746   0.6322   2.1025   0.0515  -0.8090  -0.3700 6135.00    0.0
2018/11/10 01:42:15.000  -74.393411306  163.452951839    93.1779   5  10   0.6752   0.6335   2.1094   0.0539  -0.8127  -0.3701 6150.00    0.0
2018/11/10 01:42:30.000  -74.393411543  163.452946221    93.2585   5   9   0.7771   0.6879   2.6480   0.3237  -1.0432  -0.8646 6165.00    0.0
2018/11/10 01:42:45.000  -74.393412447  163.452949120    93.0597   5   9   0.7767   0.6887   2.6549   0.3258  -1.0473  -0.8675 6180.00    0.0
2018/11/10 01:43:00.000  -74.393412425  163.452947549    93.6236   5   9   0.7764   0.6896   2.6622   0.3278  -1.0515  -0.8704 6195.00    0.0
2018/11/10 01:43:15.000  -74.393410356  163.452960708    92.2118   5   9   0.7761   0.6906   2.6700   0.3299  -1.0559  -0.8735 6210.00    0.0
2018/11/10 01:43:30.000  -74.393411511  163.452948501    93.6859   5   9   0.7760   0.6916   2.6783   0.3321  -1.0604  -0.8767 6225.00    0.0
