% program   : RTKLIB ver.2.4.3
% inp file  : _by_type/_obs/shirase/20181110.18o
% inp file  : _by_type/_obs/base/20181110.18o
% inp file  : _by_type/_sp3+clk/igs20266.clk
% inp file  : _by_type/_sp3+clk/igs20266.sp3
% inp file  : _by_type/_nav/shirase/20181110.18n
% obs start : 2018/11/10 00:00:00.0 GPST (week2026 518400.0s)
% obs end   : 2018/11/10 23:59:45.0 GPST (week2026 604785.0s)
% pos mode  : dgps
% freqs     : L1+L2
% solution  : combined
% elev mask : 15.0 deg
% dynamics  : off
% tidecorr  : off
% ionos opt : iono-free
% tropo opt : est ztd+grad
% ephemeris : precise
% navi sys  : gps glonass
% antenna1  :                       ( 0.0000  0.0000  0.0000)
% antenna2  :                       ( 0.0000  0.0000  0.0000)
% ref pos   : 90.000000000   0.000000000-6335367.6285
%
% (lat/lon/height=WGS84/ellipsoidal,Q=1:fix,2:float,3:sbas,4:dgps,5:single,6:ppp,ns=# of satellites)
%  GPST                  latitude(deg) longitude(deg)  height(m)   Q  ns   sdn(m)   sde(m)   sdu(m)  sdne(m)  sdeu(m)  sdun(m) age(s)  ratio
2018/11/10 00:00:00.000  -74.525922024  163.457848799    26.3679   5  10   0.6506   0.6084   2.0850  -0.2569   0.6600  -0.6720   0.00    0.0
2018/11/10 00:00:15.000  -74.525919297  163.457844680    25.7209   5  10   0.6507   0.6088   2.0913  -0.2578   0.6636  -0.6740   0.00    0.0
2018/11/10 00:00:30.000  -74.525921797  163.457842839    25.4735   5  10   0.6508   0.6093   2.0979  -0.2588   0.6673  -0.6761   0.00    0.0
2018/11/10 00:00:45.000  -74.525920346  163.457845871    25.1367   5  10   0.6511   0.6099   2.1048  -0.2599   0.6712  -0.6784   0.00    0.0
2018/11/10 00:01:00.000  -74.525922448  163.457845706    26.7534   5  10   0.6514   0.6106   2.1120  -0.2610   0.6752  -0.6807   0.00    0.0
2018/11/10 00:01:15.000  -74.525924228  163.457847934    26.8629   5  10   0.6518   0.6114   2.1195  -0.2621   0.6794  -0.6831   0.00    0.0
2018/11/10 00:01:30.000  -74.525921074  163.457848906    26.8547   5  10   0.6522   0.6122   2.1273  -0.2634   0.6837  -0.6856   0.00    0.0
2018/11/10 00:01:45.000  -74.525922166  163.457853317    26.8523   5  10   0.6528   0.6132   2.1354  -0.2647   0.6881  -0.6882   0.00    0.0
2018/11/10 00:02:00.000  -74.525920483  163.457845471    26.4870   5  10   0.6534   0.6142   2.1438  -0.2660   0.6926  -0.6909   0.00    0.0
2018/11/10 00:02:15.000  -74.525925152  163.457848236    27.4386   5  10   0.6541   0.6153   2.1526  -0.2674   0.6973  -0.6937   0.00    0.0
2018/11/10 00:02:30.000  -74.525921252  163.457847836    26.4693   5  10   0.6548   0.6166   2.1616  -0.2689   0.7021  -0.6967   0.00    0.0
2018/11/10 00:02:45.000  -74.525921828  163.457838962    26.2815   5  10   0.6543   0.6161   2.1656  -0.2694   0.7046  -0.6982   0.00    0.0
2018/11/10 00:03:00.000  -74.525922540  163.457845625    26.7967   5  10   0.6538   0.6158   2.1698  -0.2699   0.7072  -0.6998   0.00    0.0
2018/11/10 00:03:15.000  -74.525924349  163.457845687    26.6042   5  10   0.6535   0.6156   2.1742  -0.2705   0.7099  -0.7016   0.00    0.0
2018/11/10 00:03:30.000  -74.525922798  163.457847531    26.4270   5  10   0.6532   0.6155   2.1790  -0.2711   0.7127  -0.7034   0.00    0.0
2018/11/10 00:03:45.000  -74.525924368  163.457850332    27.0410   5  10   0.6529   0.6154   2.1840  -0.2718   0.7157  -0.7053   0.00    0.0
2018/11/10 00:04:00.000  -74.525924148  163.457850531    26.1924   5  10   0.6528   0.6155   2.1893  -0.2726   0.7187  -0.7073   0.00    0.0
2018/11/10 00:04:15.000  -74.525922835  163.457848154    25.6156   5  10   0.6527   0.6156   2.1949  -0.2734   0.7219  -0.7093   0.00    0.0
2018/11/10 00:04:30.000  -74.525921474  163.457845274    25.9325   5  10   0.6527   0.6159   2.2008  -0.2743   0.7253  -0.7115   0.00    0.0
2018/11/10 00:04:45.000  -74.525922696  163.457851783    25.7111   5  10   0.6527   0.6162   2.2070  -0.2753   0.7287  -0.7138   0.00    0.0
2018/11/10 00:05:00.000  -74.525923863  163.457849857    26.4267   5  10   0.6529   0.6166   2.2134  -0.2763   0.7323  -0.7162   0.00    0.0
2018/11/10 00:05:15.000  -74.525922204  163.457848083    26.4489   5  10   0.6532   0.6171   2.2204  -0.2774   0.7361  -0.7187   0.00    0.0
2018/11/10 00:05:30.000  -74.525922207  163.457848371    27.2559   5  10   0.6535   0.6178   2.2276  -0.2785   0.7400  -0.7213   0.00    0.0
2018/11/10 00:05:45.000  -74.525923750  163.457850904    26.8905   5  10   0.6539   0.6185   2.2351  -0.2798   0.7440  -0.7240   0.00    0.0
2018/11/10 00:06:00.000  -74.525926091  163.457855929    27.4506   5  10   0.6544   0.6193   2.2429  -0.2810   0.7482  -0.7268   0.00    0.0
2018/11/10 00:06:15.000  -74.525922017  163.457855550    26.2581   5  10   0.6549   0.6202   2.2511  -0.2824   0.7525  -0.7297   0.00    0.0
2018/11/10 00:06:30.000  -74.525923010  163.457858072    26.0490   5  10   0.6556   0.6213   2.2595  -0.2838   0.7569  -0.7327   0.00    0.0
2018/11/10 00:06:45.000  -74.525920751  163.457852281    27.1592   5  10   0.6563   0.6224   2.2683  -0.2853   0.7615  -0.7358   0.00    0.0
2018/11/10 00:07:00.000  -74.525922830  163.457852805    26.6098   5  10   0.6571   0.6236   2.2773  -0.2868   0.7662  -0.7390   0.00    0.0
2018/11/10 00:07:15.000  -74.525923043  163.457849480    26.3049   5  10   0.6580   0.6248   2.2867  -0.2885   0.7710  -0.7423   0.00    0.0
2018/11/10 00:07:30.000  -74.525923877  163.457854334    26.5078   5  10   0.6589   0.6262   2.2964  -0.2901   0.7760  -0.7457   0.00    0.0
2018/11/10 00:07:45.000  -74.525921633  163.457846652    25.8550   5  10   0.6585   0.6259   2.3005  -0.2907   0.7785  -0.7476   0.00    0.0
2018/11/10 00:08:00.000  -74.525920898  163.457840736    24.6691   5  10   0.6582   0.6257   2.3049  -0.2914   0.7810  -0.7495   0.00    0.0
2018/11/10 00:08:15.000  -74.525922298  163.457843016    25.5757   5  10   0.6580   0.6256   2.3095  -0.2921   0.7837  -0.7516   0.00    0.0
2018/11/10 00:08:30.000  -74.525921823  163.457853751    26.5794   5  10   0.6579   0.6256   2.3145  -0.2929   0.7865  -0.7537   0.00    0.0
2018/11/10 00:08:45.000  -74.525920911  163.457853418    26.3825   5  10   0.6578   0.6257   2.3198  -0.2937   0.7894  -0.7560   0.00    0.0
2018/11/10 00:09:00.000  -74.525920634  163.457847977    26.1079   5  10   0.6578   0.6258   2.3253  -0.2946   0.7925  -0.7583   0.00    0.0
2018/11/10 00:09:15.000  -74.525920888  163.457845376    25.6511   5  10   0.6579   0.6261   2.3311  -0.2956   0.7957  -0.7607   0.00    0.0
2018/11/10 00:09:30.000  -74.525924574  163.457848365    25.5494   5  10   0.6581   0.6264   2.3372  -0.2966   0.7989  -0.7632   0.00    0.0
2018/11/10 00:09:45.000  -74.525923539  163.457847715    25.2805   5  10   0.6583   0.6269   2.3436  -0.2977   0.8024  -0.7658   0.00    0.0
2018/11/10 00:10:00.000  -74.525922709  163.457848605    25.2677   5  10   0.6586   0.6274   2.3502  -0.2988   0.8059  -0.7685   0.00    0.0
2018/11/10 00:10:15.000  -74.525922532  163.457850332    25.4977   5  10   0.6590   0.6280   2.3573  -0.3001   0.8096  -0.7713   0.00    0.0
2018/11/10 00:10:30.000  -74.525921154  163.457846620    25.4358   5  10   0.6595   0.6288   2.3647  -0.3014   0.8135  -0.7743   0.00    0.0
2018/11/10 00:10:45.000  -74.525920056  163.457831036    24.2217   5  10   0.6601   0.6296   2.3724  -0.3027   0.8175  -0.7773   0.00    0.0
2018/11/10 00:11:00.000  -74.525921678  163.457844822    25.2315   5  10   0.6608   0.6305   2.3803  -0.3041   0.8216  -0.7804   0.00    0.0
2018/11/10 00:11:15.000  -74.525920066  163.457837488    25.2276   5  10   0.6615   0.6316   2.3885  -0.3056   0.8258  -0.7837   0.00    0.0
2018/11/10 00:11:30.000  -74.525923032  163.457843332    25.4277   5  10   0.6623   0.6327   2.3971  -0.3071   0.8301  -0.7870   0.00    0.0
2018/11/10 00:11:45.000  -74.525921313  163.457839252    25.2714   5  10   0.6632   0.6339   2.4059  -0.3087   0.8346  -0.7904   0.00    0.0
2018/11/10 00:12:00.000  -74.525922083  163.457849558    25.6487   5  10   0.6642   0.6352   2.4150  -0.3104   0.8392  -0.7939   0.00    0.0
2018/11/10 00:12:15.000  -74.525920808  163.457850483    26.7035   5  10   0.6652   0.6366   2.4243  -0.3121   0.8439  -0.7975   0.00    0.0
2018/11/10 00:12:30.000  -74.525919912  163.457835546    24.8861   5  10   0.6664   0.6380   2.4340  -0.3139   0.8487  -0.8012   0.00    0.0
2018/11/10 00:12:45.000  -74.525919879  163.457843559    25.3806   5  10   0.6662   0.6378   2.4378  -0.3146   0.8509  -0.8033   0.00    0.0
2018/11/10 00:13:00.000  -74.525919887  163.457834107    25.8904   5  10   0.6660   0.6377   2.4418  -0.3153   0.8532  -0.8054   0.00    0.0
2018/11/10 00:13:15.000  -74.525919851  163.457837892    24.9393   5  11   0.6530   0.6376   2.3497  -0.3146   0.8584  -0.8608   0.00    0.0
2018/11/10 00:13:30.000  -74.525922445  163.457850449    26.1745   5  11   0.6530   0.6376   2.3548  -0.3155   0.8608  -0.8629   0.00    0.0
2018/11/10 00:13:45.000  -74.525921527  163.457846169    25.1609   5  11   0.6530   0.6377   2.3601  -0.3164   0.8633  -0.8652   0.00    0.0
2018/11/10 00:14:00.000  -74.525923444  163.457846273    25.5756   5  11   0.6531   0.6379   2.3657  -0.3174   0.8659  -0.8675   0.00    0.0
2018/11/10 00:14:15.000  -74.525921436  163.457851073    25.7367   5  11   0.6533   0.6382   2.3715  -0.3184   0.8687  -0.8699   0.00    0.0
2018/11/10 00:14:30.000  -74.525923530  163.457855982    26.8421   5  11   0.6535   0.6385   2.3776  -0.3195   0.8715  -0.8724   0.00    0.0
2018/11/10 00:14:45.000  -74.525922079  163.457846153    25.3048   5  11   0.6538   0.6390   2.3840  -0.3207   0.8745  -0.8750   0.00    0.0
2018/11/10 00:15:00.000  -74.525921512  163.457850209    25.8606   5  11   0.6542   0.6395   2.3905  -0.3219   0.8775  -0.8777   0.00    0.0
2018/11/10 00:15:15.000  -74.525921040  163.457848444    25.7628   5  11   0.6547   0.6402   2.3975  -0.3231   0.8808  -0.8806   0.00    0.0
2018/11/10 00:15:30.000  -74.525920271  163.457849491    25.6899   5  11   0.6553   0.6410   2.4047  -0.3245   0.8841  -0.8835   0.00    0.0
2018/11/10 00:15:45.000  -74.525922734  163.457845192    25.8574   5  11   0.6559   0.6418   2.4122  -0.3259   0.8876  -0.8865   0.00    0.0
2018/11/10 00:16:00.000  -74.525920408  163.457836247    24.9801   5  11   0.6566   0.6428   2.4199  -0.3273   0.8912  -0.8896   0.00    0.0
2018/11/10 00:16:15.000  -74.525918492  163.457839924    24.5458   5  11   0.6574   0.6438   2.4279  -0.3288   0.8949  -0.8928   0.00    0.0
2018/11/10 00:16:30.000  -74.525921775  163.457845163    26.3266   5  11   0.6582   0.6449   2.4361  -0.3303   0.8987  -0.8961   0.00    0.0
2018/11/10 00:16:45.000  -74.525919594  163.457841944    24.8390   5  11   0.6591   0.6461   2.4446  -0.3319   0.9026  -0.8995   0.00    0.0
2018/11/10 00:17:00.000  -74.525922789  163.457848995    25.8271   5  11   0.6601   0.6473   2.4532  -0.3335   0.9066  -0.9030   0.00    0.0
2018/11/10 00:17:15.000  -74.525920678  163.457843771    24.9611   5  11   0.6612   0.6487   2.4622  -0.3352   0.9107  -0.9065   0.00    0.0
2018/11/10 00:17:30.000  -74.525923917  163.457853351    25.7938   5  11   0.6623   0.6501   2.4713  -0.3369   0.9149  -0.9102   0.00    0.0
2018/11/10 00:17:45.000  -74.525921947  163.457850349    25.2356   5  11   0.6621   0.6499   2.4747  -0.3375   0.9164  -0.9118   0.00    0.0
2018/11/10 00:18:00.000  -74.525921833  163.457848275    24.0280   5  11   0.6620   0.6497   2.4782  -0.3382   0.9179  -0.9136   0.00    0.0
2018/11/10 00:18:15.000  -74.525922288  163.457854332    25.3688   5  11   0.6620   0.6495   2.4820  -0.3388   0.9196  -0.9154   0.00    0.0
2018/11/10 00:18:30.000  -74.525922807  163.457848009    25.3433   5  11   0.6620   0.6495   2.4860  -0.3396   0.9213  -0.9173   0.00    0.0
2018/11/10 00:18:45.000  -74.525921306  163.457846890    25.2280   5  11   0.6621   0.6495   2.4902  -0.3404   0.9232  -0.9192   0.00    0.0
2018/11/10 00:19:00.000  -74.525922176  163.457845713    25.5633   5  11   0.6622   0.6496   2.4945  -0.3412   0.9251  -0.9213   0.00    0.0
2018/11/10 00:19:15.000  -74.525920597  163.457850405    24.8384   5  11   0.6625   0.6497   2.4991  -0.3420   0.9272  -0.9234   0.00    0.0
2018/11/10 00:19:30.000  -74.525921072  163.457843921    25.5281   5  11   0.6628   0.6500   2.5039  -0.3429   0.9293  -0.9256   0.00    0.0
2018/11/10 00:19:45.000  -74.525921559  163.457846866    25.8048   5  11   0.6631   0.6503   2.5089  -0.3439   0.9315  -0.9278   0.00    0.0
2018/11/10 00:20:00.000  -74.525921405  163.457842787    24.7414   5  11   0.6636   0.6507   2.5141  -0.3449   0.9338  -0.9301   0.00    0.0
2018/11/10 00:20:15.000  -74.525923649  163.457848706    25.3038   5  11   0.6641   0.6513   2.5196  -0.3459   0.9362  -0.9326   0.00    0.0
2018/11/10 00:20:30.000  -74.525919878  163.457851530    25.4627   5  11   0.6647   0.6519   2.5254  -0.3470   0.9387  -0.9351   0.00    0.0
2018/11/10 00:20:45.000  -74.525918875  163.457838764    24.4376   5  11   0.6654   0.6526   2.5313  -0.3482   0.9414  -0.9377   0.00    0.0
2018/11/10 00:21:00.000  -74.525920380  163.457842221    25.4976   5  11   0.6661   0.6534   2.5374  -0.3493   0.9440  -0.9404   0.00    0.0
2018/11/10 00:21:15.000  -74.525920886  163.457831511    24.6352   5  11   0.6669   0.6543   2.5437  -0.3505   0.9468  -0.9431   0.00    0.0
2018/11/10 00:21:30.000  -74.525918574  163.457839327    24.5915   5  11   0.6677   0.6552   2.5501  -0.3518   0.9496  -0.9459   0.00    0.0
2018/11/10 00:21:45.000  -74.525920144  163.457844869    25.1803   5  11   0.6687   0.6562   2.5567  -0.3531   0.9525  -0.9487   0.00    0.0
2018/11/10 00:22:00.000  -74.525918627  163.457843761    25.5774   5  11   0.6696   0.6573   2.5635  -0.3544   0.9555  -0.9516   0.00    0.0
2018/11/10 00:22:15.000  -74.525921195  163.457853023    25.8365   5  11   0.6707   0.6584   2.5705  -0.3557   0.9585  -0.9546   0.00    0.0
2018/11/10 00:22:30.000  -74.525918853  163.457850984    24.5393   5  11   0.6718   0.6596   2.5776  -0.3571   0.9616  -0.9576   0.00    0.0
2018/11/10 00:22:45.000  -74.525920083  163.457842813    25.6056   5  11   0.6716   0.6591   2.5788  -0.3573   0.9620  -0.9586   0.00    0.0
2018/11/10 00:23:00.000  -74.525918484  163.457842733    24.4463   5  11   0.6715   0.6586   2.5802  -0.3576   0.9624  -0.9597   0.00    0.0
2018/11/10 00:23:15.000  -74.525920884  163.457847725    25.2823   5  11   0.6714   0.6583   2.5817  -0.3580   0.9630  -0.9608   0.00    0.0
2018/11/10 00:23:30.000  -74.525920726  163.457837807    25.1794   5  11   0.6714   0.6580   2.5835  -0.3583   0.9636  -0.9620   0.00    0.0
2018/11/10 00:23:45.000  -74.525925051  163.457837512    27.0920   5  11   0.6715   0.6577   2.5853  -0.3588   0.9643  -0.9632   0.00    0.0
2018/11/10 00:24:00.000  -74.525921490  163.457843441    25.6228   5  11   0.6716   0.6576   2.5873  -0.3592   0.9650  -0.9645   0.00    0.0
2018/11/10 00:24:15.000  -74.525919688  163.457841327    24.7500   5  11   0.6718   0.6575   2.5895  -0.3597   0.9658  -0.9658   0.00    0.0
2018/11/10 00:24:30.000  -74.525921254  163.457835043    26.1210   5  11   0.6720   0.6575   2.5918  -0.3602   0.9667  -0.9672   0.00    0.0
2018/11/10 00:24:45.000  -74.525921520  163.457844685    25.1258   5  11   0.6723   0.6576   2.5942  -0.3607   0.9676  -0.9686   0.00    0.0
2018/11/10 00:25:00.000  -74.525918863  163.457843659    25.4253   5  11   0.6727   0.6577   2.5968  -0.3612   0.9685  -0.9701   0.00    0.0
2018/11/10 00:25:15.000  -74.525921692  163.457843820    24.6781   5  11   0.6731   0.6579   2.5997  -0.3618   0.9696  -0.9717   0.00    0.0
2018/11/10 00:25:30.000  -74.525920599  163.457837399    25.5579   5  11   0.6736   0.6582   2.6027  -0.3625   0.9708  -0.9733   0.00    0.0
2018/11/10 00:25:45.000  -74.525920891  163.457844470    25.3093   5  11   0.6742   0.6586   2.6058  -0.3631   0.9719  -0.9750   0.00    0.0
2018/11/10 00:26:00.000  -74.525919381  163.457837834    24.5989   5  11   0.6748   0.6591   2.6090  -0.3638   0.9732  -0.9767   0.00    0.0
2018/11/10 00:26:15.000  -74.525922086  163.457852623    25.8510   5  11   0.6755   0.6596   2.6124  -0.3645   0.9744  -0.9784   0.00    0.0
2018/11/10 00:26:30.000  -74.525922348  163.457854167    26.4280   5  11   0.6763   0.6601   2.6158  -0.3652   0.9757  -0.9802   0.00    0.0
2018/11/10 00:26:45.000  -74.525921076  163.457842468    25.7454   5  11   0.6771   0.6608   2.6194  -0.3659   0.9771  -0.9820   0.00    0.0
2018/11/10 00:27:00.000  -74.525921093  163.457839310    25.1971   5  11   0.6779   0.6615   2.6231  -0.3667   0.9784  -0.9838   0.00    0.0
2018/11/10 00:27:15.000  -74.525923412  163.457845660    25.9703   5  11   0.6788   0.6622   2.6269  -0.3674   0.9799  -0.9856   0.00    0.0
2018/11/10 00:27:30.000  -74.525919451  163.457844581    24.6555   5  11   0.6798   0.6631   2.6308  -0.3682   0.9813  -0.9875   0.00    0.0
2018/11/10 00:27:45.000  -74.525918404  163.457843441    24.4230   5  11   0.6795   0.6622   2.6289  -0.3680   0.9802  -0.9875   0.00    0.0
2018/11/10 00:28:00.000  -74.525918101  163.457837446    24.0231   5  11   0.6792   0.6614   2.6272  -0.3678   0.9791  -0.9875   0.00    0.0
2018/11/10 00:28:15.000  -74.525920979  163.457841191    24.8031   5  11   0.6790   0.6607   2.6256  -0.3676   0.9781  -0.9875   0.00    0.0
2018/11/10 00:28:30.000  -74.525920165  163.457840875    24.7953   5  11   0.6789   0.6600   2.6241  -0.3674   0.9772  -0.9876   0.00    0.0
2018/11/10 00:28:45.000  -74.525921169  163.457843092    25.4754   5  11   0.6788   0.6594   2.6227  -0.3673   0.9763  -0.9877   0.00    0.0
2018/11/10 00:29:00.000  -74.525917812  163.457839850    25.1180   5  11   0.6788   0.6589   2.6214  -0.3671   0.9754  -0.9879   0.00    0.0
2018/11/10 00:29:15.000  -74.525919802  163.457836196    24.5528   5  11   0.6788   0.6584   2.6203  -0.3670   0.9746  -0.9880   0.00    0.0
2018/11/10 00:29:30.000  -74.525921555  163.457828105    24.1001   5  11   0.6789   0.6580   2.6192  -0.3670   0.9738  -0.9882   0.00    0.0
2018/11/10 00:29:45.000  -74.525918620  163.457843822    25.0992   5  11   0.6790   0.6577   2.6183  -0.3669   0.9730  -0.9885   0.00    0.0
2018/11/10 00:30:00.000  -74.525919818  163.457840386    24.7736   5  11   0.6792   0.6575   2.6175  -0.3668   0.9723  -0.9888   0.00    0.0
2018/11/10 00:30:15.000  -74.525916438  163.457833872    23.2280   5  11   0.6795   0.6573   2.6169  -0.3668   0.9717  -0.9891   0.00    0.0
2018/11/10 00:30:30.000  -74.525919720  163.457842470    24.3548   5  11   0.6798   0.6572   2.6164  -0.3668   0.9710  -0.9894   0.00    0.0
2018/11/10 00:30:45.000  -74.525918779  163.457833646    23.0624   5  11   0.6802   0.6571   2.6160  -0.3668   0.9705  -0.9898   0.00    0.0
2018/11/10 00:31:00.000  -74.525917734  163.457833948    23.4008   5  11   0.6806   0.6572   2.6157  -0.3669   0.9699  -0.9902   0.00    0.0
2018/11/10 00:31:15.000  -74.525918441  163.457837133    24.1941   5  11   0.6811   0.6572   2.6155  -0.3669   0.9694  -0.9907   0.00    0.0
2018/11/10 00:31:30.000  -74.525919557  163.457826317    23.7450   5  11   0.6817   0.6574   2.6154  -0.3669   0.9689  -0.9911   0.00    0.0
2018/11/10 00:31:45.000  -74.525919391  163.457833218    24.7754   5  11   0.6823   0.6576   2.6154  -0.3670   0.9684  -0.9916   0.00    0.0
2018/11/10 00:32:00.000  -74.525920098  163.457833332    24.4260   5  11   0.6829   0.6578   2.6155  -0.3671   0.9680  -0.9921   0.00    0.0
2018/11/10 00:32:15.000  -74.525920320  163.457843013    25.3500   5  11   0.6836   0.6582   2.6157  -0.3672   0.9676  -0.9926   0.00    0.0
2018/11/10 00:32:30.000  -74.525919197  163.457835177    24.4312   5  11   0.6844   0.6585   2.6160  -0.3672   0.9671  -0.9932   0.00    0.0
2018/11/10 00:32:45.000  -74.525917386  163.457834301    23.4294   5  11   0.6839   0.6574   2.6108  -0.3664   0.9645  -0.9920   0.00    0.0
2018/11/10 00:33:00.000  -74.525919485  163.457841670    24.4710   5  11   0.6834   0.6562   2.6057  -0.3656   0.9618  -0.9907   0.00    0.0
2018/11/10 00:33:15.000  -74.525920099  163.457837747    24.2879   5  11   0.6831   0.6551   2.6008  -0.3648   0.9592  -0.9896   0.00    0.0
2018/11/10 00:33:30.000  -74.525918850  163.457839651    24.4743   5  11   0.6827   0.6541   2.5959  -0.3641   0.9566  -0.9884   0.00    0.0
2018/11/10 00:33:45.000  -74.525920887  163.457844519    24.4195   5  11   0.6825   0.6532   2.5912  -0.3633   0.9540  -0.9873   0.00    0.0
2018/11/10 00:34:00.000  -74.525918325  163.457842688    24.1580   5  11   0.6822   0.6523   2.5866  -0.3626   0.9515  -0.9862   0.00    0.0
2018/11/10 00:34:15.000  -74.525920707  163.457842378    24.6737   5  11   0.6821   0.6514   2.5821  -0.3619   0.9490  -0.9852   0.00    0.0
2018/11/10 00:34:30.000  -74.525920834  163.457841790    24.4251   5  11   0.6820   0.6507   2.5777  -0.3611   0.9466  -0.9841   0.00    0.0
2018/11/10 00:34:45.000  -74.525921083  163.457846581    24.5532   5  11   0.6819   0.6500   2.5735  -0.3605   0.9441  -0.9832   0.00    0.0
2018/11/10 00:35:00.000  -74.525920236  163.457830692    23.6173   5  11   0.6819   0.6493   2.5694  -0.3598   0.9418  -0.9822   0.00    0.0
2018/11/10 00:35:15.000  -74.525917668  163.457834958    24.1107   5  11   0.6820   0.6488   2.5656  -0.3591   0.9395  -0.9813   0.00    0.0
2018/11/10 00:35:30.000  -74.525916655  163.457832142    23.3294   5  11   0.6821   0.6483   2.5618  -0.3585   0.9372  -0.9804   0.00    0.0
2018/11/10 00:35:45.000  -74.525919446  163.457837506    24.1496   5  11   0.6823   0.6479   2.5582  -0.3579   0.9350  -0.9796   0.00    0.0
2018/11/10 00:36:00.000  -74.525918174  163.457834200    23.0830   5  11   0.6825   0.6476   2.5548  -0.3573   0.9328  -0.9788   0.00    0.0
2018/11/10 00:36:15.000  -74.525917073  163.457839445    22.8815   5  11   0.6828   0.6473   2.5514  -0.3567   0.9307  -0.9780   0.00    0.0
2018/11/10 00:36:30.000  -74.525917607  163.457841544    24.0496   5  11   0.6832   0.6471   2.5482  -0.3561   0.9286  -0.9773   0.00    0.0
2018/11/10 00:36:45.000  -74.525919885  163.457838298    24.2525   5  11   0.6836   0.6470   2.5451  -0.3555   0.9265  -0.9765   0.00    0.0
2018/11/10 00:37:00.000  -74.525919421  163.457832468    23.3399   5  11   0.6840   0.6469   2.5422  -0.3550   0.9244  -0.9758   0.00    0.0
2018/11/10 00:37:15.000  -74.525917853  163.457837905    23.4185   5  11   0.6845   0.6469   2.5394  -0.3544   0.9224  -0.9752   0.00    0.0
2018/11/10 00:37:30.000  -74.525920404  163.457839210    25.0412   5  11   0.6851   0.6469   2.5368  -0.3539   0.9204  -0.9745   0.00    0.0
2018/11/10 00:37:45.000  -74.525920516  163.457834823    24.4058   5  11   0.6844   0.6454   2.5289  -0.3525   0.9163  -0.9723   0.00    0.0
2018/11/10 00:38:00.000  -74.525912624  163.457834696    22.5344   5  10   0.9347   0.6772   3.5955  -0.5069   1.1704  -1.6045   0.00    0.0
2018/11/10 00:38:15.000  -74.525915844  163.457830093    22.8214   5  10   0.9333   0.6755   3.5840  -0.5047   1.1648  -1.6002   0.00    0.0
2018/11/10 00:38:30.000  -74.525916571  163.457843318    23.2071   5  10   0.9319   0.6738   3.5727  -0.5025   1.1593  -1.5960   0.00    0.0
2018/11/10 00:38:45.000  -74.525914075  163.457836948    22.5320   5  10   0.9305   0.6722   3.5615  -0.5003   1.1537  -1.5918   0.00    0.0
2018/11/10 00:39:00.000  -74.525913568  163.457835310    22.4648   5  10   0.9292   0.6706   3.5503  -0.4981   1.1482  -1.5876   0.00    0.0
2018/11/10 00:39:15.000  -74.525917175  163.457836795    23.3741   5  10   0.9280   0.6691   3.5393  -0.4959   1.1427  -1.5835   0.00    0.0
2018/11/10 00:39:30.000  -74.525919323  163.457845111    24.7643   5  10   0.9268   0.6677   3.5285  -0.4937   1.1372  -1.5794   0.00    0.0
2018/11/10 00:39:45.000  -74.525919536  163.457844941    24.6061   5  10   0.9257   0.6663   3.5177  -0.4915   1.1318  -1.5754   0.00    0.0
2018/11/10 00:40:00.000  -74.525919460  163.457833342    24.1676   5  10   0.9246   0.6650   3.5072  -0.4894   1.1264  -1.5715   0.00    0.0
2018/11/10 00:40:15.000  -74.525916929  163.457838766    24.1075   5  10   0.9237   0.6638   3.4970  -0.4872   1.1210  -1.5677   0.00    0.0
2018/11/10 00:40:30.000  -74.525918805  163.457849080    25.0789   5  10   0.9228   0.6627   3.4870  -0.4851   1.1157  -1.5639   0.00    0.0
2018/11/10 00:40:45.000  -74.525917376  163.457837501    24.6390   5  10   0.9220   0.6616   3.4771  -0.4830   1.1104  -1.5602   0.00    0.0
2018/11/10 00:41:00.000  -74.525915102  163.457840129    23.2433   5  10   0.9212   0.6606   3.4675  -0.4809   1.1052  -1.5566   0.00    0.0
2018/11/10 00:41:15.000  -74.525914360  163.457835890    22.6732   5  10   0.9205   0.6597   3.4581  -0.4788   1.1000  -1.5531   0.00    0.0
2018/11/10 00:41:30.000  -74.525914420  163.457835226    23.4767   5  10   0.9199   0.6588   3.4489  -0.4767   1.0948  -1.5497   0.00    0.0
2018/11/10 00:41:45.000  -74.525917132  163.457843925    23.9665   5  10   0.9194   0.6580   3.4399  -0.4746   1.0897  -1.5463   0.00    0.0
2018/11/10 00:42:00.000  -74.525913040  163.457838419    23.2797   5  10   0.9189   0.6573   3.4311  -0.4726   1.0846  -1.5430   0.00    0.0
2018/11/10 00:42:15.000  -74.525910008  163.457828447    21.6848   5   9   0.9226   0.6567   3.6798  -0.4696   1.0731  -1.5777   0.00    0.0
2018/11/10 00:42:30.000  -74.525916768  163.457851409    23.7667   5   9   0.9224   0.6561   3.6742  -0.4675   1.0680  -1.5753   0.00    0.0
2018/11/10 00:42:45.000  -74.525914879  163.457847886    23.3510   5   9   0.9199   0.6539   3.6571  -0.4640   1.0598  -1.5683   0.00    0.0
2018/11/10 00:43:00.000  -74.525917788  163.457840678    24.1357   5   9   0.9175   0.6518   3.6404  -0.4606   1.0517  -1.5615   0.00    0.0
2018/11/10 00:43:15.000  -74.525914758  163.457839632    22.6806   5   9   0.9151   0.6498   3.6240  -0.4572   1.0437  -1.5547   0.00    0.0
2018/11/10 00:43:30.000  -74.525917799  163.457852863    24.2000   5   9   0.9129   0.6479   3.6079  -0.4539   1.0358  -1.5481   0.00    0.0
2018/11/10 00:43:45.000  -74.525915252  163.457848325    23.2390   5   9   0.9107   0.6461   3.5921  -0.4506   1.0279  -1.5416   0.00    0.0
2018/11/10 00:44:00.000  -74.525915719  163.457843183    23.9521   5   9   0.9086   0.6443   3.5766  -0.4473   1.0200  -1.5352   0.00    0.0
2018/11/10 00:44:15.000  -74.525915023  163.457840432    23.2571   5   9   0.9066   0.6427   3.5614  -0.4440   1.0123  -1.5289   0.00    0.0
2018/11/10 00:44:30.000  -74.525917677  163.457844342    22.6248   5   9   0.9047   0.6411   3.5466  -0.4408   1.0046  -1.5228   0.00    0.0
2018/11/10 00:44:45.000  -74.525913852  163.457840727    22.2716   5   9   0.9029   0.6396   3.5322  -0.4376   0.9970  -1.5168   0.00    0.0
2018/11/10 00:45:00.000  -74.525917873  163.457835909    23.3876   5  10   0.7436   0.6344   2.6725  -0.3918   0.9057  -1.0575   0.00    0.0
2018/11/10 00:45:15.000  -74.525919120  163.457850434    24.2801   5  10   0.7434   0.6334   2.6679  -0.3905   0.9020  -1.0558   0.00    0.0
2018/11/10 00:45:30.000  -74.525915044  163.457842514    22.8649   5  10   0.7432   0.6325   2.6636  -0.3893   0.8983  -1.0542   0.00    0.0
2018/11/10 00:45:45.000  -74.525919959  163.457852280    24.4677   5  10   0.7431   0.6316   2.6594  -0.3880   0.8946  -1.0526   0.00    0.0
2018/11/10 00:46:00.000  -74.525917873  163.457840139    23.3517   5  10   0.7430   0.6309   2.6555  -0.3869   0.8910  -1.0511   0.00    0.0
2018/11/10 00:46:15.000  -74.525921029  163.457851962    24.7126   5  10   0.7430   0.6302   2.6518  -0.3857   0.8875  -1.0496   0.00    0.0
2018/11/10 00:46:30.000  -74.525919697  163.457846733    24.2731   5  10   0.7431   0.6295   2.6484  -0.3845   0.8840  -1.0482   0.00    0.0
2018/11/10 00:46:45.000  -74.525919029  163.457848896    24.3767   5  10   0.7432   0.6290   2.6452  -0.3834   0.8805  -1.0469   0.00    0.0
2018/11/10 00:47:00.000  -74.525919574  163.457844828    24.2848   5  10   0.7434   0.6285   2.6423  -0.3823   0.8771  -1.0456   0.00    0.0
2018/11/10 00:47:15.000  -74.525919382  163.457845878    24.1278   5  10   0.7437   0.6280   2.6396  -0.3813   0.8737  -1.0445   0.00    0.0
2018/11/10 00:47:30.000  -74.525923462  163.457861826    25.4923   5  10   0.7440   0.6277   2.6372  -0.3803   0.8704  -1.0433   0.00    0.0
2018/11/10 00:47:45.000  -74.525918837  163.457850010    23.3274   5  10   0.7430   0.6260   2.6282  -0.3784   0.8651  -1.0402   0.00    0.0
2018/11/10 00:48:00.000  -74.525919634  163.457847255    22.9647   5  10   0.7419   0.6243   2.6194  -0.3764   0.8598  -1.0371   0.00    0.0
2018/11/10 00:48:15.000  -74.525920182  163.457851109    24.0478   5  10   0.7410   0.6226   2.6108  -0.3745   0.8545  -1.0340   0.00    0.0
2018/11/10 00:48:30.000  -74.525918645  163.457851392    23.0593   5  10   0.7402   0.6211   2.6024  -0.3727   0.8492  -1.0310   0.00    0.0
2018/11/10 00:48:45.000  -74.525920604  163.457857432    24.4457   5  10   0.7394   0.6196   2.5943  -0.3708   0.8441  -1.0280   0.00    0.0
2018/11/10 00:49:00.000  -74.525922065  163.457852689    24.7964   5  10   0.7386   0.6182   2.5865  -0.3690   0.8390  -1.0252   0.00    0.0
2018/11/10 00:49:15.000  -74.525920559  163.457847650    23.0094   5  10   0.7380   0.6168   2.5790  -0.3673   0.8340  -1.0224   0.00    0.0
2018/11/10 00:49:30.000  -74.525919605  163.457840911    23.1647   5  10   0.7374   0.6156   2.5717  -0.3655   0.8290  -1.0197   0.00    0.0
2018/11/10 00:49:45.000  -74.525920924  163.457850239    22.9996   5  10   0.7369   0.6144   2.5647  -0.3638   0.8241  -1.0171   0.00    0.0
2018/11/10 00:50:00.000  -74.525920968  163.457851894    23.2657   5  10   0.7364   0.6133   2.5580  -0.3622   0.8193  -1.0145   0.00    0.0
2018/11/10 00:50:15.000  -74.525916912  163.457853549    22.9288   5  10   0.7361   0.6123   2.5518  -0.3606   0.8146  -1.0121   0.00    0.0
2018/11/10 00:50:30.000  -74.525920323  163.457855823    24.1119   5  10   0.7358   0.6114   2.5458  -0.3590   0.8099  -1.0098   0.00    0.0
2018/11/10 00:50:45.000  -74.525918617  163.457856294    23.4735   5  10   0.7356   0.6106   2.5401  -0.3575   0.8053  -1.0076   0.00    0.0
2018/11/10 00:51:00.000  -74.525920961  163.457852469    23.1245   5  10   0.7354   0.6098   2.5348  -0.3560   0.8008  -1.0054   0.00    0.0
2018/11/10 00:51:15.000  -74.525920873  163.457851148    23.0793   5  10   0.7354   0.6091   2.5297  -0.3545   0.7964  -1.0034   0.00    0.0
2018/11/10 00:51:30.000  -74.525918018  163.457856629    22.5745   5  10   0.7354   0.6085   2.5250  -0.3531   0.7920  -1.0014   0.00    0.0
2018/11/10 00:51:45.000  -74.525919505  163.457851233    24.1449   5  10   0.7354   0.6080   2.5206  -0.3516   0.7877  -0.9995   0.00    0.0
2018/11/10 00:52:00.000  -74.525918157  163.457842606    23.1488   5  10   0.7356   0.6075   2.5165  -0.3503   0.7834  -0.9977   0.00    0.0
2018/11/10 00:52:15.000  -74.525917604  163.457842427    23.6475   5  10   0.7358   0.6072   2.5127  -0.3489   0.7792  -0.9960   0.00    0.0
2018/11/10 00:52:30.000  -74.525919115  163.457846754    22.7742   5  10   0.7361   0.6068   2.5093  -0.3476   0.7750  -0.9944   0.00    0.0
2018/11/10 00:52:45.000  -74.525920788  163.457858493    24.8391   5  10   0.7350   0.6052   2.4992  -0.3455   0.7690  -0.9908   0.00    0.0
2018/11/10 00:53:00.000  -74.525918050  163.457850077    22.8256   5  10   0.7340   0.6036   2.4892  -0.3433   0.7630  -0.9872   0.00    0.0
2018/11/10 00:53:15.000  -74.525918345  163.457850778    23.4661   5  10   0.7330   0.6021   2.4796  -0.3413   0.7571  -0.9837   0.00    0.0
2018/11/10 00:53:30.000  -74.525917815  163.457842149    22.7128   5  10   0.7321   0.6007   2.4702  -0.3392   0.7513  -0.9802   0.00    0.0
2018/11/10 00:53:45.000  -74.525918174  163.457853895    23.2456   5  10   0.7313   0.5993   2.4613  -0.3372   0.7455  -0.9769   0.00    0.0
2018/11/10 00:54:00.000  -74.525917787  163.457848409    22.9877   5  10   0.7306   0.5981   2.4526  -0.3352   0.7399  -0.9737   0.00    0.0
2018/11/10 00:54:15.000  -74.525919449  163.457848111    23.5650   5  10   0.7299   0.5969   2.4443  -0.3333   0.7343  -0.9706   0.00    0.0
2018/11/10 00:54:30.000  -74.525917554  163.457846284    22.5216   5  10   0.7294   0.5958   2.4363  -0.3314   0.7288  -0.9676   0.00    0.0
2018/11/10 00:54:45.000  -74.525919881  163.457847740    22.8197   5  10   0.7288   0.5947   2.4287  -0.3295   0.7233  -0.9647   0.00    0.0
2018/11/10 00:55:00.000  -74.525919455  163.457850844    24.6061   5  10   0.7284   0.5938   2.4215  -0.3277   0.7180  -0.9619   0.00    0.0
2018/11/10 00:55:15.000  -74.525920243  163.457853983    24.3191   5  10   0.7281   0.5929   2.4147  -0.3260   0.7127  -0.9592   0.00    0.0
2018/11/10 00:55:30.000  -74.525923879  163.457853362    24.3837   5  10   0.7278   0.5922   2.4083  -0.3242   0.7076  -0.9567   0.00    0.0
2018/11/10 00:55:45.000  -74.525920673  163.457852520    24.2452   5  10   0.7276   0.5915   2.4023  -0.3226   0.7024  -0.9542   0.00    0.0
2018/11/10 00:56:00.000  -74.525921915  163.457850979    24.6636   5  10   0.7275   0.5909   2.3966  -0.3209   0.6974  -0.9519   0.00    0.0
2018/11/10 00:56:15.000  -74.525922949  163.457858620    25.1691   5  10   0.7275   0.5904   2.3913  -0.3193   0.6924  -0.9496   0.00    0.0
2018/11/10 00:56:30.000  -74.525921135  163.457859248    24.5860   5  10   0.7275   0.5899   2.3864  -0.3177   0.6875  -0.9475   0.00    0.0
2018/11/10 00:56:45.000  -74.525921274  163.457848996    23.8667   5  10   0.7276   0.5896   2.3818  -0.3162   0.6826  -0.9454   0.00    0.0
2018/11/10 00:57:00.000  -74.525919237  163.457845590    24.0285   5  10   0.7278   0.5893   2.3776  -0.3146   0.6778  -0.9435   0.00    0.0
2018/11/10 00:57:15.000  -74.525920762  163.457849445    23.6124   5  10   0.7280   0.5891   2.3737  -0.3132   0.6731  -0.9417   0.00    0.0
2018/11/10 00:57:30.000  -74.525923326  163.457854433    24.7639   5  10   0.7283   0.5889   2.3702  -0.3117   0.6684  -0.9399   0.00    0.0
2018/11/10 00:57:45.000  -74.525923037  163.457851751    24.7443   5  10   0.7273   0.5874   2.3598  -0.3094   0.6619  -0.9361   0.00    0.0
2018/11/10 00:58:00.000  -74.525924609  163.457851524    25.0733   5  10   0.7263   0.5861   2.3498  -0.3073   0.6557  -0.9325   0.00    0.0
2018/11/10 00:58:15.000  -74.525920219  163.457847960    23.5850   5  10   0.7255   0.5848   2.3403  -0.3051   0.6496  -0.9290   0.00    0.0
2018/11/10 00:58:30.000  -74.525922885  163.457853819    25.0645   5  10   0.7247   0.5836   2.3311  -0.3031   0.6435  -0.9256   0.00    0.0
2018/11/10 00:58:45.000  -74.525922662  163.457848257    25.1816   5  10   0.7240   0.5825   2.3222  -0.3010   0.6375  -0.9223   0.00    0.0
2018/11/10 00:59:00.000  -74.525922361  163.457839565    23.1547   5  10   0.7233   0.5815   2.3138  -0.2990   0.6316  -0.9192   0.00    0.0
2018/11/10 00:59:15.000  -74.525920072  163.457858696    23.8895   5  10   0.7228   0.5806   2.3057  -0.2970   0.6257  -0.9161   0.00    0.0
2018/11/10 00:59:30.000  -74.525921050  163.457845733    23.7549   5  10   0.7223   0.5797   2.2981  -0.2951   0.6199  -0.9132   0.00    0.0
2018/11/10 00:59:45.000  -74.525924417  163.457848196    24.4909   5  10   0.7219   0.5789   2.2908  -0.2932   0.6142  -0.9103   0.00    0.0
2018/11/10 01:00:00.000  -74.525925224  163.457850786    25.6529   5  10   0.7215   0.5782   2.2839  -0.2914   0.6085  -0.9076   0.00    0.0
2018/11/10 01:00:15.000  -74.525919916  163.457843023    23.0079   5  10   0.7213   0.5776   2.2774  -0.2896   0.6029  -0.9050   0.00    0.0
2018/11/10 01:00:30.000  -74.525921137  163.457849870    23.7102   5  10   0.7211   0.5771   2.2714  -0.2878   0.5974  -0.9025   0.00    0.0
2018/11/10 01:00:45.000  -74.525920882  163.457846234    24.4709   5  10   0.7210   0.5766   2.2658  -0.2860   0.5919  -0.9002   0.00    0.0
2018/11/10 01:01:00.000  -74.525921390  163.457851918    23.3244   5  10   0.7210   0.5762   2.2605  -0.2843   0.5864  -0.8979   0.00    0.0
2018/11/10 01:01:15.000  -74.525923037  163.457861111    24.1912   5  10   0.7210   0.5759   2.2556  -0.2826   0.5810  -0.8958   0.00    0.0
2018/11/10 01:01:30.000  -74.525924918  163.457850782    24.3469   5  10   0.7211   0.5757   2.2512  -0.2810   0.5757  -0.8937   0.00    0.0
2018/11/10 01:01:45.000  -74.525923611  163.457855671    25.0025   5  10   0.7213   0.5756   2.2470  -0.2794   0.5703  -0.8918   0.00    0.0
2018/11/10 01:02:00.000  -74.525920207  163.457837520    24.0653   5  10   0.7215   0.5755   2.2433  -0.2778   0.5650  -0.8899   0.00    0.0
2018/11/10 01:02:15.000  -74.525922631  163.457850508    23.9126   5  10   0.7219   0.5755   2.2399  -0.2762   0.5598  -0.8882   0.00    0.0
2018/11/10 01:02:30.000  -74.525920900  163.457842483    23.0603   5  10   0.7223   0.5756   2.2369  -0.2747   0.5545  -0.8865   0.00    0.0
2018/11/10 01:02:45.000  -74.525924240  163.457850029    23.5406   5  10   0.7214   0.5744   2.2274  -0.2725   0.5481  -0.8831   0.00    0.0
2018/11/10 01:03:00.000  -74.525920549  163.457848638    23.0638   5  10   0.7206   0.5734   2.2181  -0.2704   0.5417  -0.8797   0.00    0.0
2018/11/10 01:03:15.000  -74.525920814  163.457840476    23.3671   5  10   0.7199   0.5724   2.2093  -0.2683   0.5353  -0.8765   0.00    0.0
2018/11/10 01:03:30.000  -74.525923922  163.457838024    24.7277   5  10   0.7192   0.5715   2.2008  -0.2663   0.5290  -0.8734   0.00    0.0
2018/11/10 01:03:45.000  -74.525925382  163.457839366    23.6513   5  10   0.7186   0.5707   2.1928  -0.2642   0.5228  -0.8703   0.00    0.0
2018/11/10 01:04:00.000  -74.525921639  163.457843567    23.9900   5  10   0.7181   0.5699   2.1851  -0.2622   0.5166  -0.8674   0.00    0.0
2018/11/10 01:04:15.000  -74.525924004  163.457842680    24.6246   5  10   0.7177   0.5692   2.1779  -0.2603   0.5104  -0.8647   0.00    0.0
2018/11/10 01:04:30.000  -74.525921315  163.457845830    23.8759   5  10   0.7173   0.5686   2.1710  -0.2584   0.5042  -0.8620   0.00    0.0
2018/11/10 01:04:45.000  -74.525923325  163.457839981    23.9639   5  10   0.7170   0.5681   2.1645  -0.2565   0.4981  -0.8594   0.00    0.0
2018/11/10 01:05:00.000  -74.525922848  163.457843881    23.7851   5  10   0.7168   0.5676   2.1584  -0.2546   0.4920  -0.8570   0.00    0.0
2018/11/10 01:05:15.000  -74.525923144  163.457839846    24.4650   5  10   0.7167   0.5673   2.1528  -0.2528   0.4860  -0.8546   0.00    0.0
2018/11/10 01:05:30.000  -74.525919375  163.457845334    23.9713   5  10   0.7166   0.5670   2.1476  -0.2510   0.4800  -0.8524   0.00    0.0
2018/11/10 01:05:45.000  -74.525922861  163.457846490    24.1207   5  10   0.7166   0.5668   2.1428  -0.2492   0.4740  -0.8503   0.00    0.0
2018/11/10 01:06:00.000  -74.525918807  163.457842404    23.9438   5  11   0.6187   0.5497   1.7971  -0.1069   0.2437  -0.5481   0.00    0.0
2018/11/10 01:06:15.000  -74.525920180  163.457845608    24.6262   5  11   0.6190   0.5499   1.7963  -0.1048   0.2363  -0.5474   0.00    0.0
2018/11/10 01:06:30.000  -74.525921450  163.457843319    23.3862   5  11   0.6193   0.5502   1.7959  -0.1026   0.2287  -0.5468   0.00    0.0
2018/11/10 01:06:45.000  -74.525922150  163.457835776    24.3467   5  11   0.6197   0.5505   1.7957  -0.1003   0.2207  -0.5461   0.00    0.0
2018/11/10 01:07:00.000  -74.525920119  163.457839282    23.9773   5  11   0.6202   0.5509   1.7959  -0.0981   0.2125  -0.5456   0.00    0.0
2018/11/10 01:07:15.000  -74.525920644  163.457840073    24.0210   5  11   0.6206   0.5514   1.7963  -0.0957   0.2038  -0.5450   0.00    0.0
2018/11/10 01:07:30.000  -74.525922275  163.457839315    23.8500   5  11   0.6212   0.5519   1.7970  -0.0934   0.1948  -0.5445   0.00    0.0
2018/11/10 01:07:45.000  -74.525920526  163.457838627    24.0800   5  11   0.6208   0.5514   1.7925  -0.0909   0.1861  -0.5436   0.00    0.0
2018/11/10 01:08:00.000  -74.525922366  163.457847993    23.9200   5  11   0.6204   0.5509   1.7884  -0.0883   0.1769  -0.5427   0.00    0.0
2018/11/10 01:08:15.000  -74.525920719  163.457840078    24.4963   5  11   0.6201   0.5504   1.7846  -0.0856   0.1672  -0.5419   0.00    0.0
2018/11/10 01:08:30.000  -74.525923139  163.457846732    24.3121   5  11   0.6199   0.5500   1.7811  -0.0829   0.1568  -0.5410   0.00    0.0
2018/11/10 01:08:45.000  -74.525920959  163.457835967    24.1393   5  11   0.6197   0.5497   1.7779  -0.0800   0.1458  -0.5402   0.00    0.0
2018/11/10 01:09:00.000  -74.525922312  163.457847339    23.9869   5  11   0.6195   0.5494   1.7750  -0.0770   0.1338  -0.5395   0.00    0.0
2018/11/10 01:09:15.000  -74.525920323  163.457839491    23.8532   5  11   0.6194   0.5492   1.7723  -0.0740   0.1206  -0.5388   0.00    0.0
2018/11/10 01:09:30.000  -74.525924210  163.457830784    24.2008   5  12   0.6120   0.5264   1.7022  -0.1412  -0.2542  -0.5796   0.00    0.0
2018/11/10 01:09:45.000  -74.525923731  163.457843018    23.2191   5  12   0.6118   0.5263   1.7014  -0.1400  -0.2594  -0.5789   0.00    0.0
2018/11/10 01:10:00.000  -74.525921830  163.457836755    24.2110   5  12   0.6118   0.5263   1.7008  -0.1389  -0.2646  -0.5783   0.00    0.0
2018/11/10 01:10:15.000  -74.525923086  163.457839705    24.1304   5  12   0.6118   0.5264   1.7005  -0.1377  -0.2698  -0.5778   0.00    0.0
2018/11/10 01:10:30.000  -74.525923301  163.457842645    23.6973   5  12   0.6118   0.5265   1.7005  -0.1365  -0.2749  -0.5773   0.00    0.0
2018/11/10 01:10:45.000  -74.525922419  163.457831958    23.2670   5  12   0.6120   0.5268   1.7008  -0.1354  -0.2801  -0.5769   0.00    0.0
2018/11/10 01:11:00.000  -74.525922158  163.457831741    23.5781   5  12   0.6121   0.5270   1.7013  -0.1342  -0.2852  -0.5765   0.00    0.0
2018/11/10 01:11:15.000  -74.525921967  163.457837877    23.2415   5  12   0.6123   0.5274   1.7022  -0.1331  -0.2904  -0.5761   0.00    0.0
2018/11/10 01:11:30.000  -74.525922898  163.457830684    23.4084   5  12   0.6126   0.5278   1.7033  -0.1320  -0.2955  -0.5758   0.00    0.0
2018/11/10 01:11:45.000  -74.525921128  163.457832882    24.4305   5  12   0.6129   0.5282   1.7047  -0.1308  -0.3007  -0.5755   0.00    0.0
2018/11/10 01:12:00.000  -74.525919632  163.457825358    24.1708   5  12   0.6133   0.5287   1.7064  -0.1297  -0.3058  -0.5753   0.00    0.0
2018/11/10 01:12:15.000  -74.525923571  163.457832135    24.0913   5  12   0.6137   0.5293   1.7084  -0.1286  -0.3110  -0.5752   0.00    0.0
2018/11/10 01:12:30.000  -74.525921721  163.457831984    23.6323   5  12   0.6141   0.5299   1.7106  -0.1275  -0.3161  -0.5750   0.00    0.0
2018/11/10 01:12:45.000  -74.525922978  163.457826660    24.2366   5  12   0.6137   0.5295   1.7082  -0.1260  -0.3198  -0.5742   0.00    0.0
2018/11/10 01:13:00.000  -74.525923887  163.457824683    24.3672   5  12   0.6133   0.5291   1.7058  -0.1246  -0.3234  -0.5734   0.00    0.0
2018/11/10 01:13:15.000  -74.525923810  163.457831167    23.9111   5  12   0.6129   0.5288   1.7036  -0.1231  -0.3269  -0.5726   0.00    0.0
2018/11/10 01:13:30.000  -74.525922199  163.457829787    23.7453   5  12   0.6126   0.5285   1.7017  -0.1217  -0.3305  -0.5719   0.00    0.0
2018/11/10 01:13:45.000  -74.525922754  163.457833809    24.1022   5  12   0.6123   0.5283   1.7001  -0.1203  -0.3342  -0.5712   0.00    0.0
2018/11/10 01:14:00.000  -74.525925649  163.457834236    24.3077   5  12   0.6121   0.5282   1.6988  -0.1189  -0.3379  -0.5706   0.00    0.0
2018/11/10 01:14:15.000  -74.525923733  163.457833224    24.0948   5  12   0.6120   0.5282   1.6978  -0.1175  -0.3416  -0.5700   0.00    0.0
2018/11/10 01:14:30.000  -74.525921742  163.457824909    24.2366   5  12   0.6119   0.5281   1.6970  -0.1161  -0.3453  -0.5695   0.00    0.0
2018/11/10 01:14:45.000  -74.525924865  163.457830789    24.4354   5  12   0.6118   0.5282   1.6965  -0.1147  -0.3491  -0.5690   0.00    0.0
2018/11/10 01:15:00.000  -74.525923084  163.457829715    23.6392   5  12   0.6118   0.5283   1.6963  -0.1132  -0.3529  -0.5686   0.00    0.0
2018/11/10 01:15:15.000  -74.525924125  163.457832084    24.0890   5  12   0.6119   0.5285   1.6965  -0.1118  -0.3568  -0.5682   0.00    0.0
2018/11/10 01:15:30.000  -74.525921361  163.457832799    24.1239   5  12   0.6120   0.5288   1.6970  -0.1104  -0.3607  -0.5679   0.00    0.0
2018/11/10 01:15:45.000  -74.525920973  163.457828325    23.6229   5  12   0.6122   0.5291   1.6977  -0.1090  -0.3646  -0.5676   0.00    0.0
2018/11/10 01:16:00.000  -74.525921887  163.457829287    23.7086   5  12   0.6124   0.5295   1.6988  -0.1076  -0.3687  -0.5673   0.00    0.0
2018/11/10 01:16:15.000  -74.525923002  163.457826231    24.4511   5  12   0.6126   0.5299   1.7001  -0.1062  -0.3727  -0.5671   0.00    0.0
2018/11/10 01:16:30.000  -74.525923150  163.457832291    24.1538   5  12   0.6129   0.5304   1.7017  -0.1048  -0.3768  -0.5670   0.00    0.0
2018/11/10 01:16:45.000  -74.525923182  163.457825859    23.8800   5  12   0.6133   0.5310   1.7036  -0.1033  -0.3809  -0.5669   0.00    0.0
2018/11/10 01:17:00.000  -74.525922567  163.457829861    23.3689   5  12   0.6137   0.5316   1.7058  -0.1019  -0.3851  -0.5668   0.00    0.0
2018/11/10 01:17:15.000  -74.525921678  163.457824363    23.3241   5  12   0.6142   0.5323   1.7082  -0.1005  -0.3893  -0.5668   0.00    0.0
2018/11/10 01:17:30.000  -74.525922968  163.457828371    23.2432   5  12   0.6147   0.5330   1.7110  -0.0991  -0.3936  -0.5668   0.00    0.0
2018/11/10 01:17:45.000  -74.525920457  163.457834368    22.6196   5  12   0.6143   0.5327   1.7086  -0.0973  -0.3962  -0.5661   0.00    0.0
2018/11/10 01:18:00.000  -74.525923981  163.457831496    24.3717   5  12   0.6139   0.5324   1.7066  -0.0955  -0.3990  -0.5655   0.00    0.0
2018/11/10 01:18:15.000  -74.525921067  163.457839567    23.8298   5  12   0.6136   0.5322   1.7048  -0.0937  -0.4017  -0.5649   0.00    0.0
2018/11/10 01:18:30.000  -74.525922906  163.457836670    23.5751   5  12   0.6134   0.5321   1.7033  -0.0919  -0.4046  -0.5643   0.00    0.0
2018/11/10 01:18:45.000  -74.525923447  163.457833695    24.2221   5  12   0.6132   0.5320   1.7021  -0.0901  -0.4075  -0.5638   0.00    0.0
2018/11/10 01:19:00.000  -74.525922327  163.457834301    24.7900   5  12   0.6130   0.5320   1.7012  -0.0882  -0.4104  -0.5633   0.00    0.0
2018/11/10 01:19:15.000  -74.525921076  163.457834917    23.7816   5  12   0.6129   0.5320   1.7006  -0.0863  -0.4134  -0.5629   0.00    0.0
2018/11/10 01:19:30.000  -74.525922779  163.457834473    24.5020   5  12   0.6129   0.5321   1.7003  -0.0844  -0.4165  -0.5626   0.00    0.0
2018/11/10 01:19:45.000  -74.525923836  163.457834435    24.9171   5  12   0.6129   0.5322   1.7002  -0.0825  -0.4196  -0.5622   0.00    0.0
2018/11/10 01:20:00.000  -74.525923215  163.457835307    24.1083   5  12   0.6130   0.5325   1.7004  -0.0806  -0.4227  -0.5620   0.00    0.0
2018/11/10 01:20:15.000  -74.525923139  163.457841757    23.7793   5  12   0.6131   0.5328   1.7010  -0.0786  -0.4259  -0.5617   0.00    0.0
2018/11/10 01:20:30.000  -74.525922427  163.457835168    23.3002   5  12   0.6132   0.5331   1.7019  -0.0766  -0.4292  -0.5616   0.00    0.0
2018/11/10 01:20:45.000  -74.525922567  163.457836139    23.9280   5  12   0.6135   0.5335   1.7031  -0.0746  -0.4326  -0.5614   0.00    0.0
2018/11/10 01:21:00.000  -74.525921110  163.457829357    24.4152   5  12   0.6137   0.5340   1.7046  -0.0725  -0.4360  -0.5613   0.00    0.0
2018/11/10 01:21:15.000  -74.525925748  163.457836263    24.1948   5  12   0.6140   0.5346   1.7063  -0.0704  -0.4395  -0.5613   0.00    0.0
2018/11/10 01:21:30.000  -74.525923721  163.457830041    23.8364   5  12   0.6144   0.5352   1.7084  -0.0682  -0.4430  -0.5613   0.00    0.0
2018/11/10 01:21:45.000  -74.525923786  163.457831659    23.7277   5  12   0.6148   0.5358   1.7107  -0.0660  -0.4465  -0.5614   0.00    0.0
2018/11/10 01:22:00.000  -74.525924229  163.457836869    23.7486   5  12   0.6153   0.5365   1.7133  -0.0638  -0.4502  -0.5615   0.00    0.0
2018/11/10 01:22:15.000  -74.525921389  163.457832523    24.1108   5  12   0.6158   0.5373   1.7162  -0.0614  -0.4539  -0.5616   0.00    0.0
2018/11/10 01:22:30.000  -74.525924417  163.457833003    25.2290   5  12   0.6164   0.5382   1.7193  -0.0590  -0.4576  -0.5618   0.00    0.0
2018/11/10 01:22:45.000  -74.525922865  163.457836414    24.2384   5  12   0.6160   0.5379   1.7173  -0.0559  -0.4598  -0.5613   0.00    0.0
2018/11/10 01:23:00.000  -74.525921840  163.457835823    23.6276   5  12   0.6157   0.5377   1.7157  -0.0528  -0.4621  -0.5608   0.00    0.0
2018/11/10 01:23:15.000  -74.525924123  163.457833463    24.3336   5  12   0.6155   0.5376   1.7143  -0.0495  -0.4644  -0.5604   0.00    0.0
2018/11/10 01:23:30.000  -74.525924718  163.457842031    24.5418   5  12   0.6153   0.5376   1.7133  -0.0461  -0.4668  -0.5600   0.00    0.0
2018/11/10 01:23:45.000  -74.525925321  163.457827423    24.8965   5  12   0.6151   0.5376   1.7125  -0.0423  -0.4692  -0.5597   0.00    0.0
2018/11/10 01:24:00.000  -74.525921755  163.457835252    23.7594   5  12   0.6151   0.5376   1.7120  -0.0383  -0.4717  -0.5594   0.00    0.0
2018/11/10 01:24:15.000  -74.525922569  163.457836517    24.7397   5  12   0.6150   0.5378   1.7118  -0.0338  -0.4743  -0.5591   0.00    0.0
2018/11/10 01:24:30.000  -74.525924371  163.457842895    24.2902   5  12   0.6150   0.5379   1.7118  -0.0287  -0.4769  -0.5589   0.00    0.0
2018/11/10 01:24:45.000  -74.525925689  163.457827039    24.6145   5  12   0.6151   0.5382   1.7122  -0.0225  -0.4796  -0.5588   0.00    0.0
2018/11/10 01:25:00.000  -74.525922914  163.457840345    24.0607   5  12   0.6152   0.5385   1.7128  -0.0137  -0.4823  -0.5587   0.00    0.0
2018/11/10 01:25:15.000  -74.525923140  163.457840430    22.5574   5  12   0.6154   0.5389   1.7138   0.0112  -0.4851  -0.5586   0.00    0.0
2018/11/10 01:25:30.000  -74.525924192  163.457837144    23.2687   5  12   0.6156   0.5393   1.7151   0.0210  -0.4880  -0.5586   0.00    0.0
2018/11/10 01:25:45.000  -74.525924655  163.457834082    23.8513   5  12   0.6158   0.5398   1.7167   0.0274  -0.4910  -0.5587   0.00    0.0
2018/11/10 01:26:00.000  -74.525923301  163.457845305    23.1727   5  12   0.6162   0.5404   1.7185   0.0325  -0.4940  -0.5587   0.00    0.0
2018/11/10 01:26:15.000  -74.525922574  163.457837985    23.2306   5  12   0.6165   0.5410   1.7206   0.0369  -0.4971  -0.5589   0.00    0.0
2018/11/10 01:26:30.000  -74.525923946  163.457844148    23.1205   5  12   0.6170   0.5417   1.7230   0.0409  -0.5002  -0.5591   0.00    0.0
2018/11/10 01:26:45.000  -74.525922631  163.457839770    23.2141   5  12   0.6174   0.5424   1.7257   0.0444  -0.5034  -0.5593   0.00    0.0
2018/11/10 01:27:00.000  -74.525923832  163.457840810    23.7570   5  12   0.6180   0.5432   1.7286   0.0477  -0.5067  -0.5595   0.00    0.0
2018/11/10 01:27:15.000  -74.525924131  163.457833069    23.4221   5  12   0.6185   0.5441   1.7318   0.0507  -0.5100  -0.5598   0.00    0.0
2018/11/10 01:27:30.000  -74.525924788  163.457831281    24.0077   5  12   0.6192   0.5450   1.7353   0.0536  -0.5134  -0.5602   0.00    0.0
2018/11/10 01:27:45.000  -74.525922861  163.457839029    23.4838   5  12   0.6189   0.5448   1.7339   0.0565  -0.5152  -0.5599   0.00    0.0
2018/11/10 01:28:00.000  -74.525923877  163.457832816    23.5851   5  12   0.6186   0.5447   1.7326   0.0594  -0.5172  -0.5596   0.00    0.0
2018/11/10 01:28:15.000  -74.525923687  163.457835114    23.3902   5  12   0.6184   0.5447   1.7317   0.0622  -0.5191  -0.5593   0.00    0.0
2018/11/10 01:28:30.000  -74.525924284  163.457842620    22.4680   5  12   0.6183   0.5447   1.7310   0.0648  -0.5212  -0.5591   0.00    0.0
2018/11/10 01:28:45.000  -74.525921184  163.457834783    23.9358   5  12   0.6182   0.5448   1.7306   0.0673  -0.5233  -0.5590   0.00    0.0
2018/11/10 01:29:00.000  -74.525923141  163.457837962    23.2633   5  12   0.6182   0.5449   1.7304   0.0697  -0.5255  -0.5589   0.00    0.0
2018/11/10 01:29:15.000  -74.525923851  163.457829309    23.8903   5  12   0.6182   0.5451   1.7306   0.0720  -0.5277  -0.5588   0.00    0.0
2018/11/10 01:29:30.000  -74.525925642  163.457834034    23.5508   5  12   0.6182   0.5454   1.7310   0.0742  -0.5300  -0.5588   0.00    0.0
2018/11/10 01:29:45.000  -74.525923338  163.457830350    23.8551   5  12   0.6183   0.5457   1.7317   0.0764  -0.5324  -0.5588   0.00    0.0
2018/11/10 01:30:00.000  -74.525922799  163.457836688    23.7192   5  12   0.6185   0.5460   1.7327   0.0784  -0.5348  -0.5589   0.00    0.0
2018/11/10 01:30:15.000  -74.525922321  163.457839010    23.3214   5  12   0.6187   0.5465   1.7340   0.0804  -0.5374  -0.5590   0.00    0.0
2018/11/10 01:30:30.000  -74.525925191  163.457839673    23.9078   5  12   0.6190   0.5470   1.7356   0.0824  -0.5399  -0.5592   0.00    0.0
2018/11/10 01:30:45.000  -74.525924612  163.457832664    23.4217   5  12   0.6193   0.5476   1.7375   0.0842  -0.5426  -0.5594   0.00    0.0
2018/11/10 01:31:00.000  -74.525922889  163.457840749    22.6429   5  12   0.6197   0.5482   1.7397   0.0861  -0.5453  -0.5597   0.00    0.0
2018/11/10 01:31:15.000  -74.525923667  163.457840694    22.9075   5  12   0.6202   0.5489   1.7421   0.0879  -0.5481  -0.5600   0.00    0.0
2018/11/10 01:31:30.000  -74.525922518  163.457837017    23.1741   5  12   0.6206   0.5496   1.7447   0.0896  -0.5509  -0.5603   0.00    0.0
2018/11/10 01:31:45.000  -74.525922201  163.457833530    22.9740   5  12   0.6212   0.5504   1.7477   0.0913  -0.5538  -0.5607   0.00    0.0
2018/11/10 01:32:00.000  -74.525922914  163.457841685    22.5828   5  12   0.6218   0.5512   1.7508   0.0930  -0.5567  -0.5611   0.00    0.0
2018/11/10 01:32:15.000  -74.525924959  163.457838430    23.5044   5  12   0.6224   0.5522   1.7543   0.0946  -0.5597  -0.5616   0.00    0.0
2018/11/10 01:32:30.000  -74.525923587  163.457836400    22.9314   5  12   0.6231   0.5531   1.7580   0.0962  -0.5628  -0.5621   0.00    0.0
2018/11/10 01:32:45.000  -74.525924003  163.457831536    23.4949   5  12   0.6228   0.5530   1.7569   0.0980  -0.5644  -0.5619   0.00    0.0
2018/11/10 01:33:00.000  -74.525923821  163.457841835    23.1100   5  12   0.6226   0.5530   1.7560   0.0997  -0.5661  -0.5618   0.00    0.0
2018/11/10 01:33:15.000  -74.525922841  163.457844729    23.4583   5  12   0.6225   0.5530   1.7554   0.1014  -0.5678  -0.5618   0.00    0.0
2018/11/10 01:33:30.000  -74.525923574  163.457840205    23.2923   5  12   0.6224   0.5530   1.7550   0.1030  -0.5695  -0.5618   0.00    0.0
2018/11/10 01:33:45.000  -74.525922815  163.457846020    22.7990   5  12   0.6224   0.5532   1.7549   0.1046  -0.5714  -0.5618   0.00    0.0
2018/11/10 01:34:00.000  -74.525921676  163.457834468    23.3871   5  12   0.6224   0.5533   1.7551   0.1062  -0.5733  -0.5619   0.00    0.0
2018/11/10 01:34:15.000  -74.525923604  163.457838805    23.6171   5  12   0.6225   0.5536   1.7555   0.1077  -0.5752  -0.5620   0.00    0.0
2018/11/10 01:34:30.000  -74.525921694  163.457839464    22.7462   5  12   0.6226   0.5539   1.7563   0.1092  -0.5773  -0.5622   0.00    0.0
2018/11/10 01:34:45.000  -74.525921476  163.457834748    22.4277   5  12   0.6228   0.5542   1.7572   0.1107  -0.5793  -0.5624   0.00    0.0
2018/11/10 01:35:00.000  -74.525922944  163.457848218    21.9795   5  12   0.6230   0.5546   1.7585   0.1122  -0.5815  -0.5626   0.00    0.0
2018/11/10 01:35:15.000  -74.525923210  163.457836111    22.9330   5  12   0.6233   0.5551   1.7600   0.1136  -0.5837  -0.5629   0.00    0.0
2018/11/10 01:35:30.000  -74.525924120  163.457842498    22.0786   5  12   0.6236   0.5557   1.7618   0.1150  -0.5860  -0.5633   0.00    0.0
2018/11/10 01:35:45.000  -74.525924159  163.457843959    22.8406   5  12   0.6240   0.5562   1.7639   0.1164  -0.5883  -0.5636   0.00    0.0
2018/11/10 01:36:00.000  -74.525923991  163.457842600    23.2689   5  12   0.6244   0.5569   1.7662   0.1177  -0.5908  -0.5641   0.00    0.0
2018/11/10 01:36:15.000  -74.525923124  163.457842590    22.4555   5  12   0.6249   0.5576   1.7688   0.1191  -0.5932  -0.5645   0.00    0.0
2018/11/10 01:36:30.000  -74.525922884  163.457853944    22.1820   5  12   0.6255   0.5584   1.7716   0.1204  -0.5957  -0.5650   0.00    0.0
2018/11/10 01:36:45.000  -74.525922910  163.457839616    23.5839   5  12   0.6261   0.5592   1.7746   0.1217  -0.5983  -0.5655   0.00    0.0
2018/11/10 01:37:00.000  -74.525923720  163.457837787    23.9500   5  12   0.6267   0.5601   1.7779   0.1230  -0.6009  -0.5661   0.00    0.0
2018/11/10 01:37:15.000  -74.525923101  163.457840345    22.9889   5  12   0.6274   0.5610   1.7814   0.1242  -0.6036  -0.5667   0.00    0.0
2018/11/10 01:37:30.000  -74.525924636  163.457833860    23.7853   5  12   0.6282   0.5620   1.7851   0.1255  -0.6063  -0.5673   0.00    0.0
2018/11/10 01:37:45.000  -74.525924042  163.457840347    22.8337   5  12   0.6280   0.5619   1.7842   0.1268  -0.6076  -0.5674   0.00    0.0
2018/11/10 01:38:00.000  -74.525923607  163.457852690    22.9577   5  12   0.6279   0.5619   1.7836   0.1281  -0.6090  -0.5675   0.00    0.0
2018/11/10 01:38:15.000  -74.525923109  163.457836769    22.7786   5  12   0.6278   0.5619   1.7833   0.1295  -0.6105  -0.5677   0.00    0.0
2018/11/10 01:38:30.000  -74.525925767  163.457839597    23.6813   5  12   0.6277   0.5620   1.7832   0.1308  -0.6120  -0.5678   0.00    0.0
2018/11/10 01:38:45.000  -74.525924092  163.457840342    23.2415   5  12   0.6278   0.5621   1.7833   0.1321  -0.6136  -0.5681   0.00    0.0
2018/11/10 01:39:00.000  -74.525922189  163.457833569    23.2082   5  12   0.6278   0.5623   1.7837   0.1333  -0.6152  -0.5683   0.00    0.0
2018/11/10 01:39:15.000  -74.525921795  163.457836293    23.6591   5  12   0.6280   0.5626   1.7844   0.1346  -0.6169  -0.5686   0.00    0.0
2018/11/10 01:39:30.000  -74.525922960  163.457836148    22.9423   5  12   0.6281   0.5629   1.7853   0.1358  -0.6186  -0.5690   0.00    0.0
2018/11/10 01:39:45.000  -74.525922056  163.457841567    22.6088   5  12   0.6284   0.5632   1.7864   0.1370  -0.6204  -0.5693   0.00    0.0
2018/11/10 01:40:00.000  -74.525925841  163.457842184    23.5437   5  11   0.6598   0.5673   1.8244   0.1790  -0.6031  -0.5016   0.00    0.0
2018/11/10 01:40:15.000  -74.525921684  163.457841658    23.1322   5  11   0.6600   0.5678   1.8264   0.1797  -0.6050  -0.5020   0.00    0.0
2018/11/10 01:40:30.000  -74.525920582  163.457843188    23.3771   5  11   0.6602   0.5683   1.8286   0.1804  -0.6070  -0.5024   0.00    0.0
2018/11/10 01:40:45.000  -74.525923986  163.457843054    23.5518   5  11   0.6605   0.5689   1.8311   0.1810  -0.6090  -0.5027   0.00    0.0
2018/11/10 01:41:00.000  -74.525925626  163.457841070    23.5764   5  11   0.6609   0.5695   1.8338   0.1817  -0.6111  -0.5031   0.00    0.0
2018/11/10 01:41:15.000  -74.525923019  163.457836740    23.8843   5  11   0.6613   0.5702   1.8367   0.1824  -0.6133  -0.5035   0.00    0.0
2018/11/10 01:41:30.000  -74.525923034  163.457850317    22.8812   5  10   0.6733   0.6300   2.0937   0.0207  -0.8032  -0.3603   0.00    0.0
2018/11/10 01:41:45.000  -74.525923073  163.457847592    23.4238   5  10   0.6738   0.6312   2.1001   0.0263  -0.8068  -0.3604   0.00    0.0
2018/11/10 01:42:00.000  -74.525923004  163.457851942    22.1922   5  10   0.6742   0.6324   2.1068   0.0308  -0.8104  -0.3605   0.00    0.0
2018/11/10 01:42:15.000  -74.525923634  163.457854100    21.2849   5   9   0.7738   0.6855   2.6375   0.3164  -1.0368  -0.8529   0.00    0.0
2018/11/10 01:42:30.000  -74.525922263  163.457853348    21.4849   5   9   0.7747   0.6880   2.6525   0.3190  -1.0442  -0.8571   0.00    0.0
2018/11/10 01:42:45.000  -74.525920672  163.457847919    22.0372   5   9   0.7743   0.6887   2.6594   0.3210  -1.0482  -0.8599   0.00    0.0
2018/11/10 01:43:00.000  -74.525921285  163.457841276    23.4245   5   9   0.7740   0.6896   2.6668   0.3231  -1.0524  -0.8628   0.00    0.0
2018/11/10 01:43:15.000  -74.525922066  163.457856103    20.9623   5   9   0.7737   0.6906   2.6746   0.3252  -1.0568  -0.8659   0.00    0.0
2018/11/10 01:43:30.000  -74.525922383  163.457846891    21.9532   5   9   0.7736   0.6916   2.6828   0.3273  -1.0613  -0.8690   0.00    0.0
2018/11/10 01:43:45.000  -74.525923780  163.457848601    21.5248   5   9   0.7735   0.6928   2.6915   0.3295  -1.0660  -0.8722   0.00    0.0
2018/11/10 01:44:00.000  -74.525924205  163.457851533    21.8306   5   9   0.7734   0.6940   2.7007   0.3316  -1.0709  -0.8756   0.00    0.0
2018/11/10 01:44:15.000  -74.525925922  163.457844522    22.0995   5   9   0.7735   0.6953   2.7103   0.3338  -1.0759  -0.8790   0.00    0.0
