% program   : RTKLIB ver.2.4.3
% inp file  : _by_type/_obs/blake/20181110.18o
% inp file  : _by_type/_obs/base/20181110.18o
% inp file  : _by_type/_sp3+clk/igs20266.clk
% inp file  : _by_type/_sp3+clk/igs20266.sp3
% inp file  : _by_type/_nav/blake/20181110.18n
% obs start : 2018/11/10 00:00:00.0 GPST (week2026 518400.0s)
% obs end   : 2018/11/10 23:59:45.0 GPST (week2026 604785.0s)
% pos mode  : dgps
% freqs     : L1+L2
% solution  : combined
% elev mask : 15.0 deg
% dynamics  : off
% tidecorr  : off
% ionos opt : iono-free
% tropo opt : est ztd+grad
% ephemeris : precise
% navi sys  : gps glonass
% antenna1  :                       ( 0.0000  0.0000  0.0000)
% antenna2  :                       ( 0.0000  0.0000  0.0000)
% ref pos   : 90.000000000   0.000000000-6335367.6285
%
% (lat/lon/height=WGS84/ellipsoidal,Q=1:fix,2:float,3:sbas,4:dgps,5:single,6:ppp,ns=# of satellites)
%  GPST                  latitude(deg) longitude(deg)  height(m)   Q  ns   sdn(m)   sde(m)   sdu(m)  sdne(m)  sdeu(m)  sdun(m) age(s)  ratio
2018/11/10 00:00:00.000  -74.407210694  163.437643265    79.5182   5  10   0.6523   0.6086   2.0830  -0.2589   0.6607  -0.6771   0.00    0.0
2018/11/10 00:00:15.000  -74.407214065  163.437660933    79.8688   5  10   0.6524   0.6090   2.0893  -0.2598   0.6643  -0.6792   0.00    0.0
2018/11/10 00:00:30.000  -74.407209772  163.437656582    80.5550   5  10   0.6525   0.6095   2.0959  -0.2608   0.6681  -0.6814   0.00    0.0
2018/11/10 00:00:45.000  -74.407212089  163.437657596    80.3742   5  10   0.6528   0.6101   2.1028  -0.2619   0.6720  -0.6836   0.00    0.0
2018/11/10 00:01:00.000  -74.407210932  163.437660578    80.5010   5  10   0.6531   0.6108   2.1100  -0.2630   0.6760  -0.6860   0.00    0.0
2018/11/10 00:01:15.000  -74.407209611  163.437652274    79.4371   5  10   0.6535   0.6115   2.1175  -0.2642   0.6801  -0.6885   0.00    0.0
2018/11/10 00:01:30.000  -74.407212434  163.437648217    80.2792   5  10   0.6540   0.6124   2.1253  -0.2655   0.6844  -0.6910   0.00    0.0
2018/11/10 00:01:45.000  -74.407212126  163.437651535    80.0126   5  10   0.6545   0.6133   2.1334  -0.2668   0.6888  -0.6937   0.00    0.0
2018/11/10 00:02:00.000  -74.407212412  163.437654717    79.4342   5  10   0.6552   0.6144   2.1418  -0.2681   0.6934  -0.6964   0.00    0.0
2018/11/10 00:02:15.000  -74.407212332  163.437656780    80.4012   5  10   0.6559   0.6155   2.1505  -0.2696   0.6981  -0.6993   0.00    0.0
2018/11/10 00:02:30.000  -74.407209171  163.437652502    79.7042   5  10   0.6566   0.6168   2.1596  -0.2711   0.7029  -0.7022   0.00    0.0
2018/11/10 00:02:45.000  -74.407213508  163.437656409    80.6315   5  10   0.6561   0.6163   2.1635  -0.2716   0.7053  -0.7038   0.00    0.0
2018/11/10 00:03:00.000  -74.407210896  163.437640531    79.2001   5  10   0.6557   0.6160   2.1677  -0.2721   0.7079  -0.7054   0.00    0.0
2018/11/10 00:03:15.000  -74.407210226  163.437652939    80.2666   5  10   0.6553   0.6158   2.1722  -0.2727   0.7107  -0.7072   0.00    0.0
2018/11/10 00:03:30.000  -74.407212486  163.437653742    79.7864   5  10   0.6550   0.6157   2.1769  -0.2734   0.7135  -0.7090   0.00    0.0
2018/11/10 00:03:45.000  -74.407211569  163.437647137    79.3669   5  10   0.6548   0.6157   2.1819  -0.2741   0.7164  -0.7109   0.00    0.0
2018/11/10 00:04:00.000  -74.407213735  163.437658083    79.6135   5  10   0.6546   0.6157   2.1873  -0.2748   0.7195  -0.7130   0.00    0.0
2018/11/10 00:04:15.000  -74.407211058  163.437659669    80.1282   5  10   0.6546   0.6159   2.1929  -0.2757   0.7227  -0.7151   0.00    0.0
2018/11/10 00:04:30.000  -74.407210971  163.437657206    80.3595   5  10   0.6546   0.6161   2.1987  -0.2766   0.7261  -0.7173   0.00    0.0
2018/11/10 00:04:45.000  -74.407211689  163.437658547    80.3719   5  10   0.6546   0.6164   2.2049  -0.2776   0.7295  -0.7196   0.00    0.0
2018/11/10 00:05:00.000  -74.407209891  163.437653241    80.2248   5  10   0.6548   0.6168   2.2114  -0.2786   0.7331  -0.7220   0.00    0.0
2018/11/10 00:05:15.000  -74.407210708  163.437661592    79.6193   5  10   0.6551   0.6174   2.2183  -0.2797   0.7369  -0.7245   0.00    0.0
2018/11/10 00:05:30.000  -74.407210410  163.437661550    80.5507   5  10   0.6554   0.6180   2.2256  -0.2809   0.7408  -0.7271   0.00    0.0
2018/11/10 00:05:45.000  -74.407213114  163.437660425    80.0246   5  10   0.6558   0.6187   2.2331  -0.2821   0.7448  -0.7299   0.00    0.0
2018/11/10 00:06:00.000  -74.407209795  163.437657255    79.8529   5  10   0.6563   0.6196   2.2409  -0.2834   0.7490  -0.7327   0.00    0.0
2018/11/10 00:06:15.000  -74.407212968  163.437654244    80.0797   5  10   0.6569   0.6205   2.2490  -0.2848   0.7533  -0.7356   0.00    0.0
2018/11/10 00:06:30.000  -74.407209502  163.437658589    79.7824   5  10   0.6576   0.6215   2.2575  -0.2862   0.7577  -0.7387   0.00    0.0
2018/11/10 00:06:45.000  -74.407212981  163.437656076    80.3129   5  10   0.6583   0.6226   2.2662  -0.2877   0.7623  -0.7418   0.00    0.0
2018/11/10 00:07:00.000  -74.407212283  163.437657907    80.0048   5  10   0.6591   0.6238   2.2753  -0.2893   0.7670  -0.7451   0.00    0.0
2018/11/10 00:07:15.000  -74.407212100  163.437662053    79.7794   5  10   0.6600   0.6251   2.2847  -0.2909   0.7718  -0.7484   0.00    0.0
2018/11/10 00:07:30.000  -74.407212921  163.437658008    80.9270   5  10   0.6610   0.6265   2.2943  -0.2926   0.7768  -0.7518   0.00    0.0
2018/11/10 00:07:45.000  -74.407208624  163.437659758    79.6892   5  10   0.6606   0.6262   2.2984  -0.2933   0.7793  -0.7537   0.00    0.0
2018/11/10 00:08:00.000  -74.407211925  163.437658306    79.9528   5  10   0.6603   0.6260   2.3028  -0.2939   0.7818  -0.7557   0.00    0.0
2018/11/10 00:08:15.000  -74.407211015  163.437648853    78.5185   5  10   0.6601   0.6259   2.3075  -0.2947   0.7845  -0.7578   0.00    0.0
2018/11/10 00:08:30.000  -74.407210412  163.437654657    79.9433   5  10   0.6600   0.6259   2.3125  -0.2954   0.7873  -0.7600   0.00    0.0
2018/11/10 00:08:45.000  -74.407212118  163.437655231    80.3759   5  10   0.6599   0.6260   2.3177  -0.2963   0.7902  -0.7622   0.00    0.0
2018/11/10 00:09:00.000  -74.407209965  163.437648632    78.9815   5  10   0.6599   0.6261   2.3232  -0.2972   0.7933  -0.7646   0.00    0.0
2018/11/10 00:09:15.000  -74.407210794  163.437650040    78.4472   5  10   0.6600   0.6264   2.3290  -0.2982   0.7965  -0.7670   0.00    0.0
2018/11/10 00:09:30.000  -74.407211215  163.437658699    79.4556   5  10   0.6602   0.6267   2.3351  -0.2992   0.7998  -0.7695   0.00    0.0
2018/11/10 00:09:45.000  -74.407211669  163.437641253    78.6400   5  10   0.6605   0.6272   2.3415  -0.3003   0.8032  -0.7722   0.00    0.0
2018/11/10 00:10:00.000  -74.407211969  163.437653660    79.6845   5  10   0.6608   0.6277   2.3482  -0.3015   0.8067  -0.7749   0.00    0.0
2018/11/10 00:10:15.000  -74.407209558  163.437655326    79.3414   5  10   0.6612   0.6283   2.3553  -0.3027   0.8104  -0.7777   0.00    0.0
2018/11/10 00:10:30.000  -74.407206867  163.437658586    78.8480   5  10   0.6617   0.6291   2.3626  -0.3040   0.8143  -0.7807   0.00    0.0
2018/11/10 00:10:45.000  -74.407211169  163.437653634    79.9283   5  10   0.6623   0.6299   2.3703  -0.3054   0.8183  -0.7838   0.00    0.0
2018/11/10 00:11:00.000  -74.407210327  163.437654595    78.6756   5  10   0.6630   0.6309   2.3782  -0.3068   0.8224  -0.7869   0.00    0.0
2018/11/10 00:11:15.000  -74.407210619  163.437645358    79.2417   5  10   0.6638   0.6319   2.3865  -0.3083   0.8266  -0.7902   0.00    0.0
2018/11/10 00:11:30.000  -74.407209995  163.437651582    80.2282   5  10   0.6646   0.6330   2.3950  -0.3099   0.8309  -0.7935   0.00    0.0
2018/11/10 00:11:45.000  -74.407213621  163.437657913    80.0215   5  10   0.6655   0.6342   2.4038  -0.3115   0.8354  -0.7970   0.00    0.0
2018/11/10 00:12:00.000  -74.407207485  163.437648601    78.7060   5  10   0.6665   0.6355   2.4129  -0.3132   0.8400  -0.8005   0.00    0.0
2018/11/10 00:12:15.000  -74.407207963  163.437647378    78.5806   5  10   0.6676   0.6369   2.4222  -0.3149   0.8447  -0.8041   0.00    0.0
2018/11/10 00:12:30.000  -74.407210162  163.437653860    79.5999   5  10   0.6687   0.6384   2.4319  -0.3167   0.8495  -0.8079   0.00    0.0
2018/11/10 00:12:45.000  -74.407209356  163.437649895    79.1086   5  10   0.6685   0.6382   2.4357  -0.3174   0.8517  -0.8100   0.00    0.0
2018/11/10 00:13:00.000  -74.407211534  163.437657407    79.6363   5  10   0.6684   0.6380   2.4397  -0.3181   0.8540  -0.8121   0.00    0.0
2018/11/10 00:13:15.000  -74.407212301  163.437652667    79.9443   5  10   0.6683   0.6379   2.4440  -0.3189   0.8564  -0.8143   0.00    0.0
2018/11/10 00:13:30.000  -74.407213188  163.437659148    79.7304   5  11   0.6556   0.6379   2.3531  -0.3184   0.8615  -0.8687   0.00    0.0
2018/11/10 00:13:45.000  -74.407210306  163.437661164    79.5361   5  11   0.6556   0.6380   2.3584  -0.3193   0.8640  -0.8709   0.00    0.0
2018/11/10 00:14:00.000  -74.407212673  163.437652712    79.4203   5  11   0.6558   0.6382   2.3640  -0.3203   0.8666  -0.8733   0.00    0.0
2018/11/10 00:14:15.000  -74.407210189  163.437647625    79.1477   5  11   0.6559   0.6385   2.3698  -0.3214   0.8693  -0.8757   0.00    0.0
2018/11/10 00:14:30.000  -74.407211304  163.437650480    79.3887   5  11   0.6562   0.6389   2.3759  -0.3225   0.8722  -0.8782   0.00    0.0
2018/11/10 00:14:45.000  -74.407208473  163.437643106    79.1448   5  11   0.6565   0.6394   2.3822  -0.3236   0.8751  -0.8808   0.00    0.0
2018/11/10 00:15:00.000  -74.407209389  163.437652871    79.1119   5  11   0.6569   0.6399   2.3888  -0.3248   0.8782  -0.8836   0.00    0.0
2018/11/10 00:15:15.000  -74.407210588  163.437647475    80.3049   5  11   0.6574   0.6406   2.3958  -0.3261   0.8814  -0.8864   0.00    0.0
2018/11/10 00:15:30.000  -74.407208691  163.437654588    80.0693   5  11   0.6580   0.6413   2.4030  -0.3275   0.8848  -0.8894   0.00    0.0
2018/11/10 00:15:45.000  -74.407209341  163.437645341    79.4326   5  11   0.6587   0.6422   2.4104  -0.3289   0.8883  -0.8924   0.00    0.0
2018/11/10 00:16:00.000  -74.407211146  163.437654612    80.2539   5  11   0.6594   0.6431   2.4182  -0.3303   0.8919  -0.8956   0.00    0.0
2018/11/10 00:16:15.000  -74.407211004  163.437651075    79.7517   5  11   0.6602   0.6441   2.4261  -0.3318   0.8955  -0.8988   0.00    0.0
2018/11/10 00:16:30.000  -74.407209494  163.437656417    80.1916   5  11   0.6610   0.6453   2.4343  -0.3334   0.8993  -0.9021   0.00    0.0
2018/11/10 00:16:45.000  -74.407211859  163.437649027    79.4643   5  11   0.6620   0.6464   2.4427  -0.3349   0.9032  -0.9055   0.00    0.0
2018/11/10 00:17:00.000  -74.407208909  163.437664067    80.0483   5  11   0.6630   0.6477   2.4514  -0.3366   0.9072  -0.9090   0.00    0.0
2018/11/10 00:17:15.000  -74.407208676  163.437647689    78.6059   5  11   0.6640   0.6491   2.4603  -0.3383   0.9113  -0.9126   0.00    0.0
2018/11/10 00:17:30.000  -74.407210895  163.437648659    78.6696   5  11   0.6652   0.6505   2.4694  -0.3400   0.9155  -0.9162   0.00    0.0
2018/11/10 00:17:45.000  -74.407211427  163.437653119    79.4742   5  11   0.6650   0.6503   2.4728  -0.3406   0.9170  -0.9179   0.00    0.0
2018/11/10 00:18:00.000  -74.407210501  163.437655126    78.9024   5  11   0.6649   0.6501   2.4763  -0.3412   0.9186  -0.9197   0.00    0.0
2018/11/10 00:18:15.000  -74.407208987  163.437659215    79.1818   5  11   0.6649   0.6499   2.4801  -0.3419   0.9202  -0.9215   0.00    0.0
2018/11/10 00:18:30.000  -74.407211903  163.437662773    80.0047   5  11   0.6649   0.6498   2.4840  -0.3427   0.9220  -0.9234   0.00    0.0
2018/11/10 00:18:45.000  -74.407208884  163.437650640    78.7912   5  11   0.6650   0.6499   2.4882  -0.3435   0.9238  -0.9253   0.00    0.0
2018/11/10 00:19:00.000  -74.407210618  163.437654501    79.5632   5  11   0.6652   0.6500   2.4926  -0.3443   0.9258  -0.9274   0.00    0.0
2018/11/10 00:19:15.000  -74.407209695  163.437651351    79.3695   5  11   0.6654   0.6501   2.4971  -0.3451   0.9278  -0.9295   0.00    0.0
2018/11/10 00:19:30.000  -74.407209963  163.437657100    79.2599   5  11   0.6657   0.6504   2.5019  -0.3461   0.9299  -0.9317   0.00    0.0
2018/11/10 00:19:45.000  -74.407209936  163.437646659    79.7691   5  11   0.6661   0.6507   2.5069  -0.3470   0.9321  -0.9339   0.00    0.0
2018/11/10 00:20:00.000  -74.407210272  163.437653470    78.6508   5  11   0.6666   0.6511   2.5121  -0.3480   0.9344  -0.9363   0.00    0.0
2018/11/10 00:20:15.000  -74.407210172  163.437654047    79.8060   5  11   0.6671   0.6517   2.5176  -0.3491   0.9368  -0.9388   0.00    0.0
2018/11/10 00:20:30.000  -74.407209241  163.437654038    79.3862   5  11   0.6677   0.6523   2.5233  -0.3502   0.9393  -0.9413   0.00    0.0
2018/11/10 00:20:45.000  -74.407209594  163.437649916    78.8628   5  11   0.6684   0.6530   2.5292  -0.3513   0.9419  -0.9439   0.00    0.0
2018/11/10 00:21:00.000  -74.407210040  163.437644914    79.2310   5  11   0.6691   0.6538   2.5352  -0.3525   0.9446  -0.9466   0.00    0.0
2018/11/10 00:21:15.000  -74.407210697  163.437652970    79.8833   5  11   0.6699   0.6546   2.5415  -0.3537   0.9474  -0.9493   0.00    0.0
2018/11/10 00:21:30.000  -74.407208205  163.437650723    79.4607   5  11   0.6708   0.6556   2.5479  -0.3549   0.9502  -0.9521   0.00    0.0
2018/11/10 00:21:45.000  -74.407208859  163.437640942    78.5654   5  11   0.6717   0.6566   2.5545  -0.3562   0.9531  -0.9549   0.00    0.0
2018/11/10 00:22:00.000  -74.407208461  163.437653578    79.6018   5  11   0.6727   0.6577   2.5613  -0.3575   0.9560  -0.9579   0.00    0.0
2018/11/10 00:22:15.000  -74.407209575  163.437655384    78.9714   5  11   0.6738   0.6588   2.5682  -0.3589   0.9590  -0.9608   0.00    0.0
2018/11/10 00:22:30.000  -74.407209956  163.437648168    79.1469   5  11   0.6749   0.6600   2.5753  -0.3602   0.9621  -0.9638   0.00    0.0
2018/11/10 00:22:45.000  -74.407209477  163.437647310    79.6004   5  11   0.6747   0.6595   2.5765  -0.3605   0.9625  -0.9648   0.00    0.0
2018/11/10 00:23:00.000  -74.407209723  163.437642290    78.6628   5  11   0.6746   0.6590   2.5778  -0.3608   0.9629  -0.9659   0.00    0.0
2018/11/10 00:23:15.000  -74.407208230  163.437653691    79.2282   5  11   0.6745   0.6587   2.5794  -0.3611   0.9635  -0.9670   0.00    0.0
2018/11/10 00:23:30.000  -74.407210800  163.437655254    79.3877   5  11   0.6745   0.6584   2.5811  -0.3615   0.9641  -0.9682   0.00    0.0
2018/11/10 00:23:45.000  -74.407210182  163.437646022    79.0235   5  11   0.6746   0.6581   2.5829  -0.3619   0.9648  -0.9694   0.00    0.0
2018/11/10 00:24:00.000  -74.407209593  163.437649654    79.2718   5  11   0.6747   0.6580   2.5849  -0.3624   0.9655  -0.9707   0.00    0.0
2018/11/10 00:24:15.000  -74.407211205  163.437651205    79.1735   5  11   0.6749   0.6579   2.5870  -0.3628   0.9663  -0.9720   0.00    0.0
2018/11/10 00:24:30.000  -74.407210419  163.437646419    79.6230   5  11   0.6752   0.6579   2.5893  -0.3633   0.9671  -0.9734   0.00    0.0
2018/11/10 00:24:45.000  -74.407210087  163.437653071    79.1447   5  11   0.6755   0.6579   2.5917  -0.3638   0.9680  -0.9748   0.00    0.0
2018/11/10 00:25:00.000  -74.407206093  163.437641751    78.0417   5  11   0.6758   0.6581   2.5943  -0.3644   0.9690  -0.9763   0.00    0.0
2018/11/10 00:25:15.000  -74.407209153  163.437641336    78.5454   5  11   0.6763   0.6583   2.5971  -0.3650   0.9701  -0.9779   0.00    0.0
2018/11/10 00:25:30.000  -74.407210645  163.437655429    78.7619   5  11   0.6768   0.6586   2.6000  -0.3656   0.9712  -0.9795   0.00    0.0
2018/11/10 00:25:45.000  -74.407211226  163.437659279    79.3398   5  11   0.6774   0.6590   2.6031  -0.3663   0.9723  -0.9811   0.00    0.0
2018/11/10 00:26:00.000  -74.407210730  163.437655622    79.9900   5  11   0.6780   0.6594   2.6063  -0.3669   0.9735  -0.9828   0.00    0.0
2018/11/10 00:26:15.000  -74.407208846  163.437654532    79.7429   5  11   0.6787   0.6599   2.6096  -0.3676   0.9748  -0.9845   0.00    0.0
2018/11/10 00:26:30.000  -74.407210453  163.437654587    79.3396   5  11   0.6795   0.6605   2.6131  -0.3683   0.9761  -0.9863   0.00    0.0
2018/11/10 00:26:45.000  -74.407208024  163.437649058    79.6145   5  11   0.6803   0.6612   2.6166  -0.3691   0.9774  -0.9881   0.00    0.0
2018/11/10 00:27:00.000  -74.407208861  163.437645374    78.8375   5  11   0.6811   0.6619   2.6203  -0.3698   0.9788  -0.9899   0.00    0.0
2018/11/10 00:27:15.000  -74.407210907  163.437651162    79.4170   5  11   0.6820   0.6626   2.6241  -0.3706   0.9802  -0.9918   0.00    0.0
2018/11/10 00:27:30.000  -74.407207393  163.437644463    77.9903   5  11   0.6830   0.6634   2.6280  -0.3714   0.9816  -0.9937   0.00    0.0
2018/11/10 00:27:45.000  -74.407208103  163.437641508    77.3932   5  11   0.6827   0.6625   2.6260  -0.3711   0.9805  -0.9936   0.00    0.0
2018/11/10 00:28:00.000  -74.407209747  163.437638092    78.6374   5  11   0.6824   0.6617   2.6243  -0.3709   0.9794  -0.9936   0.00    0.0
2018/11/10 00:28:15.000  -74.407208386  163.437639675    77.8484   5  11   0.6822   0.6610   2.6226  -0.3707   0.9784  -0.9936   0.00    0.0
2018/11/10 00:28:30.000  -74.407205689  163.437639281    77.9370   5  11   0.6821   0.6604   2.6211  -0.3705   0.9774  -0.9937   0.00    0.0
2018/11/10 00:28:45.000  -74.407208700  163.437640582    77.1262   5  11   0.6820   0.6598   2.6197  -0.3704   0.9765  -0.9937   0.00    0.0
2018/11/10 00:29:00.000  -74.407211184  163.437651913    79.4265   5  11   0.6820   0.6592   2.6184  -0.3702   0.9756  -0.9939   0.00    0.0
2018/11/10 00:29:15.000  -74.407210398  163.437642883    78.8130   5  11   0.6820   0.6588   2.6172  -0.3701   0.9748  -0.9940   0.00    0.0
2018/11/10 00:29:30.000  -74.407211146  163.437645036    78.5550   5  11   0.6821   0.6584   2.6161  -0.3700   0.9740  -0.9942   0.00    0.0
2018/11/10 00:29:45.000  -74.407212239  163.437647565    79.9237   5  11   0.6822   0.6581   2.6152  -0.3699   0.9732  -0.9944   0.00    0.0
2018/11/10 00:30:00.000  -74.407209667  163.437633247    78.0550   5  11   0.6824   0.6578   2.6143  -0.3699   0.9725  -0.9947   0.00    0.0
2018/11/10 00:30:15.000  -74.407206832  163.437642629    77.7799   5  11   0.6827   0.6576   2.6137  -0.3698   0.9718  -0.9950   0.00    0.0
2018/11/10 00:30:30.000  -74.407207299  163.437645046    77.8296   5  11   0.6830   0.6575   2.6131  -0.3698   0.9712  -0.9953   0.00    0.0
2018/11/10 00:30:45.000  -74.407207842  163.437641109    78.2247   5  11   0.6834   0.6575   2.6127  -0.3698   0.9706  -0.9957   0.00    0.0
2018/11/10 00:31:00.000  -74.407208403  163.437641110    77.8687   5  11   0.6838   0.6575   2.6124  -0.3699   0.9701  -0.9961   0.00    0.0
2018/11/10 00:31:15.000  -74.407206507  163.437646929    77.7958   5  11   0.6843   0.6576   2.6122  -0.3699   0.9695  -0.9965   0.00    0.0
2018/11/10 00:31:30.000  -74.407207727  163.437638858    78.4090   5  11   0.6849   0.6577   2.6120  -0.3699   0.9690  -0.9970   0.00    0.0
2018/11/10 00:31:45.000  -74.407209278  163.437641761    78.0695   5  11   0.6854   0.6579   2.6120  -0.3700   0.9685  -0.9974   0.00    0.0
2018/11/10 00:32:00.000  -74.407208815  163.437647179    78.4626   5  11   0.6861   0.6581   2.6121  -0.3700   0.9681  -0.9979   0.00    0.0
2018/11/10 00:32:15.000  -74.407208513  163.437653721    77.6932   5  11   0.6868   0.6585   2.6123  -0.3701   0.9676  -0.9984   0.00    0.0
2018/11/10 00:32:30.000  -74.407207803  163.437653044    78.0641   5  11   0.6875   0.6588   2.6125  -0.3702   0.9672  -0.9989   0.00    0.0
2018/11/10 00:32:45.000  -74.407208947  163.437650007    77.7155   5  11   0.6870   0.6577   2.6073  -0.3694   0.9645  -0.9976   0.00    0.0
2018/11/10 00:33:00.000  -74.407207067  163.437644462    77.7545   5  11   0.6866   0.6565   2.6022  -0.3685   0.9618  -0.9964   0.00    0.0
2018/11/10 00:33:15.000  -74.407207342  163.437648144    77.9575   5  11   0.6862   0.6554   2.5972  -0.3677   0.9592  -0.9952   0.00    0.0
2018/11/10 00:33:30.000  -74.407209038  163.437650867    78.3983   5  11   0.6859   0.6544   2.5923  -0.3669   0.9566  -0.9940   0.00    0.0
2018/11/10 00:33:45.000  -74.407207015  163.437646256    77.1761   5  11   0.6856   0.6534   2.5875  -0.3662   0.9540  -0.9929   0.00    0.0
2018/11/10 00:34:00.000  -74.407207330  163.437638711    76.6851   5  11   0.6853   0.6525   2.5829  -0.3654   0.9515  -0.9917   0.00    0.0
2018/11/10 00:34:15.000  -74.407208239  163.437645504    77.7218   5  11   0.6852   0.6517   2.5784  -0.3647   0.9490  -0.9907   0.00    0.0
2018/11/10 00:34:30.000  -74.407206989  163.437650043    78.0015   5  11   0.6851   0.6509   2.5740  -0.3640   0.9465  -0.9896   0.00    0.0
2018/11/10 00:34:45.000  -74.407209243  163.437650752    78.6348   5  11   0.6850   0.6502   2.5698  -0.3632   0.9441  -0.9886   0.00    0.0
2018/11/10 00:35:00.000  -74.407208879  163.437658834    77.9909   5  11   0.6850   0.6496   2.5657  -0.3626   0.9417  -0.9876   0.00    0.0
2018/11/10 00:35:15.000  -74.407207578  163.437651042    77.9009   5  11   0.6850   0.6490   2.5618  -0.3619   0.9394  -0.9867   0.00    0.0
2018/11/10 00:35:30.000  -74.407207090  163.437646677    77.7138   5  11   0.6852   0.6486   2.5580  -0.3613   0.9371  -0.9858   0.00    0.0
2018/11/10 00:35:45.000  -74.407208419  163.437647179    76.8884   5  11   0.6853   0.6482   2.5544  -0.3606   0.9349  -0.9849   0.00    0.0
2018/11/10 00:36:00.000  -74.407208511  163.437646453    77.4400   5  11   0.6856   0.6478   2.5509  -0.3600   0.9327  -0.9841   0.00    0.0
2018/11/10 00:36:15.000  -74.407208417  163.437653600    77.4714   5  11   0.6858   0.6476   2.5475  -0.3594   0.9305  -0.9832   0.00    0.0
2018/11/10 00:36:30.000  -74.407207715  163.437647930    77.4406   5  11   0.6862   0.6474   2.5443  -0.3588   0.9284  -0.9825   0.00    0.0
2018/11/10 00:36:45.000  -74.407207499  163.437644527    77.7559   5  11   0.6866   0.6472   2.5412  -0.3582   0.9263  -0.9817   0.00    0.0
2018/11/10 00:37:00.000  -74.407206042  163.437633928    77.7912   5  11   0.6870   0.6471   2.5382  -0.3576   0.9242  -0.9810   0.00    0.0
2018/11/10 00:37:15.000  -74.407206375  163.437645294    77.9022   5  11   0.6875   0.6471   2.5354  -0.3571   0.9222  -0.9803   0.00    0.0
2018/11/10 00:37:30.000  -74.407206092  163.437646798    78.1293   5  11   0.6880   0.6471   2.5327  -0.3565   0.9202  -0.9796   0.00    0.0
2018/11/10 00:37:45.000  -74.407205777  163.437641355    78.6546   5  11   0.6874   0.6456   2.5248  -0.3551   0.9160  -0.9773   0.00    0.0
2018/11/10 00:38:00.000  -74.407209179  163.437647793    78.7813   5  11   0.6868   0.6442   2.5171  -0.3538   0.9120  -0.9751   0.00    0.0
2018/11/10 00:38:15.000  -74.407206485  163.437653074    77.7836   5  10   0.9399   0.6759   3.5823  -0.5082   1.1654  -1.6088   0.00    0.0
2018/11/10 00:38:30.000  -74.407205464  163.437642516    76.8728   5  10   0.9384   0.6742   3.5709  -0.5060   1.1598  -1.6045   0.00    0.0
2018/11/10 00:38:45.000  -74.407205387  163.437649102    77.9049   5  10   0.9371   0.6725   3.5596  -0.5037   1.1542  -1.6002   0.00    0.0
2018/11/10 00:39:00.000  -74.407208603  163.437644015    78.2660   5  10   0.9357   0.6710   3.5484  -0.5015   1.1487  -1.5960   0.00    0.0
2018/11/10 00:39:15.000  -74.407208239  163.437643555    78.6575   5  10   0.9345   0.6695   3.5373  -0.4993   1.1432  -1.5918   0.00    0.0
2018/11/10 00:39:30.000  -74.407203977  163.437643732    76.3789   5  10   0.9332   0.6680   3.5264  -0.4971   1.1377  -1.5877   0.00    0.0
2018/11/10 00:39:45.000  -74.407206988  163.437647323    77.4658   5  10   0.9321   0.6667   3.5157  -0.4949   1.1322  -1.5836   0.00    0.0
2018/11/10 00:40:00.000  -74.407210412  163.437657599    80.2490   5  10   0.9310   0.6654   3.5051  -0.4927   1.1267  -1.5796   0.00    0.0
2018/11/10 00:40:15.000  -74.407205725  163.437640460    76.7784   5  10   0.9300   0.6641   3.4948  -0.4905   1.1214  -1.5757   0.00    0.0
2018/11/10 00:40:30.000  -74.407207895  163.437651950    78.9663   5  10   0.9291   0.6630   3.4848  -0.4883   1.1161  -1.5719   0.00    0.0
2018/11/10 00:40:45.000  -74.407206707  163.437645140    78.1755   5  10   0.9283   0.6619   3.4749  -0.4862   1.1108  -1.5682   0.00    0.0
2018/11/10 00:41:00.000  -74.407207382  163.437650147    77.2406   5  10   0.9275   0.6609   3.4652  -0.4841   1.1055  -1.5645   0.00    0.0
2018/11/10 00:41:15.000  -74.407210031  163.437653150    78.4766   5  10   0.9268   0.6600   3.4557  -0.4819   1.1003  -1.5610   0.00    0.0
2018/11/10 00:41:30.000  -74.407204098  163.437643292    77.2533   5  10   0.9261   0.6591   3.4465  -0.4798   1.0951  -1.5575   0.00    0.0
2018/11/10 00:41:45.000  -74.407205990  163.437645665    78.2100   5  10   0.9255   0.6583   3.4375  -0.4777   1.0899  -1.5540   0.00    0.0
2018/11/10 00:42:00.000  -74.407207337  163.437653228    78.4267   5   9   0.9292   0.6576   3.6815  -0.4747   1.0785  -1.5882   0.00    0.0
2018/11/10 00:42:15.000  -74.407205507  163.437657975    77.0384   5   9   0.9289   0.6569   3.6756  -0.4726   1.0734  -1.5858   0.00    0.0
2018/11/10 00:42:30.000  -74.407205334  163.437651072    75.6532   5   9   0.9286   0.6563   3.6700  -0.4705   1.0683  -1.5834   0.00    0.0
2018/11/10 00:42:45.000  -74.407206019  163.437655052    77.2573   5   9   0.9260   0.6541   3.6529  -0.4670   1.0601  -1.5763   0.00    0.0
2018/11/10 00:43:00.000  -74.407204345  163.437656871    77.8366   5   9   0.9236   0.6520   3.6361  -0.4636   1.0520  -1.5694   0.00    0.0
2018/11/10 00:43:15.000  -74.407205257  163.437645991    77.6709   5   9   0.9212   0.6500   3.6196  -0.4601   1.0439  -1.5625   0.00    0.0
2018/11/10 00:43:30.000  -74.407204907  163.437646371    77.6033   5   9   0.9189   0.6481   3.6034  -0.4568   1.0359  -1.5558   0.00    0.0
2018/11/10 00:43:45.000  -74.407205684  163.437651382    78.9913   5   9   0.9166   0.6463   3.5875  -0.4534   1.0280  -1.5492   0.00    0.0
2018/11/10 00:44:00.000  -74.407205824  163.437645605    77.5015   5   9   0.9145   0.6445   3.5720  -0.4501   1.0202  -1.5427   0.00    0.0
2018/11/10 00:44:15.000  -74.407204032  163.437647585    76.5334   5   9   0.9125   0.6429   3.5568  -0.4468   1.0124  -1.5364   0.00    0.0
2018/11/10 00:44:30.000  -74.407206343  163.437653768    77.0948   5   9   0.9105   0.6413   3.5419  -0.4435   1.0047  -1.5302   0.00    0.0
2018/11/10 00:44:45.000  -74.407205938  163.437643187    77.4477   5  10   0.7476   0.6357   2.6735  -0.3956   0.9096  -1.0651   0.00    0.0
2018/11/10 00:45:00.000  -74.407206785  163.437650848    78.2342   5  10   0.7472   0.6346   2.6686  -0.3942   0.9058  -1.0633   0.00    0.0
2018/11/10 00:45:15.000  -74.407208190  163.437647059    77.6880   5  10   0.7470   0.6336   2.6640  -0.3930   0.9020  -1.0616   0.00    0.0
2018/11/10 00:45:30.000  -74.407207670  163.437649056    78.0887   5  10   0.7467   0.6327   2.6596  -0.3917   0.8983  -1.0599   0.00    0.0
2018/11/10 00:45:45.000  -74.407209684  163.437656676    79.5285   5  10   0.7466   0.6318   2.6555  -0.3904   0.8947  -1.0583   0.00    0.0
2018/11/10 00:46:00.000  -74.407206951  163.437649066    77.7837   5  10   0.7465   0.6310   2.6515  -0.3892   0.8910  -1.0568   0.00    0.0
2018/11/10 00:46:15.000  -74.407208479  163.437655402    77.9904   5  10   0.7465   0.6303   2.6478  -0.3881   0.8875  -1.0553   0.00    0.0
2018/11/10 00:46:30.000  -74.407208202  163.437648238    77.7305   5  10   0.7466   0.6297   2.6444  -0.3869   0.8840  -1.0539   0.00    0.0
2018/11/10 00:46:45.000  -74.407206069  163.437646909    76.6940   5  10   0.7467   0.6291   2.6412  -0.3858   0.8805  -1.0526   0.00    0.0
2018/11/10 00:47:00.000  -74.407207278  163.437649622    77.8180   5  10   0.7469   0.6286   2.6383  -0.3847   0.8771  -1.0513   0.00    0.0
2018/11/10 00:47:15.000  -74.407210027  163.437649895    78.2979   5  10   0.7471   0.6282   2.6356  -0.3836   0.8737  -1.0501   0.00    0.0
2018/11/10 00:47:30.000  -74.407207342  163.437658047    78.1824   5  10   0.7475   0.6278   2.6332  -0.3825   0.8704  -1.0489   0.00    0.0
2018/11/10 00:47:45.000  -74.407209325  163.437652715    77.4165   5  10   0.7464   0.6261   2.6242  -0.3806   0.8651  -1.0458   0.00    0.0
2018/11/10 00:48:00.000  -74.407207802  163.437662281    78.0032   5  10   0.7454   0.6244   2.6153  -0.3787   0.8597  -1.0426   0.00    0.0
2018/11/10 00:48:15.000  -74.407210271  163.437656107    78.1498   5  10   0.7444   0.6227   2.6067  -0.3767   0.8544  -1.0395   0.00    0.0
2018/11/10 00:48:30.000  -74.407209552  163.437656171    78.3045   5  10   0.7435   0.6212   2.5984  -0.3749   0.8492  -1.0364   0.00    0.0
2018/11/10 00:48:45.000  -74.407212120  163.437669964    78.9293   5  10   0.7427   0.6197   2.5903  -0.3730   0.8440  -1.0334   0.00    0.0
2018/11/10 00:49:00.000  -74.407211420  163.437656669    77.7123   5  10   0.7420   0.6183   2.5825  -0.3712   0.8389  -1.0305   0.00    0.0
2018/11/10 00:49:15.000  -74.407209389  163.437670206    78.1988   5  10   0.7413   0.6169   2.5749  -0.3694   0.8339  -1.0277   0.00    0.0
2018/11/10 00:49:30.000  -74.407210716  163.437647512    76.8886   5  10   0.7407   0.6157   2.5676  -0.3676   0.8289  -1.0250   0.00    0.0
2018/11/10 00:49:45.000  -74.407209005  163.437658949    76.8091   5  10   0.7402   0.6145   2.5606  -0.3659   0.8240  -1.0224   0.00    0.0
2018/11/10 00:50:00.000  -74.407209392  163.437658597    76.5895   5  10   0.7397   0.6134   2.5540  -0.3642   0.8192  -1.0198   0.00    0.0
2018/11/10 00:50:15.000  -74.407209175  163.437658126    76.9238   5  10   0.7393   0.6124   2.5477  -0.3626   0.8145  -1.0174   0.00    0.0
2018/11/10 00:50:30.000  -74.407210426  163.437662694    77.1482   5  10   0.7390   0.6115   2.5417  -0.3610   0.8098  -1.0150   0.00    0.0
2018/11/10 00:50:45.000  -74.407208499  163.437661421    77.4985   5  10   0.7388   0.6107   2.5360  -0.3595   0.8052  -1.0128   0.00    0.0
2018/11/10 00:51:00.000  -74.407211240  163.437674283    78.2752   5  10   0.7387   0.6099   2.5307  -0.3579   0.8007  -1.0106   0.00    0.0
2018/11/10 00:51:15.000  -74.407211110  163.437659380    78.2649   5  10   0.7386   0.6092   2.5256  -0.3565   0.7963  -1.0085   0.00    0.0
2018/11/10 00:51:30.000  -74.407205186  163.437661424    76.7216   5  10   0.7386   0.6086   2.5209  -0.3550   0.7919  -1.0065   0.00    0.0
2018/11/10 00:51:45.000  -74.407207025  163.437656997    76.7014   5  10   0.7386   0.6081   2.5165  -0.3536   0.7875  -1.0046   0.00    0.0
2018/11/10 00:52:00.000  -74.407208102  163.437653879    77.4989   5  10   0.7387   0.6076   2.5124  -0.3522   0.7833  -1.0028   0.00    0.0
2018/11/10 00:52:15.000  -74.407210779  163.437650510    78.6106   5  10   0.7389   0.6072   2.5086  -0.3508   0.7791  -1.0011   0.00    0.0
2018/11/10 00:52:30.000  -74.407210112  163.437652820    77.9956   5  10   0.7392   0.6069   2.5052  -0.3495   0.7749  -0.9994   0.00    0.0
2018/11/10 00:52:45.000  -74.407207942  163.437660584    77.2175   5  10   0.7381   0.6053   2.4951  -0.3473   0.7689  -0.9957   0.00    0.0
2018/11/10 00:53:00.000  -74.407206932  163.437657255    77.3396   5  10   0.7370   0.6037   2.4851  -0.3452   0.7629  -0.9921   0.00    0.0
2018/11/10 00:53:15.000  -74.407206182  163.437648687    76.6681   5  10   0.7361   0.6022   2.4755  -0.3431   0.7570  -0.9885   0.00    0.0
2018/11/10 00:53:30.000  -74.407204242  163.437650974    76.5940   5  10   0.7352   0.6007   2.4661  -0.3410   0.7512  -0.9851   0.00    0.0
2018/11/10 00:53:45.000  -74.407207263  163.437650079    77.2976   5  10   0.7344   0.5994   2.4571  -0.3389   0.7454  -0.9817   0.00    0.0
2018/11/10 00:54:00.000  -74.407208700  163.437649077    77.5406   5  10   0.7336   0.5981   2.4485  -0.3369   0.7397  -0.9785   0.00    0.0
2018/11/10 00:54:15.000  -74.407206046  163.437642077    76.9064   5  10   0.7329   0.5969   2.4402  -0.3350   0.7342  -0.9753   0.00    0.0
2018/11/10 00:54:30.000  -74.407209927  163.437657256    79.3021   5  10   0.7323   0.5958   2.4322  -0.3331   0.7286  -0.9723   0.00    0.0
2018/11/10 00:54:45.000  -74.407208845  163.437651392    77.1850   5  10   0.7318   0.5948   2.4246  -0.3312   0.7232  -0.9693   0.00    0.0
2018/11/10 00:55:00.000  -74.407206033  163.437648792    76.9259   5  10   0.7313   0.5938   2.4174  -0.3294   0.7178  -0.9665   0.00    0.0
2018/11/10 00:55:15.000  -74.407207705  163.437659653    77.1748   5  10   0.7310   0.5930   2.4106  -0.3276   0.7126  -0.9638   0.00    0.0
2018/11/10 00:55:30.000  -74.407209861  163.437654977    77.9097   5  10   0.7307   0.5922   2.4042  -0.3258   0.7074  -0.9612   0.00    0.0
2018/11/10 00:55:45.000  -74.407209781  163.437651341    78.6204   5  10   0.7305   0.5915   2.3982  -0.3241   0.7023  -0.9588   0.00    0.0
2018/11/10 00:56:00.000  -74.407207373  163.437651572    77.1628   5  10   0.7304   0.5909   2.3925  -0.3225   0.6972  -0.9564   0.00    0.0
2018/11/10 00:56:15.000  -74.407210200  163.437655015    78.0658   5  10   0.7303   0.5904   2.3872  -0.3208   0.6923  -0.9541   0.00    0.0
2018/11/10 00:56:30.000  -74.407207281  163.437657679    76.9999   5  10   0.7303   0.5900   2.3823  -0.3192   0.6873  -0.9520   0.00    0.0
2018/11/10 00:56:45.000  -74.407209806  163.437662738    77.5345   5  10   0.7304   0.5896   2.3777  -0.3176   0.6825  -0.9499   0.00    0.0
2018/11/10 00:57:00.000  -74.407208575  163.437659884    77.6406   5  10   0.7306   0.5893   2.3735  -0.3161   0.6777  -0.9480   0.00    0.0
2018/11/10 00:57:15.000  -74.407209095  163.437657802    78.1245   5  10   0.7308   0.5891   2.3697  -0.3146   0.6729  -0.9461   0.00    0.0
2018/11/10 00:57:30.000  -74.407209120  163.437656195    78.0949   5  10   0.7311   0.5889   2.3662  -0.3131   0.6682  -0.9443   0.00    0.0
2018/11/10 00:57:45.000  -74.407209266  163.437651598    76.9954   5  10   0.7300   0.5874   2.3557  -0.3108   0.6618  -0.9405   0.00    0.0
2018/11/10 00:58:00.000  -74.407208345  163.437654261    77.1103   5  10   0.7291   0.5861   2.3458  -0.3086   0.6555  -0.9368   0.00    0.0
2018/11/10 00:58:15.000  -74.407208381  163.437655226    78.4021   5  10   0.7282   0.5848   2.3362  -0.3065   0.6494  -0.9333   0.00    0.0
2018/11/10 00:58:30.000  -74.407208875  163.437653877    78.1304   5  10   0.7274   0.5836   2.3270  -0.3044   0.6433  -0.9299   0.00    0.0
2018/11/10 00:58:45.000  -74.407209289  163.437655132    77.9820   5  10   0.7267   0.5825   2.3182  -0.3023   0.6373  -0.9265   0.00    0.0
2018/11/10 00:59:00.000  -74.407209260  163.437645544    77.5886   5  10   0.7260   0.5815   2.3097  -0.3003   0.6314  -0.9233   0.00    0.0
2018/11/10 00:59:15.000  -74.407207950  163.437651582    76.9182   5  10   0.7254   0.5806   2.3017  -0.2983   0.6255  -0.9203   0.00    0.0
2018/11/10 00:59:30.000  -74.407208603  163.437651907    76.8711   5  10   0.7249   0.5797   2.2940  -0.2964   0.6197  -0.9173   0.00    0.0
2018/11/10 00:59:45.000  -74.407210770  163.437647651    77.1285   5  10   0.7245   0.5789   2.2867  -0.2944   0.6140  -0.9144   0.00    0.0
2018/11/10 01:00:00.000  -74.407208358  163.437656713    76.6972   5  10   0.7241   0.5782   2.2798  -0.2926   0.6083  -0.9117   0.00    0.0
2018/11/10 01:00:15.000  -74.407213493  163.437658743    78.7332   5  10   0.7238   0.5776   2.2734  -0.2907   0.6027  -0.9090   0.00    0.0
2018/11/10 01:00:30.000  -74.407208810  163.437652144    77.1515   5  10   0.7237   0.5771   2.2674  -0.2889   0.5972  -0.9065   0.00    0.0
2018/11/10 01:00:45.000  -74.407212413  163.437644108    77.2887   5  10   0.7235   0.5766   2.2618  -0.2872   0.5917  -0.9041   0.00    0.0
2018/11/10 01:01:00.000  -74.407211307  163.437657104    78.2760   5  10   0.7235   0.5762   2.2565  -0.2854   0.5863  -0.9019   0.00    0.0
2018/11/10 01:01:15.000  -74.407209648  163.437654297    78.0771   5  10   0.7235   0.5759   2.2517  -0.2837   0.5809  -0.8997   0.00    0.0
2018/11/10 01:01:30.000  -74.407213572  163.437651183    79.1998   5  10   0.7236   0.5757   2.2472  -0.2821   0.5755  -0.8976   0.00    0.0
2018/11/10 01:01:45.000  -74.407211200  163.437647449    78.3786   5  10   0.7238   0.5756   2.2431  -0.2804   0.5702  -0.8957   0.00    0.0
2018/11/10 01:02:00.000  -74.407212451  163.437662396    78.2528   5  10   0.7240   0.5755   2.2393  -0.2788   0.5649  -0.8938   0.00    0.0
2018/11/10 01:02:15.000  -74.407210893  163.437644746    77.7680   5  10   0.7243   0.5755   2.2360  -0.2772   0.5596  -0.8921   0.00    0.0
2018/11/10 01:02:30.000  -74.407210691  163.437640788    77.5472   5  10   0.7247   0.5756   2.2330  -0.2757   0.5544  -0.8904   0.00    0.0
2018/11/10 01:02:45.000  -74.407212982  163.437644020    78.3022   5  10   0.7238   0.5744   2.2234  -0.2735   0.5479  -0.8869   0.00    0.0
2018/11/10 01:03:00.000  -74.407210107  163.437646387    78.3458   5  10   0.7230   0.5734   2.2142  -0.2713   0.5415  -0.8835   0.00    0.0
2018/11/10 01:03:15.000  -74.407211351  163.437648105    78.3744   5  10   0.7223   0.5724   2.2054  -0.2692   0.5352  -0.8802   0.00    0.0
2018/11/10 01:03:30.000  -74.407208616  163.437644234    77.7664   5  10   0.7216   0.5715   2.1969  -0.2671   0.5289  -0.8771   0.00    0.0
2018/11/10 01:03:45.000  -74.407210808  163.437653291    78.6388   5  10   0.7210   0.5706   2.1889  -0.2651   0.5226  -0.8740   0.00    0.0
2018/11/10 01:04:00.000  -74.407207551  163.437638354    76.6412   5  10   0.7205   0.5699   2.1812  -0.2631   0.5164  -0.8711   0.00    0.0
2018/11/10 01:04:15.000  -74.407213394  163.437641776    77.5262   5  10   0.7200   0.5692   2.1740  -0.2611   0.5102  -0.8683   0.00    0.0
2018/11/10 01:04:30.000  -74.407211541  163.437648685    78.6314   5  10   0.7196   0.5686   2.1671  -0.2591   0.5041  -0.8656   0.00    0.0
2018/11/10 01:04:45.000  -74.407211049  163.437655119    78.1072   5  10   0.7193   0.5681   2.1606  -0.2572   0.4980  -0.8630   0.00    0.0
2018/11/10 01:05:00.000  -74.407211702  163.437648689    78.4301   5  10   0.7191   0.5676   2.1545  -0.2553   0.4919  -0.8605   0.00    0.0
2018/11/10 01:05:15.000  -74.407206838  163.437647230    78.0868   5  10   0.7190   0.5673   2.1490  -0.2535   0.4859  -0.8582   0.00    0.0
2018/11/10 01:05:30.000  -74.407209881  163.437644875    77.5679   5  10   0.7189   0.5670   2.1438  -0.2517   0.4799  -0.8559   0.00    0.0
2018/11/10 01:05:45.000  -74.407210807  163.437649865    77.9201   5  11   0.6196   0.5495   1.7946  -0.1084   0.2505  -0.5519   0.00    0.0
2018/11/10 01:06:00.000  -74.407209114  163.437652858    77.9811   5  11   0.6198   0.5496   1.7936  -0.1063   0.2433  -0.5512   0.00    0.0
2018/11/10 01:06:15.000  -74.407211144  163.437640450    78.2580   5  11   0.6201   0.5498   1.7929  -0.1041   0.2360  -0.5505   0.00    0.0
2018/11/10 01:06:30.000  -74.407211307  163.437655264    78.2983   5  11   0.6204   0.5501   1.7924  -0.1018   0.2284  -0.5499   0.00    0.0
2018/11/10 01:06:45.000  -74.407209560  163.437639727    77.3969   5  11   0.6208   0.5504   1.7923  -0.0996   0.2204  -0.5492   0.00    0.0
2018/11/10 01:07:00.000  -74.407210658  163.437638406    78.3628   5  11   0.6212   0.5509   1.7924  -0.0972   0.2122  -0.5487   0.00    0.0
2018/11/10 01:07:15.000  -74.407208547  163.437637577    77.6078   5  11   0.6217   0.5513   1.7929  -0.0948   0.2036  -0.5482   0.00    0.0
2018/11/10 01:07:30.000  -74.407210768  163.437646701    78.2578   5  11   0.6222   0.5519   1.7936  -0.0924   0.1945  -0.5477   0.00    0.0
2018/11/10 01:07:45.000  -74.407210518  163.437641131    78.1118   5  11   0.6218   0.5513   1.7892  -0.0899   0.1859  -0.5467   0.00    0.0
2018/11/10 01:08:00.000  -74.407208231  163.437647469    77.4620   5  11   0.6214   0.5508   1.7851  -0.0872   0.1767  -0.5458   0.00    0.0
2018/11/10 01:08:15.000  -74.407210492  163.437648268    77.4963   5  11   0.6211   0.5503   1.7813  -0.0845   0.1670  -0.5449   0.00    0.0
2018/11/10 01:08:30.000  -74.407210820  163.437646511    78.3452   5  11   0.6209   0.5499   1.7778  -0.0816   0.1566  -0.5441   0.00    0.0
2018/11/10 01:08:45.000  -74.407211070  163.437645170    78.5184   5  11   0.6207   0.5496   1.7746  -0.0787   0.1456  -0.5433   0.00    0.0
2018/11/10 01:09:00.000  -74.407210361  163.437646157    77.7910   5  11   0.6205   0.5493   1.7717  -0.0756   0.1337  -0.5425   0.00    0.0
2018/11/10 01:09:15.000  -74.407210221  163.437655599    77.6080   5  11   0.6204   0.5491   1.7690  -0.0724   0.1205  -0.5418   0.00    0.0
2018/11/10 01:09:30.000  -74.407210597  163.437650601    77.8863   5  11   0.6204   0.5490   1.7667  -0.0691   0.1057  -0.5411   0.00    0.0
2018/11/10 01:09:45.000  -74.407212240  163.437639618    77.2400   5  12   0.6129   0.5263   1.6984  -0.1390  -0.2588  -0.5815   0.00    0.0
2018/11/10 01:10:00.000  -74.407208989  163.437639348    77.6496   5  12   0.6128   0.5263   1.6978  -0.1377  -0.2640  -0.5809   0.00    0.0
2018/11/10 01:10:15.000  -74.407209363  163.437644414    76.7852   5  12   0.6128   0.5264   1.6976  -0.1365  -0.2692  -0.5804   0.00    0.0
2018/11/10 01:10:30.000  -74.407208907  163.437646817    77.6559   5  12   0.6129   0.5265   1.6976  -0.1354  -0.2743  -0.5799   0.00    0.0
2018/11/10 01:10:45.000  -74.407210650  163.437643921    76.4380   5  12   0.6130   0.5267   1.6979  -0.1342  -0.2795  -0.5794   0.00    0.0
2018/11/10 01:11:00.000  -74.407212181  163.437646049    76.8230   5  12   0.6132   0.5270   1.6984  -0.1330  -0.2847  -0.5790   0.00    0.0
2018/11/10 01:11:15.000  -74.407211333  163.437633858    77.3240   5  12   0.6134   0.5273   1.6993  -0.1318  -0.2898  -0.5787   0.00    0.0
2018/11/10 01:11:30.000  -74.407211404  163.437643954    78.1679   5  12   0.6136   0.5277   1.7004  -0.1307  -0.2949  -0.5784   0.00    0.0
2018/11/10 01:11:45.000  -74.407212849  163.437642082    78.1950   5  12   0.6139   0.5282   1.7018  -0.1295  -0.3001  -0.5781   0.00    0.0
2018/11/10 01:12:00.000  -74.407210453  163.437635972    77.7236   5  12   0.6143   0.5287   1.7035  -0.1283  -0.3053  -0.5779   0.00    0.0
2018/11/10 01:12:15.000  -74.407212341  163.437637401    78.3148   5  12   0.6147   0.5293   1.7055  -0.1272  -0.3104  -0.5778   0.00    0.0
2018/11/10 01:12:30.000  -74.407211439  163.437638062    78.0824   5  12   0.6151   0.5299   1.7078  -0.1260  -0.3156  -0.5776   0.00    0.0
2018/11/10 01:12:45.000  -74.407212211  163.437641169    78.5272   5  12   0.6147   0.5294   1.7053  -0.1245  -0.3193  -0.5768   0.00    0.0
2018/11/10 01:13:00.000  -74.407212989  163.437638022    77.3235   5  12   0.6143   0.5291   1.7029  -0.1230  -0.3228  -0.5760   0.00    0.0
2018/11/10 01:13:15.000  -74.407210461  163.437638552    78.1895   5  12   0.6139   0.5288   1.7008  -0.1216  -0.3264  -0.5752   0.00    0.0
2018/11/10 01:13:30.000  -74.407211447  163.437638360    78.1309   5  12   0.6136   0.5285   1.6989  -0.1201  -0.3300  -0.5745   0.00    0.0
2018/11/10 01:13:45.000  -74.407213372  163.437640665    78.5097   5  12   0.6133   0.5283   1.6973  -0.1186  -0.3337  -0.5738   0.00    0.0
2018/11/10 01:14:00.000  -74.407212891  163.437642975    77.2979   5  12   0.6131   0.5282   1.6960  -0.1172  -0.3373  -0.5732   0.00    0.0
2018/11/10 01:14:15.000  -74.407212413  163.437639180    78.0479   5  12   0.6130   0.5281   1.6949  -0.1157  -0.3410  -0.5726   0.00    0.0
2018/11/10 01:14:30.000  -74.407211340  163.437640082    77.9206   5  12   0.6129   0.5281   1.6942  -0.1143  -0.3448  -0.5721   0.00    0.0
2018/11/10 01:14:45.000  -74.407212652  163.437641641    77.8819   5  12   0.6128   0.5282   1.6937  -0.1128  -0.3486  -0.5716   0.00    0.0
2018/11/10 01:15:00.000  -74.407213471  163.437636721    78.2787   5  12   0.6128   0.5283   1.6935  -0.1113  -0.3524  -0.5712   0.00    0.0
2018/11/10 01:15:15.000  -74.407212774  163.437639872    77.7987   5  12   0.6129   0.5285   1.6937  -0.1099  -0.3563  -0.5708   0.00    0.0
2018/11/10 01:15:30.000  -74.407213619  163.437636834    78.1084   5  12   0.6130   0.5287   1.6942  -0.1084  -0.3602  -0.5705   0.00    0.0
2018/11/10 01:15:45.000  -74.407210652  163.437640715    77.3759   5  12   0.6131   0.5291   1.6949  -0.1070  -0.3641  -0.5702   0.00    0.0
2018/11/10 01:16:00.000  -74.407210281  163.437640294    76.3087   5  12   0.6133   0.5294   1.6960  -0.1055  -0.3682  -0.5699   0.00    0.0
2018/11/10 01:16:15.000  -74.407210023  163.437636140    76.8402   5  12   0.6136   0.5299   1.6973  -0.1040  -0.3722  -0.5697   0.00    0.0
2018/11/10 01:16:30.000  -74.407212106  163.437637962    76.7806   5  12   0.6139   0.5304   1.6989  -0.1025  -0.3763  -0.5696   0.00    0.0
2018/11/10 01:16:45.000  -74.407212466  163.437637368    77.6861   5  12   0.6143   0.5309   1.7008  -0.1011  -0.3804  -0.5695   0.00    0.0
2018/11/10 01:17:00.000  -74.407210477  163.437633618    76.8205   5  12   0.6147   0.5316   1.7030  -0.0996  -0.3846  -0.5694   0.00    0.0
2018/11/10 01:17:15.000  -74.407210932  163.437637379    77.6943   5  12   0.6152   0.5322   1.7055  -0.0981  -0.3888  -0.5694   0.00    0.0
2018/11/10 01:17:30.000  -74.407211370  163.437633898    77.3145   5  12   0.6157   0.5330   1.7082  -0.0966  -0.3931  -0.5695   0.00    0.0
2018/11/10 01:17:45.000  -74.407210026  163.437634951    77.4100   5  12   0.6153   0.5327   1.7059  -0.0948  -0.3957  -0.5688   0.00    0.0
2018/11/10 01:18:00.000  -74.407210345  163.437635852    77.6022   5  12   0.6149   0.5324   1.7039  -0.0929  -0.3985  -0.5681   0.00    0.0
2018/11/10 01:18:15.000  -74.407211264  163.437635919    77.6530   5  12   0.6146   0.5322   1.7021  -0.0910  -0.4013  -0.5675   0.00    0.0
2018/11/10 01:18:30.000  -74.407209397  163.437635858    77.7899   5  12   0.6144   0.5321   1.7006  -0.0891  -0.4041  -0.5669   0.00    0.0
2018/11/10 01:18:45.000  -74.407211165  163.437641780    77.8010   5  12   0.6142   0.5320   1.6994  -0.0872  -0.4070  -0.5664   0.00    0.0
2018/11/10 01:19:00.000  -74.407212043  163.437631808    78.2887   5  12   0.6140   0.5319   1.6985  -0.0852  -0.4099  -0.5660   0.00    0.0
2018/11/10 01:19:15.000  -74.407210478  163.437634632    77.8298   5  12   0.6139   0.5320   1.6979  -0.0832  -0.4129  -0.5656   0.00    0.0
2018/11/10 01:19:30.000  -74.407208939  163.437638683    77.8628   5  12   0.6138   0.5321   1.6975  -0.0812  -0.4160  -0.5652   0.00    0.0
2018/11/10 01:19:45.000  -74.407210605  163.437641072    77.9452   5  12   0.6138   0.5322   1.6975  -0.0792  -0.4191  -0.5649   0.00    0.0
2018/11/10 01:20:00.000  -74.407211284  163.437639341    77.6945   5  12   0.6139   0.5324   1.6977  -0.0771  -0.4222  -0.5646   0.00    0.0
2018/11/10 01:20:15.000  -74.407212232  163.437637735    77.8107   5  12   0.6140   0.5327   1.6983  -0.0750  -0.4255  -0.5644   0.00    0.0
2018/11/10 01:20:30.000  -74.407210671  163.437631985    78.0833   5  12   0.6142   0.5331   1.6992  -0.0729  -0.4288  -0.5642   0.00    0.0
2018/11/10 01:20:45.000  -74.407209475  163.437641147    77.6105   5  12   0.6144   0.5335   1.7004  -0.0707  -0.4321  -0.5641   0.00    0.0
2018/11/10 01:21:00.000  -74.407211407  163.437633421    77.5423   5  12   0.6147   0.5340   1.7019  -0.0685  -0.4355  -0.5640   0.00    0.0
2018/11/10 01:21:15.000  -74.407211307  163.437638598    77.8771   5  12   0.6150   0.5345   1.7036  -0.0662  -0.4390  -0.5640   0.00    0.0
2018/11/10 01:21:30.000  -74.407211600  163.437634971    78.5887   5  12   0.6153   0.5351   1.7057  -0.0639  -0.4425  -0.5640   0.00    0.0
2018/11/10 01:21:45.000  -74.407213093  163.437638294    78.4712   5  12   0.6158   0.5358   1.7080  -0.0615  -0.4461  -0.5641   0.00    0.0
2018/11/10 01:22:00.000  -74.407211336  163.437640193    78.5833   5  12   0.6162   0.5365   1.7106  -0.0590  -0.4497  -0.5642   0.00    0.0
2018/11/10 01:22:15.000  -74.407214063  163.437644100    77.4603   5  12   0.6167   0.5373   1.7135  -0.0564  -0.4534  -0.5643   0.00    0.0
2018/11/10 01:22:30.000  -74.407214479  163.437637604    78.3782   5  12   0.6173   0.5381   1.7167  -0.0537  -0.4571  -0.5645   0.00    0.0
2018/11/10 01:22:45.000  -74.407213097  163.437639701    78.7425   5  12   0.6170   0.5379   1.7147  -0.0502  -0.4594  -0.5640   0.00    0.0
2018/11/10 01:23:00.000  -74.407213640  163.437644870    77.8698   5  12   0.6167   0.5377   1.7131  -0.0466  -0.4616  -0.5635   0.00    0.0
2018/11/10 01:23:15.000  -74.407212168  163.437642377    78.3618   5  12   0.6164   0.5376   1.7117  -0.0428  -0.4639  -0.5631   0.00    0.0
2018/11/10 01:23:30.000  -74.407212547  163.437642849    77.6640   5  12   0.6162   0.5376   1.7106  -0.0387  -0.4663  -0.5627   0.00    0.0
2018/11/10 01:23:45.000  -74.407212195  163.437643522    77.9781   5  12   0.6161   0.5376   1.7099  -0.0341  -0.4687  -0.5624   0.00    0.0
2018/11/10 01:24:00.000  -74.407214203  163.437640024    78.6637   5  12   0.6160   0.5376   1.7094  -0.0289  -0.4712  -0.5621   0.00    0.0
2018/11/10 01:24:15.000  -74.407212980  163.437639236    78.7270   5  12   0.6159   0.5378   1.7092  -0.0225  -0.4738  -0.5618   0.00    0.0
2018/11/10 01:24:30.000  -74.407211794  163.437639429    78.4919   5  12   0.6159   0.5379   1.7092  -0.0133  -0.4764  -0.5616   0.00    0.0
2018/11/10 01:24:45.000  -74.407211833  163.437641517    78.8893   5  12   0.6160   0.5382   1.7096   0.0121  -0.4791  -0.5615   0.00    0.0
2018/11/10 01:25:00.000  -74.407213659  163.437643535    78.4749   5  12   0.6161   0.5385   1.7102   0.0216  -0.4819  -0.5614   0.00    0.0
2018/11/10 01:25:15.000  -74.407213318  163.437646671    76.9720   5  12   0.6163   0.5389   1.7112   0.0281  -0.4847  -0.5614   0.00    0.0
2018/11/10 01:25:30.000  -74.407211138  163.437640843    77.6294   5  12   0.6165   0.5393   1.7125   0.0333  -0.4876  -0.5614   0.00    0.0
2018/11/10 01:25:45.000  -74.407211419  163.437638234    77.8334   5  12   0.6167   0.5398   1.7141   0.0377  -0.4905  -0.5614   0.00    0.0
2018/11/10 01:26:00.000  -74.407211543  163.437640180    77.2840   5  12   0.6171   0.5404   1.7159   0.0417  -0.4936  -0.5615   0.00    0.0
2018/11/10 01:26:15.000  -74.407210969  163.437640437    77.6131   5  12   0.6174   0.5410   1.7180   0.0453  -0.4966  -0.5616   0.00    0.0
2018/11/10 01:26:30.000  -74.407211549  163.437640276    77.9376   5  12   0.6179   0.5417   1.7204   0.0486  -0.4998  -0.5618   0.00    0.0
2018/11/10 01:26:45.000  -74.407212393  163.437645149    77.7913   5  12   0.6183   0.5424   1.7231   0.0517  -0.5030  -0.5621   0.00    0.0
2018/11/10 01:27:00.000  -74.407211948  163.437641780    77.9376   5  12   0.6189   0.5432   1.7261   0.0546  -0.5062  -0.5623   0.00    0.0
2018/11/10 01:27:15.000  -74.407212888  163.437642974    77.0823   5  12   0.6194   0.5441   1.7293   0.0573  -0.5096  -0.5627   0.00    0.0
2018/11/10 01:27:30.000  -74.407209432  163.437646276    76.5930   5  12   0.6200   0.5450   1.7328   0.0599  -0.5129  -0.5630   0.00    0.0
2018/11/10 01:27:45.000  -74.407211758  163.437643467    78.7476   5  12   0.6198   0.5448   1.7313   0.0626  -0.5148  -0.5627   0.00    0.0
2018/11/10 01:28:00.000  -74.407207986  163.437645148    76.9238   5  12   0.6195   0.5447   1.7301   0.0653  -0.5167  -0.5624   0.00    0.0
2018/11/10 01:28:15.000  -74.407212069  163.437641896    77.4809   5  12   0.6193   0.5447   1.7291   0.0678  -0.5187  -0.5622   0.00    0.0
2018/11/10 01:28:30.000  -74.407211365  163.437637572    77.4126   5  12   0.6192   0.5447   1.7285   0.0703  -0.5208  -0.5620   0.00    0.0
2018/11/10 01:28:45.000  -74.407212872  163.437638710    78.3325   5  12   0.6191   0.5448   1.7280   0.0726  -0.5229  -0.5618   0.00    0.0
2018/11/10 01:29:00.000  -74.407211969  163.437638339    78.0009   5  12   0.6191   0.5449   1.7279   0.0749  -0.5251  -0.5617   0.00    0.0
2018/11/10 01:29:15.000  -74.407212322  163.437632914    77.7148   5  12   0.6191   0.5451   1.7281   0.0771  -0.5273  -0.5616   0.00    0.0
2018/11/10 01:29:30.000  -74.407211620  163.437641793    77.7368   5  12   0.6191   0.5454   1.7285   0.0792  -0.5296  -0.5616   0.00    0.0
2018/11/10 01:29:45.000  -74.407210869  163.437643547    76.5961   5  12   0.6192   0.5457   1.7292   0.0812  -0.5320  -0.5617   0.00    0.0
2018/11/10 01:30:00.000  -74.407211205  163.437635070    77.8381   5  12   0.6194   0.5460   1.7302   0.0832  -0.5344  -0.5617   0.00    0.0
2018/11/10 01:30:15.000  -74.407209701  163.437642201    77.2924   5  12   0.6196   0.5465   1.7316   0.0851  -0.5369  -0.5619   0.00    0.0
2018/11/10 01:30:30.000  -74.407211535  163.437647643    76.8406   5  12   0.6199   0.5470   1.7332   0.0870  -0.5395  -0.5620   0.00    0.0
2018/11/10 01:30:45.000  -74.407210456  163.437639667    76.5838   5  12   0.6202   0.5476   1.7350   0.0888  -0.5422  -0.5623   0.00    0.0
2018/11/10 01:31:00.000  -74.407212857  163.437649470    76.0728   5  12   0.6206   0.5482   1.7372   0.0906  -0.5449  -0.5625   0.00    0.0
2018/11/10 01:31:15.000  -74.407211706  163.437651688    76.0570   5  12   0.6210   0.5489   1.7396   0.0923  -0.5476  -0.5629   0.00    0.0
2018/11/10 01:31:30.000  -74.407212921  163.437657035    75.5191   5  12   0.6215   0.5496   1.7423   0.0940  -0.5505  -0.5632   0.00    0.0
2018/11/10 01:31:45.000  -74.407214298  163.437655875    76.6437   5  12   0.6220   0.5504   1.7452   0.0957  -0.5534  -0.5636   0.00    0.0
2018/11/10 01:32:00.000  -74.407212066  163.437649630    76.6099   5  12   0.6226   0.5513   1.7484   0.0973  -0.5563  -0.5640   0.00    0.0
2018/11/10 01:32:15.000  -74.407211714  163.437652060    76.4317   5  12   0.6233   0.5522   1.7518   0.0989  -0.5593  -0.5645   0.00    0.0
2018/11/10 01:32:30.000  -74.407212497  163.437642777    76.6316   5  12   0.6239   0.5531   1.7555   0.1004  -0.5624  -0.5650   0.00    0.0
2018/11/10 01:32:45.000  -74.407210922  163.437648359    76.3636   5  12   0.6237   0.5530   1.7544   0.1022  -0.5640  -0.5649   0.00    0.0
2018/11/10 01:33:00.000  -74.407210067  163.437652225    76.5516   5  12   0.6235   0.5530   1.7535   0.1038  -0.5657  -0.5648   0.00    0.0
2018/11/10 01:33:15.000  -74.407213399  163.437648729    77.3348   5  12   0.6234   0.5530   1.7529   0.1055  -0.5674  -0.5647   0.00    0.0
2018/11/10 01:33:30.000  -74.407211610  163.437649165    76.6880   5  12   0.6233   0.5531   1.7526   0.1070  -0.5691  -0.5647   0.00    0.0
2018/11/10 01:33:45.000  -74.407211374  163.437640771    76.7517   5  12   0.6233   0.5532   1.7525   0.1086  -0.5710  -0.5647   0.00    0.0
2018/11/10 01:34:00.000  -74.407212203  163.437648721    77.3874   5  12   0.6233   0.5534   1.7527   0.1101  -0.5729  -0.5648   0.00    0.0
2018/11/10 01:34:15.000  -74.407212392  163.437638840    77.9875   5  12   0.6233   0.5536   1.7531   0.1116  -0.5748  -0.5650   0.00    0.0
2018/11/10 01:34:30.000  -74.407213291  163.437645575    77.8584   5  12   0.6234   0.5539   1.7538   0.1131  -0.5768  -0.5651   0.00    0.0
2018/11/10 01:34:45.000  -74.407211149  163.437652313    75.9085   5  12   0.6236   0.5542   1.7548   0.1146  -0.5789  -0.5653   0.00    0.0
2018/11/10 01:35:00.000  -74.407212685  163.437652307    76.7483   5  12   0.6238   0.5547   1.7560   0.1160  -0.5811  -0.5656   0.00    0.0
2018/11/10 01:35:15.000  -74.407214044  163.437641438    77.4525   5  12   0.6241   0.5551   1.7576   0.1174  -0.5833  -0.5659   0.00    0.0
2018/11/10 01:35:30.000  -74.407211631  163.437646477    76.1218   5  12   0.6245   0.5557   1.7594   0.1188  -0.5856  -0.5662   0.00    0.0
2018/11/10 01:35:45.000  -74.407213115  163.437651673    76.8986   5  12   0.6248   0.5563   1.7615   0.1202  -0.5880  -0.5666   0.00    0.0
2018/11/10 01:36:00.000  -74.407213013  163.437649402    77.1101   5  12   0.6253   0.5569   1.7638   0.1215  -0.5904  -0.5670   0.00    0.0
2018/11/10 01:36:15.000  -74.407212533  163.437651641    77.1003   5  12   0.6258   0.5576   1.7664   0.1228  -0.5928  -0.5675   0.00    0.0
2018/11/10 01:36:30.000  -74.407214874  163.437647802    77.4652   5  12   0.6263   0.5584   1.7692   0.1241  -0.5953  -0.5680   0.00    0.0
2018/11/10 01:36:45.000  -74.407213978  163.437652446    77.5456   5  12   0.6269   0.5592   1.7722   0.1254  -0.5979  -0.5685   0.00    0.0
2018/11/10 01:37:00.000  -74.407214344  163.437641858    77.4192   5  12   0.6276   0.5601   1.7755   0.1267  -0.6006  -0.5691   0.00    0.0
2018/11/10 01:37:15.000  -74.407212468  163.437646218    76.8859   5  12   0.6283   0.5610   1.7790   0.1279  -0.6032  -0.5697   0.00    0.0
2018/11/10 01:37:30.000  -74.407210104  163.437642411    76.9553   5  12   0.6290   0.5620   1.7827   0.1292  -0.6060  -0.5704   0.00    0.0
2018/11/10 01:37:45.000  -74.407213927  163.437647726    77.2019   5  12   0.6289   0.5620   1.7819   0.1305  -0.6073  -0.5705   0.00    0.0
2018/11/10 01:38:00.000  -74.407213037  163.437642056    77.1578   5  12   0.6287   0.5619   1.7813   0.1318  -0.6087  -0.5706   0.00    0.0
2018/11/10 01:38:15.000  -74.407211532  163.437649542    76.7521   5  12   0.6286   0.5620   1.7809   0.1331  -0.6101  -0.5707   0.00    0.0
2018/11/10 01:38:30.000  -74.407212515  163.437644125    77.0956   5  12   0.6286   0.5620   1.7808   0.1344  -0.6116  -0.5709   0.00    0.0
2018/11/10 01:38:45.000  -74.407214176  163.437645686    77.3205   5  12   0.6286   0.5622   1.7810   0.1356  -0.6132  -0.5711   0.00    0.0
2018/11/10 01:39:00.000  -74.407209828  163.437650241    76.9001   5  12   0.6287   0.5624   1.7814   0.1369  -0.6148  -0.5714   0.00    0.0
2018/11/10 01:39:15.000  -74.407211278  163.437648033    77.0226   5  12   0.6288   0.5626   1.7820   0.1381  -0.6165  -0.5717   0.00    0.0
2018/11/10 01:39:30.000  -74.407211643  163.437639770    77.9981   5  12   0.6290   0.5629   1.7829   0.1393  -0.6182  -0.5720   0.00    0.0
2018/11/10 01:39:45.000  -74.407212486  163.437640471    77.5805   5  11   0.6603   0.5670   1.8204   0.1809  -0.6008  -0.5051   0.00    0.0
2018/11/10 01:40:00.000  -74.407212127  163.437645507    78.4193   5  11   0.6604   0.5674   1.8220   0.1816  -0.6027  -0.5055   0.00    0.0
2018/11/10 01:40:15.000  -74.407212790  163.437652328    78.4876   5  11   0.6606   0.5678   1.8240   0.1823  -0.6046  -0.5058   0.00    0.0
2018/11/10 01:40:30.000  -74.407210286  163.437650085    76.7481   5  11   0.6608   0.5684   1.8262   0.1830  -0.6066  -0.5062   0.00    0.0
2018/11/10 01:40:45.000  -74.407213076  163.437651604    77.7287   5  11   0.6611   0.5689   1.8287   0.1837  -0.6087  -0.5066   0.00    0.0
2018/11/10 01:41:00.000  -74.407214172  163.437649940    77.9308   5  11   0.6615   0.5696   1.8314   0.1844  -0.6108  -0.5070   0.00    0.0
2018/11/10 01:41:15.000  -74.407214722  163.437648650    77.7120   5  11   0.6619   0.5702   1.8343   0.1851  -0.6129  -0.5074   0.00    0.0
2018/11/10 01:41:30.000  -74.407212719  163.437661543    76.3797   5  10   0.6736   0.6297   2.0900   0.0438  -0.8018  -0.3684   0.00    0.0
2018/11/10 01:41:45.000  -74.407212881  163.437653949    77.4575   5  10   0.6741   0.6309   2.0963   0.0469  -0.8053  -0.3686   0.00    0.0
2018/11/10 01:42:00.000  -74.407212158  163.437645748    77.7609   5  10   0.6746   0.6321   2.1030   0.0497  -0.8090  -0.3687   0.00    0.0
2018/11/10 01:42:15.000  -74.407215958  163.437662428    76.0824   5  10   0.6751   0.6334   2.1099   0.0522  -0.8127  -0.3689   0.00    0.0
2018/11/10 01:42:30.000  -74.407209797  163.437662217    75.8704   5   9   0.7768   0.6878   2.6486   0.3232  -1.0432  -0.8636   0.00    0.0
2018/11/10 01:42:45.000  -74.407212566  163.437660069    75.8819   5   9   0.7764   0.6886   2.6554   0.3252  -1.0473  -0.8665   0.00    0.0
2018/11/10 01:43:00.000  -74.407214719  163.437653633    76.7509   5   9   0.7761   0.6895   2.6628   0.3273  -1.0515  -0.8695   0.00    0.0
2018/11/10 01:43:15.000  -74.407214468  163.437657939    76.4148   5   9   0.7758   0.6905   2.6706   0.3294  -1.0558  -0.8725   0.00    0.0
2018/11/10 01:43:30.000  -74.407211650  163.437654665    75.6963   5   9   0.7757   0.6915   2.6788   0.3315  -1.0604  -0.8757   0.00    0.0
2018/11/10 01:43:45.000  -74.407212470  163.437665561    75.6852   5   9   0.7756   0.6927   2.6875   0.3337  -1.0650  -0.8790   0.00    0.0
2018/11/10 01:44:00.000  -74.407210933  163.437661216    75.0904   5   9   0.7756   0.6939   2.6966   0.3358  -1.0699  -0.8823   0.00    0.0
2018/11/10 01:44:15.000  -74.407212360  163.437656505    75.8641   5   9   0.7757   0.6952   2.7063   0.3380  -1.0749  -0.8858   0.00    0.0
