% program   : RTKLIB ver.2.4.3
% inp file  : _by_type/_obs/blake/20181108.18o
% inp file  : _by_type/_obs/base/20181108.18o
% inp file  : _by_type/_sp3+clk/igs20264.clk
% inp file  : _by_type/_sp3+clk/igs20264.sp3
% inp file  : _by_type/_nav/blake/20181108.18n
% obs start : 2018/11/08 00:00:00.0 GPST (week2026 345600.0s)
% obs end   : 2018/11/08 23:59:45.0 GPST (week2026 431985.0s)
% pos mode  : dgps
% freqs     : L1+L2
% solution  : combined
% elev mask : 15.0 deg
% dynamics  : off
% tidecorr  : off
% ionos opt : iono-free
% tropo opt : est ztd+grad
% ephemeris : precise
% navi sys  : gps glonass
% antenna1  :                       ( 0.0000  0.0000  0.0000)
% antenna2  :                       ( 0.0000  0.0000  0.0000)
% ref pos   : 90.000000000   0.000000000-6335367.6285
%
% (lat/lon/height=WGS84/ellipsoidal,Q=1:fix,2:float,3:sbas,4:dgps,5:single,6:ppp,ns=# of satellites)
%  GPST                  latitude(deg) longitude(deg)  height(m)   Q  ns   sdn(m)   sde(m)   sdu(m)  sdne(m)  sdeu(m)  sdun(m) age(s)  ratio
2018/11/08 00:00:00.000  -74.407205181  163.437641383    80.0863   5   9   0.6782   0.6131   2.1556  -0.1863   0.4310  -0.7539   0.00    0.0
2018/11/08 00:00:15.000  -74.407206206  163.437632955    79.9659   5   9   0.6780   0.6132   2.1607  -0.1873   0.4353  -0.7551   0.00    0.0
2018/11/08 00:00:30.000  -74.407205772  163.437635006    78.6023   5   9   0.6779   0.6134   2.1662  -0.1883   0.4396  -0.7564   0.00    0.0
2018/11/08 00:00:45.000  -74.407202850  163.437639440    78.7797   5   9   0.6779   0.6137   2.1719  -0.1894   0.4441  -0.7578   0.00    0.0
2018/11/08 00:01:00.000  -74.407206156  163.437636864    79.7033   5   9   0.6780   0.6141   2.1779  -0.1905   0.4487  -0.7593   0.00    0.0
2018/11/08 00:01:15.000  -74.407208254  163.437637088    80.7781   5   9   0.6781   0.6146   2.1843  -0.1916   0.4533  -0.7609   0.00    0.0
2018/11/08 00:01:30.000  -74.407203830  163.437638517    78.9835   5   9   0.6783   0.6151   2.1909  -0.1929   0.4581  -0.7625   0.00    0.0
2018/11/08 00:01:45.000  -74.407205509  163.437630038    79.7218   5   9   0.6786   0.6157   2.1978  -0.1942   0.4629  -0.7643   0.00    0.0
2018/11/08 00:02:00.000  -74.407204950  163.437631774    79.6883   5   9   0.6790   0.6165   2.2051  -0.1955   0.4679  -0.7662   0.00    0.0
2018/11/08 00:02:15.000  -74.407202477  163.437631413    80.1149   5   9   0.6794   0.6173   2.2127  -0.1969   0.4729  -0.7682   0.00    0.0
2018/11/08 00:02:30.000  -74.407203789  163.437634221    78.7484   5   9   0.6800   0.6182   2.2205  -0.1984   0.4781  -0.7703   0.00    0.0
2018/11/08 00:02:45.000  -74.407205907  163.437637801    79.6384   5   9   0.6791   0.6175   2.2231  -0.1988   0.4813  -0.7708   0.00    0.0
2018/11/08 00:03:00.000  -74.407204141  163.437631805    78.8397   5   9   0.6784   0.6169   2.2260  -0.1994   0.4848  -0.7715   0.00    0.0
2018/11/08 00:03:15.000  -74.407205355  163.437629717    78.9291   5   9   0.6777   0.6164   2.2293  -0.2000   0.4883  -0.7722   0.00    0.0
2018/11/08 00:03:30.000  -74.407205220  163.437636600    79.4484   5   9   0.6772   0.6159   2.2328  -0.2007   0.4919  -0.7731   0.00    0.0
2018/11/08 00:03:45.000  -74.407204315  163.437630443    79.7487   5   9   0.6767   0.6156   2.2365  -0.2015   0.4956  -0.7740   0.00    0.0
2018/11/08 00:04:00.000  -74.407202332  163.437639474    79.0122   5   9   0.6762   0.6154   2.2406  -0.2023   0.4993  -0.7751   0.00    0.0
2018/11/08 00:04:15.000  -74.407205930  163.437640588    79.9832   5   9   0.6759   0.6152   2.2450  -0.2031   0.5032  -0.7762   0.00    0.0
2018/11/08 00:04:30.000  -74.407206982  163.437640990    79.8594   5   9   0.6756   0.6151   2.2497  -0.2040   0.5072  -0.7774   0.00    0.0
2018/11/08 00:04:45.000  -74.407204663  163.437636771    79.4507   5   9   0.6754   0.6152   2.2546  -0.2050   0.5112  -0.7788   0.00    0.0
2018/11/08 00:05:00.000  -74.407204155  163.437634105    78.5048   5   9   0.6753   0.6153   2.2599  -0.2060   0.5154  -0.7802   0.00    0.0
2018/11/08 00:05:15.000  -74.407203765  163.437641297    79.8786   5   9   0.6752   0.6155   2.2656  -0.2071   0.5197  -0.7818   0.00    0.0
2018/11/08 00:05:30.000  -74.407203153  163.437629082    79.3471   5   9   0.6753   0.6159   2.2717  -0.2083   0.5242  -0.7834   0.00    0.0
2018/11/08 00:05:45.000  -74.407204447  163.437642439    79.7227   5   9   0.6754   0.6163   2.2780  -0.2096   0.5287  -0.7852   0.00    0.0
2018/11/08 00:06:00.000  -74.407205176  163.437644440    79.8736   5   9   0.6756   0.6168   2.2847  -0.2109   0.5334  -0.7871   0.00    0.0
2018/11/08 00:06:15.000  -74.407203916  163.437631952    79.4396   5   9   0.6759   0.6174   2.2916  -0.2122   0.5382  -0.7891   0.00    0.0
2018/11/08 00:06:30.000  -74.407205422  163.437638607    78.9758   5   9   0.6763   0.6181   2.2989  -0.2136   0.5431  -0.7912   0.00    0.0
2018/11/08 00:06:45.000  -74.407205491  163.437632765    78.9300   5   9   0.6767   0.6189   2.3065  -0.2151   0.5481  -0.7934   0.00    0.0
2018/11/08 00:07:00.000  -74.407204769  163.437636415    78.9514   5   9   0.6773   0.6198   2.3144  -0.2167   0.5532  -0.7957   0.00    0.0
2018/11/08 00:07:15.000  -74.407204515  163.437641716    78.7633   5   9   0.6779   0.6208   2.3227  -0.2183   0.5584  -0.7981   0.00    0.0
2018/11/08 00:07:30.000  -74.407206699  163.437642692    79.2951   5   9   0.6785   0.6219   2.3312  -0.2199   0.5638  -0.8006   0.00    0.0
2018/11/08 00:07:45.000  -74.407202534  163.437641863    78.3258   5  10   0.6551   0.6119   2.0828  -0.2598   0.6599  -0.6772   0.00    0.0
2018/11/08 00:08:00.000  -74.407200071  163.437637721    77.1617   5  10   0.6545   0.6115   2.0867  -0.2603   0.6624  -0.6786   0.00    0.0
2018/11/08 00:08:15.000  -74.407202600  163.437640475    77.1621   5  10   0.6540   0.6112   2.0908  -0.2607   0.6651  -0.6801   0.00    0.0
2018/11/08 00:08:30.000  -74.407203399  163.437641619    77.7221   5  10   0.6536   0.6110   2.0952  -0.2613   0.6678  -0.6816   0.00    0.0
2018/11/08 00:08:45.000  -74.407201973  163.437652670    78.1835   5  10   0.6533   0.6109   2.0999  -0.2619   0.6707  -0.6833   0.00    0.0
2018/11/08 00:09:00.000  -74.407203340  163.437645848    78.2835   5  10   0.6531   0.6108   2.1048  -0.2625   0.6737  -0.6850   0.00    0.0
2018/11/08 00:09:15.000  -74.407200665  163.437642285    77.9520   5  10   0.6529   0.6109   2.1101  -0.2633   0.6768  -0.6868   0.00    0.0
2018/11/08 00:09:30.000  -74.407201269  163.437637101    76.8840   5  10   0.6528   0.6110   2.1156  -0.2641   0.6801  -0.6888   0.00    0.0
2018/11/08 00:09:45.000  -74.407202151  163.437642921    77.7642   5  10   0.6528   0.6112   2.1214  -0.2649   0.6834  -0.6908   0.00    0.0
2018/11/08 00:10:00.000  -74.407202799  163.437642996    77.3794   5  10   0.6528   0.6116   2.1275  -0.2658   0.6869  -0.6929   0.00    0.0
2018/11/08 00:10:15.000  -74.407202091  163.437643624    77.2697   5  10   0.6530   0.6120   2.1341  -0.2668   0.6906  -0.6951   0.00    0.0
2018/11/08 00:10:30.000  -74.407201506  163.437641185    77.9135   5  10   0.6532   0.6126   2.1409  -0.2679   0.6945  -0.6975   0.00    0.0
2018/11/08 00:10:45.000  -74.407202916  163.437645611    78.0017   5  10   0.6535   0.6132   2.1481  -0.2690   0.6984  -0.6999   0.00    0.0
2018/11/08 00:11:00.000  -74.407204432  163.437651718    78.0403   5  10   0.6539   0.6140   2.1556  -0.2703   0.7025  -0.7025   0.00    0.0
2018/11/08 00:11:15.000  -74.407201579  163.437645975    78.0445   5  10   0.6544   0.6148   2.1634  -0.2715   0.7068  -0.7051   0.00    0.0
2018/11/08 00:11:30.000  -74.407204483  163.437647900    78.0788   5  10   0.6549   0.6157   2.1714  -0.2729   0.7112  -0.7078   0.00    0.0
2018/11/08 00:11:45.000  -74.407200915  163.437641622    78.2938   5  10   0.6555   0.6167   2.1798  -0.2743   0.7157  -0.7107   0.00    0.0
2018/11/08 00:12:00.000  -74.407203198  163.437644551    77.5589   5  10   0.6562   0.6179   2.1885  -0.2757   0.7203  -0.7136   0.00    0.0
2018/11/08 00:12:15.000  -74.407201422  163.437641418    78.6965   5  10   0.6570   0.6191   2.1975  -0.2773   0.7251  -0.7167   0.00    0.0
2018/11/08 00:12:30.000  -74.407200714  163.437643690    77.7561   5  10   0.6578   0.6204   2.2069  -0.2788   0.7300  -0.7198   0.00    0.0
2018/11/08 00:12:45.000  -74.407200123  163.437643046    78.6460   5  10   0.6574   0.6200   2.2109  -0.2794   0.7325  -0.7216   0.00    0.0
2018/11/08 00:13:00.000  -74.407203909  163.437644614    78.4264   5  10   0.6570   0.6197   2.2152  -0.2800   0.7351  -0.7233   0.00    0.0
2018/11/08 00:13:15.000  -74.407201077  163.437641712    77.5742   5  10   0.6567   0.6196   2.2198  -0.2806   0.7378  -0.7252   0.00    0.0
2018/11/08 00:13:30.000  -74.407201454  163.437644831    78.0931   5  10   0.6564   0.6195   2.2246  -0.2813   0.7406  -0.7272   0.00    0.0
2018/11/08 00:13:45.000  -74.407202634  163.437643999    78.2460   5  10   0.6563   0.6195   2.2297  -0.2821   0.7435  -0.7292   0.00    0.0
2018/11/08 00:14:00.000  -74.407203964  163.437645347    78.4382   5  10   0.6562   0.6196   2.2352  -0.2829   0.7466  -0.7313   0.00    0.0
2018/11/08 00:14:15.000  -74.407201205  163.437640356    77.9013   5  10   0.6562   0.6197   2.2409  -0.2838   0.7498  -0.7336   0.00    0.0
2018/11/08 00:14:30.000  -74.407202732  163.437641580    76.9866   5  10   0.6562   0.6200   2.2469  -0.2847   0.7531  -0.7359   0.00    0.0
2018/11/08 00:14:45.000  -74.407199553  163.437641831    77.7377   5  10   0.6564   0.6204   2.2532  -0.2857   0.7566  -0.7383   0.00    0.0
2018/11/08 00:15:00.000  -74.407200656  163.437641940    77.8436   5  10   0.6566   0.6208   2.2597  -0.2868   0.7601  -0.7408   0.00    0.0
2018/11/08 00:15:15.000  -74.407201923  163.437643524    77.9898   5  10   0.6569   0.6214   2.2668  -0.2880   0.7639  -0.7435   0.00    0.0
2018/11/08 00:15:30.000  -74.407201494  163.437631365    77.8272   5  10   0.6573   0.6221   2.2741  -0.2893   0.7679  -0.7463   0.00    0.0
2018/11/08 00:15:45.000  -74.407200820  163.437641315    77.9267   5  10   0.6578   0.6229   2.2818  -0.2906   0.7719  -0.7492   0.00    0.0
2018/11/08 00:16:00.000  -74.407201333  163.437641059    77.9382   5  10   0.6584   0.6238   2.2897  -0.2919   0.7761  -0.7522   0.00    0.0
2018/11/08 00:16:15.000  -74.407202499  163.437642049    76.8572   5  10   0.6590   0.6248   2.2980  -0.2934   0.7805  -0.7552   0.00    0.0
2018/11/08 00:16:30.000  -74.407204374  163.437651126    78.5420   5  10   0.6598   0.6258   2.3065  -0.2949   0.7849  -0.7584   0.00    0.0
2018/11/08 00:16:45.000  -74.407202169  163.437645650    77.5788   5  10   0.6606   0.6270   2.3154  -0.2965   0.7895  -0.7617   0.00    0.0
2018/11/08 00:17:00.000  -74.407201743  163.437638097    77.5807   5  10   0.6614   0.6283   2.3246  -0.2981   0.7942  -0.7651   0.00    0.0
2018/11/08 00:17:15.000  -74.407203285  163.437641772    77.6212   5  10   0.6624   0.6296   2.3340  -0.2998   0.7991  -0.7686   0.00    0.0
2018/11/08 00:17:30.000  -74.407202270  163.437644037    78.1905   5  10   0.6634   0.6310   2.3438  -0.3015   0.8040  -0.7722   0.00    0.0
2018/11/08 00:17:45.000  -74.407202205  163.437647654    77.2658   5  10   0.6631   0.6307   2.3477  -0.3021   0.8063  -0.7741   0.00    0.0
2018/11/08 00:18:00.000  -74.407201037  163.437645070    78.3777   5  10   0.6629   0.6306   2.3521  -0.3028   0.8088  -0.7761   0.00    0.0
2018/11/08 00:18:15.000  -74.407201561  163.437636550    77.5905   5  10   0.6627   0.6305   2.3567  -0.3036   0.8114  -0.7783   0.00    0.0
2018/11/08 00:18:30.000  -74.407203253  163.437644367    78.4689   5  10   0.6626   0.6305   2.3616  -0.3044   0.8141  -0.7805   0.00    0.0
2018/11/08 00:18:45.000  -74.407201409  163.437642937    77.8079   5  10   0.6626   0.6306   2.3667  -0.3053   0.8169  -0.7828   0.00    0.0
2018/11/08 00:19:00.000  -74.407200729  163.437642215    78.3892   5  10   0.6627   0.6308   2.3722  -0.3062   0.8199  -0.7852   0.00    0.0
2018/11/08 00:19:15.000  -74.407201194  163.437650536    77.5081   5  10   0.6629   0.6310   2.3779  -0.3072   0.8230  -0.7877   0.00    0.0
2018/11/08 00:19:30.000  -74.407201512  163.437637000    77.3506   5  10   0.6631   0.6314   2.3838  -0.3083   0.8262  -0.7903   0.00    0.0
2018/11/08 00:19:45.000  -74.407202518  163.437642573    78.2234   5  10   0.6634   0.6318   2.3901  -0.3094   0.8295  -0.7930   0.00    0.0
2018/11/08 00:20:00.000  -74.407202438  163.437646527    77.9965   5  10   0.6638   0.6324   2.3966  -0.3105   0.8329  -0.7957   0.00    0.0
2018/11/08 00:20:15.000  -74.407202131  163.437650004    77.7408   5  10   0.6643   0.6331   2.4036  -0.3118   0.8366  -0.7987   0.00    0.0
2018/11/08 00:20:30.000  -74.407202205  163.437644761    78.0750   5  10   0.6649   0.6338   2.4108  -0.3132   0.8403  -0.8017   0.00    0.0
2018/11/08 00:20:45.000  -74.407200591  163.437644807    77.4639   5  10   0.6655   0.6347   2.4183  -0.3146   0.8442  -0.8048   0.00    0.0
2018/11/08 00:21:00.000  -74.407202407  163.437639572    77.1107   5  10   0.6663   0.6357   2.4261  -0.3160   0.8482  -0.8080   0.00    0.0
2018/11/08 00:21:15.000  -74.407202446  163.437647127    77.4568   5  10   0.6671   0.6367   2.4342  -0.3175   0.8523  -0.8113   0.00    0.0
2018/11/08 00:21:30.000  -74.407203273  163.437643395    77.7541   5  10   0.6680   0.6378   2.4425  -0.3191   0.8565  -0.8147   0.00    0.0
2018/11/08 00:21:45.000  -74.407204082  163.437642961    77.3881   5  11   0.6562   0.6390   2.3559  -0.3194   0.8634  -0.8702   0.00    0.0
2018/11/08 00:22:00.000  -74.407203273  163.437650140    77.8330   5  11   0.6571   0.6403   2.3651  -0.3211   0.8678  -0.8738   0.00    0.0
2018/11/08 00:22:15.000  -74.407202640  163.437644571    77.4567   5  11   0.6581   0.6417   2.3746  -0.3229   0.8723  -0.8775   0.00    0.0
2018/11/08 00:22:30.000  -74.407202564  163.437641965    77.8975   5  11   0.6592   0.6432   2.3843  -0.3247   0.8768  -0.8813   0.00    0.0
2018/11/08 00:22:45.000  -74.407201333  163.437633315    76.9567   5  11   0.6591   0.6430   2.3885  -0.3255   0.8788  -0.8832   0.00    0.0
2018/11/08 00:23:00.000  -74.407204881  163.437642915    78.0144   5  11   0.6589   0.6428   2.3928  -0.3262   0.8808  -0.8851   0.00    0.0
2018/11/08 00:23:15.000  -74.407202062  163.437644405    77.2584   5  11   0.6588   0.6428   2.3973  -0.3270   0.8829  -0.8871   0.00    0.0
2018/11/08 00:23:30.000  -74.407202422  163.437648962    77.7713   5  11   0.6588   0.6428   2.4021  -0.3278   0.8851  -0.8892   0.00    0.0
2018/11/08 00:23:45.000  -74.407203689  163.437643746    77.4632   5  11   0.6589   0.6429   2.4071  -0.3287   0.8874  -0.8914   0.00    0.0
2018/11/08 00:24:00.000  -74.407201292  163.437644591    77.6370   5  11   0.6591   0.6430   2.4123  -0.3297   0.8898  -0.8936   0.00    0.0
2018/11/08 00:24:15.000  -74.407203478  163.437650086    78.6534   5  11   0.6593   0.6433   2.4177  -0.3307   0.8923  -0.8960   0.00    0.0
2018/11/08 00:24:30.000  -74.407204886  163.437647179    78.0627   5  11   0.6595   0.6436   2.4234  -0.3317   0.8949  -0.8984   0.00    0.0
2018/11/08 00:24:45.000  -74.407200354  163.437638369    77.0180   5  11   0.6599   0.6441   2.4294  -0.3328   0.8976  -0.9010   0.00    0.0
2018/11/08 00:25:00.000  -74.407200578  163.437637056    77.0978   5  11   0.6603   0.6446   2.4355  -0.3340   0.9005  -0.9036   0.00    0.0
2018/11/08 00:25:15.000  -74.407203220  163.437648853    78.0761   5  11   0.6609   0.6452   2.4421  -0.3352   0.9035  -0.9064   0.00    0.0
2018/11/08 00:25:30.000  -74.407201306  163.437646344    77.7162   5  11   0.6615   0.6460   2.4490  -0.3365   0.9066  -0.9092   0.00    0.0
2018/11/08 00:25:45.000  -74.407202820  163.437649181    77.4562   5  11   0.6621   0.6468   2.4560  -0.3378   0.9099  -0.9122   0.00    0.0
2018/11/08 00:26:00.000  -74.407202527  163.437649923    78.3122   5  11   0.6629   0.6477   2.4633  -0.3392   0.9132  -0.9152   0.00    0.0
2018/11/08 00:26:15.000  -74.407203072  163.437644314    77.8970   5  11   0.6637   0.6487   2.4708  -0.3406   0.9166  -0.9183   0.00    0.0
2018/11/08 00:26:30.000  -74.407202587  163.437644339    78.5929   5  11   0.6646   0.6497   2.4785  -0.3421   0.9202  -0.9215   0.00    0.0
2018/11/08 00:26:45.000  -74.407202174  163.437640138    77.8206   5  11   0.6655   0.6509   2.4864  -0.3436   0.9238  -0.9247   0.00    0.0
2018/11/08 00:27:00.000  -74.407200843  163.437639630    77.7712   5  11   0.6665   0.6521   2.4946  -0.3452   0.9275  -0.9281   0.00    0.0
2018/11/08 00:27:15.000  -74.407199179  163.437640054    77.0114   5  11   0.6676   0.6534   2.5029  -0.3468   0.9313  -0.9315   0.00    0.0
2018/11/08 00:27:30.000  -74.407199586  163.437639380    77.3375   5  11   0.6688   0.6548   2.5115  -0.3484   0.9351  -0.9350   0.00    0.0
2018/11/08 00:27:45.000  -74.407197796  163.437638952    76.1974   5  11   0.6686   0.6544   2.5141  -0.3489   0.9362  -0.9364   0.00    0.0
2018/11/08 00:28:00.000  -74.407199154  163.437649352    77.0533   5  11   0.6685   0.6541   2.5169  -0.3494   0.9374  -0.9380   0.00    0.0
2018/11/08 00:28:15.000  -74.407199798  163.437639955    76.9685   5  11   0.6685   0.6539   2.5200  -0.3500   0.9387  -0.9396   0.00    0.0
2018/11/08 00:28:30.000  -74.407201594  163.437639752    77.5672   5  11   0.6685   0.6538   2.5232  -0.3506   0.9401  -0.9413   0.00    0.0
2018/11/08 00:28:45.000  -74.407201139  163.437637407    76.7674   5  11   0.6686   0.6537   2.5266  -0.3513   0.9415  -0.9430   0.00    0.0
2018/11/08 00:29:00.000  -74.407202020  163.437646480    78.3884   5  11   0.6688   0.6538   2.5302  -0.3520   0.9431  -0.9448   0.00    0.0
2018/11/08 00:29:15.000  -74.407200602  163.437634988    77.1844   5  11   0.6690   0.6539   2.5340  -0.3527   0.9447  -0.9467   0.00    0.0
2018/11/08 00:29:30.000  -74.407200625  163.437650216    77.7392   5  11   0.6693   0.6541   2.5380  -0.3535   0.9464  -0.9486   0.00    0.0
2018/11/08 00:29:45.000  -74.407204070  163.437642029    77.7229   5  11   0.6696   0.6543   2.5421  -0.3543   0.9482  -0.9506   0.00    0.0
2018/11/08 00:30:00.000  -74.407201793  163.437648457    77.4777   5  11   0.6701   0.6546   2.5465  -0.3552   0.9500  -0.9527   0.00    0.0
2018/11/08 00:30:15.000  -74.407201624  163.437647131    78.2071   5  11   0.6706   0.6551   2.5511  -0.3561   0.9520  -0.9549   0.00    0.0
2018/11/08 00:30:30.000  -74.407201763  163.437645466    77.0770   5  11   0.6712   0.6556   2.5560  -0.3571   0.9541  -0.9571   0.00    0.0
2018/11/08 00:30:45.000  -74.407201286  163.437644718    77.1522   5  11   0.6718   0.6562   2.5610  -0.3580   0.9562  -0.9594   0.00    0.0
2018/11/08 00:31:00.000  -74.407202763  163.437650998    77.8391   5  11   0.6725   0.6569   2.5661  -0.3591   0.9585  -0.9618   0.00    0.0
2018/11/08 00:31:15.000  -74.407201715  163.437640879    76.6791   5  11   0.6733   0.6576   2.5715  -0.3601   0.9607  -0.9642   0.00    0.0
2018/11/08 00:31:30.000  -74.407200955  163.437642061    76.8949   5  11   0.6742   0.6584   2.5769  -0.3612   0.9631  -0.9667   0.00    0.0
2018/11/08 00:31:45.000  -74.407202931  163.437646376    77.6025   5  11   0.6751   0.6593   2.5825  -0.3623   0.9654  -0.9692   0.00    0.0
2018/11/08 00:32:00.000  -74.407201477  163.437641632    76.9308   5  11   0.6760   0.6603   2.5883  -0.3635   0.9679  -0.9718   0.00    0.0
2018/11/08 00:32:15.000  -74.407199670  163.437639552    76.5839   5  11   0.6771   0.6613   2.5942  -0.3646   0.9704  -0.9744   0.00    0.0
2018/11/08 00:32:30.000  -74.407197527  163.437635900    75.6822   5  11   0.6781   0.6624   2.6002  -0.3658   0.9729  -0.9770   0.00    0.0
2018/11/08 00:32:45.000  -74.407201422  163.437641380    76.5893   5  11   0.6779   0.6618   2.6004  -0.3659   0.9728  -0.9777   0.00    0.0
2018/11/08 00:33:00.000  -74.407201489  163.437646663    76.9794   5  11   0.6777   0.6612   2.6007  -0.3660   0.9727  -0.9784   0.00    0.0
2018/11/08 00:33:15.000  -74.407200810  163.437641074    75.9333   5  11   0.6776   0.6607   2.6011  -0.3662   0.9727  -0.9791   0.00    0.0
2018/11/08 00:33:30.000  -74.407203724  163.437643661    76.7222   5  11   0.6776   0.6603   2.6017  -0.3663   0.9728  -0.9799   0.00    0.0
2018/11/08 00:33:45.000  -74.407203510  163.437654451    78.2966   5  11   0.6776   0.6599   2.6024  -0.3666   0.9729  -0.9807   0.00    0.0
2018/11/08 00:34:00.000  -74.407203376  163.437639790    76.3219   5  11   0.6777   0.6597   2.6032  -0.3668   0.9730  -0.9816   0.00    0.0
2018/11/08 00:34:15.000  -74.407198433  163.437629817    75.6822   5  11   0.6778   0.6594   2.6042  -0.3670   0.9732  -0.9825   0.00    0.0
2018/11/08 00:34:30.000  -74.407197549  163.437638790    76.1164   5  11   0.6780   0.6593   2.6052  -0.3673   0.9735  -0.9835   0.00    0.0
2018/11/08 00:34:45.000  -74.407201709  163.437650592    76.8393   5  11   0.6782   0.6592   2.6065  -0.3676   0.9738  -0.9845   0.00    0.0
2018/11/08 00:35:00.000  -74.407200971  163.437639466    77.5747   5  11   0.6786   0.6592   2.6078  -0.3680   0.9741  -0.9855   0.00    0.0
2018/11/08 00:35:15.000  -74.407199093  163.437632467    76.7709   5  11   0.6790   0.6593   2.6094  -0.3684   0.9746  -0.9867   0.00    0.0
2018/11/08 00:35:30.000  -74.407200497  163.437642388    77.1195   5  11   0.6794   0.6595   2.6112  -0.3688   0.9751  -0.9879   0.00    0.0
2018/11/08 00:35:45.000  -74.407199948  163.437638783    77.0356   5  11   0.6799   0.6597   2.6130  -0.3692   0.9757  -0.9891   0.00    0.0
2018/11/08 00:36:00.000  -74.407201076  163.437653281    78.1226   5  11   0.6805   0.6600   2.6150  -0.3697   0.9763  -0.9903   0.00    0.0
2018/11/08 00:36:15.000  -74.407201552  163.437642574    77.9883   5  11   0.6811   0.6603   2.6170  -0.3701   0.9769  -0.9916   0.00    0.0
2018/11/08 00:36:30.000  -74.407201456  163.437640486    77.5189   5  11   0.6818   0.6608   2.6192  -0.3706   0.9776  -0.9929   0.00    0.0
2018/11/08 00:36:45.000  -74.407201457  163.437643863    77.1969   5  11   0.6825   0.6612   2.6215  -0.3711   0.9782  -0.9942   0.00    0.0
2018/11/08 00:37:00.000  -74.407200900  163.437640422    76.8470   5  11   0.6833   0.6618   2.6239  -0.3716   0.9790  -0.9955   0.00    0.0
2018/11/08 00:37:15.000  -74.407202251  163.437638990    77.6002   5  11   0.6842   0.6624   2.6264  -0.3721   0.9797  -0.9969   0.00    0.0
2018/11/08 00:37:30.000  -74.407202687  163.437639026    77.2594   5  11   0.6850   0.6630   2.6289  -0.3727   0.9805  -0.9983   0.00    0.0
2018/11/08 00:37:45.000  -74.407202779  163.437648185    77.2866   5  11   0.6847   0.6620   2.6258  -0.3722   0.9787  -0.9978   0.00    0.0
2018/11/08 00:38:00.000  -74.407199626  163.437629711    76.3907   5  11   0.6843   0.6611   2.6227  -0.3718   0.9771  -0.9973   0.00    0.0
2018/11/08 00:38:15.000  -74.407201407  163.437645879    77.5220   5  11   0.6841   0.6602   2.6198  -0.3713   0.9754  -0.9969   0.00    0.0
2018/11/08 00:38:30.000  -74.407204189  163.437644253    77.3111   5  11   0.6838   0.6594   2.6170  -0.3709   0.9738  -0.9964   0.00    0.0
2018/11/08 00:38:45.000  -74.407202291  163.437643302    77.4264   5  11   0.6837   0.6587   2.6143  -0.3705   0.9723  -0.9961   0.00    0.0
2018/11/08 00:39:00.000  -74.407200089  163.437652637    76.5131   5  11   0.6836   0.6580   2.6117  -0.3702   0.9708  -0.9957   0.00    0.0
2018/11/08 00:39:15.000  -74.407201629  163.437650670    77.0273   5  11   0.6835   0.6574   2.6093  -0.3698   0.9693  -0.9954   0.00    0.0
2018/11/08 00:39:30.000  -74.407202060  163.437637998    76.3048   5  11   0.6835   0.6569   2.6069  -0.3695   0.9679  -0.9951   0.00    0.0
2018/11/08 00:39:45.000  -74.407206082  163.437645305    77.2731   5  11   0.6836   0.6564   2.6047  -0.3692   0.9664  -0.9948   0.00    0.0
2018/11/08 00:40:00.000  -74.407202730  163.437638101    76.4429   5  11   0.6837   0.6560   2.6025  -0.3688   0.9651  -0.9946   0.00    0.0
2018/11/08 00:40:15.000  -74.407202258  163.437651120    77.3321   5  11   0.6839   0.6556   2.6007  -0.3686   0.9638  -0.9944   0.00    0.0
2018/11/08 00:40:30.000  -74.407202127  163.437643388    77.1849   5  11   0.6841   0.6554   2.5989  -0.3683   0.9626  -0.9943   0.00    0.0
2018/11/08 00:40:45.000  -74.407202997  163.437648889    78.0089   5  11   0.6844   0.6552   2.5972  -0.3681   0.9613  -0.9942   0.00    0.0
2018/11/08 00:41:00.000  -74.407201788  163.437636010    76.3161   5  11   0.6848   0.6551   2.5957  -0.3679   0.9602  -0.9941   0.00    0.0
2018/11/08 00:41:15.000  -74.407202840  163.437650114    77.5503   5  11   0.6852   0.6550   2.5942  -0.3677   0.9590  -0.9941   0.00    0.0
2018/11/08 00:41:30.000  -74.407200899  163.437632197    75.4264   5  11   0.6857   0.6550   2.5929  -0.3675   0.9579  -0.9941   0.00    0.0
2018/11/08 00:41:45.000  -74.407202245  163.437649634    77.4022   5  11   0.6862   0.6551   2.5917  -0.3673   0.9568  -0.9940   0.00    0.0
2018/11/08 00:42:00.000  -74.407202894  163.437644388    77.1056   5  11   0.6867   0.6552   2.5906  -0.3671   0.9557  -0.9941   0.00    0.0
2018/11/08 00:42:15.000  -74.407203017  163.437638812    76.2625   5  11   0.6873   0.6553   2.5895  -0.3670   0.9546  -0.9941   0.00    0.0
2018/11/08 00:42:30.000  -74.407202734  163.437644461    76.9322   5  11   0.6880   0.6556   2.5886  -0.3668   0.9536  -0.9941   0.00    0.0
2018/11/08 00:42:45.000  -74.407203391  163.437643471    76.9693   5  11   0.6874   0.6542   2.5823  -0.3657   0.9503  -0.9924   0.00    0.0
2018/11/08 00:43:00.000  -74.407201572  163.437651116    77.0986   5  11   0.6869   0.6530   2.5761  -0.3647   0.9471  -0.9908   0.00    0.0
2018/11/08 00:43:15.000  -74.407203064  163.437648520    77.0197   5  11   0.6865   0.6518   2.5700  -0.3637   0.9439  -0.9891   0.00    0.0
2018/11/08 00:43:30.000  -74.407202326  163.437643132    76.6897   5  11   0.6861   0.6506   2.5641  -0.3627   0.9407  -0.9876   0.00    0.0
2018/11/08 00:43:45.000  -74.407202007  163.437649973    77.2158   5  11   0.6857   0.6496   2.5583  -0.3617   0.9376  -0.9860   0.00    0.0
2018/11/08 00:44:00.000  -74.407204434  163.437646871    77.5807   5  11   0.6854   0.6486   2.5526  -0.3608   0.9346  -0.9845   0.00    0.0
2018/11/08 00:44:15.000  -74.407203404  163.437649893    77.7394   5  11   0.6852   0.6476   2.5471  -0.3598   0.9315  -0.9830   0.00    0.0
2018/11/08 00:44:30.000  -74.407202129  163.437647203    77.2866   5  11   0.6850   0.6468   2.5417  -0.3589   0.9286  -0.9815   0.00    0.0
2018/11/08 00:44:45.000  -74.407203162  163.437648707    78.2428   5  11   0.6849   0.6460   2.5364  -0.3580   0.9256  -0.9801   0.00    0.0
2018/11/08 00:45:00.000  -74.407200430  163.437647935    77.6250   5  11   0.6848   0.6452   2.5314  -0.3571   0.9227  -0.9787   0.00    0.0
2018/11/08 00:45:15.000  -74.407201415  163.437653321    76.6773   5  11   0.6848   0.6446   2.5265  -0.3562   0.9199  -0.9774   0.00    0.0
2018/11/08 00:45:30.000  -74.407201026  163.437650591    77.1791   5  11   0.6848   0.6440   2.5219  -0.3554   0.9172  -0.9762   0.00    0.0
2018/11/08 00:45:45.000  -74.407201483  163.437650426    77.6710   5  11   0.6850   0.6435   2.5174  -0.3545   0.9144  -0.9749   0.00    0.0
2018/11/08 00:46:00.000  -74.407203428  163.437648478    78.1043   5  11   0.6851   0.6431   2.5130  -0.3537   0.9118  -0.9737   0.00    0.0
2018/11/08 00:46:15.000  -74.407200857  163.437641933    76.4971   5  11   0.6853   0.6427   2.5088  -0.3529   0.9091  -0.9726   0.00    0.0
2018/11/08 00:46:30.000  -74.407196713  163.437640022    75.0048   5  10   0.9381   0.6752   3.5714  -0.5070   1.1623  -1.6043   0.00    0.0
2018/11/08 00:46:45.000  -74.407199527  163.437644432    76.1552   5  10   0.9382   0.6747   3.5667  -0.5058   1.1589  -1.6029   0.00    0.0
2018/11/08 00:47:00.000  -74.407201219  163.437648019    76.6069   5  10   0.9384   0.6742   3.5621  -0.5046   1.1555  -1.6016   0.00    0.0
2018/11/08 00:47:15.000  -74.407202232  163.437644364    77.0418   5  10   0.9386   0.6737   3.5575  -0.5034   1.1522  -1.6003   0.00    0.0
2018/11/08 00:47:30.000  -74.407198896  163.437637848    75.7781   5  10   0.9389   0.6734   3.5531  -0.5021   1.1488  -1.5991   0.00    0.0
2018/11/08 00:47:45.000  -74.407197543  163.437631966    73.5914   5  10   0.9369   0.6713   3.5388  -0.4994   1.1421  -1.5934   0.00    0.0
2018/11/08 00:48:00.000  -74.407196993  163.437641681    74.9027   5  10   0.9349   0.6693   3.5244  -0.4966   1.1354  -1.5877   0.00    0.0
2018/11/08 00:48:15.000  -74.407200817  163.437639758    76.7642   5  10   0.9330   0.6674   3.5103  -0.4938   1.1288  -1.5821   0.00    0.0
2018/11/08 00:48:30.000  -74.407199182  163.437639334    75.0424   5  10   0.9311   0.6656   3.4963  -0.4911   1.1222  -1.5766   0.00    0.0
2018/11/08 00:48:45.000  -74.407199727  163.437633036    75.2905   5  10   0.9293   0.6638   3.4825  -0.4884   1.1157  -1.5711   0.00    0.0
2018/11/08 00:49:00.000  -74.407200287  163.437635337    75.6588   5  10   0.9276   0.6621   3.4689  -0.4857   1.1092  -1.5657   0.00    0.0
2018/11/08 00:49:15.000  -74.407198968  163.437635537    75.7924   5  10   0.9259   0.6605   3.4555  -0.4830   1.1027  -1.5604   0.00    0.0
2018/11/08 00:49:30.000  -74.407203058  163.437646057    77.2460   5  10   0.9243   0.6589   3.4423  -0.4803   1.0963  -1.5552   0.00    0.0
2018/11/08 00:49:45.000  -74.407199106  163.437640659    75.4826   5  10   0.9228   0.6574   3.4294  -0.4777   1.0900  -1.5501   0.00    0.0
2018/11/08 00:50:00.000  -74.407197959  163.437640501    74.1172   5   9   0.9254   0.6561   3.6650  -0.4741   1.0774  -1.5813   0.00    0.0
2018/11/08 00:50:15.000  -74.407200998  163.437652204    75.3239   5   9   0.9242   0.6548   3.6548  -0.4716   1.0712  -1.5771   0.00    0.0
2018/11/08 00:50:30.000  -74.407203054  163.437643259    77.0011   5   9   0.9230   0.6536   3.6450  -0.4690   1.0651  -1.5730   0.00    0.0
2018/11/08 00:50:45.000  -74.407199384  163.437635084    75.9230   5   9   0.9220   0.6524   3.6353  -0.4665   1.0589  -1.5691   0.00    0.0
2018/11/08 00:51:00.000  -74.407198674  163.437641686    76.2371   5   9   0.9210   0.6514   3.6260  -0.4639   1.0528  -1.5651   0.00    0.0
2018/11/08 00:51:15.000  -74.407200529  163.437645198    76.2320   5   9   0.9201   0.6503   3.6169  -0.4614   1.0468  -1.5613   0.00    0.0
2018/11/08 00:51:30.000  -74.407200632  163.437645613    76.3378   5   9   0.9193   0.6494   3.6081  -0.4589   1.0408  -1.5577   0.00    0.0
2018/11/08 00:51:45.000  -74.407197536  163.437646007    76.0222   5   9   0.9185   0.6486   3.5996  -0.4564   1.0348  -1.5541   0.00    0.0
2018/11/08 00:52:00.000  -74.407198316  163.437646221    75.6248   5   9   0.9179   0.6478   3.5914  -0.4540   1.0288  -1.5506   0.00    0.0
2018/11/08 00:52:15.000  -74.407198641  163.437643787    76.1852   5   9   0.9173   0.6471   3.5836  -0.4515   1.0229  -1.5472   0.00    0.0
2018/11/08 00:52:30.000  -74.407197881  163.437641999    73.5535   5   9   0.9168   0.6464   3.5760  -0.4491   1.0170  -1.5440   0.00    0.0
2018/11/08 00:52:45.000  -74.407202069  163.437649482    77.2713   5   9   0.9140   0.6443   3.5571  -0.4453   1.0082  -1.5361   0.00    0.0
2018/11/08 00:53:00.000  -74.407201242  163.437644038    76.9370   5  10   0.7497   0.6382   2.6815  -0.3971   0.9123  -1.0676   0.00    0.0
2018/11/08 00:53:15.000  -74.407197957  163.437642769    75.7579   5  10   0.7488   0.6366   2.6743  -0.3954   0.9077  -1.0650   0.00    0.0
2018/11/08 00:53:30.000  -74.407198491  163.437645089    75.6958   5  10   0.7480   0.6350   2.6673  -0.3937   0.9031  -1.0625   0.00    0.0
2018/11/08 00:53:45.000  -74.407200956  163.437636846    77.5186   5  10   0.7472   0.6335   2.6604  -0.3921   0.8985  -1.0600   0.00    0.0
2018/11/08 00:54:00.000  -74.407202243  163.437656030    77.8440   5  10   0.7466   0.6321   2.6538  -0.3905   0.8941  -1.0576   0.00    0.0
2018/11/08 00:54:15.000  -74.407203261  163.437648830    77.4191   5  10   0.7460   0.6308   2.6474  -0.3889   0.8896  -1.0553   0.00    0.0
2018/11/08 00:54:30.000  -74.407200196  163.437638656    75.9144   5  10   0.7454   0.6295   2.6412  -0.3873   0.8853  -1.0530   0.00    0.0
2018/11/08 00:54:45.000  -74.407201413  163.437648791    76.2936   5  10   0.7449   0.6283   2.6352  -0.3858   0.8809  -1.0508   0.00    0.0
2018/11/08 00:55:00.000  -74.407202582  163.437648116    77.0475   5  10   0.7445   0.6272   2.6295  -0.3843   0.8767  -1.0487   0.00    0.0
2018/11/08 00:55:15.000  -74.407200223  163.437640756    76.3146   5  10   0.7442   0.6262   2.6242  -0.3829   0.8725  -1.0466   0.00    0.0
2018/11/08 00:55:30.000  -74.407200703  163.437644857    76.4867   5  10   0.7439   0.6252   2.6191  -0.3815   0.8684  -1.0447   0.00    0.0
2018/11/08 00:55:45.000  -74.407203352  163.437655529    77.5820   5  10   0.7438   0.6244   2.6143  -0.3801   0.8644  -1.0428   0.00    0.0
2018/11/08 00:56:00.000  -74.407203538  163.437648258    77.7721   5  10   0.7436   0.6236   2.6098  -0.3788   0.8604  -1.0410   0.00    0.0
2018/11/08 00:56:15.000  -74.407203039  163.437647173    77.6645   5  10   0.7436   0.6229   2.6055  -0.3775   0.8565  -1.0392   0.00    0.0
2018/11/08 00:56:30.000  -74.407202871  163.437653436    77.7839   5  10   0.7436   0.6222   2.6015  -0.3762   0.8526  -1.0376   0.00    0.0
2018/11/08 00:56:45.000  -74.407203213  163.437647807    77.6100   5  10   0.7437   0.6216   2.5978  -0.3750   0.8488  -1.0360   0.00    0.0
2018/11/08 00:57:00.000  -74.407206279  163.437649954    78.1543   5  10   0.7439   0.6211   2.5943  -0.3737   0.8450  -1.0345   0.00    0.0
2018/11/08 00:57:15.000  -74.407200418  163.437650892    75.6214   5  10   0.7441   0.6207   2.5912  -0.3726   0.8413  -1.0330   0.00    0.0
2018/11/08 00:57:30.000  -74.407203016  163.437647091    76.2125   5  10   0.7444   0.6203   2.5883  -0.3714   0.8377  -1.0317   0.00    0.0
2018/11/08 00:57:45.000  -74.407201510  163.437643511    75.7469   5  10   0.7432   0.6186   2.5787  -0.3693   0.8319  -1.0282   0.00    0.0
2018/11/08 00:58:00.000  -74.407203019  163.437647578    76.9943   5  10   0.7422   0.6169   2.5692  -0.3673   0.8263  -1.0248   0.00    0.0
2018/11/08 00:58:15.000  -74.407202991  163.437647116    77.0889   5  10   0.7412   0.6153   2.5601  -0.3652   0.8207  -1.0215   0.00    0.0
2018/11/08 00:58:30.000  -74.407201587  163.437639920    75.6309   5  10   0.7403   0.6137   2.5513  -0.3633   0.8153  -1.0182   0.00    0.0
2018/11/08 00:58:45.000  -74.407204210  163.437642720    76.6268   5  10   0.7395   0.6123   2.5427  -0.3613   0.8098  -1.0151   0.00    0.0
2018/11/08 00:59:00.000  -74.407201068  163.437642388    75.7876   5  10   0.7388   0.6109   2.5345  -0.3594   0.8045  -1.0120   0.00    0.0
2018/11/08 00:59:15.000  -74.407200632  163.437646363    76.8609   5  10   0.7381   0.6096   2.5265  -0.3576   0.7992  -1.0090   0.00    0.0
2018/11/08 00:59:30.000  -74.407200967  163.437644288    75.5413   5  10   0.7375   0.6084   2.5189  -0.3558   0.7940  -1.0061   0.00    0.0
2018/11/08 00:59:45.000  -74.407202030  163.437645553    76.4876   5  10   0.7369   0.6073   2.5115  -0.3540   0.7889  -1.0033   0.00    0.0
2018/11/08 01:00:00.000  -74.407202322  163.437648084    77.0620   5  10   0.7364   0.6062   2.5045  -0.3522   0.7838  -1.0006   0.00    0.0
2018/11/08 01:00:15.000  -74.407201227  163.437644683    76.3662   5  10   0.7361   0.6053   2.4980  -0.3505   0.7789  -0.9981   0.00    0.0
2018/11/08 01:00:30.000  -74.407202649  163.437651751    76.2504   5  10   0.7358   0.6044   2.4918  -0.3489   0.7740  -0.9956   0.00    0.0
2018/11/08 01:00:45.000  -74.407205738  163.437648240    77.0597   5  10   0.7355   0.6036   2.4859  -0.3472   0.7692  -0.9932   0.00    0.0
2018/11/08 01:01:00.000  -74.407202687  163.437649338    75.5812   5  10   0.7354   0.6029   2.4803  -0.3456   0.7645  -0.9909   0.00    0.0
2018/11/08 01:01:15.000  -74.407203553  163.437654108    76.2552   5  10   0.7353   0.6022   2.4751  -0.3441   0.7598  -0.9887   0.00    0.0
2018/11/08 01:01:30.000  -74.407203093  163.437644492    76.0803   5  10   0.7353   0.6017   2.4702  -0.3426   0.7552  -0.9866   0.00    0.0
2018/11/08 01:01:45.000  -74.407207058  163.437650260    78.4031   5  10   0.7353   0.6012   2.4657  -0.3411   0.7506  -0.9847   0.00    0.0
2018/11/08 01:02:00.000  -74.407203712  163.437646197    76.6286   5  10   0.7355   0.6007   2.4615  -0.3396   0.7461  -0.9827   0.00    0.0
2018/11/08 01:02:15.000  -74.407204325  163.437653760    76.9785   5  10   0.7357   0.6004   2.4577  -0.3382   0.7417  -0.9809   0.00    0.0
2018/11/08 01:02:30.000  -74.407203322  163.437656942    76.7361   5  10   0.7359   0.6001   2.4541  -0.3368   0.7373  -0.9792   0.00    0.0
2018/11/08 01:02:45.000  -74.407201276  163.437642043    76.5686   5  10   0.7348   0.5985   2.4437  -0.3346   0.7311  -0.9754   0.00    0.0
2018/11/08 01:03:00.000  -74.407203917  163.437641586    75.4781   5  10   0.7338   0.5970   2.4336  -0.3324   0.7250  -0.9717   0.00    0.0
2018/11/08 01:03:15.000  -74.407200906  163.437652222    75.8210   5  10   0.7329   0.5956   2.4239  -0.3303   0.7190  -0.9682   0.00    0.0
2018/11/08 01:03:30.000  -74.407201990  163.437648955    76.6130   5  10   0.7320   0.5943   2.4145  -0.3282   0.7131  -0.9647   0.00    0.0
2018/11/08 01:03:45.000  -74.407202361  163.437654132    76.7702   5  10   0.7312   0.5930   2.4055  -0.3261   0.7073  -0.9613   0.00    0.0
2018/11/08 01:04:00.000  -74.407202296  163.437647494    76.3953   5  10   0.7305   0.5918   2.3969  -0.3241   0.7015  -0.9581   0.00    0.0
2018/11/08 01:04:15.000  -74.407203854  163.437641344    76.6877   5  10   0.7298   0.5907   2.3886  -0.3222   0.6958  -0.9549   0.00    0.0
2018/11/08 01:04:30.000  -74.407202780  163.437640273    76.6722   5  10   0.7293   0.5897   2.3807  -0.3202   0.6902  -0.9519   0.00    0.0
2018/11/08 01:04:45.000  -74.407206056  163.437645202    77.0474   5  10   0.7288   0.5887   2.3731  -0.3183   0.6846  -0.9489   0.00    0.0
2018/11/08 01:05:00.000  -74.407204665  163.437653071    76.4517   5  10   0.7283   0.5879   2.3660  -0.3165   0.6791  -0.9461   0.00    0.0
2018/11/08 01:05:15.000  -74.407206271  163.437654178    77.4605   5  10   0.7280   0.5871   2.3593  -0.3147   0.6738  -0.9434   0.00    0.0
2018/11/08 01:05:30.000  -74.407202935  163.437652430    76.3175   5  10   0.7278   0.5864   2.3530  -0.3129   0.6684  -0.9408   0.00    0.0
2018/11/08 01:05:45.000  -74.407203800  163.437651734    77.2032   5  10   0.7276   0.5858   2.3470  -0.3112   0.6632  -0.9384   0.00    0.0
2018/11/08 01:06:00.000  -74.407204381  163.437656875    78.0866   5  10   0.7275   0.5853   2.3415  -0.3095   0.6580  -0.9360   0.00    0.0
2018/11/08 01:06:15.000  -74.407202263  163.437643176    76.7286   5  10   0.7274   0.5848   2.3363  -0.3078   0.6529  -0.9338   0.00    0.0
2018/11/08 01:06:30.000  -74.407204111  163.437649172    76.2300   5  10   0.7275   0.5844   2.3314  -0.3062   0.6478  -0.9316   0.00    0.0
2018/11/08 01:06:45.000  -74.407204788  163.437652297    77.9491   5  10   0.7276   0.5841   2.3270  -0.3046   0.6428  -0.9295   0.00    0.0
2018/11/08 01:07:00.000  -74.407205329  163.437647959    77.4664   5  10   0.7278   0.5839   2.3229  -0.3030   0.6378  -0.9276   0.00    0.0
2018/11/08 01:07:15.000  -74.407201762  163.437648713    77.3277   5  10   0.7280   0.5838   2.3192  -0.3015   0.6329  -0.9258   0.00    0.0
2018/11/08 01:07:30.000  -74.407203427  163.437644298    77.0826   5  10   0.7284   0.5837   2.3159  -0.3000   0.6280  -0.9240   0.00    0.0
2018/11/08 01:07:45.000  -74.407204090  163.437644606    76.8903   5  10   0.7274   0.5824   2.3058  -0.2978   0.6217  -0.9204   0.00    0.0
2018/11/08 01:08:00.000  -74.407209315  163.437648633    78.1318   5  10   0.7265   0.5811   2.2961  -0.2956   0.6154  -0.9168   0.00    0.0
2018/11/08 01:08:15.000  -74.407207921  163.437653900    78.4238   5  10   0.7256   0.5800   2.2867  -0.2935   0.6092  -0.9133   0.00    0.0
2018/11/08 01:08:30.000  -74.407205216  163.437643192    77.1923   5  10   0.7249   0.5789   2.2777  -0.2914   0.6030  -0.9100   0.00    0.0
2018/11/08 01:08:45.000  -74.407206622  163.437651227    78.4423   5  10   0.7242   0.5779   2.2692  -0.2893   0.5969  -0.9067   0.00    0.0
2018/11/08 01:09:00.000  -74.407205945  163.437652560    76.7037   5  10   0.7236   0.5769   2.2610  -0.2873   0.5909  -0.9036   0.00    0.0
2018/11/08 01:09:15.000  -74.407208943  163.437646375    78.3502   5  10   0.7230   0.5761   2.2532  -0.2853   0.5850  -0.9006   0.00    0.0
2018/11/08 01:09:30.000  -74.407206979  163.437650399    77.7826   5  10   0.7226   0.5753   2.2457  -0.2833   0.5791  -0.8977   0.00    0.0
2018/11/08 01:09:45.000  -74.407208124  163.437652090    78.0400   5  10   0.7222   0.5746   2.2387  -0.2814   0.5732  -0.8949   0.00    0.0
2018/11/08 01:10:00.000  -74.407207304  163.437651885    77.0513   5  10   0.7218   0.5740   2.2321  -0.2795   0.5674  -0.8922   0.00    0.0
2018/11/08 01:10:15.000  -74.407207335  163.437648866    76.9061   5  10   0.7216   0.5735   2.2260  -0.2777   0.5617  -0.8897   0.00    0.0
2018/11/08 01:10:30.000  -74.407207207  163.437646228    77.7144   5  10   0.7215   0.5730   2.2202  -0.2759   0.5561  -0.8873   0.00    0.0
2018/11/08 01:10:45.000  -74.407207935  163.437655763    78.1920   5  10   0.7214   0.5727   2.2149  -0.2742   0.5504  -0.8850   0.00    0.0
2018/11/08 01:11:00.000  -74.407201624  163.437648693    76.3343   5  10   0.7214   0.5724   2.2099  -0.2724   0.5448  -0.8828   0.00    0.0
2018/11/08 01:11:15.000  -74.407205463  163.437645350    78.2720   5  10   0.7215   0.5722   2.2054  -0.2707   0.5393  -0.8807   0.00    0.0
2018/11/08 01:11:30.000  -74.407205954  163.437649455    77.8045   5  10   0.7216   0.5720   2.2012  -0.2690   0.5337  -0.8787   0.00    0.0
2018/11/08 01:11:45.000  -74.407206340  163.437656394    77.9533   5  10   0.7218   0.5720   2.1974  -0.2674   0.5282  -0.8769   0.00    0.0
2018/11/08 01:12:00.000  -74.407204767  163.437654524    77.5039   5  10   0.7221   0.5720   2.1939  -0.2658   0.5227  -0.8751   0.00    0.0
2018/11/08 01:12:15.000  -74.407205703  163.437645331    77.7311   5  10   0.7225   0.5721   2.1909  -0.2642   0.5173  -0.8734   0.00    0.0
2018/11/08 01:12:30.000  -74.407205515  163.437652056    78.7642   5  10   0.7229   0.5722   2.1882  -0.2626   0.5118  -0.8718   0.00    0.0
2018/11/08 01:12:45.000  -74.407207612  163.437651950    77.3584   5  10   0.7221   0.5712   2.1789  -0.2604   0.5052  -0.8685   0.00    0.0
2018/11/08 01:13:00.000  -74.407206695  163.437653340    78.2316   5  10   0.7213   0.5702   2.1701  -0.2583   0.4987  -0.8652   0.00    0.0
2018/11/08 01:13:15.000  -74.407209273  163.437652732    78.5644   5  10   0.7206   0.5693   2.1616  -0.2562   0.4922  -0.8621   0.00    0.0
2018/11/08 01:13:30.000  -74.407203646  163.437646655    76.8816   5  10   0.7200   0.5685   2.1535  -0.2541   0.4857  -0.8591   0.00    0.0
2018/11/08 01:13:45.000  -74.407205031  163.437658699    77.1808   5  10   0.7194   0.5678   2.1459  -0.2521   0.4793  -0.8562   0.00    0.0
2018/11/08 01:14:00.000  -74.407206950  163.437650180    78.7868   5  11   0.6197   0.5498   1.7949  -0.1088   0.2489  -0.5517   0.00    0.0
2018/11/08 01:14:15.000  -74.407210083  163.437657901    78.4191   5  11   0.6195   0.5495   1.7919  -0.1066   0.2418  -0.5508   0.00    0.0
2018/11/08 01:14:30.000  -74.407207804  163.437658265    78.5621   5  11   0.6194   0.5493   1.7892  -0.1043   0.2346  -0.5499   0.00    0.0
2018/11/08 01:14:45.000  -74.407207518  163.437656292    78.1076   5  11   0.6194   0.5491   1.7869  -0.1021   0.2271  -0.5491   0.00    0.0
2018/11/08 01:15:00.000  -74.407208728  163.437652880    77.2423   5  11   0.6194   0.5490   1.7848  -0.0998   0.2194  -0.5483   0.00    0.0
2018/11/08 01:15:15.000  -74.407207391  163.437654898    77.7627   5  11   0.6195   0.5490   1.7831  -0.0974   0.2113  -0.5475   0.00    0.0
2018/11/08 01:15:30.000  -74.407207080  163.437656803    78.5303   5  11   0.6196   0.5491   1.7817  -0.0950   0.2030  -0.5468   0.00    0.0
2018/11/08 01:15:45.000  -74.407207581  163.437656745    78.2615   5  11   0.6198   0.5492   1.7806  -0.0926   0.1942  -0.5462   0.00    0.0
2018/11/08 01:16:00.000  -74.407209207  163.437658141    77.9898   5  11   0.6201   0.5494   1.7797  -0.0900   0.1850  -0.5455   0.00    0.0
2018/11/08 01:16:15.000  -74.407206022  163.437657625    77.2008   5  11   0.6204   0.5497   1.7792  -0.0875   0.1753  -0.5450   0.00    0.0
2018/11/08 01:16:30.000  -74.407206948  163.437653639    77.3726   5  11   0.6207   0.5500   1.7790  -0.0848   0.1649  -0.5444   0.00    0.0
2018/11/08 01:16:45.000  -74.407206630  163.437649406    77.9834   5  11   0.6211   0.5504   1.7791  -0.0820   0.1538  -0.5439   0.00    0.0
2018/11/08 01:17:00.000  -74.407208937  163.437644224    78.7910   5  11   0.6216   0.5509   1.7795  -0.0792   0.1417  -0.5435   0.00    0.0
2018/11/08 01:17:15.000  -74.407208360  163.437654949    78.3208   5  11   0.6221   0.5514   1.7801  -0.0762   0.1285  -0.5431   0.00    0.0
2018/11/08 01:17:30.000  -74.407206778  163.437654528    78.2608   5  11   0.6226   0.5520   1.7811  -0.0732   0.1135  -0.5427   0.00    0.0
2018/11/08 01:17:45.000  -74.407209310  163.437653039    78.8348   5  11   0.6223   0.5515   1.7770  -0.0699   0.0982  -0.5418   0.00    0.0
2018/11/08 01:18:00.000  -74.407209289  163.437647873    77.6836   5  12   0.6144   0.5283   1.7063  -0.1397  -0.2629  -0.5824   0.00    0.0
2018/11/08 01:18:15.000  -74.407208694  163.437661217    77.7571   5  12   0.6140   0.5279   1.7040  -0.1384  -0.2674  -0.5815   0.00    0.0
2018/11/08 01:18:30.000  -74.407208090  163.437654345    78.4178   5  12   0.6137   0.5276   1.7019  -0.1371  -0.2719  -0.5807   0.00    0.0
2018/11/08 01:18:45.000  -74.407208555  163.437652134    78.5533   5  12   0.6134   0.5273   1.7000  -0.1358  -0.2764  -0.5800   0.00    0.0
2018/11/08 01:19:00.000  -74.407208660  163.437641222    77.7772   5  12   0.6131   0.5271   1.6985  -0.1345  -0.2810  -0.5792   0.00    0.0
2018/11/08 01:19:15.000  -74.407206087  163.437648389    77.5479   5  12   0.6129   0.5269   1.6972  -0.1332  -0.2855  -0.5786   0.00    0.0
2018/11/08 01:19:30.000  -74.407207211  163.437646350    78.2095   5  12   0.6128   0.5269   1.6962  -0.1319  -0.2900  -0.5780   0.00    0.0
2018/11/08 01:19:45.000  -74.407206432  163.437648784    78.3555   5  12   0.6127   0.5268   1.6954  -0.1306  -0.2945  -0.5774   0.00    0.0
2018/11/08 01:20:00.000  -74.407204993  163.437651663    77.8710   5  12   0.6126   0.5269   1.6950  -0.1293  -0.2991  -0.5768   0.00    0.0
2018/11/08 01:20:15.000  -74.407208754  163.437649864    78.4083   5  12   0.6127   0.5270   1.6949  -0.1280  -0.3037  -0.5764   0.00    0.0
2018/11/08 01:20:30.000  -74.407206790  163.437650411    77.7954   5  12   0.6127   0.5272   1.6951  -0.1268  -0.3082  -0.5759   0.00    0.0
2018/11/08 01:20:45.000  -74.407205263  163.437651667    77.8706   5  12   0.6129   0.5275   1.6956  -0.1255  -0.3129  -0.5755   0.00    0.0
2018/11/08 01:21:00.000  -74.407207832  163.437646777    78.9368   5  12   0.6130   0.5278   1.6964  -0.1243  -0.3175  -0.5752   0.00    0.0
2018/11/08 01:21:15.000  -74.407207609  163.437650891    77.4503   5  12   0.6133   0.5281   1.6974  -0.1230  -0.3221  -0.5749   0.00    0.0
2018/11/08 01:21:30.000  -74.407207759  163.437662553    77.2839   5  12   0.6135   0.5286   1.6987  -0.1218  -0.3268  -0.5747   0.00    0.0
2018/11/08 01:21:45.000  -74.407206581  163.437655513    77.7422   5  12   0.6139   0.5291   1.7004  -0.1205  -0.3315  -0.5745   0.00    0.0
2018/11/08 01:22:00.000  -74.407208989  163.437652220    77.5910   5  12   0.6142   0.5296   1.7023  -0.1193  -0.3362  -0.5743   0.00    0.0
2018/11/08 01:22:15.000  -74.407206328  163.437652615    77.3751   5  12   0.6147   0.5302   1.7045  -0.1181  -0.3410  -0.5742   0.00    0.0
2018/11/08 01:22:30.000  -74.407207860  163.437645480    77.4924   5  12   0.6152   0.5309   1.7069  -0.1168  -0.3457  -0.5741   0.00    0.0
2018/11/08 01:22:45.000  -74.407208939  163.437656800    77.8124   5  12   0.6147   0.5305   1.7044  -0.1152  -0.3489  -0.5734   0.00    0.0
2018/11/08 01:23:00.000  -74.407207662  163.437648630    78.4408   5  12   0.6143   0.5302   1.7021  -0.1137  -0.3521  -0.5726   0.00    0.0
2018/11/08 01:23:15.000  -74.407208170  163.437652820    78.0995   5  12   0.6140   0.5299   1.7001  -0.1121  -0.3554  -0.5719   0.00    0.0
2018/11/08 01:23:30.000  -74.407209635  163.437647924    78.0742   5  12   0.6137   0.5297   1.6983  -0.1105  -0.3587  -0.5712   0.00    0.0
2018/11/08 01:23:45.000  -74.407209266  163.437651564    77.9471   5  12   0.6135   0.5295   1.6969  -0.1089  -0.3620  -0.5706   0.00    0.0
2018/11/08 01:24:00.000  -74.407208049  163.437651924    77.2999   5  12   0.6133   0.5294   1.6957  -0.1074  -0.3653  -0.5701   0.00    0.0
2018/11/08 01:24:15.000  -74.407209033  163.437657005    78.2048   5  12   0.6131   0.5294   1.6948  -0.1058  -0.3687  -0.5695   0.00    0.0
2018/11/08 01:24:30.000  -74.407207678  163.437651200    77.7884   5  12   0.6130   0.5294   1.6942  -0.1042  -0.3722  -0.5691   0.00    0.0
2018/11/08 01:24:45.000  -74.407205632  163.437652759    77.1470   5  12   0.6130   0.5295   1.6939  -0.1026  -0.3757  -0.5686   0.00    0.0
2018/11/08 01:25:00.000  -74.407206471  163.437659856    77.5310   5  12   0.6130   0.5297   1.6939  -0.1010  -0.3792  -0.5683   0.00    0.0
2018/11/08 01:25:15.000  -74.407209637  163.437655493    77.3327   5  12   0.6131   0.5299   1.6942  -0.0994  -0.3828  -0.5679   0.00    0.0
2018/11/08 01:25:30.000  -74.407208433  163.437643426    78.0488   5  12   0.6132   0.5302   1.6949  -0.0978  -0.3865  -0.5677   0.00    0.0
2018/11/08 01:25:45.000  -74.407207385  163.437648141    78.4339   5  12   0.6134   0.5306   1.6958  -0.0962  -0.3902  -0.5674   0.00    0.0
2018/11/08 01:26:00.000  -74.407209247  163.437647032    78.5263   5  12   0.6136   0.5310   1.6970  -0.0946  -0.3939  -0.5673   0.00    0.0
2018/11/08 01:26:15.000  -74.407209648  163.437645792    78.7085   5  12   0.6139   0.5315   1.6985  -0.0929  -0.3977  -0.5671   0.00    0.0
2018/11/08 01:26:30.000  -74.407207126  163.437652261    78.1691   5  12   0.6143   0.5320   1.7003  -0.0913  -0.4016  -0.5670   0.00    0.0
2018/11/08 01:26:45.000  -74.407205564  163.437647984    77.8041   5  12   0.6146   0.5326   1.7024  -0.0896  -0.4055  -0.5670   0.00    0.0
2018/11/08 01:27:00.000  -74.407208306  163.437655715    78.6466   5  12   0.6151   0.5333   1.7047  -0.0879  -0.4094  -0.5670   0.00    0.0
2018/11/08 01:27:15.000  -74.407207189  163.437644085    77.4958   5  12   0.6156   0.5340   1.7074  -0.0862  -0.4134  -0.5671   0.00    0.0
2018/11/08 01:27:30.000  -74.407209214  163.437647780    78.6757   5  12   0.6161   0.5348   1.7103  -0.0845  -0.4175  -0.5672   0.00    0.0
2018/11/08 01:27:45.000  -74.407207556  163.437656773    77.4024   5  12   0.6157   0.5345   1.7083  -0.0825  -0.4200  -0.5665   0.00    0.0
2018/11/08 01:28:00.000  -74.407207854  163.437654593    78.7753   5  12   0.6154   0.5342   1.7064  -0.0803  -0.4225  -0.5659   0.00    0.0
2018/11/08 01:28:15.000  -74.407206414  163.437642382    78.6501   5  12   0.6151   0.5341   1.7047  -0.0781  -0.4251  -0.5654   0.00    0.0
2018/11/08 01:28:30.000  -74.407206066  163.437643552    78.1951   5  12   0.6149   0.5340   1.7034  -0.0759  -0.4278  -0.5649   0.00    0.0
2018/11/08 01:28:45.000  -74.407207843  163.437656323    78.6021   5  12   0.6147   0.5339   1.7023  -0.0737  -0.4305  -0.5644   0.00    0.0
2018/11/08 01:29:00.000  -74.407209727  163.437650593    78.3456   5  12   0.6145   0.5339   1.7015  -0.0713  -0.4332  -0.5640   0.00    0.0
2018/11/08 01:29:15.000  -74.407209626  163.437656583    77.8141   5  12   0.6145   0.5340   1.7011  -0.0690  -0.4360  -0.5637   0.00    0.0
2018/11/08 01:29:30.000  -74.407208771  163.437656652    77.6877   5  12   0.6144   0.5341   1.7008  -0.0666  -0.4389  -0.5634   0.00    0.0
2018/11/08 01:29:45.000  -74.407206893  163.437648488    78.1960   5  12   0.6145   0.5343   1.7009  -0.0641  -0.4418  -0.5631   0.00    0.0
2018/11/08 01:30:00.000  -74.407208826  163.437647673    78.2650   5  12   0.6145   0.5345   1.7013  -0.0615  -0.4448  -0.5629   0.00    0.0
2018/11/08 01:30:15.000  -74.407209484  163.437651105    78.6877   5  12   0.6147   0.5349   1.7021  -0.0588  -0.4479  -0.5628   0.00    0.0
2018/11/08 01:30:30.000  -74.407208116  163.437643871    78.0901   5  12   0.6148   0.5353   1.7032  -0.0561  -0.4511  -0.5627   0.00    0.0
2018/11/08 01:30:45.000  -74.407208873  163.437640457    78.2766   5  12   0.6151   0.5357   1.7045  -0.0532  -0.4543  -0.5626   0.00    0.0
2018/11/08 01:31:00.000  -74.407209448  163.437647234    78.3739   5  12   0.6154   0.5362   1.7062  -0.0503  -0.4575  -0.5626   0.00    0.0
2018/11/08 01:31:15.000  -74.407207191  163.437646285    77.9845   5  12   0.6157   0.5368   1.7081  -0.0471  -0.4608  -0.5626   0.00    0.0
2018/11/08 01:31:30.000  -74.407208912  163.437651239    78.2867   5  12   0.6161   0.5374   1.7103  -0.0437  -0.4642  -0.5627   0.00    0.0
2018/11/08 01:31:45.000  -74.407204670  163.437643739    76.7197   5  12   0.6165   0.5381   1.7128  -0.0401  -0.4676  -0.5628   0.00    0.0
2018/11/08 01:32:00.000  -74.407206561  163.437652976    78.2472   5  12   0.6170   0.5389   1.7156  -0.0361  -0.4711  -0.5630   0.00    0.0
2018/11/08 01:32:15.000  -74.407208638  163.437640721    78.7529   5  12   0.6176   0.5397   1.7187  -0.0317  -0.4747  -0.5632   0.00    0.0
2018/11/08 01:32:30.000  -74.407208123  163.437648303    78.4739   5  12   0.6181   0.5405   1.7220  -0.0266  -0.4783  -0.5635   0.00    0.0
2018/11/08 01:32:45.000  -74.407208240  163.437647626    78.0948   5  12   0.6178   0.5403   1.7201  -0.0190  -0.4804  -0.5630   0.00    0.0
2018/11/08 01:33:00.000  -74.407207426  163.437646023    78.0496   5  12   0.6176   0.5402   1.7186  -0.0040  -0.4825  -0.5626   0.00    0.0
2018/11/08 01:33:15.000  -74.407206569  163.437652336    78.1380   5  12   0.6173   0.5401   1.7174   0.0180  -0.4847  -0.5622   0.00    0.0
2018/11/08 01:33:30.000  -74.407206211  163.437647613    78.3511   5  12   0.6171   0.5401   1.7165   0.0257  -0.4869  -0.5619   0.00    0.0
2018/11/08 01:33:45.000  -74.407206416  163.437656556    78.2095   5  12   0.6170   0.5401   1.7158   0.0316  -0.4892  -0.5617   0.00    0.0
2018/11/08 01:34:00.000  -74.407208923  163.437652451    78.1566   5  12   0.6169   0.5402   1.7154   0.0365  -0.4916  -0.5614   0.00    0.0
2018/11/08 01:34:15.000  -74.407208657  163.437649937    78.6386   5  12   0.6169   0.5403   1.7154   0.0407  -0.4940  -0.5613   0.00    0.0
2018/11/08 01:34:30.000  -74.407208160  163.437649020    78.5256   5  12   0.6169   0.5406   1.7156   0.0446  -0.4965  -0.5611   0.00    0.0
2018/11/08 01:34:45.000  -74.407210883  163.437648203    78.5230   5  12   0.6170   0.5408   1.7160   0.0481  -0.4991  -0.5611   0.00    0.0
2018/11/08 01:35:00.000  -74.407208839  163.437652062    79.1449   5  12   0.6171   0.5412   1.7168   0.0514  -0.5017  -0.5610   0.00    0.0
2018/11/08 01:35:15.000  -74.407206640  163.437649681    79.0466   5  12   0.6173   0.5416   1.7180   0.0544  -0.5044  -0.5611   0.00    0.0
2018/11/08 01:35:30.000  -74.407205986  163.437655208    77.9783   5  12   0.6176   0.5420   1.7194   0.0572  -0.5072  -0.5611   0.00    0.0
2018/11/08 01:35:45.000  -74.407207745  163.437649321    78.7249   5  12   0.6179   0.5426   1.7211   0.0599  -0.5100  -0.5612   0.00    0.0
2018/11/08 01:36:00.000  -74.407209437  163.437654107    78.5788   5  12   0.6182   0.5431   1.7231   0.0625  -0.5130  -0.5614   0.00    0.0
2018/11/08 01:36:15.000  -74.407208463  163.437653685    78.3338   5  12   0.6186   0.5438   1.7254   0.0650  -0.5159  -0.5616   0.00    0.0
2018/11/08 01:36:30.000  -74.407208331  163.437660150    78.4760   5  12   0.6190   0.5445   1.7279   0.0673  -0.5190  -0.5618   0.00    0.0
2018/11/08 01:36:45.000  -74.407209046  163.437654467    77.6228   5  12   0.6195   0.5453   1.7307   0.0696  -0.5221  -0.5621   0.00    0.0
2018/11/08 01:37:00.000  -74.407208117  163.437652731    78.4405   5  12   0.6201   0.5461   1.7338   0.0718  -0.5252  -0.5625   0.00    0.0
2018/11/08 01:37:15.000  -74.407209690  163.437661677    78.3800   5  12   0.6207   0.5470   1.7372   0.0739  -0.5284  -0.5629   0.00    0.0
2018/11/08 01:37:30.000  -74.407209375  163.437657184    77.9166   5  12   0.6213   0.5479   1.7408   0.0759  -0.5317  -0.5633   0.00    0.0
2018/11/08 01:37:45.000  -74.407210119  163.437655114    78.2386   5  12   0.6211   0.5478   1.7394   0.0781  -0.5335  -0.5630   0.00    0.0
2018/11/08 01:38:00.000  -74.407207869  163.437654293    78.2583   5  12   0.6208   0.5477   1.7383   0.0803  -0.5353  -0.5628   0.00    0.0
2018/11/08 01:38:15.000  -74.407210037  163.437652192    78.4340   5  12   0.6207   0.5477   1.7375   0.0824  -0.5372  -0.5626   0.00    0.0
2018/11/08 01:38:30.000  -74.407208658  163.437657275    77.8185   5  12   0.6205   0.5477   1.7369   0.0844  -0.5391  -0.5625   0.00    0.0
2018/11/08 01:38:45.000  -74.407209889  163.437650646    77.9234   5  12   0.6205   0.5478   1.7366   0.0864  -0.5411  -0.5624   0.00    0.0
2018/11/08 01:39:00.000  -74.407208124  163.437653052    79.1962   5  12   0.6204   0.5480   1.7366   0.0883  -0.5432  -0.5624   0.00    0.0
2018/11/08 01:39:15.000  -74.407206821  163.437656477    78.4408   5  12   0.6205   0.5482   1.7368   0.0902  -0.5453  -0.5624   0.00    0.0
2018/11/08 01:39:30.000  -74.407208181  163.437659524    78.1585   5  12   0.6205   0.5484   1.7374   0.0920  -0.5475  -0.5624   0.00    0.0
2018/11/08 01:39:45.000  -74.407207482  163.437654024    77.8662   5  12   0.6207   0.5488   1.7382   0.0938  -0.5498  -0.5626   0.00    0.0
2018/11/08 01:40:00.000  -74.407209937  163.437656205    78.8650   5  12   0.6209   0.5491   1.7393   0.0955  -0.5521  -0.5627   0.00    0.0
2018/11/08 01:40:15.000  -74.407209526  163.437655710    77.6203   5  12   0.6211   0.5496   1.7407   0.0972  -0.5545  -0.5629   0.00    0.0
2018/11/08 01:40:30.000  -74.407209730  163.437651698    78.8277   5  12   0.6214   0.5501   1.7424   0.0988  -0.5570  -0.5631   0.00    0.0
2018/11/08 01:40:45.000  -74.407209683  163.437650046    78.9210   5  12   0.6218   0.5507   1.7444   0.1004  -0.5596  -0.5634   0.00    0.0
2018/11/08 01:41:00.000  -74.407209377  163.437654992    78.1613   5  12   0.6222   0.5514   1.7467   0.1020  -0.5622  -0.5637   0.00    0.0
2018/11/08 01:41:15.000  -74.407208881  163.437654678    78.3706   5  12   0.6226   0.5520   1.7492   0.1036  -0.5648  -0.5641   0.00    0.0
2018/11/08 01:41:30.000  -74.407206862  163.437654462    78.2507   5  12   0.6231   0.5528   1.7520   0.1051  -0.5676  -0.5645   0.00    0.0
2018/11/08 01:41:45.000  -74.407207856  163.437653324    78.2803   5  12   0.6237   0.5536   1.7550   0.1066  -0.5704  -0.5650   0.00    0.0
2018/11/08 01:42:00.000  -74.407206599  163.437654630    78.1725   5  12   0.6243   0.5545   1.7583   0.1080  -0.5732  -0.5655   0.00    0.0
2018/11/08 01:42:15.000  -74.407208952  163.437648701    78.9129   5  12   0.6249   0.5554   1.7618   0.1095  -0.5761  -0.5660   0.00    0.0
2018/11/08 01:42:30.000  -74.407208537  163.437653776    78.3741   5  12   0.6257   0.5564   1.7655   0.1109  -0.5791  -0.5666   0.00    0.0
2018/11/08 01:42:45.000  -74.407207005  163.437656379    77.9786   5  12   0.6254   0.5563   1.7645   0.1124  -0.5805  -0.5665   0.00    0.0
2018/11/08 01:43:00.000  -74.407210829  163.437657388    78.1984   5  12   0.6253   0.5562   1.7637   0.1140  -0.5821  -0.5665   0.00    0.0
2018/11/08 01:43:15.000  -74.407208740  163.437658436    78.6547   5  12   0.6251   0.5563   1.7632   0.1155  -0.5837  -0.5665   0.00    0.0
2018/11/08 01:43:30.000  -74.407209205  163.437657755    78.3618   5  12   0.6251   0.5563   1.7629   0.1169  -0.5854  -0.5666   0.00    0.0
2018/11/08 01:43:45.000  -74.407209827  163.437648882    79.5849   5  12   0.6251   0.5565   1.7629   0.1184  -0.5871  -0.5667   0.00    0.0
2018/11/08 01:44:00.000  -74.407210038  163.437653184    78.3893   5  12   0.6251   0.5567   1.7632   0.1198  -0.5889  -0.5668   0.00    0.0
2018/11/08 01:44:15.000  -74.407209659  163.437651314    78.7508   5  12   0.6252   0.5569   1.7637   0.1212  -0.5908  -0.5670   0.00    0.0
