% program   : RTKLIB ver.2.4.3
% inp file  : _by_type/_obs/hillary/20181105_20181107.18o
% inp file  : _by_type/_obs/base/20181105.18o
% inp file  : _by_type/_sp3+clk/igs20261.clk
% inp file  : _by_type/_sp3+clk/igs20261.sp3
% inp file  : _by_type/_nav/hillary/20181105_20181107.18n
% obs start : 2018/11/05 00:00:00.0 GPST (week2026  86400.0s)
% obs end   : 2018/11/07 23:59:45.0 GPST (week2026 345585.0s)
% pos mode  : dgps
% freqs     : L1+L2
% solution  : combined
% elev mask : 15.0 deg
% dynamics  : off
% tidecorr  : off
% ionos opt : iono-free
% tropo opt : est ztd+grad
% ephemeris : precise
% navi sys  : gps glonass
% antenna1  :                       ( 0.0000  0.0000  0.0000)
% antenna2  :                       ( 0.0000  0.0000  0.0000)
% ref pos   : 90.000000000   0.000000000-6335367.6285
%
% (lat/lon/height=WGS84/ellipsoidal,Q=1:fix,2:float,3:sbas,4:dgps,5:single,6:ppp,ns=# of satellites)
%  GPST                  latitude(deg) longitude(deg)  height(m)   Q  ns   sdn(m)   sde(m)   sdu(m)  sdne(m)  sdeu(m)  sdun(m) age(s)  ratio
2018/11/05 00:00:00.000  -74.393404856  163.452944542    99.6218   5   8   0.8307   0.6466   2.5988   0.2492  -0.5272  -1.1379 -32115.00    0.0
2018/11/05 00:00:15.000  -74.393400882  163.452943945    97.9105   5   8   0.8302   0.6464   2.6029   0.2486  -0.5252  -1.1385 -32100.00    0.0
2018/11/05 00:00:30.000  -74.393401167  163.452953453    98.6085   5   8   0.8298   0.6463   2.6075   0.2480  -0.5231  -1.1391 -32085.00    0.0
2018/11/05 00:00:45.000  -74.393399709  163.452966856    97.4347   5   8   0.8295   0.6463   2.6123   0.2474  -0.5212  -1.1400 -32070.00    0.0
2018/11/05 00:01:00.000  -74.393402177  163.452962140    98.9729   5   8   0.8293   0.6463   2.6176   0.2469  -0.5192  -1.1410 -32055.00    0.0
2018/11/05 00:01:15.000  -74.393401763  163.452955003    97.9692   5   8   0.8292   0.6465   2.6232   0.2464  -0.5174  -1.1421 -32040.00    0.0
2018/11/05 00:01:30.000  -74.393403925  163.452950020    99.2095   5   8   0.8291   0.6467   2.6292   0.2459  -0.5155  -1.1434 -32025.00    0.0
2018/11/05 00:01:45.000  -74.393404430  163.452954174    99.2153   5   8   0.8292   0.6471   2.6355   0.2455  -0.5137  -1.1448 -32010.00    0.0
2018/11/05 00:02:00.000  -74.393403347  163.452945577    99.5683   5   8   0.8294   0.6475   2.6422   0.2451  -0.5120  -1.1465 -31995.00    0.0
2018/11/05 00:02:15.000  -74.393404593  163.452957193    99.0970   5   8   0.8297   0.6480   2.6493   0.2447  -0.5102  -1.1482 -31980.00    0.0
2018/11/05 00:02:30.000  -74.393404804  163.452946728    99.6987   5   8   0.8301   0.6486   2.6568   0.2443  -0.5085  -1.1501 -31965.00    0.0
2018/11/05 00:02:45.000  -74.393401809  163.452945795    98.1160   5   8   0.8286   0.6474   2.6572   0.2430  -0.5047  -1.1490 -31950.00    0.0
2018/11/05 00:03:00.000  -74.393402517  163.452957767    98.3945   5   8   0.8272   0.6464   2.6580   0.2418  -0.5010  -1.1481 -31935.00    0.0
2018/11/05 00:03:15.000  -74.393399010  163.452952444    97.8741   5   8   0.8258   0.6454   2.6592   0.2406  -0.4974  -1.1473 -31920.00    0.0
2018/11/05 00:03:30.000  -74.393400222  163.452951662    97.6535   5   8   0.8246   0.6446   2.6608   0.2394  -0.4938  -1.1467 -31905.00    0.0
2018/11/05 00:03:45.000  -74.393405040  163.452951794    99.1598   5   8   0.8235   0.6438   2.6626   0.2383  -0.4903  -1.1462 -31890.00    0.0
2018/11/05 00:04:00.000  -74.393400589  163.452952437    96.6717   5   8   0.8225   0.6431   2.6649   0.2372  -0.4868  -1.1458 -31875.00    0.0
2018/11/05 00:04:15.000  -74.393402209  163.452951953    97.3751   5   9   0.6895   0.6156   2.0157  -0.1624   0.2961  -0.7294 -31860.00    0.0
2018/11/05 00:04:30.000  -74.393401157  163.452953888    97.3731   5   9   0.6889   0.6153   2.0189  -0.1629   0.3003  -0.7298 -31845.00    0.0
2018/11/05 00:04:45.000  -74.393401501  163.452943850    97.4940   5   9   0.6883   0.6150   2.0224  -0.1635   0.3046  -0.7302 -31830.00    0.0
2018/11/05 00:05:00.000  -74.393399128  163.452941213    96.7389   5   9   0.6879   0.6148   2.0262  -0.1640   0.3088  -0.7307 -31815.00    0.0
2018/11/05 00:05:15.000  -74.393401198  163.452946350    97.4960   5   9   0.6875   0.6148   2.0304  -0.1647   0.3132  -0.7314 -31800.00    0.0
2018/11/05 00:05:30.000  -74.393399049  163.452955285    97.0041   5   9   0.6872   0.6148   2.0348  -0.1654   0.3177  -0.7321 -31785.00    0.0
2018/11/05 00:05:45.000  -74.393398429  163.452950145    97.1402   5   9   0.6870   0.6149   2.0395  -0.1662   0.3221  -0.7330 -31770.00    0.0
2018/11/05 00:06:00.000  -74.393399939  163.452943960    97.4074   5   9   0.6869   0.6151   2.0444  -0.1671   0.3267  -0.7339 -31755.00    0.0
2018/11/05 00:06:15.000  -74.393396980  163.452946889    96.7580   5   9   0.6868   0.6154   2.0497  -0.1679   0.3313  -0.7349 -31740.00    0.0
2018/11/05 00:06:30.000  -74.393400056  163.452948587    97.7208   5   9   0.6868   0.6157   2.0552  -0.1689   0.3359  -0.7359 -31725.00    0.0
2018/11/05 00:06:45.000  -74.393398439  163.452952694    96.9581   5   9   0.6869   0.6162   2.0610  -0.1698   0.3406  -0.7371 -31710.00    0.0
2018/11/05 00:07:00.000  -74.393400780  163.452955419    96.8518   5   9   0.6870   0.6167   2.0670  -0.1709   0.3454  -0.7384 -31695.00    0.0
2018/11/05 00:07:15.000  -74.393397674  163.452955052    96.8730   5   9   0.6873   0.6173   2.0734  -0.1720   0.3503  -0.7397 -31680.00    0.0
2018/11/05 00:07:30.000  -74.393397784  163.452955684    96.2023   5   9   0.6876   0.6181   2.0800  -0.1731   0.3552  -0.7412 -31665.00    0.0
2018/11/05 00:07:45.000  -74.393395780  163.452958909    96.1546   5   9   0.6866   0.6172   2.0821  -0.1734   0.3588  -0.7413 -31650.00    0.0
2018/11/05 00:08:00.000  -74.393398128  163.452944255    96.8489   5   9   0.6857   0.6165   2.0843  -0.1738   0.3625  -0.7415 -31635.00    0.0
2018/11/05 00:08:15.000  -74.393396791  163.452953975    96.2527   5   9   0.6848   0.6158   2.0869  -0.1742   0.3662  -0.7418 -31620.00    0.0
2018/11/05 00:08:30.000  -74.393399386  163.452952831    96.9016   5   9   0.6840   0.6152   2.0897  -0.1747   0.3699  -0.7422 -31605.00    0.0
2018/11/05 00:08:45.000  -74.393398127  163.452956127    97.1567   5   9   0.6833   0.6146   2.0927  -0.1752   0.3737  -0.7426 -31590.00    0.0
2018/11/05 00:09:00.000  -74.393398666  163.452951937    96.9763   5   9   0.6827   0.6142   2.0960  -0.1757   0.3776  -0.7432 -31575.00    0.0
2018/11/05 00:09:15.000  -74.393395099  163.452951500    95.7965   5   9   0.6821   0.6139   2.0996  -0.1763   0.3815  -0.7438 -31560.00    0.0
2018/11/05 00:09:30.000  -74.393397470  163.452953503    96.7653   5   9   0.6816   0.6136   2.1035  -0.1770   0.3854  -0.7445 -31545.00    0.0
2018/11/05 00:09:45.000  -74.393396128  163.452954108    96.0801   5   9   0.6812   0.6134   2.1076  -0.1777   0.3895  -0.7453 -31530.00    0.0
2018/11/05 00:10:00.000  -74.393398713  163.452953818    96.5741   5   9   0.6809   0.6134   2.1120  -0.1785   0.3936  -0.7462 -31515.00    0.0
2018/11/05 00:10:15.000  -74.393398380  163.452955401    96.5381   5   9   0.6806   0.6134   2.1168  -0.1794   0.3979  -0.7472 -31500.00    0.0
2018/11/05 00:10:30.000  -74.393394204  163.452960467    95.4924   5   9   0.6805   0.6135   2.1220  -0.1803   0.4022  -0.7483 -31485.00    0.0
2018/11/05 00:10:45.000  -74.393394895  163.452955999    95.4863   5   9   0.6804   0.6138   2.1274  -0.1813   0.4066  -0.7496 -31470.00    0.0
2018/11/05 00:11:00.000  -74.393395694  163.452956722    97.1176   5   9   0.6804   0.6141   2.1331  -0.1823   0.4111  -0.7509 -31455.00    0.0
2018/11/05 00:11:15.000  -74.393396534  163.452961080    96.6037   5   9   0.6805   0.6145   2.1390  -0.1834   0.4157  -0.7523 -31440.00    0.0
2018/11/05 00:11:30.000  -74.393395083  163.452958682    95.4170   5   9   0.6806   0.6150   2.1453  -0.1845   0.4204  -0.7538 -31425.00    0.0
2018/11/05 00:11:45.000  -74.393396600  163.452951720    96.3349   5   9   0.6809   0.6155   2.1519  -0.1857   0.4252  -0.7553 -31410.00    0.0
2018/11/05 00:12:00.000  -74.393397668  163.452947277    96.1520   5   9   0.6812   0.6162   2.1588  -0.1870   0.4301  -0.7570 -31395.00    0.0
2018/11/05 00:12:15.000  -74.393394765  163.452957597    96.2904   5   9   0.6816   0.6170   2.1660  -0.1883   0.4350  -0.7588 -31380.00    0.0
2018/11/05 00:12:30.000  -74.393394491  163.452956312    96.6267   5   9   0.6820   0.6178   2.1735  -0.1896   0.4401  -0.7607 -31365.00    0.0
2018/11/05 00:12:45.000  -74.393394650  163.452954332    96.0680   5   9   0.6811   0.6170   2.1758  -0.1900   0.4433  -0.7611 -31350.00    0.0
2018/11/05 00:13:00.000  -74.393395279  163.452954190    96.4605   5   9   0.6803   0.6164   2.1786  -0.1906   0.4468  -0.7617 -31335.00    0.0
2018/11/05 00:13:15.000  -74.393398687  163.452953490    97.1158   5   9   0.6796   0.6158   2.1816  -0.1912   0.4503  -0.7623 -31320.00    0.0
2018/11/05 00:13:30.000  -74.393397334  163.452956718    97.0602   5   9   0.6790   0.6153   2.1849  -0.1918   0.4540  -0.7630 -31305.00    0.0
2018/11/05 00:13:45.000  -74.393397003  163.452955603    97.3187   5   9   0.6784   0.6149   2.1885  -0.1925   0.4577  -0.7638 -31290.00    0.0
2018/11/05 00:14:00.000  -74.393394694  163.452958857    96.0195   5   9   0.6779   0.6146   2.1924  -0.1932   0.4615  -0.7647 -31275.00    0.0
2018/11/05 00:14:15.000  -74.393394661  163.452950665    96.4754   5   9   0.6775   0.6144   2.1965  -0.1940   0.4654  -0.7656 -31260.00    0.0
2018/11/05 00:14:30.000  -74.393394151  163.452950140    96.7648   5   9   0.6771   0.6143   2.2009  -0.1948   0.4693  -0.7667 -31245.00    0.0
2018/11/05 00:14:45.000  -74.393394488  163.452952750    96.9109   5   9   0.6769   0.6142   2.2057  -0.1957   0.4734  -0.7679 -31230.00    0.0
2018/11/05 00:15:00.000  -74.393393994  163.452949625    96.1813   5   9   0.6767   0.6143   2.2107  -0.1967   0.4775  -0.7691 -31215.00    0.0
2018/11/05 00:15:15.000  -74.393393964  163.452956358    96.0841   5   9   0.6766   0.6145   2.2162  -0.1977   0.4818  -0.7705 -31200.00    0.0
2018/11/05 00:15:30.000  -74.393392043  163.452949913    95.8758   5   9   0.6766   0.6147   2.2219  -0.1988   0.4862  -0.7721 -31185.00    0.0
2018/11/05 00:15:45.000  -74.393393280  163.452947530    95.7804   5   9   0.6767   0.6151   2.2280  -0.2000   0.4907  -0.7737 -31170.00    0.0
2018/11/05 00:16:00.000  -74.393393493  163.452947801    95.5954   5   9   0.6768   0.6155   2.2343  -0.2012   0.4953  -0.7754 -31155.00    0.0
2018/11/05 00:16:15.000  -74.393396267  163.452957921    96.2592   5   9   0.6770   0.6161   2.2410  -0.2025   0.4999  -0.7772 -31140.00    0.0
2018/11/05 00:16:30.000  -74.393397299  163.452949082    96.4505   5   9   0.6773   0.6167   2.2480  -0.2039   0.5047  -0.7791 -31125.00    0.0
2018/11/05 00:16:45.000  -74.393392325  163.452952452    95.7419   5   9   0.6777   0.6174   2.2553  -0.2052   0.5096  -0.7811 -31110.00    0.0
2018/11/05 00:17:00.000  -74.393395526  163.452945013    96.5473   5   9   0.6782   0.6182   2.2629  -0.2067   0.5147  -0.7832 -31095.00    0.0
2018/11/05 00:17:15.000  -74.393393377  163.452953178    95.2313   5   9   0.6787   0.6191   2.2708  -0.2082   0.5198  -0.7854 -31080.00    0.0
2018/11/05 00:17:30.000  -74.393392614  163.452956854    96.6766   5   9   0.6793   0.6201   2.2791  -0.2098   0.5250  -0.7878 -31065.00    0.0
2018/11/05 00:17:45.000  -74.393392771  163.452958319    96.7836   5   9   0.6786   0.6195   2.2820  -0.2105   0.5284  -0.7885 -31050.00    0.0
2018/11/05 00:18:00.000  -74.393393016  163.452954976    96.5531   5   9   0.6779   0.6190   2.2852  -0.2111   0.5318  -0.7893 -31035.00    0.0
2018/11/05 00:18:15.000  -74.393391468  163.452953088    96.1175   5   9   0.6773   0.6186   2.2886  -0.2119   0.5353  -0.7903 -31020.00    0.0
2018/11/05 00:18:30.000  -74.393391233  163.452954540    96.4961   5   9   0.6768   0.6182   2.2923  -0.2126   0.5389  -0.7913 -31005.00    0.0
2018/11/05 00:18:45.000  -74.393391932  163.452958433    95.9957   5   9   0.6764   0.6180   2.2963  -0.2135   0.5426  -0.7924 -30990.00    0.0
2018/11/05 00:19:00.000  -74.393393579  163.452950865    95.7090   5   9   0.6760   0.6178   2.3006  -0.2144   0.5464  -0.7936 -30975.00    0.0
2018/11/05 00:19:15.000  -74.393393331  163.452958825    96.6954   5   9   0.6758   0.6178   2.3052  -0.2153   0.5502  -0.7950 -30960.00    0.0
2018/11/05 00:19:30.000  -74.393393190  163.452952880    96.3267   5   9   0.6756   0.6178   2.3101  -0.2163   0.5542  -0.7964 -30945.00    0.0
2018/11/05 00:19:45.000  -74.393395605  163.452960099    97.2380   5   9   0.6754   0.6179   2.3153  -0.2174   0.5583  -0.7979 -30930.00    0.0
2018/11/05 00:20:00.000  -74.393390531  163.452960582    96.3546   5  10   0.6525   0.6087   2.0703  -0.2578   0.6549  -0.6754 -30915.00    0.0
2018/11/05 00:20:15.000  -74.393392865  163.452961126    97.1508   5  10   0.6525   0.6091   2.0765  -0.2587   0.6585  -0.6775 -30900.00    0.0
2018/11/05 00:20:30.000  -74.393390057  163.452957278    95.6119   5  10   0.6527   0.6096   2.0830  -0.2597   0.6622  -0.6796 -30885.00    0.0
2018/11/05 00:20:45.000  -74.393392311  163.452960124    96.5571   5  10   0.6529   0.6102   2.0898  -0.2608   0.6661  -0.6818 -30870.00    0.0
2018/11/05 00:21:00.000  -74.393390445  163.452955781    96.1193   5  10   0.6532   0.6108   2.0969  -0.2619   0.6701  -0.6841 -30855.00    0.0
2018/11/05 00:21:15.000  -74.393389920  163.452954750    95.3687   5  10   0.6536   0.6116   2.1043  -0.2631   0.6742  -0.6865 -30840.00    0.0
2018/11/05 00:21:30.000  -74.393389710  163.452963902    96.0485   5  10   0.6541   0.6124   2.1120  -0.2643   0.6785  -0.6890 -30825.00    0.0
2018/11/05 00:21:45.000  -74.393389208  163.452954580    96.0293   5  10   0.6546   0.6134   2.1200  -0.2656   0.6828  -0.6916 -30810.00    0.0
2018/11/05 00:22:00.000  -74.393390721  163.452958122    96.9932   5  10   0.6552   0.6144   2.1283  -0.2670   0.6874  -0.6943 -30795.00    0.0
2018/11/05 00:22:15.000  -74.393395555  163.452956318    96.9938   5  10   0.6559   0.6155   2.1369  -0.2685   0.6920  -0.6971 -30780.00    0.0
2018/11/05 00:22:30.000  -74.393393023  163.452954604    96.2331   5  10   0.6567   0.6167   2.1459  -0.2700   0.6968  -0.7000 -30765.00    0.0
2018/11/05 00:22:45.000  -74.393390544  163.452955029    95.9186   5  10   0.6561   0.6163   2.1498  -0.2704   0.6993  -0.7015 -30750.00    0.0
2018/11/05 00:23:00.000  -74.393392026  163.452959422    97.3401   5  10   0.6557   0.6160   2.1539  -0.2709   0.7019  -0.7032 -30735.00    0.0
2018/11/05 00:23:15.000  -74.393391306  163.452963741    97.2069   5  10   0.6553   0.6158   2.1583  -0.2715   0.7046  -0.7049 -30720.00    0.0
2018/11/05 00:23:30.000  -74.393390636  163.452968073    97.0924   5  10   0.6550   0.6156   2.1630  -0.2722   0.7074  -0.7066 -30705.00    0.0
2018/11/05 00:23:45.000  -74.393390634  163.452968401    95.9162   5  10   0.6547   0.6156   2.1679  -0.2729   0.7103  -0.7085 -30690.00    0.0
2018/11/05 00:24:00.000  -74.393391410  163.452963420    97.2556   5  10   0.6546   0.6156   2.1732  -0.2736   0.7134  -0.7105 -30675.00    0.0
2018/11/05 00:24:15.000  -74.393391827  163.452962872    96.7603   5  10   0.6545   0.6158   2.1787  -0.2744   0.7166  -0.7125 -30660.00    0.0
2018/11/05 00:24:30.000  -74.393392690  163.452956257    97.6612   5  10   0.6545   0.6160   2.1845  -0.2753   0.7199  -0.7147 -30645.00    0.0
2018/11/05 00:24:45.000  -74.393393360  163.452966912    97.2941   5  10   0.6546   0.6163   2.1906  -0.2763   0.7233  -0.7169 -30630.00    0.0
2018/11/05 00:25:00.000  -74.393393850  163.452962699    96.8608   5  10   0.6547   0.6167   2.1971  -0.2773   0.7269  -0.7193 -30615.00    0.0
2018/11/05 00:25:15.000  -74.393395206  163.452970270    97.5115   5  10   0.6549   0.6172   2.2039  -0.2784   0.7306  -0.7218 -30600.00    0.0
2018/11/05 00:25:30.000  -74.393395175  163.452965620    97.7785   5  10   0.6553   0.6179   2.2110  -0.2796   0.7345  -0.7244 -30585.00    0.0
2018/11/05 00:25:45.000  -74.393392536  163.452971454    97.6674   5  10   0.6557   0.6186   2.2185  -0.2808   0.7386  -0.7271 -30570.00    0.0
2018/11/05 00:26:00.000  -74.393394326  163.452958761    97.9332   5  10   0.6562   0.6194   2.2263  -0.2821   0.7427  -0.7298 -30555.00    0.0
2018/11/05 00:26:15.000  -74.393390841  163.452970092    96.7229   5  10   0.6567   0.6203   2.2343  -0.2835   0.7470  -0.7327 -30540.00    0.0
2018/11/05 00:26:30.000  -74.393391206  163.452970301    97.4399   5  10   0.6574   0.6213   2.2427  -0.2850   0.7515  -0.7357 -30525.00    0.0
2018/11/05 00:26:45.000  -74.393392216  163.452964127    98.2903   5  10   0.6581   0.6224   2.2514  -0.2865   0.7560  -0.7388 -30510.00    0.0
2018/11/05 00:27:00.000  -74.393393680  163.452970708    98.4186   5  10   0.6589   0.6236   2.2603  -0.2880   0.7607  -0.7420 -30495.00    0.0
2018/11/05 00:27:15.000  -74.393391454  163.452967606    97.7330   5  10   0.6597   0.6249   2.2696  -0.2896   0.7655  -0.7453 -30480.00    0.0
2018/11/05 00:27:30.000  -74.393394444  163.452961409    98.3660   5  10   0.6607   0.6263   2.2792  -0.2913   0.7705  -0.7487 -30465.00    0.0
2018/11/05 00:27:45.000  -74.393392086  163.452966471    98.9722   5  10   0.6603   0.6260   2.2835  -0.2920   0.7731  -0.7506 -30450.00    0.0
2018/11/05 00:28:00.000  -74.393393744  163.452973827    97.9053   5  10   0.6600   0.6258   2.2879  -0.2926   0.7756  -0.7525 -30435.00    0.0
2018/11/05 00:28:15.000  -74.393393567  163.452970444    98.2196   5  10   0.6598   0.6257   2.2925  -0.2934   0.7783  -0.7546 -30420.00    0.0
2018/11/05 00:28:30.000  -74.393391278  163.452959362    97.7661   5  10   0.6597   0.6257   2.2974  -0.2941   0.7811  -0.7567 -30405.00    0.0
2018/11/05 00:28:45.000  -74.393393897  163.452967558    97.6786   5  10   0.6596   0.6257   2.3026  -0.2950   0.7840  -0.7589 -30390.00    0.0
2018/11/05 00:29:00.000  -74.393391926  163.452964415    97.9943   5  10   0.6596   0.6259   2.3081  -0.2959   0.7870  -0.7612 -30375.00    0.0
2018/11/05 00:29:15.000  -74.393393930  163.452968160    98.8324   5  10   0.6597   0.6261   2.3138  -0.2968   0.7902  -0.7636 -30360.00    0.0
2018/11/05 00:29:30.000  -74.393395175  163.452968126    98.7927   5  10   0.6598   0.6264   2.3199  -0.2978   0.7934  -0.7661 -30345.00    0.0
2018/11/05 00:29:45.000  -74.393393743  163.452974272    98.3674   5  10   0.6600   0.6269   2.3262  -0.2989   0.7968  -0.7687 -30330.00    0.0
2018/11/05 00:30:00.000  -74.393394187  163.452969942    98.7553   5  10   0.6604   0.6274   2.3328  -0.3001   0.8004  -0.7713 -30315.00    0.0
2018/11/05 00:30:15.000  -74.393392886  163.452971308    98.2509   5  10   0.6608   0.6280   2.3399  -0.3013   0.8041  -0.7742 -30300.00    0.0
2018/11/05 00:30:30.000  -74.393392116  163.452962059    97.7256   5  10   0.6613   0.6288   2.3473  -0.3026   0.8080  -0.7771 -30285.00    0.0
2018/11/05 00:30:45.000  -74.393391367  163.452969148    99.0716   5  10   0.6619   0.6296   2.3549  -0.3040   0.8120  -0.7801 -30270.00    0.0
2018/11/05 00:31:00.000  -74.393391696  163.452973585    98.1272   5  10   0.6625   0.6306   2.3629  -0.3054   0.8161  -0.7833 -30255.00    0.0
2018/11/05 00:31:15.000  -74.393391566  163.452968939    98.5120   5  10   0.6633   0.6316   2.3711  -0.3069   0.8204  -0.7865 -30240.00    0.0
2018/11/05 00:31:30.000  -74.393389955  163.452963207    98.3220   5  10   0.6641   0.6327   2.3796  -0.3085   0.8248  -0.7898 -30225.00    0.0
2018/11/05 00:31:45.000  -74.393392102  163.452959487    97.5766   5  10   0.6650   0.6339   2.3884  -0.3101   0.8293  -0.7932 -30210.00    0.0
2018/11/05 00:32:00.000  -74.393390335  163.452957863    97.5103   5  10   0.6659   0.6352   2.3975  -0.3118   0.8339  -0.7968 -30195.00    0.0
2018/11/05 00:32:15.000  -74.393389754  163.452959479    97.7959   5  10   0.6670   0.6366   2.4069  -0.3136   0.8386  -0.8004 -30180.00    0.0
2018/11/05 00:32:30.000  -74.393391315  163.452954964    97.8684   5  10   0.6681   0.6381   2.4166  -0.3154   0.8435  -0.8041 -30165.00    0.0
2018/11/05 00:32:45.000  -74.393392495  163.452959728    97.6846   5  10   0.6679   0.6378   2.4203  -0.3160   0.8456  -0.8061 -30150.00    0.0
2018/11/05 00:33:00.000  -74.393393479  163.452966075    97.5858   5  10   0.6678   0.6377   2.4244  -0.3167   0.8479  -0.8082 -30135.00    0.0
2018/11/05 00:33:15.000  -74.393391348  163.452955900    97.7298   5  10   0.6677   0.6376   2.4287  -0.3175   0.8503  -0.8103 -30120.00    0.0
2018/11/05 00:33:30.000  -74.393390775  163.452963030    97.4553   5  10   0.6677   0.6376   2.4333  -0.3183   0.8528  -0.8126 -30105.00    0.0
2018/11/05 00:33:45.000  -74.393392083  163.452975012    97.6046   5  10   0.6678   0.6377   2.4381  -0.3192   0.8555  -0.8149 -30090.00    0.0
2018/11/05 00:34:00.000  -74.393392347  163.452962670    97.7600   5  10   0.6679   0.6379   2.4432  -0.3202   0.8582  -0.8173 -30075.00    0.0
2018/11/05 00:34:15.000  -74.393393747  163.452968061    97.2612   5  11   0.6555   0.6382   2.3545  -0.3198   0.8637  -0.8714 -30060.00    0.0
2018/11/05 00:34:30.000  -74.393390205  163.452963248    97.5072   5  11   0.6557   0.6385   2.3606  -0.3209   0.8665  -0.8739 -30045.00    0.0
2018/11/05 00:34:45.000  -74.393390064  163.452970345    96.2275   5  11   0.6560   0.6390   2.3669  -0.3221   0.8695  -0.8765 -30030.00    0.0
2018/11/05 00:35:00.000  -74.393390852  163.452965804    96.4815   5  11   0.6564   0.6395   2.3735  -0.3233   0.8726  -0.8792 -30015.00    0.0
2018/11/05 00:35:15.000  -74.393392634  163.452957850    97.4665   5  11   0.6569   0.6402   2.3805  -0.3246   0.8759  -0.8821 -30000.00    0.0
2018/11/05 00:35:30.000  -74.393390157  163.452963560    98.1255   5  11   0.6575   0.6410   2.3878  -0.3259   0.8793  -0.8850 -29985.00    0.0
2018/11/05 00:35:45.000  -74.393388554  163.452955790    96.6698   5  11   0.6581   0.6419   2.3953  -0.3274   0.8828  -0.8881 -29970.00    0.0
2018/11/05 00:36:00.000  -74.393391711  163.452957636    97.5818   5  11   0.6588   0.6428   2.4031  -0.3288   0.8865  -0.8912 -29955.00    0.0
2018/11/05 00:36:15.000  -74.393387262  163.452953433    95.9542   5  11   0.6596   0.6438   2.4111  -0.3303   0.8902  -0.8944 -29940.00    0.0
2018/11/05 00:36:30.000  -74.393389958  163.452959173    96.2197   5  11   0.6605   0.6449   2.4194  -0.3319   0.8941  -0.8978 -29925.00    0.0
2018/11/05 00:36:45.000  -74.393387980  163.452950460    96.2877   5  11   0.6614   0.6461   2.4279  -0.3335   0.8980  -0.9012 -29910.00    0.0
2018/11/05 00:37:00.000  -74.393388295  163.452950212    95.3965   5  11   0.6624   0.6474   2.4366  -0.3352   0.9021  -0.9047 -29895.00    0.0
2018/11/05 00:37:15.000  -74.393390497  163.452952227    95.5595   5  11   0.6635   0.6488   2.4456  -0.3369   0.9062  -0.9083 -29880.00    0.0
2018/11/05 00:37:30.000  -74.393388935  163.452944004    95.5196   5  11   0.6646   0.6502   2.4548  -0.3387   0.9105  -0.9120 -29865.00    0.0
2018/11/05 00:37:45.000  -74.393388881  163.452946901    95.3542   5  11   0.6644   0.6500   2.4582  -0.3393   0.9120  -0.9136 -29850.00    0.0
2018/11/05 00:38:00.000  -74.393394941  163.452952722    96.4364   5  11   0.6643   0.6497   2.4618  -0.3399   0.9136  -0.9154 -29835.00    0.0
2018/11/05 00:38:15.000  -74.393389035  163.452950714    96.8688   5  11   0.6643   0.6496   2.4657  -0.3406   0.9153  -0.9172 -29820.00    0.0
2018/11/05 00:38:30.000  -74.393392483  163.452947086    96.6080   5  11   0.6643   0.6496   2.4697  -0.3414   0.9171  -0.9191 -29805.00    0.0
2018/11/05 00:38:45.000  -74.393387499  163.452946702    95.6657   5  11   0.6644   0.6496   2.4740  -0.3422   0.9190  -0.9211 -29790.00    0.0
2018/11/05 00:39:00.000  -74.393390759  163.452955627    96.9234   5  11   0.6645   0.6497   2.4785  -0.3430   0.9210  -0.9232 -29775.00    0.0
2018/11/05 00:39:15.000  -74.393390626  163.452954194    97.2561   5  11   0.6648   0.6499   2.4832  -0.3439   0.9231  -0.9253 -29760.00    0.0
2018/11/05 00:39:30.000  -74.393392510  163.452956617    97.3143   5  11   0.6651   0.6502   2.4881  -0.3448   0.9253  -0.9275 -29745.00    0.0
2018/11/05 00:39:45.000  -74.393390903  163.452950646    96.9738   5  11   0.6655   0.6505   2.4932  -0.3458   0.9276  -0.9298 -29730.00    0.0
2018/11/05 00:40:00.000  -74.393391448  163.452965136    97.9575   5  11   0.6659   0.6510   2.4985  -0.3468   0.9300  -0.9322 -29715.00    0.0
2018/11/05 00:40:15.000  -74.393390914  163.452961088    96.0302   5  11   0.6664   0.6515   2.5041  -0.3479   0.9325  -0.9347 -29700.00    0.0
2018/11/05 00:40:30.000  -74.393392927  163.452962033    98.3342   5  11   0.6670   0.6522   2.5100  -0.3490   0.9351  -0.9373 -29685.00    0.0
2018/11/05 00:40:45.000  -74.393392506  163.452953911    97.1713   5  11   0.6677   0.6529   2.5160  -0.3502   0.9378  -0.9399 -29670.00    0.0
2018/11/05 00:41:00.000  -74.393390835  163.452966575    97.2774   5  11   0.6684   0.6537   2.5223  -0.3514   0.9406  -0.9426 -29655.00    0.0
2018/11/05 00:41:15.000  -74.393392630  163.452960461    97.8281   5  11   0.6693   0.6546   2.5287  -0.3527   0.9434  -0.9454 -29640.00    0.0
2018/11/05 00:41:30.000  -74.393389588  163.452963558    97.7396   5  11   0.6701   0.6555   2.5353  -0.3540   0.9464  -0.9483 -29625.00    0.0
2018/11/05 00:41:45.000  -74.393392160  163.452961305    97.9279   5  11   0.6711   0.6565   2.5421  -0.3553   0.9494  -0.9512 -29610.00    0.0
2018/11/05 00:42:00.000  -74.393390277  163.452960470    96.9506   5  11   0.6721   0.6576   2.5491  -0.3566   0.9524  -0.9541 -29595.00    0.0
2018/11/05 00:42:15.000  -74.393392860  163.452953659    97.5832   5  11   0.6731   0.6588   2.5562  -0.3580   0.9556  -0.9572 -29580.00    0.0
2018/11/05 00:42:30.000  -74.393393080  163.452965973    98.2790   5  11   0.6742   0.6600   2.5635  -0.3594   0.9588  -0.9602 -29565.00    0.0
2018/11/05 00:42:45.000  -74.393392163  163.452960865    97.7452   5  11   0.6740   0.6595   2.5648  -0.3597   0.9592  -0.9613 -29550.00    0.0
2018/11/05 00:43:00.000  -74.393390610  163.452957065    96.7027   5  11   0.6739   0.6591   2.5664  -0.3600   0.9598  -0.9624 -29535.00    0.0
2018/11/05 00:43:15.000  -74.393393627  163.452954917    96.4947   5  11   0.6739   0.6588   2.5682  -0.3604   0.9604  -0.9636 -29520.00    0.0
2018/11/05 00:43:30.000  -74.393392865  163.452953793    96.3481   5  11   0.6739   0.6585   2.5701  -0.3608   0.9611  -0.9648 -29505.00    0.0
2018/11/05 00:43:45.000  -74.393391720  163.452947651    97.1323   5  11   0.6739   0.6583   2.5721  -0.3613   0.9619  -0.9661 -29490.00    0.0
2018/11/05 00:44:00.000  -74.393391158  163.452949948    96.1845   5  11   0.6741   0.6582   2.5744  -0.3617   0.9628  -0.9675 -29475.00    0.0
2018/11/05 00:44:15.000  -74.393395370  163.452963298    97.7951   5  11   0.6742   0.6581   2.5767  -0.3622   0.9637  -0.9689 -29460.00    0.0
2018/11/05 00:44:30.000  -74.393393563  163.452957039    96.6033   5  11   0.6745   0.6582   2.5793  -0.3628   0.9646  -0.9703 -29445.00    0.0
2018/11/05 00:44:45.000  -74.393390009  163.452952074    96.7680   5  11   0.6748   0.6582   2.5819  -0.3633   0.9657  -0.9718 -29430.00    0.0
2018/11/05 00:45:00.000  -74.393389131  163.452936387    95.4392   5  11   0.6752   0.6584   2.5847  -0.3639   0.9668  -0.9734 -29415.00    0.0
2018/11/05 00:45:15.000  -74.393390127  163.452949300    95.9894   5  11   0.6756   0.6587   2.5878  -0.3646   0.9680  -0.9750 -29400.00    0.0
2018/11/05 00:45:30.000  -74.393393051  163.452945974    96.7723   5  11   0.6762   0.6590   2.5910  -0.3652   0.9692  -0.9767 -29385.00    0.0
2018/11/05 00:45:45.000  -74.393391048  163.452940607    95.5871   5  11   0.6768   0.6594   2.5944  -0.3659   0.9705  -0.9784 -29370.00    0.0
2018/11/05 00:46:00.000  -74.393392769  163.452949403    97.1470   5  11   0.6774   0.6599   2.5979  -0.3667   0.9719  -0.9802 -29355.00    0.0
2018/11/05 00:46:15.000  -74.393392934  163.452939911    96.0088   5  11   0.6781   0.6604   2.6015  -0.3674   0.9733  -0.9820 -29340.00    0.0
2018/11/05 00:46:30.000  -74.393391079  163.452952566    96.1154   5  11   0.6789   0.6610   2.6052  -0.3682   0.9747  -0.9839 -29325.00    0.0
2018/11/05 00:46:45.000  -74.393391027  163.452948867    95.4274   5  11   0.6797   0.6617   2.6090  -0.3690   0.9762  -0.9857 -29310.00    0.0
2018/11/05 00:47:00.000  -74.393395288  163.452964895    97.1504   5  11   0.6805   0.6624   2.6130  -0.3698   0.9777  -0.9877 -29295.00    0.0
2018/11/05 00:47:15.000  -74.393391804  163.452953168    95.8921   5  11   0.6815   0.6632   2.6171  -0.3706   0.9793  -0.9896 -29280.00    0.0
2018/11/05 00:47:30.000  -74.393393740  163.452958863    96.1879   5  11   0.6825   0.6641   2.6213  -0.3714   0.9809  -0.9916 -29265.00    0.0
2018/11/05 00:47:45.000  -74.393396013  163.452959190    98.0698   5  11   0.6822   0.6633   2.6197  -0.3712   0.9799  -0.9917 -29250.00    0.0
2018/11/05 00:48:00.000  -74.393394868  163.452959675    97.7808   5  11   0.6819   0.6625   2.6182  -0.3711   0.9790  -0.9917 -29235.00    0.0
2018/11/05 00:48:15.000  -74.393391964  163.452953119    97.0624   5  11   0.6817   0.6618   2.6169  -0.3709   0.9781  -0.9918 -29220.00    0.0
2018/11/05 00:48:30.000  -74.393395607  163.452955848    96.6147   5  11   0.6816   0.6612   2.6156  -0.3708   0.9773  -0.9920 -29205.00    0.0
2018/11/05 00:48:45.000  -74.393394624  163.452961225    96.5720   5  11   0.6815   0.6606   2.6145  -0.3707   0.9765  -0.9922 -29190.00    0.0
2018/11/05 00:49:00.000  -74.393393030  163.452960051    97.0865   5  11   0.6815   0.6602   2.6135  -0.3706   0.9758  -0.9924 -29175.00    0.0
2018/11/05 00:49:15.000  -74.393390652  163.452957646    96.6915   5  11   0.6815   0.6597   2.6126  -0.3705   0.9751  -0.9926 -29160.00    0.0
2018/11/05 00:49:30.000  -74.393395377  163.452957194    97.1963   5  11   0.6816   0.6594   2.6118  -0.3705   0.9745  -0.9929 -29145.00    0.0
2018/11/05 00:49:45.000  -74.393391895  163.452953827    96.7136   5  11   0.6818   0.6591   2.6112  -0.3705   0.9738  -0.9932 -29130.00    0.0
2018/11/05 00:50:00.000  -74.393391379  163.452954706    96.0833   5  11   0.6820   0.6588   2.6106  -0.3705   0.9733  -0.9936 -29115.00    0.0
2018/11/05 00:50:15.000  -74.393394057  163.452951562    96.1652   5  11   0.6822   0.6587   2.6103  -0.3705   0.9728  -0.9940 -29100.00    0.0
2018/11/05 00:50:30.000  -74.393394641  163.452961539    97.1009   5  11   0.6826   0.6586   2.6101  -0.3706   0.9723  -0.9945 -29085.00    0.0
2018/11/05 00:50:45.000  -74.393395196  163.452953171    97.4652   5  11   0.6830   0.6586   2.6100  -0.3706   0.9719  -0.9949 -29070.00    0.0
2018/11/05 00:51:00.000  -74.393395455  163.452951217    96.9132   5  11   0.6834   0.6587   2.6100  -0.3707   0.9715  -0.9954 -29055.00    0.0
2018/11/05 00:51:15.000  -74.393396660  163.452958496    97.8369   5  11   0.6839   0.6588   2.6101  -0.3708   0.9711  -0.9960 -29040.00    0.0
2018/11/05 00:51:30.000  -74.393394183  163.452952216    96.3010   5  11   0.6845   0.6590   2.6103  -0.3709   0.9708  -0.9965 -29025.00    0.0
2018/11/05 00:51:45.000  -74.393394365  163.452955801    97.9862   5  11   0.6851   0.6592   2.6106  -0.3710   0.9704  -0.9971 -29010.00    0.0
2018/11/05 00:52:00.000  -74.393394582  163.452951030    96.7025   5  11   0.6858   0.6595   2.6110  -0.3711   0.9701  -0.9977 -28995.00    0.0
2018/11/05 00:52:15.000  -74.393392241  163.452957601    96.9967   5  11   0.6865   0.6599   2.6116  -0.3713   0.9699  -0.9983 -28980.00    0.0
2018/11/05 00:52:30.000  -74.393394456  163.452959328    96.7707   5  11   0.6872   0.6603   2.6122  -0.3714   0.9696  -0.9989 -28965.00    0.0
2018/11/05 00:52:45.000  -74.393394686  163.452949647    97.7068   5  11   0.6867   0.6591   2.6072  -0.3706   0.9670  -0.9977 -28950.00    0.0
2018/11/05 00:53:00.000  -74.393392270  163.452949032    97.5558   5  11   0.6863   0.6579   2.6024  -0.3699   0.9645  -0.9966 -28935.00    0.0
2018/11/05 00:53:15.000  -74.393390909  163.452958656    96.8937   5  11   0.6859   0.6569   2.5976  -0.3691   0.9620  -0.9955 -28920.00    0.0
2018/11/05 00:53:30.000  -74.393395116  163.452954281    97.2638   5  11   0.6856   0.6559   2.5930  -0.3684   0.9595  -0.9944 -28905.00    0.0
2018/11/05 00:53:45.000  -74.393394827  163.452956332    97.3067   5  11   0.6853   0.6550   2.5885  -0.3676   0.9571  -0.9933 -28890.00    0.0
2018/11/05 00:54:00.000  -74.393394728  163.452955097    97.9069   5  11   0.6851   0.6541   2.5842  -0.3669   0.9547  -0.9923 -28875.00    0.0
2018/11/05 00:54:15.000  -74.393395628  163.452962884    98.0008   5  11   0.6849   0.6533   2.5799  -0.3663   0.9523  -0.9913 -28860.00    0.0
2018/11/05 00:54:30.000  -74.393392867  163.452947619    97.3774   5  11   0.6848   0.6526   2.5758  -0.3656   0.9500  -0.9903 -28845.00    0.0
2018/11/05 00:54:45.000  -74.393396276  163.452957732    97.6414   5  11   0.6848   0.6519   2.5718  -0.3649   0.9478  -0.9894 -28830.00    0.0
2018/11/05 00:55:00.000  -74.393396235  163.452959951    97.6471   5  11   0.6848   0.6513   2.5680  -0.3643   0.9455  -0.9885 -28815.00    0.0
2018/11/05 00:55:15.000  -74.393394939  163.452958715    97.3670   5  11   0.6848   0.6508   2.5644  -0.3637   0.9433  -0.9877 -28800.00    0.0
2018/11/05 00:55:30.000  -74.393394216  163.452958316    98.2488   5  11   0.6850   0.6503   2.5609  -0.3631   0.9412  -0.9869 -28785.00    0.0
2018/11/05 00:55:45.000  -74.393394064  163.452966141    98.0714   5  11   0.6852   0.6500   2.5576  -0.3625   0.9391  -0.9861 -28770.00    0.0
2018/11/05 00:56:00.000  -74.393391397  163.452956396    97.4806   5  11   0.6854   0.6496   2.5544  -0.3620   0.9371  -0.9853 -28755.00    0.0
2018/11/05 00:56:15.000  -74.393394728  163.452958137    98.0630   5  11   0.6857   0.6494   2.5513  -0.3614   0.9350  -0.9846 -28740.00    0.0
2018/11/05 00:56:30.000  -74.393394124  163.452959748    97.7067   5  11   0.6860   0.6492   2.5483  -0.3609   0.9330  -0.9839 -28725.00    0.0
2018/11/05 00:56:45.000  -74.393391151  163.452963943    96.9747   5  11   0.6864   0.6491   2.5455  -0.3603   0.9311  -0.9833 -28710.00    0.0
2018/11/05 00:57:00.000  -74.393394790  163.452947557    97.4561   5  11   0.6869   0.6490   2.5428  -0.3598   0.9291  -0.9827 -28695.00    0.0
2018/11/05 00:57:15.000  -74.393393980  163.452954938    97.7068   5  11   0.6874   0.6490   2.5403  -0.3593   0.9272  -0.9820 -28680.00    0.0
2018/11/05 00:57:30.000  -74.393395907  163.452961364    97.9053   5  11   0.6879   0.6490   2.5378  -0.3588   0.9253  -0.9815 -28665.00    0.0
2018/11/05 00:57:45.000  -74.393394541  163.452953327    97.1995   5  11   0.6873   0.6476   2.5301  -0.3575   0.9214  -0.9792 -28650.00    0.0
2018/11/05 00:58:00.000  -74.393393746  163.452956743    96.5150   5  11   0.6867   0.6462   2.5225  -0.3562   0.9174  -0.9770 -28635.00    0.0
2018/11/05 00:58:15.000  -74.393394963  163.452953210    96.7950   5  11   0.6861   0.6449   2.5151  -0.3549   0.9136  -0.9749 -28620.00    0.0
2018/11/05 00:58:30.000  -74.393396141  163.452965194    98.1506   5  11   0.6857   0.6436   2.5079  -0.3536   0.9098  -0.9728 -28605.00    0.0
2018/11/05 00:58:45.000  -74.393394441  163.452951037    96.6976   5  11   0.6852   0.6424   2.5008  -0.3524   0.9060  -0.9707 -28590.00    0.0
2018/11/05 00:59:00.000  -74.393385822  163.452952237    93.8162   5  10   0.9354   0.6735   3.5495  -0.5043   1.1548  -1.5961 -28575.00    0.0
2018/11/05 00:59:15.000  -74.393385389  163.452946159    93.8311   5  10   0.9343   0.6720   3.5393  -0.5023   1.1496  -1.5923 -28560.00    0.0
2018/11/05 00:59:30.000  -74.393391241  163.452953777    94.6162   5  10   0.9332   0.6707   3.5291  -0.5002   1.1444  -1.5886 -28545.00    0.0
2018/11/05 00:59:45.000  -74.393386037  163.452941777    93.5785   5  10   0.9321   0.6693   3.5192  -0.4981   1.1392  -1.5848 -28530.00    0.0
2018/11/05 01:00:00.000  -74.393389500  163.452953089    94.2719   5  10   0.9312   0.6681   3.5093  -0.4961   1.1341  -1.5812 -28515.00    0.0
2018/11/05 01:00:15.000  -74.393388629  163.452942395    94.7414   5  10   0.9303   0.6669   3.4998  -0.4941   1.1290  -1.5776 -28500.00    0.0
2018/11/05 01:00:30.000  -74.393389421  163.452964960    94.7290   5  10   0.9295   0.6658   3.4905  -0.4921   1.1240  -1.5742 -28485.00    0.0
2018/11/05 01:00:45.000  -74.393386507  163.452942481    94.1440   5  10   0.9288   0.6648   3.4814  -0.4900   1.1190  -1.5708 -28470.00    0.0
2018/11/05 01:01:00.000  -74.393389242  163.452946635    93.3540   5  10   0.9281   0.6638   3.4725  -0.4881   1.1140  -1.5675 -28455.00    0.0
2018/11/05 01:01:15.000  -74.393386783  163.452956188    93.9510   5  10   0.9275   0.6629   3.4637  -0.4861   1.1090  -1.5642 -28440.00    0.0
2018/11/05 01:01:30.000  -74.393384128  163.452949096    92.7184   5  10   0.9269   0.6620   3.4552  -0.4841   1.1041  -1.5610 -28425.00    0.0
2018/11/05 01:01:45.000  -74.393389748  163.452959148    94.8956   5  10   0.9264   0.6612   3.4468  -0.4821   1.0992  -1.5579 -28410.00    0.0
2018/11/05 01:02:00.000  -74.393389140  163.452942458    93.5006   5  10   0.9260   0.6605   3.4387  -0.4801   1.0944  -1.5549 -28395.00    0.0
2018/11/05 01:02:15.000  -74.393388047  163.452950498    93.3418   5   9   0.9297   0.6600   3.6816  -0.4773   1.0833  -1.5888 -28380.00    0.0
2018/11/05 01:02:30.000  -74.393387179  163.452949334    92.9078   5   9   0.9296   0.6594   3.6768  -0.4753   1.0785  -1.5867 -28365.00    0.0
2018/11/05 01:02:45.000  -74.393390097  163.452948996    94.9159   5   9   0.9271   0.6572   3.6605  -0.4719   1.0706  -1.5800 -28350.00    0.0
2018/11/05 01:03:00.000  -74.393387447  163.452941430    93.3084   5   9   0.9247   0.6551   3.6444  -0.4686   1.0627  -1.5733 -28335.00    0.0
2018/11/05 01:03:15.000  -74.393386747  163.452944242    93.3064   5   9   0.9224   0.6531   3.6286  -0.4653   1.0549  -1.5668 -28320.00    0.0
2018/11/05 01:03:30.000  -74.393388353  163.452953772    94.1392   5   9   0.9202   0.6512   3.6131  -0.4620   1.0472  -1.5604 -28305.00    0.0
2018/11/05 01:03:45.000  -74.393389813  163.452957493    95.3480   5   9   0.9180   0.6494   3.5978  -0.4588   1.0395  -1.5540 -28290.00    0.0
2018/11/05 01:04:00.000  -74.393389356  163.452953199    94.1740   5   9   0.9160   0.6476   3.5829  -0.4555   1.0319  -1.5478 -28275.00    0.0
2018/11/05 01:04:15.000  -74.393388644  163.452949092    93.5962   5   9   0.9140   0.6460   3.5682  -0.4523   1.0243  -1.5417 -28260.00    0.0
2018/11/05 01:04:30.000  -74.393390132  163.452953880    93.5623   5   9   0.9121   0.6444   3.5539  -0.4492   1.0168  -1.5358 -28245.00    0.0
2018/11/05 01:04:45.000  -74.393385633  163.452945015    92.7002   5   9   0.9103   0.6429   3.5400  -0.4460   1.0093  -1.5300 -28230.00    0.0
2018/11/05 01:05:00.000  -74.393388883  163.452948756    93.9081   5   9   0.9086   0.6415   3.5264  -0.4429   1.0020  -1.5243 -28215.00    0.0
2018/11/05 01:05:15.000  -74.393392459  163.452952461    95.3677   5  10   0.7472   0.6361   2.6675  -0.3958   0.9087  -1.0635 -28200.00    0.0
2018/11/05 01:05:30.000  -74.393392346  163.452951644    96.1654   5  10   0.7470   0.6352   2.6635  -0.3946   0.9051  -1.0619 -28185.00    0.0
2018/11/05 01:05:45.000  -74.393394432  163.452943743    96.3116   5  10   0.7469   0.6344   2.6596  -0.3934   0.9016  -1.0604 -28170.00    0.0
2018/11/05 01:06:00.000  -74.393391070  163.452950078    95.1531   5  10   0.7468   0.6336   2.6560  -0.3923   0.8981  -1.0590 -28155.00    0.0
2018/11/05 01:06:15.000  -74.393390530  163.452951680    95.7024   5  10   0.7468   0.6329   2.6526  -0.3911   0.8947  -1.0576 -28140.00    0.0
2018/11/05 01:06:30.000  -74.393394747  163.452947379    96.2986   5  10   0.7469   0.6323   2.6494  -0.3900   0.8913  -1.0563 -28125.00    0.0
2018/11/05 01:06:45.000  -74.393392039  163.452953503    96.3099   5  10   0.7470   0.6317   2.6465  -0.3890   0.8880  -1.0550 -28110.00    0.0
2018/11/05 01:07:00.000  -74.393393497  163.452946312    95.1224   5  10   0.7472   0.6312   2.6438  -0.3879   0.8847  -1.0539 -28095.00    0.0
2018/11/05 01:07:15.000  -74.393394003  163.452955495    96.7741   5  10   0.7475   0.6308   2.6414  -0.3869   0.8815  -1.0528 -28080.00    0.0
2018/11/05 01:07:30.000  -74.393394465  163.452951771    96.6164   5  10   0.7478   0.6304   2.6392  -0.3859   0.8783  -1.0517 -28065.00    0.0
2018/11/05 01:07:45.000  -74.393394443  163.452954487    96.7910   5  10   0.7467   0.6286   2.6303  -0.3839   0.8730  -1.0485 -28050.00    0.0
2018/11/05 01:08:00.000  -74.393394836  163.452952218    96.1463   5  10   0.7457   0.6269   2.6216  -0.3820   0.8677  -1.0454 -28035.00    0.0
2018/11/05 01:08:15.000  -74.393393631  163.452946634    95.9346   5  10   0.7448   0.6253   2.6132  -0.3801   0.8625  -1.0424 -28020.00    0.0
2018/11/05 01:08:30.000  -74.393393197  163.452952684    96.0980   5  10   0.7439   0.6237   2.6050  -0.3783   0.8574  -1.0394 -28005.00    0.0
2018/11/05 01:08:45.000  -74.393395835  163.452957041    95.6602   5  10   0.7431   0.6223   2.5971  -0.3765   0.8523  -1.0365 -27990.00    0.0
2018/11/05 01:09:00.000  -74.393394183  163.452955868    97.0456   5  10   0.7424   0.6208   2.5895  -0.3747   0.8473  -1.0337 -27975.00    0.0
2018/11/05 01:09:15.000  -74.393399122  163.452952404    95.5595   5  10   0.7417   0.6195   2.5821  -0.3729   0.8424  -1.0310 -27960.00    0.0
2018/11/05 01:09:30.000  -74.393395624  163.452952944    96.0337   5  10   0.7411   0.6183   2.5750  -0.3712   0.8375  -1.0283 -27945.00    0.0
2018/11/05 01:09:45.000  -74.393393759  163.452957375    94.7602   5  10   0.7406   0.6171   2.5681  -0.3696   0.8327  -1.0257 -27930.00    0.0
2018/11/05 01:10:00.000  -74.393395133  163.452954278    96.8073   5  10   0.7401   0.6160   2.5616  -0.3679   0.8280  -1.0232 -27915.00    0.0
2018/11/05 01:10:15.000  -74.393396833  163.452957553    96.9206   5  10   0.7398   0.6150   2.5555  -0.3663   0.8233  -1.0209 -27900.00    0.0
2018/11/05 01:10:30.000  -74.393395058  163.452956499    95.9146   5  10   0.7395   0.6141   2.5497  -0.3648   0.8188  -1.0186 -27885.00    0.0
2018/11/05 01:10:45.000  -74.393393023  163.452949733    95.4721   5  10   0.7393   0.6132   2.5442  -0.3632   0.8143  -1.0164 -27870.00    0.0
2018/11/05 01:11:00.000  -74.393393948  163.452948803    96.1088   5  10   0.7391   0.6124   2.5390  -0.3617   0.8098  -1.0143 -27855.00    0.0
2018/11/05 01:11:15.000  -74.393395067  163.452962809    96.5158   5  10   0.7390   0.6117   2.5341  -0.3603   0.8054  -1.0122 -27840.00    0.0
2018/11/05 01:11:30.000  -74.393393744  163.452945973    95.2663   5  10   0.7390   0.6111   2.5295  -0.3588   0.8011  -1.0103 -27825.00    0.0
2018/11/05 01:11:45.000  -74.393394761  163.452945273    96.0322   5  10   0.7391   0.6105   2.5253  -0.3574   0.7969  -1.0084 -27810.00    0.0
2018/11/05 01:12:00.000  -74.393397932  163.452963934    97.3248   5  10   0.7392   0.6101   2.5213  -0.3561   0.7927  -1.0067 -27795.00    0.0
2018/11/05 01:12:15.000  -74.393395307  163.452953668    95.9160   5  10   0.7394   0.6096   2.5177  -0.3547   0.7885  -1.0050 -27780.00    0.0
2018/11/05 01:12:30.000  -74.393392505  163.452947443    95.2356   5  10   0.7397   0.6093   2.5144  -0.3534   0.7844  -1.0034 -27765.00    0.0
2018/11/05 01:12:45.000  -74.393396878  163.452948729    96.5329   5  10   0.7385   0.6077   2.5041  -0.3513   0.7785  -0.9997 -27750.00    0.0
2018/11/05 01:13:00.000  -74.393396082  163.452944747    95.3936   5  10   0.7375   0.6061   2.4942  -0.3491   0.7725  -0.9961 -27735.00    0.0
2018/11/05 01:13:15.000  -74.393395618  163.452944332    97.1622   5  10   0.7365   0.6045   2.4847  -0.3471   0.7667  -0.9926 -27720.00    0.0
2018/11/05 01:13:30.000  -74.393394402  163.452951135    96.0141   5  10   0.7356   0.6031   2.4754  -0.3450   0.7609  -0.9892 -27705.00    0.0
2018/11/05 01:13:45.000  -74.393397110  163.452955108    96.1835   5  10   0.7348   0.6017   2.4665  -0.3430   0.7553  -0.9858 -27690.00    0.0
2018/11/05 01:14:00.000  -74.393397448  163.452939638    96.1314   5  10   0.7341   0.6004   2.4579  -0.3410   0.7497  -0.9826 -27675.00    0.0
2018/11/05 01:14:15.000  -74.393392949  163.452944674    95.9412   5  10   0.7334   0.5992   2.4497  -0.3391   0.7441  -0.9795 -27660.00    0.0
2018/11/05 01:14:30.000  -74.393396522  163.452950821    96.3036   5  10   0.7328   0.5981   2.4418  -0.3372   0.7387  -0.9765 -27645.00    0.0
2018/11/05 01:14:45.000  -74.393395646  163.452947907    95.5422   5  10   0.7323   0.5971   2.4343  -0.3354   0.7333  -0.9736 -27630.00    0.0
2018/11/05 01:15:00.000  -74.393397569  163.452950940    95.7917   5  10   0.7318   0.5961   2.4271  -0.3335   0.7280  -0.9708 -27615.00    0.0
2018/11/05 01:15:15.000  -74.393397334  163.452953260    96.8886   5  10   0.7315   0.5953   2.4204  -0.3318   0.7228  -0.9681 -27600.00    0.0
2018/11/05 01:15:30.000  -74.393393645  163.452947301    95.9324   5  10   0.7312   0.5945   2.4141  -0.3300   0.7177  -0.9655 -27585.00    0.0
2018/11/05 01:15:45.000  -74.393391353  163.452948430    96.2729   5  10   0.7310   0.5938   2.4081  -0.3284   0.7126  -0.9631 -27570.00    0.0
2018/11/05 01:16:00.000  -74.393394034  163.452947937    96.4878   5  10   0.7308   0.5931   2.4025  -0.3267   0.7076  -0.9607 -27555.00    0.0
2018/11/05 01:16:15.000  -74.393395861  163.452952263    97.0038   5  10   0.7308   0.5926   2.3972  -0.3251   0.7027  -0.9585 -27540.00    0.0
2018/11/05 01:16:30.000  -74.393393695  163.452952720    94.2691   5  10   0.7308   0.5921   2.3923  -0.3235   0.6978  -0.9563 -27525.00    0.0
2018/11/05 01:16:45.000  -74.393396417  163.452955986    96.9827   5  10   0.7308   0.5917   2.3878  -0.3219   0.6930  -0.9542 -27510.00    0.0
2018/11/05 01:17:00.000  -74.393396346  163.452952323    96.0930   5  10   0.7310   0.5914   2.3836  -0.3204   0.6882  -0.9523 -27495.00    0.0
2018/11/05 01:17:15.000  -74.393395226  163.452951169    95.8853   5  10   0.7312   0.5911   2.3798  -0.3189   0.6835  -0.9504 -27480.00    0.0
2018/11/05 01:17:30.000  -74.393394769  163.452947020    96.4027   5  10   0.7315   0.5909   2.3763  -0.3175   0.6789  -0.9487 -27465.00    0.0
2018/11/05 01:17:45.000  -74.393391379  163.452946478    96.0690   5  10   0.7305   0.5895   2.3660  -0.3153   0.6726  -0.9449 -27450.00    0.0
2018/11/05 01:18:00.000  -74.393394306  163.452944875    95.7163   5  10   0.7295   0.5881   2.3561  -0.3131   0.6664  -0.9413 -27435.00    0.0
2018/11/05 01:18:15.000  -74.393392512  163.452947903    95.5899   5  10   0.7286   0.5869   2.3465  -0.3110   0.6603  -0.9377 -27420.00    0.0
2018/11/05 01:18:30.000  -74.393396063  163.452944036    95.4212   5  10   0.7278   0.5856   2.3373  -0.3089   0.6542  -0.9343 -27405.00    0.0
2018/11/05 01:18:45.000  -74.393395071  163.452951614    95.7003   5  10   0.7271   0.5845   2.3284  -0.3068   0.6483  -0.9310 -27390.00    0.0
2018/11/05 01:19:00.000  -74.393396881  163.452949999    95.3067   5  10   0.7264   0.5835   2.3200  -0.3048   0.6424  -0.9278 -27375.00    0.0
2018/11/05 01:19:15.000  -74.393394800  163.452959118    96.2898   5  10   0.7258   0.5825   2.3119  -0.3028   0.6366  -0.9247 -27360.00    0.0
2018/11/05 01:19:30.000  -74.393397356  163.452955772    96.8472   5  10   0.7253   0.5816   2.3042  -0.3009   0.6308  -0.9217 -27345.00    0.0
2018/11/05 01:19:45.000  -74.393393481  163.452956103    96.0500   5  10   0.7248   0.5808   2.2969  -0.2990   0.6251  -0.9188 -27330.00    0.0
2018/11/05 01:20:00.000  -74.393397247  163.452950764    96.9823   5  10   0.7245   0.5800   2.2899  -0.2971   0.6195  -0.9161 -27315.00    0.0
2018/11/05 01:20:15.000  -74.393394623  163.452946157    95.8543   5  10   0.7242   0.5794   2.2835  -0.2953   0.6139  -0.9134 -27300.00    0.0
2018/11/05 01:20:30.000  -74.393396655  163.452949918    96.0805   5  10   0.7240   0.5789   2.2775  -0.2935   0.6084  -0.9109 -27285.00    0.0
2018/11/05 01:20:45.000  -74.393395190  163.452946730    96.1982   5  10   0.7239   0.5784   2.2719  -0.2918   0.6030  -0.9085 -27270.00    0.0
2018/11/05 01:21:00.000  -74.393391534  163.452952189    95.4507   5  10   0.7238   0.5780   2.2666  -0.2900   0.5976  -0.9063 -27255.00    0.0
2018/11/05 01:21:15.000  -74.393397316  163.452952408    96.1786   5  10   0.7238   0.5776   2.2618  -0.2884   0.5923  -0.9041 -27240.00    0.0
2018/11/05 01:21:30.000  -74.393394290  163.452948772    95.8041   5  10   0.7239   0.5774   2.2573  -0.2867   0.5870  -0.9020 -27225.00    0.0
2018/11/05 01:21:45.000  -74.393395824  163.452952675    96.5154   5  10   0.7241   0.5772   2.2532  -0.2851   0.5817  -0.9000 -27210.00    0.0
2018/11/05 01:22:00.000  -74.393397826  163.452959114    95.9759   5  10   0.7243   0.5771   2.2494  -0.2835   0.5765  -0.8982 -27195.00    0.0
2018/11/05 01:22:15.000  -74.393396774  163.452952510    96.1886   5  10   0.7246   0.5771   2.2461  -0.2819   0.5713  -0.8964 -27180.00    0.0
2018/11/05 01:22:30.000  -74.393393556  163.452945018    95.4729   5  10   0.7250   0.5771   2.2431  -0.2804   0.5662  -0.8948 -27165.00    0.0
2018/11/05 01:22:45.000  -74.393393833  163.452948944    95.1239   5  10   0.7241   0.5760   2.2334  -0.2782   0.5597  -0.8912 -27150.00    0.0
2018/11/05 01:23:00.000  -74.393394652  163.452953946    95.1004   5  10   0.7233   0.5749   2.2241  -0.2761   0.5533  -0.8878 -27135.00    0.0
2018/11/05 01:23:15.000  -74.393394152  163.452946612    95.9377   5  10   0.7225   0.5738   2.2152  -0.2740   0.5470  -0.8845 -27120.00    0.0
2018/11/05 01:23:30.000  -74.393395183  163.452943559    96.1231   5  10   0.7218   0.5729   2.2067  -0.2719   0.5408  -0.8813 -27105.00    0.0
2018/11/05 01:23:45.000  -74.393395154  163.452947586    95.5172   5  10   0.7212   0.5721   2.1986  -0.2698   0.5346  -0.8783 -27090.00    0.0
2018/11/05 01:24:00.000  -74.393394053  163.452952852    95.8023   5  10   0.7207   0.5713   2.1909  -0.2678   0.5284  -0.8753 -27075.00    0.0
2018/11/05 01:24:15.000  -74.393397273  163.452954512    96.0698   5  10   0.7202   0.5706   2.1835  -0.2659   0.5223  -0.8725 -27060.00    0.0
2018/11/05 01:24:30.000  -74.393394144  163.452951275    95.5483   5  10   0.7198   0.5699   2.1766  -0.2639   0.5162  -0.8698 -27045.00    0.0
2018/11/05 01:24:45.000  -74.393397258  163.452960166    95.7964   5  10   0.7195   0.5694   2.1701  -0.2620   0.5102  -0.8671 -27030.00    0.0
2018/11/05 01:25:00.000  -74.393397538  163.452951169    95.7494   5  10   0.7192   0.5689   2.1639  -0.2602   0.5042  -0.8646 -27015.00    0.0
2018/11/05 01:25:15.000  -74.393397773  163.452939194    96.4168   5  10   0.7191   0.5685   2.1583  -0.2583   0.4982  -0.8623 -27000.00    0.0
2018/11/05 01:25:30.000  -74.393397177  163.452940535    95.3198   5  10   0.7190   0.5682   2.1531  -0.2565   0.4922  -0.8600 -26985.00    0.0
2018/11/05 01:25:45.000  -74.393396023  163.452948565    95.4307   5  10   0.7190   0.5680   2.1482  -0.2548   0.4863  -0.8579 -26970.00    0.0
2018/11/05 01:26:00.000  -74.393395103  163.452942294    95.1909   5  10   0.7191   0.5678   2.1437  -0.2530   0.4804  -0.8558 -26955.00    0.0
2018/11/05 01:26:15.000  -74.393397097  163.452950326    96.0259   5  11   0.6198   0.5503   1.7955  -0.1102   0.2498  -0.5519 -26940.00    0.0
2018/11/05 01:26:30.000  -74.393397893  163.452946976    95.6448   5  11   0.6202   0.5505   1.7950  -0.1081   0.2426  -0.5512 -26925.00    0.0
2018/11/05 01:26:45.000  -74.393394525  163.452950262    95.4803   5  11   0.6205   0.5509   1.7949  -0.1060   0.2352  -0.5506 -26910.00    0.0
2018/11/05 01:27:00.000  -74.393399401  163.452951979    96.5709   5  11   0.6210   0.5512   1.7950  -0.1039   0.2275  -0.5500 -26895.00    0.0
2018/11/05 01:27:15.000  -74.393395214  163.452958308    96.2955   5  11   0.6214   0.5517   1.7954  -0.1016   0.2195  -0.5495 -26880.00    0.0
2018/11/05 01:27:30.000  -74.393398491  163.452946702    96.2790   5  11   0.6220   0.5522   1.7962  -0.0994   0.2111  -0.5490 -26865.00    0.0
2018/11/05 01:27:45.000  -74.393396663  163.452949089    96.3820   5  11   0.6215   0.5516   1.7918  -0.0970   0.2030  -0.5479 -26850.00    0.0
2018/11/05 01:28:00.000  -74.393398071  163.452952163    96.5365   5  11   0.6212   0.5511   1.7877  -0.0945   0.1945  -0.5470 -26835.00    0.0
2018/11/05 01:28:15.000  -74.393397188  163.452954379    96.1612   5  11   0.6208   0.5506   1.7838  -0.0919   0.1857  -0.5461 -26820.00    0.0
2018/11/05 01:28:30.000  -74.393396089  163.452952766    95.9908   5  11   0.6206   0.5502   1.7802  -0.0893   0.1765  -0.5452 -26805.00    0.0
2018/11/05 01:28:45.000  -74.393398158  163.452959978    96.4283   5  11   0.6204   0.5498   1.7769  -0.0866   0.1667  -0.5444 -26790.00    0.0
2018/11/05 01:29:00.000  -74.393398611  163.452950084    96.1799   5  11   0.6202   0.5496   1.7740  -0.0839   0.1563  -0.5436 -26775.00    0.0
2018/11/05 01:29:15.000  -74.393397064  163.452952814    96.1497   5  11   0.6201   0.5494   1.7713  -0.0810   0.1452  -0.5428 -26760.00    0.0
2018/11/05 01:29:30.000  -74.393398254  163.452951546    96.3787   5  11   0.6201   0.5492   1.7689  -0.0781   0.1331  -0.5421 -26745.00    0.0
2018/11/05 01:29:45.000  -74.393397894  163.452960436    96.0569   5  11   0.6201   0.5491   1.7667  -0.0750   0.1198  -0.5414 -26730.00    0.0
2018/11/05 01:30:00.000  -74.393396542  163.452956065    96.1858   5  11   0.6201   0.5491   1.7649  -0.0719   0.1048  -0.5407 -26715.00    0.0
2018/11/05 01:30:15.000  -74.393399558  163.452954299    96.6560   5  11   0.6202   0.5492   1.7636  -0.0686   0.0871  -0.5402 -26700.00    0.0
2018/11/05 01:30:30.000  -74.393398600  163.452951379    96.6126   5  12   0.6129   0.5268   1.6970  -0.1388  -0.2645  -0.5806 -26685.00    0.0
2018/11/05 01:30:45.000  -74.393398026  163.452945917    95.9293   5  12   0.6130   0.5270   1.6973  -0.1377  -0.2699  -0.5802 -26670.00    0.0
2018/11/05 01:31:00.000  -74.393395516  163.452952829    95.5037   5  12   0.6131   0.5273   1.6979  -0.1365  -0.2753  -0.5798 -26655.00    0.0
2018/11/05 01:31:15.000  -74.393397646  163.452950558    95.9308   5  12   0.6133   0.5276   1.6987  -0.1354  -0.2806  -0.5794 -26640.00    0.0
2018/11/05 01:31:30.000  -74.393397774  163.452951314    95.3678   5  12   0.6136   0.5279   1.6999  -0.1342  -0.2859  -0.5791 -26625.00    0.0
2018/11/05 01:31:45.000  -74.393398761  163.452952756    95.7224   5  12   0.6139   0.5284   1.7013  -0.1331  -0.2912  -0.5789 -26610.00    0.0
2018/11/05 01:32:00.000  -74.393396405  163.452950678    95.9498   5  12   0.6143   0.5289   1.7030  -0.1320  -0.2966  -0.5786 -26595.00    0.0
2018/11/05 01:32:15.000  -74.393396480  163.452949386    96.4725   5  12   0.6147   0.5294   1.7050  -0.1309  -0.3019  -0.5785 -26580.00    0.0
2018/11/05 01:32:30.000  -74.393396555  163.452955309    96.3871   5  12   0.6151   0.5301   1.7072  -0.1298  -0.3072  -0.5784 -26565.00    0.0
2018/11/05 01:32:45.000  -74.393396030  163.452953583    96.0096   5  12   0.6147   0.5296   1.7045  -0.1283  -0.3108  -0.5775 -26550.00    0.0
2018/11/05 01:33:00.000  -74.393397322  163.452955256    95.9813   5  12   0.6142   0.5292   1.7021  -0.1269  -0.3145  -0.5767 -26535.00    0.0
2018/11/05 01:33:15.000  -74.393397096  163.452952674    95.6804   5  12   0.6139   0.5289   1.6999  -0.1254  -0.3182  -0.5759 -26520.00    0.0
2018/11/05 01:33:30.000  -74.393397953  163.452947785    95.6967   5  12   0.6136   0.5287   1.6980  -0.1240  -0.3220  -0.5752 -26505.00    0.0
2018/11/05 01:33:45.000  -74.393399722  163.452960612    95.1302   5  12   0.6133   0.5285   1.6964  -0.1226  -0.3257  -0.5745 -26490.00    0.0
2018/11/05 01:34:00.000  -74.393397148  163.452946851    96.0142   5  12   0.6131   0.5283   1.6950  -0.1212  -0.3295  -0.5738 -26475.00    0.0
2018/11/05 01:34:15.000  -74.393396450  163.452952168    95.7333   5  12   0.6129   0.5282   1.6939  -0.1198  -0.3333  -0.5732 -26460.00    0.0
2018/11/05 01:34:30.000  -74.393396262  163.452948691    95.8238   5  12   0.6128   0.5282   1.6932  -0.1183  -0.3372  -0.5727 -26445.00    0.0
2018/11/05 01:34:45.000  -74.393395885  163.452938964    94.8592   5  12   0.6127   0.5283   1.6926  -0.1169  -0.3410  -0.5722 -26430.00    0.0
2018/11/05 01:35:00.000  -74.393399506  163.452944556    95.9469   5  12   0.6127   0.5284   1.6924  -0.1155  -0.3449  -0.5717 -26415.00    0.0
2018/11/05 01:35:15.000  -74.393399693  163.452944336    96.1776   5  12   0.6128   0.5285   1.6926  -0.1141  -0.3489  -0.5714 -26400.00    0.0
2018/11/05 01:35:30.000  -74.393397317  163.452952249    96.0562   5  12   0.6129   0.5288   1.6930  -0.1127  -0.3529  -0.5710 -26385.00    0.0
2018/11/05 01:35:45.000  -74.393396522  163.452959269    95.9442   5  12   0.6130   0.5291   1.6938  -0.1113  -0.3570  -0.5707 -26370.00    0.0
2018/11/05 01:36:00.000  -74.393396853  163.452953661    96.1946   5  12   0.6133   0.5295   1.6948  -0.1099  -0.3610  -0.5705 -26355.00    0.0
2018/11/05 01:36:15.000  -74.393398153  163.452952424    95.9259   5  12   0.6135   0.5299   1.6961  -0.1085  -0.3652  -0.5703 -26340.00    0.0
2018/11/05 01:36:30.000  -74.393396960  163.452948045    96.7990   5  12   0.6138   0.5304   1.6977  -0.1071  -0.3693  -0.5701 -26325.00    0.0
2018/11/05 01:36:45.000  -74.393394503  163.452949961    95.9647   5  12   0.6142   0.5309   1.6996  -0.1057  -0.3735  -0.5700 -26310.00    0.0
2018/11/05 01:37:00.000  -74.393397546  163.452945107    96.5295   5  12   0.6146   0.5315   1.7018  -0.1043  -0.3778  -0.5700 -26295.00    0.0
2018/11/05 01:37:15.000  -74.393395101  163.452951014    95.5353   5  12   0.6151   0.5322   1.7043  -0.1029  -0.3821  -0.5700 -26280.00    0.0
2018/11/05 01:37:30.000  -74.393398171  163.452946003    96.4194   5  12   0.6156   0.5329   1.7070  -0.1014  -0.3864  -0.5700 -26265.00    0.0
2018/11/05 01:37:45.000  -74.393399081  163.452950419    96.9122   5  12   0.6152   0.5326   1.7046  -0.0997  -0.3891  -0.5693 -26250.00    0.0
2018/11/05 01:38:00.000  -74.393395424  163.452952983    96.3535   5  12   0.6148   0.5323   1.7026  -0.0979  -0.3920  -0.5686 -26235.00    0.0
2018/11/05 01:38:15.000  -74.393397314  163.452943639    96.4373   5  12   0.6145   0.5321   1.7008  -0.0961  -0.3948  -0.5680 -26220.00    0.0
2018/11/05 01:38:30.000  -74.393398352  163.452947710    96.8797   5  12   0.6142   0.5320   1.6992  -0.0943  -0.3977  -0.5674 -26205.00    0.0
2018/11/05 01:38:45.000  -74.393399419  163.452951245    95.4979   5  12   0.6140   0.5319   1.6980  -0.0925  -0.4007  -0.5669 -26190.00    0.0
2018/11/05 01:39:00.000  -74.393396199  163.452944988    96.2289   5  12   0.6139   0.5318   1.6971  -0.0906  -0.4037  -0.5664 -26175.00    0.0
2018/11/05 01:39:15.000  -74.393396198  163.452954764    95.9467   5  12   0.6138   0.5318   1.6964  -0.0887  -0.4067  -0.5660 -26160.00    0.0
2018/11/05 01:39:30.000  -74.393397554  163.452954207    96.0004   5  12   0.6137   0.5319   1.6960  -0.0869  -0.4098  -0.5656 -26145.00    0.0
2018/11/05 01:39:45.000  -74.393397492  163.452953008    95.9121   5  12   0.6137   0.5321   1.6959  -0.0849  -0.4130  -0.5652 -26130.00    0.0
2018/11/05 01:40:00.000  -74.393395418  163.452943995    96.0116   5  12   0.6137   0.5323   1.6961  -0.0830  -0.4162  -0.5650 -26115.00    0.0
2018/11/05 01:40:15.000  -74.393395198  163.452947846    95.8369   5  12   0.6139   0.5326   1.6967  -0.0811  -0.4195  -0.5647 -26100.00    0.0
2018/11/05 01:40:30.000  -74.393399004  163.452950750    97.0234   5  12   0.6140   0.5329   1.6976  -0.0791  -0.4228  -0.5645 -26085.00    0.0
2018/11/05 01:40:45.000  -74.393394091  163.452941544    95.5815   5  12   0.6142   0.5333   1.6988  -0.0771  -0.4262  -0.5644 -26070.00    0.0
2018/11/05 01:41:00.000  -74.393395725  163.452944824    96.2022   5  12   0.6145   0.5338   1.7003  -0.0751  -0.4297  -0.5643 -26055.00    0.0
2018/11/05 01:41:15.000  -74.393398994  163.452941010    96.3309   5  12   0.6148   0.5343   1.7020  -0.0730  -0.4332  -0.5643 -26040.00    0.0
2018/11/05 01:41:30.000  -74.393396167  163.452946022    95.7736   5  12   0.6152   0.5349   1.7040  -0.0709  -0.4368  -0.5643 -26025.00    0.0
2018/11/05 01:41:45.000  -74.393394955  163.452946598    96.1453   5  12   0.6156   0.5356   1.7064  -0.0688  -0.4404  -0.5644 -26010.00    0.0
2018/11/05 01:42:00.000  -74.393396621  163.452943057    96.8280   5  12   0.6161   0.5363   1.7090  -0.0666  -0.4441  -0.5645 -25995.00    0.0
