% program   : RTKLIB ver.2.4.3
% inp file  : _by_type/_obs/shirase/20181105.18o
% inp file  : _by_type/_obs/base/20181105.18o
% inp file  : _by_type/_sp3+clk/igs20261.clk
% inp file  : _by_type/_sp3+clk/igs20261.sp3
% inp file  : _by_type/_nav/shirase/20181105.18n
% obs start : 2018/11/05 00:00:00.0 GPST (week2026  86400.0s)
% obs end   : 2018/11/05 23:59:45.0 GPST (week2026 172785.0s)
% pos mode  : dgps
% freqs     : L1+L2
% solution  : combined
% elev mask : 15.0 deg
% dynamics  : off
% tidecorr  : off
% ionos opt : iono-free
% tropo opt : est ztd+grad
% ephemeris : precise
% navi sys  : gps glonass
% antenna1  :                       ( 0.0000  0.0000  0.0000)
% antenna2  :                       ( 0.0000  0.0000  0.0000)
% ref pos   : 90.000000000   0.000000000-6335367.6285
%
% (lat/lon/height=WGS84/ellipsoidal,Q=1:fix,2:float,3:sbas,4:dgps,5:single,6:ppp,ns=# of satellites)
%  GPST                  latitude(deg) longitude(deg)  height(m)   Q  ns   sdn(m)   sde(m)   sdu(m)  sdne(m)  sdeu(m)  sdun(m) age(s)  ratio
2018/11/05 00:00:00.000  -74.525920598  163.457810783    26.9043   5   8   0.8274   0.6465   2.6020   0.2476  -0.5272  -1.1335 -32115.00    0.0
2018/11/05 00:00:15.000  -74.525923785  163.457806196    27.4777   5   8   0.8269   0.6463   2.6062   0.2470  -0.5251  -1.1340 -32100.00    0.0
2018/11/05 00:00:30.000  -74.525920611  163.457800037    27.2321   5   8   0.8264   0.6462   2.6107   0.2465  -0.5231  -1.1347 -32085.00    0.0
2018/11/05 00:00:45.000  -74.525918420  163.457803942    26.9454   5   8   0.8261   0.6461   2.6156   0.2459  -0.5211  -1.1355 -32070.00    0.0
2018/11/05 00:01:00.000  -74.525922923  163.457807525    27.7691   5   8   0.8259   0.6462   2.6209   0.2454  -0.5192  -1.1364 -32055.00    0.0
2018/11/05 00:01:15.000  -74.525921169  163.457806453    27.1097   5   8   0.8258   0.6464   2.6265   0.2450  -0.5174  -1.1376 -32040.00    0.0
2018/11/05 00:01:30.000  -74.525922681  163.457807228    27.7678   5   8   0.8258   0.6466   2.6325   0.2445  -0.5156  -1.1388 -32025.00    0.0
2018/11/05 00:01:45.000  -74.525918958  163.457807435    27.4691   5   8   0.8258   0.6469   2.6388   0.2441  -0.5138  -1.1403 -32010.00    0.0
2018/11/05 00:02:00.000  -74.525923879  163.457815884    28.1929   5   8   0.8260   0.6474   2.6455   0.2437  -0.5120  -1.1418 -31995.00    0.0
2018/11/05 00:02:15.000  -74.525918518  163.457811459    26.3666   5   8   0.8263   0.6479   2.6526   0.2433  -0.5103  -1.1436 -31980.00    0.0
2018/11/05 00:02:30.000  -74.525920489  163.457804287    26.9452   5   8   0.8267   0.6485   2.6601   0.2429  -0.5086  -1.1455 -31965.00    0.0
2018/11/05 00:02:45.000  -74.525922752  163.457811301    27.1539   5   8   0.8251   0.6473   2.6605   0.2416  -0.5048  -1.1443 -31950.00    0.0
2018/11/05 00:03:00.000  -74.525922044  163.457806623    27.6699   5   8   0.8237   0.6462   2.6614   0.2404  -0.5012  -1.1434 -31935.00    0.0
2018/11/05 00:03:15.000  -74.525922796  163.457815793    27.3437   5   8   0.8224   0.6453   2.6626   0.2393  -0.4976  -1.1426 -31920.00    0.0
2018/11/05 00:03:30.000  -74.525919430  163.457807002    26.9347   5   8   0.8212   0.6444   2.6642   0.2381  -0.4940  -1.1420 -31905.00    0.0
2018/11/05 00:03:45.000  -74.525919520  163.457807417    26.3091   5   8   0.8201   0.6437   2.6660   0.2370  -0.4905  -1.1415 -31890.00    0.0
2018/11/05 00:04:00.000  -74.525920065  163.457807553    27.3596   5   8   0.8191   0.6430   2.6683   0.2360  -0.4870  -1.1411 -31875.00    0.0
2018/11/05 00:04:15.000  -74.525920061  163.457808705    26.0249   5   8   0.8182   0.6424   2.6709   0.2349  -0.4836  -1.1409 -31860.00    0.0
2018/11/05 00:04:30.000  -74.525917860  163.457807053    26.0782   5   9   0.6872   0.6153   2.0222  -0.1621   0.2992  -0.7262 -31845.00    0.0
2018/11/05 00:04:45.000  -74.525917780  163.457812001    25.9358   5   9   0.6866   0.6150   2.0257  -0.1626   0.3034  -0.7266 -31830.00    0.0
2018/11/05 00:05:00.000  -74.525920492  163.457810343    26.3730   5   9   0.6861   0.6148   2.0295  -0.1631   0.3077  -0.7271 -31815.00    0.0
2018/11/05 00:05:15.000  -74.525919199  163.457806897    26.6018   5   9   0.6858   0.6147   2.0336  -0.1638   0.3121  -0.7278 -31800.00    0.0
2018/11/05 00:05:30.000  -74.525921629  163.457812722    25.9916   5   9   0.6855   0.6148   2.0380  -0.1645   0.3165  -0.7285 -31785.00    0.0
2018/11/05 00:05:45.000  -74.525918813  163.457807397    24.8909   5   9   0.6852   0.6149   2.0427  -0.1653   0.3210  -0.7293 -31770.00    0.0
2018/11/05 00:06:00.000  -74.525919562  163.457811342    25.9517   5   9   0.6851   0.6151   2.0477  -0.1661   0.3256  -0.7301 -31755.00    0.0
2018/11/05 00:06:15.000  -74.525918990  163.457811836    25.7635   5   9   0.6850   0.6154   2.0529  -0.1669   0.3302  -0.7311 -31740.00    0.0
2018/11/05 00:06:30.000  -74.525916950  163.457812202    25.5228   5   9   0.6850   0.6157   2.0584  -0.1678   0.3348  -0.7321 -31725.00    0.0
2018/11/05 00:06:45.000  -74.525917922  163.457799811    26.0158   5   9   0.6851   0.6162   2.0642  -0.1688   0.3396  -0.7333 -31710.00    0.0
2018/11/05 00:07:00.000  -74.525921989  163.457812311    25.8729   5   9   0.6853   0.6167   2.0702  -0.1698   0.3443  -0.7345 -31695.00    0.0
2018/11/05 00:07:15.000  -74.525920233  163.457813536    25.7230   5   9   0.6855   0.6173   2.0766  -0.1709   0.3492  -0.7358 -31680.00    0.0
2018/11/05 00:07:30.000  -74.525917800  163.457809123    25.2653   5   9   0.6858   0.6180   2.0832  -0.1720   0.3542  -0.7372 -31665.00    0.0
2018/11/05 00:07:45.000  -74.525917722  163.457810801    25.7118   5   9   0.6848   0.6172   2.0853  -0.1723   0.3578  -0.7373 -31650.00    0.0
2018/11/05 00:08:00.000  -74.525915935  163.457808525    25.0162   5   9   0.6838   0.6164   2.0876  -0.1726   0.3614  -0.7375 -31635.00    0.0
2018/11/05 00:08:15.000  -74.525918968  163.457814484    25.3865   5   9   0.6830   0.6157   2.0901  -0.1730   0.3651  -0.7378 -31620.00    0.0
2018/11/05 00:08:30.000  -74.525919726  163.457807811    25.6857   5   9   0.6822   0.6151   2.0929  -0.1735   0.3688  -0.7381 -31605.00    0.0
2018/11/05 00:08:45.000  -74.525916472  163.457807023    25.4131   5   9   0.6815   0.6146   2.0959  -0.1740   0.3726  -0.7386 -31590.00    0.0
2018/11/05 00:09:00.000  -74.525918274  163.457811265    25.4382   5   9   0.6808   0.6142   2.0993  -0.1745   0.3765  -0.7391 -31575.00    0.0
2018/11/05 00:09:15.000  -74.525916709  163.457803397    25.2594   5   9   0.6803   0.6138   2.1028  -0.1751   0.3804  -0.7397 -31560.00    0.0
2018/11/05 00:09:30.000  -74.525918920  163.457808686    25.3495   5   9   0.6798   0.6136   2.1067  -0.1758   0.3844  -0.7404 -31545.00    0.0
2018/11/05 00:09:45.000  -74.525919065  163.457809547    25.2192   5   9   0.6794   0.6134   2.1108  -0.1764   0.3884  -0.7411 -31530.00    0.0
2018/11/05 00:10:00.000  -74.525915895  163.457816577    25.7602   5   9   0.6790   0.6133   2.1152  -0.1772   0.3926  -0.7420 -31515.00    0.0
2018/11/05 00:10:15.000  -74.525914854  163.457807732    24.8401   5   9   0.6788   0.6134   2.1201  -0.1780   0.3968  -0.7430 -31500.00    0.0
2018/11/05 00:10:30.000  -74.525917533  163.457815685    25.8885   5   9   0.6786   0.6135   2.1252  -0.1789   0.4012  -0.7441 -31485.00    0.0
2018/11/05 00:10:45.000  -74.525916153  163.457809589    25.9412   5   9   0.6785   0.6137   2.1306  -0.1799   0.4056  -0.7452 -31470.00    0.0
2018/11/05 00:11:00.000  -74.525916547  163.457810210    25.9909   5   9   0.6785   0.6140   2.1363  -0.1809   0.4101  -0.7465 -31455.00    0.0
2018/11/05 00:11:15.000  -74.525915831  163.457813230    25.8274   5   9   0.6786   0.6144   2.1423  -0.1820   0.4147  -0.7479 -31440.00    0.0
2018/11/05 00:11:30.000  -74.525917139  163.457806921    25.0788   5   9   0.6788   0.6149   2.1485  -0.1831   0.4194  -0.7493 -31425.00    0.0
2018/11/05 00:11:45.000  -74.525915537  163.457817133    25.1919   5   9   0.6790   0.6155   2.1551  -0.1843   0.4242  -0.7509 -31410.00    0.0
2018/11/05 00:12:00.000  -74.525914780  163.457813235    25.2009   5   9   0.6793   0.6161   2.1620  -0.1855   0.4290  -0.7525 -31395.00    0.0
2018/11/05 00:12:15.000  -74.525915817  163.457804954    25.4776   5   9   0.6796   0.6169   2.1692  -0.1868   0.4340  -0.7543 -31380.00    0.0
2018/11/05 00:12:30.000  -74.525918834  163.457811799    26.1981   5   9   0.6801   0.6177   2.1767  -0.1881   0.4391  -0.7561 -31365.00    0.0
2018/11/05 00:12:45.000  -74.525915771  163.457811747    25.3758   5   9   0.6792   0.6169   2.1790  -0.1885   0.4423  -0.7565 -31350.00    0.0
2018/11/05 00:13:00.000  -74.525915917  163.457816275    25.0339   5   9   0.6784   0.6163   2.1818  -0.1890   0.4458  -0.7570 -31335.00    0.0
2018/11/05 00:13:15.000  -74.525915114  163.457814659    24.8109   5   9   0.6777   0.6157   2.1848  -0.1896   0.4493  -0.7576 -31320.00    0.0
2018/11/05 00:13:30.000  -74.525915007  163.457811775    25.6200   5   9   0.6770   0.6152   2.1881  -0.1902   0.4530  -0.7583 -31305.00    0.0
2018/11/05 00:13:45.000  -74.525914263  163.457817068    25.5232   5   9   0.6764   0.6149   2.1917  -0.1909   0.4567  -0.7591 -31290.00    0.0
2018/11/05 00:14:00.000  -74.525915208  163.457813459    25.3892   5   9   0.6759   0.6145   2.1956  -0.1916   0.4605  -0.7599 -31275.00    0.0
2018/11/05 00:14:15.000  -74.525913381  163.457811461    25.2883   5   9   0.6755   0.6143   2.1997  -0.1924   0.4643  -0.7609 -31260.00    0.0
2018/11/05 00:14:30.000  -74.525911985  163.457812695    24.4363   5   9   0.6752   0.6142   2.2042  -0.1932   0.4683  -0.7619 -31245.00    0.0
2018/11/05 00:14:45.000  -74.525914243  163.457815089    24.4900   5   9   0.6749   0.6142   2.2089  -0.1941   0.4724  -0.7631 -31230.00    0.0
2018/11/05 00:15:00.000  -74.525912940  163.457816534    24.1996   5   9   0.6747   0.6142   2.2139  -0.1950   0.4765  -0.7643 -31215.00    0.0
2018/11/05 00:15:15.000  -74.525912901  163.457816820    24.6207   5   9   0.6746   0.6144   2.2194  -0.1960   0.4808  -0.7657 -31200.00    0.0
2018/11/05 00:15:30.000  -74.525915421  163.457815209    25.6821   5   9   0.6746   0.6146   2.2251  -0.1971   0.4852  -0.7671 -31185.00    0.0
2018/11/05 00:15:45.000  -74.525914578  163.457824170    24.4383   5   9   0.6746   0.6150   2.2312  -0.1983   0.4897  -0.7687 -31170.00    0.0
2018/11/05 00:16:00.000  -74.525911877  163.457822531    24.4271   5   9   0.6748   0.6154   2.2375  -0.1995   0.4943  -0.7704 -31155.00    0.0
2018/11/05 00:16:15.000  -74.525911242  163.457819799    24.9061   5   9   0.6750   0.6160   2.2442  -0.2007   0.4990  -0.7722 -31140.00    0.0
2018/11/05 00:16:30.000  -74.525913452  163.457811258    24.5054   5   9   0.6753   0.6166   2.2512  -0.2020   0.5037  -0.7740 -31125.00    0.0
2018/11/05 00:16:45.000  -74.525911291  163.457815771    24.5959   5   9   0.6756   0.6173   2.2585  -0.2034   0.5087  -0.7760 -31110.00    0.0
2018/11/05 00:17:00.000  -74.525910636  163.457806456    24.2100   5   9   0.6761   0.6181   2.2661  -0.2048   0.5137  -0.7781 -31095.00    0.0
2018/11/05 00:17:15.000  -74.525911123  163.457805526    24.5298   5   9   0.6766   0.6190   2.2741  -0.2063   0.5188  -0.7803 -31080.00    0.0
2018/11/05 00:17:30.000  -74.525912242  163.457815265    25.0356   5   9   0.6772   0.6200   2.2823  -0.2079   0.5240  -0.7825 -31065.00    0.0
2018/11/05 00:17:45.000  -74.525912892  163.457814802    24.7793   5   9   0.6764   0.6194   2.2852  -0.2085   0.5274  -0.7833 -31050.00    0.0
2018/11/05 00:18:00.000  -74.525911670  163.457812215    23.9459   5   9   0.6758   0.6189   2.2884  -0.2092   0.5308  -0.7841 -31035.00    0.0
2018/11/05 00:18:15.000  -74.525912549  163.457822353    24.4833   5   9   0.6752   0.6185   2.2918  -0.2099   0.5343  -0.7850 -31020.00    0.0
2018/11/05 00:18:30.000  -74.525912085  163.457808451    25.6417   5   9   0.6747   0.6181   2.2955  -0.2107   0.5379  -0.7860 -31005.00    0.0
2018/11/05 00:18:45.000  -74.525913282  163.457806638    24.6778   5   9   0.6742   0.6179   2.2995  -0.2115   0.5416  -0.7871 -30990.00    0.0
2018/11/05 00:19:00.000  -74.525912425  163.457812074    24.9173   5   9   0.6739   0.6177   2.3038  -0.2124   0.5454  -0.7883 -30975.00    0.0
2018/11/05 00:19:15.000  -74.525911613  163.457812134    24.9831   5   9   0.6736   0.6176   2.3084  -0.2133   0.5493  -0.7896 -30960.00    0.0
2018/11/05 00:19:30.000  -74.525912353  163.457812204    25.6297   5   9   0.6734   0.6176   2.3133  -0.2143   0.5532  -0.7909 -30945.00    0.0
2018/11/05 00:19:45.000  -74.525909368  163.457807153    25.6451   5   9   0.6732   0.6178   2.3185  -0.2153   0.5573  -0.7924 -30930.00    0.0
2018/11/05 00:20:00.000  -74.525911482  163.457805785    24.7086   5   9   0.6732   0.6180   2.3240  -0.2164   0.5615  -0.7940 -30915.00    0.0
2018/11/05 00:20:15.000  -74.525908967  163.457814132    24.9091   5  10   0.6507   0.6090   2.0789  -0.2566   0.6578  -0.6719 -30900.00    0.0
2018/11/05 00:20:30.000  -74.525910564  163.457805088    24.3499   5  10   0.6508   0.6094   2.0854  -0.2576   0.6616  -0.6740 -30885.00    0.0
2018/11/05 00:20:45.000  -74.525911338  163.457810752    24.3593   5  10   0.6511   0.6100   2.0922  -0.2586   0.6654  -0.6762 -30870.00    0.0
2018/11/05 00:21:00.000  -74.525911120  163.457820766    25.1550   5  10   0.6514   0.6107   2.0993  -0.2597   0.6694  -0.6784 -30855.00    0.0
2018/11/05 00:21:15.000  -74.525911092  163.457813679    24.7672   5  10   0.6517   0.6114   2.1067  -0.2609   0.6736  -0.6808 -30840.00    0.0
2018/11/05 00:21:30.000  -74.525911057  163.457817452    24.7616   5  10   0.6522   0.6123   2.1144  -0.2621   0.6778  -0.6833 -30825.00    0.0
2018/11/05 00:21:45.000  -74.525909703  163.457816466    25.0970   5  10   0.6527   0.6132   2.1224  -0.2634   0.6822  -0.6858 -30810.00    0.0
2018/11/05 00:22:00.000  -74.525908245  163.457816234    24.6862   5  10   0.6533   0.6142   2.1307  -0.2648   0.6867  -0.6885 -30795.00    0.0
2018/11/05 00:22:15.000  -74.525909156  163.457818070    24.4785   5  10   0.6540   0.6154   2.1393  -0.2662   0.6914  -0.6912 -30780.00    0.0
2018/11/05 00:22:30.000  -74.525910448  163.457827443    25.2071   5  10   0.6547   0.6166   2.1483  -0.2677   0.6962  -0.6941 -30765.00    0.0
2018/11/05 00:22:45.000  -74.525912463  163.457817674    25.4615   5  10   0.6542   0.6162   2.1521  -0.2681   0.6987  -0.6956 -30750.00    0.0
2018/11/05 00:23:00.000  -74.525910405  163.457811900    24.3314   5  10   0.6537   0.6158   2.1563  -0.2686   0.7012  -0.6972 -30735.00    0.0
2018/11/05 00:23:15.000  -74.525911119  163.457824635    25.0208   5  10   0.6533   0.6156   2.1607  -0.2692   0.7039  -0.6989 -30720.00    0.0
2018/11/05 00:23:30.000  -74.525911876  163.457815496    25.5275   5  10   0.6530   0.6155   2.1653  -0.2698   0.7067  -0.7006 -30705.00    0.0
2018/11/05 00:23:45.000  -74.525911820  163.457818313    25.4668   5  10   0.6527   0.6154   2.1703  -0.2705   0.7097  -0.7025 -30690.00    0.0
2018/11/05 00:24:00.000  -74.525912120  163.457823749    26.2278   5  10   0.6526   0.6154   2.1755  -0.2712   0.7127  -0.7044 -30675.00    0.0
2018/11/05 00:24:15.000  -74.525913278  163.457827108    25.5210   5  10   0.6525   0.6156   2.1811  -0.2720   0.7159  -0.7064 -30660.00    0.0
2018/11/05 00:24:30.000  -74.525911281  163.457826052    26.0830   5  10   0.6525   0.6158   2.1869  -0.2729   0.7192  -0.7086 -30645.00    0.0
2018/11/05 00:24:45.000  -74.525911159  163.457827657    26.1358   5  10   0.6525   0.6161   2.1930  -0.2738   0.7226  -0.7108 -30630.00    0.0
2018/11/05 00:25:00.000  -74.525912168  163.457820535    25.8973   5  10   0.6526   0.6165   2.1994  -0.2748   0.7262  -0.7131 -30615.00    0.0
2018/11/05 00:25:15.000  -74.525914077  163.457829493    26.8524   5  10   0.6529   0.6170   2.2063  -0.2759   0.7300  -0.7156 -30600.00    0.0
2018/11/05 00:25:30.000  -74.525911037  163.457821943    25.6798   5  10   0.6532   0.6177   2.2134  -0.2771   0.7339  -0.7181 -30585.00    0.0
2018/11/05 00:25:45.000  -74.525914686  163.457822349    26.3747   5  10   0.6536   0.6184   2.2209  -0.2783   0.7379  -0.7208 -30570.00    0.0
2018/11/05 00:26:00.000  -74.525912069  163.457829012    26.4381   5  10   0.6540   0.6192   2.2286  -0.2796   0.7421  -0.7235 -30555.00    0.0
2018/11/05 00:26:15.000  -74.525913689  163.457826602    26.5300   5  10   0.6546   0.6201   2.2367  -0.2810   0.7464  -0.7264 -30540.00    0.0
2018/11/05 00:26:30.000  -74.525912316  163.457819410    25.7634   5  10   0.6552   0.6211   2.2451  -0.2824   0.7508  -0.7293 -30525.00    0.0
2018/11/05 00:26:45.000  -74.525910375  163.457820740    26.1598   5  10   0.6559   0.6222   2.2537  -0.2839   0.7554  -0.7324 -30510.00    0.0
2018/11/05 00:27:00.000  -74.525911809  163.457828623    26.3584   5  10   0.6567   0.6234   2.2627  -0.2854   0.7600  -0.7355 -30495.00    0.0
2018/11/05 00:27:15.000  -74.525911235  163.457820427    26.9925   5  10   0.6575   0.6247   2.2720  -0.2870   0.7649  -0.7388 -30480.00    0.0
2018/11/05 00:27:30.000  -74.525913914  163.457819953    26.8726   5  10   0.6585   0.6261   2.2816  -0.2887   0.7698  -0.7422 -30465.00    0.0
2018/11/05 00:27:45.000  -74.525913181  163.457825200    26.8014   5  10   0.6581   0.6258   2.2859  -0.2893   0.7724  -0.7440 -30450.00    0.0
2018/11/05 00:28:00.000  -74.525910404  163.457822542    25.5057   5  10   0.6578   0.6256   2.2902  -0.2900   0.7750  -0.7459 -30435.00    0.0
2018/11/05 00:28:15.000  -74.525911412  163.457825540    26.6110   5  10   0.6576   0.6255   2.2949  -0.2907   0.7776  -0.7479 -30420.00    0.0
2018/11/05 00:28:30.000  -74.525911773  163.457825714    26.5586   5  10   0.6574   0.6254   2.2998  -0.2914   0.7804  -0.7500 -30405.00    0.0
2018/11/05 00:28:45.000  -74.525909791  163.457823028    25.8781   5  10   0.6573   0.6255   2.3050  -0.2922   0.7833  -0.7522 -30390.00    0.0
2018/11/05 00:29:00.000  -74.525913690  163.457826154    26.8716   5  10   0.6573   0.6256   2.3105  -0.2931   0.7863  -0.7545 -30375.00    0.0
2018/11/05 00:29:15.000  -74.525912775  163.457831273    26.8134   5  10   0.6574   0.6259   2.3162  -0.2941   0.7895  -0.7569 -30360.00    0.0
2018/11/05 00:29:30.000  -74.525909857  163.457821761    26.2549   5  10   0.6575   0.6262   2.3223  -0.2951   0.7928  -0.7593 -30345.00    0.0
2018/11/05 00:29:45.000  -74.525913672  163.457828396    26.5703   5  10   0.6577   0.6266   2.3286  -0.2961   0.7962  -0.7619 -30330.00    0.0
2018/11/05 00:30:00.000  -74.525913865  163.457822626    26.7344   5  10   0.6580   0.6271   2.3352  -0.2973   0.7997  -0.7646 -30315.00    0.0
2018/11/05 00:30:15.000  -74.525911709  163.457820623    26.8879   5  10   0.6584   0.6278   2.3423  -0.2985   0.8034  -0.7674 -30300.00    0.0
2018/11/05 00:30:30.000  -74.525911301  163.457822455    27.4011   5  10   0.6589   0.6285   2.3497  -0.2998   0.8073  -0.7703 -30285.00    0.0
2018/11/05 00:30:45.000  -74.525908918  163.457805381    26.1203   5  10   0.6595   0.6293   2.3573  -0.3012   0.8113  -0.7733 -30270.00    0.0
2018/11/05 00:31:00.000  -74.525910298  163.457821150    26.3427   5  10   0.6601   0.6303   2.3653  -0.3026   0.8155  -0.7764 -30255.00    0.0
2018/11/05 00:31:15.000  -74.525910294  163.457820765    27.0392   5  10   0.6608   0.6313   2.3735  -0.3041   0.8197  -0.7796 -30240.00    0.0
2018/11/05 00:31:30.000  -74.525911029  163.457817594    26.2651   5  10   0.6616   0.6324   2.3821  -0.3056   0.8241  -0.7828 -30225.00    0.0
2018/11/05 00:31:45.000  -74.525911156  163.457821057    26.2293   5  10   0.6625   0.6336   2.3909  -0.3072   0.8286  -0.7862 -30210.00    0.0
2018/11/05 00:32:00.000  -74.525912699  163.457824295    27.9228   5  10   0.6635   0.6349   2.4000  -0.3089   0.8332  -0.7897 -30195.00    0.0
2018/11/05 00:32:15.000  -74.525911039  163.457822920    26.5912   5  10   0.6645   0.6363   2.4094  -0.3106   0.8380  -0.7933 -30180.00    0.0
2018/11/05 00:32:30.000  -74.525911389  163.457827267    26.9509   5  10   0.6656   0.6378   2.4190  -0.3124   0.8428  -0.7970 -30165.00    0.0
2018/11/05 00:32:45.000  -74.525911466  163.457815249    26.4463   5  10   0.6654   0.6375   2.4228  -0.3130   0.8450  -0.7989 -30150.00    0.0
2018/11/05 00:33:00.000  -74.525907139  163.457818976    25.9075   5  10   0.6652   0.6374   2.4269  -0.3137   0.8472  -0.8010 -30135.00    0.0
2018/11/05 00:33:15.000  -74.525909304  163.457820278    26.2256   5  10   0.6651   0.6373   2.4312  -0.3145   0.8497  -0.8032 -30120.00    0.0
2018/11/05 00:33:30.000  -74.525912096  163.457823709    26.4746   5  10   0.6651   0.6373   2.4358  -0.3153   0.8522  -0.8054 -30105.00    0.0
2018/11/05 00:33:45.000  -74.525912130  163.457821774    26.0361   5  11   0.6523   0.6374   2.3451  -0.3147   0.8577  -0.8605 -30090.00    0.0
2018/11/05 00:34:00.000  -74.525912192  163.457827799    26.2859   5  11   0.6524   0.6376   2.3507  -0.3156   0.8604  -0.8628 -30075.00    0.0
2018/11/05 00:34:15.000  -74.525909366  163.457824054    26.0581   5  11   0.6526   0.6378   2.3565  -0.3167   0.8631  -0.8652 -30060.00    0.0
2018/11/05 00:34:30.000  -74.525910709  163.457830114    26.1965   5  11   0.6528   0.6382   2.3626  -0.3178   0.8660  -0.8677 -30045.00    0.0
2018/11/05 00:34:45.000  -74.525913131  163.457817888    25.6939   5  11   0.6531   0.6387   2.3689  -0.3189   0.8690  -0.8703 -30030.00    0.0
2018/11/05 00:35:00.000  -74.525912206  163.457825524    26.3348   5  11   0.6535   0.6392   2.3756  -0.3201   0.8721  -0.8730 -30015.00    0.0
2018/11/05 00:35:15.000  -74.525912186  163.457823507    25.8681   5  11   0.6540   0.6399   2.3826  -0.3214   0.8754  -0.8758 -30000.00    0.0
2018/11/05 00:35:30.000  -74.525909764  163.457825060    25.7964   5  11   0.6545   0.6407   2.3899  -0.3228   0.8788  -0.8787 -29985.00    0.0
2018/11/05 00:35:45.000  -74.525910688  163.457821592    26.2877   5  11   0.6551   0.6415   2.3974  -0.3242   0.8823  -0.8818 -29970.00    0.0
2018/11/05 00:36:00.000  -74.525909465  163.457822238    25.3939   5  11   0.6558   0.6425   2.4052  -0.3256   0.8859  -0.8849 -29955.00    0.0
2018/11/05 00:36:15.000  -74.525910244  163.457817823    25.6832   5  11   0.6566   0.6435   2.4132  -0.3271   0.8897  -0.8881 -29940.00    0.0
2018/11/05 00:36:30.000  -74.525911610  163.457818573    26.3381   5  11   0.6574   0.6446   2.4215  -0.3287   0.8935  -0.8914 -29925.00    0.0
2018/11/05 00:36:45.000  -74.525908872  163.457813159    25.2702   5  11   0.6583   0.6458   2.4300  -0.3303   0.8975  -0.8948 -29910.00    0.0
2018/11/05 00:37:00.000  -74.525909027  163.457808478    24.6820   5  11   0.6593   0.6471   2.4388  -0.3319   0.9015  -0.8983 -29895.00    0.0
2018/11/05 00:37:15.000  -74.525908877  163.457814480    24.5395   5  11   0.6604   0.6485   2.4478  -0.3336   0.9057  -0.9018 -29880.00    0.0
2018/11/05 00:37:30.000  -74.525908123  163.457809750    24.2144   5  11   0.6615   0.6499   2.4570  -0.3354   0.9100  -0.9055 -29865.00    0.0
2018/11/05 00:37:44.999  -74.525907445  163.457805308    24.5961   5  11   0.6613   0.6496   2.4604  -0.3360   0.9115  -0.9071 -29850.00    0.0
2018/11/05 00:38:00.000  -74.525909151  163.457812309    25.3002   5  11   0.6612   0.6494   2.4640  -0.3366   0.9131  -0.9089 -29835.00    0.0
2018/11/05 00:38:15.000  -74.525910414  163.457817950    25.6562   5  11   0.6611   0.6493   2.4679  -0.3373   0.9148  -0.9107 -29820.00    0.0
2018/11/05 00:38:30.000  -74.525909092  163.457814553    25.9105   5  11   0.6611   0.6492   2.4720  -0.3381   0.9166  -0.9126 -29805.00    0.0
2018/11/05 00:38:45.000  -74.525910034  163.457818045    25.6328   5  11   0.6612   0.6493   2.4763  -0.3389   0.9186  -0.9146 -29790.00    0.0
2018/11/05 00:39:00.000  -74.525908565  163.457812423    25.2991   5  11   0.6614   0.6494   2.4808  -0.3397   0.9206  -0.9166 -29775.00    0.0
2018/11/05 00:39:15.000  -74.525909391  163.457810621    25.2837   5  11   0.6616   0.6496   2.4855  -0.3406   0.9227  -0.9188 -29760.00    0.0
2018/11/05 00:39:30.000  -74.525909080  163.457802256    24.8659   5  11   0.6619   0.6498   2.4904  -0.3415   0.9248  -0.9210 -29745.00    0.0
2018/11/05 00:39:45.000  -74.525907896  163.457807125    24.8562   5  11   0.6622   0.6502   2.4955  -0.3425   0.9271  -0.9233 -29730.00    0.0
2018/11/05 00:40:00.000  -74.525905603  163.457812157    24.9305   5  11   0.6627   0.6506   2.5009  -0.3435   0.9295  -0.9256 -29715.00    0.0
2018/11/05 00:40:15.000  -74.525904796  163.457807338    23.8106   5  11   0.6632   0.6512   2.5066  -0.3446   0.9320  -0.9281 -29700.00    0.0
2018/11/05 00:40:30.000  -74.525908099  163.457804507    25.0276   5  11   0.6638   0.6518   2.5124  -0.3457   0.9347  -0.9307 -29685.00    0.0
2018/11/05 00:40:45.000  -74.525909367  163.457806138    24.6129   5  11   0.6644   0.6526   2.5185  -0.3469   0.9374  -0.9333 -29670.00    0.0
2018/11/05 00:41:00.000  -74.525906997  163.457809464    24.8575   5  11   0.6652   0.6533   2.5248  -0.3481   0.9401  -0.9360 -29655.00    0.0
2018/11/05 00:41:15.000  -74.525907229  163.457806693    25.2114   5  11   0.6660   0.6542   2.5312  -0.3493   0.9430  -0.9388 -29640.00    0.0
2018/11/05 00:41:30.000  -74.525905713  163.457812647    24.7161   5  11   0.6668   0.6552   2.5379  -0.3506   0.9459  -0.9416 -29625.00    0.0
2018/11/05 00:41:45.000  -74.525908684  163.457819219    26.3982   5  11   0.6677   0.6562   2.5447  -0.3519   0.9490  -0.9445 -29610.00    0.0
2018/11/05 00:42:00.000  -74.525910228  163.457818856    26.8829   5  11   0.6687   0.6573   2.5517  -0.3533   0.9520  -0.9475 -29595.00    0.0
2018/11/05 00:42:15.000  -74.525908954  163.457810600    25.3370   5  11   0.6698   0.6585   2.5588  -0.3546   0.9552  -0.9505 -29580.00    0.0
2018/11/05 00:42:30.000  -74.525908322  163.457824666    25.4496   5  11   0.6709   0.6597   2.5662  -0.3560   0.9584  -0.9535 -29565.00    0.0
2018/11/05 00:42:45.000  -74.525910852  163.457818637    25.7918   5  11   0.6707   0.6592   2.5675  -0.3563   0.9588  -0.9546 -29550.00    0.0
2018/11/05 00:43:00.000  -74.525911785  163.457816900    26.0078   5  11   0.6705   0.6588   2.5691  -0.3567   0.9594  -0.9557 -29535.00    0.0
2018/11/05 00:43:15.000  -74.525911489  163.457815761    25.7339   5  11   0.6705   0.6584   2.5709  -0.3570   0.9601  -0.9569 -29520.00    0.0
2018/11/05 00:43:30.000  -74.525908669  163.457815516    24.6749   5  11   0.6705   0.6582   2.5728  -0.3574   0.9608  -0.9581 -29505.00    0.0
2018/11/05 00:43:45.000  -74.525912038  163.457821550    25.1883   5  11   0.6705   0.6580   2.5749  -0.3579   0.9616  -0.9594 -29490.00    0.0
2018/11/05 00:44:00.000  -74.525909641  163.457824228    25.1594   5  11   0.6707   0.6578   2.5772  -0.3584   0.9624  -0.9608 -29475.00    0.0
2018/11/05 00:44:15.000  -74.525910922  163.457815627    25.5835   5  11   0.6708   0.6578   2.5796  -0.3589   0.9634  -0.9622 -29460.00    0.0
2018/11/05 00:44:30.000  -74.525909628  163.457814425    24.9209   5  11   0.6711   0.6578   2.5821  -0.3594   0.9643  -0.9637 -29445.00    0.0
2018/11/05 00:44:45.000  -74.525911885  163.457813304    24.9687   5  11   0.6714   0.6579   2.5848  -0.3600   0.9654  -0.9652 -29430.00    0.0
2018/11/05 00:45:00.000  -74.525911362  163.457811566    24.8465   5  11   0.6718   0.6581   2.5877  -0.3606   0.9665  -0.9667 -29415.00    0.0
2018/11/05 00:45:15.000  -74.525910399  163.457807027    24.6526   5  11   0.6722   0.6583   2.5908  -0.3612   0.9677  -0.9684 -29400.00    0.0
2018/11/05 00:45:30.000  -74.525909655  163.457806488    24.4895   5  11   0.6727   0.6587   2.5940  -0.3619   0.9690  -0.9701 -29385.00    0.0
2018/11/05 00:45:45.000  -74.525909076  163.457806875    24.6749   5  11   0.6733   0.6591   2.5974  -0.3626   0.9703  -0.9718 -29370.00    0.0
2018/11/05 00:46:00.000  -74.525911352  163.457812761    25.2699   5  11   0.6739   0.6596   2.6009  -0.3633   0.9717  -0.9736 -29355.00    0.0
2018/11/05 00:46:15.000  -74.525910418  163.457814607    25.0785   5  11   0.6746   0.6601   2.6045  -0.3641   0.9731  -0.9754 -29340.00    0.0
2018/11/05 00:46:30.000  -74.525912293  163.457813702    25.6896   5  11   0.6754   0.6607   2.6083  -0.3648   0.9745  -0.9772 -29325.00    0.0
2018/11/05 00:46:45.000  -74.525913193  163.457813996    25.3105   5  11   0.6762   0.6614   2.6122  -0.3656   0.9760  -0.9791 -29310.00    0.0
2018/11/05 00:47:00.000  -74.525911592  163.457812305    24.9147   5  11   0.6771   0.6621   2.6162  -0.3664   0.9775  -0.9810 -29295.00    0.0
2018/11/05 00:47:15.000  -74.525913016  163.457811416    24.8562   5  11   0.6780   0.6629   2.6203  -0.3673   0.9791  -0.9830 -29280.00    0.0
2018/11/05 00:47:30.000  -74.525912969  163.457816913    26.0505   5  11   0.6790   0.6638   2.6245  -0.3681   0.9807  -0.9850 -29265.00    0.0
2018/11/05 00:47:45.000  -74.525910849  163.457812391    24.8886   5  11   0.6787   0.6629   2.6230  -0.3679   0.9798  -0.9851 -29250.00    0.0
2018/11/05 00:48:00.000  -74.525914758  163.457812466    25.8815   5  11   0.6784   0.6622   2.6216  -0.3677   0.9789  -0.9852 -29235.00    0.0
2018/11/05 00:48:15.000  -74.525913424  163.457816192    26.3323   5  11   0.6782   0.6615   2.6202  -0.3676   0.9780  -0.9853 -29220.00    0.0
2018/11/05 00:48:30.000  -74.525914314  163.457817208    25.7696   5  11   0.6781   0.6609   2.6190  -0.3675   0.9772  -0.9855 -29205.00    0.0
2018/11/05 00:48:45.000  -74.525914217  163.457821046    26.0192   5  11   0.6780   0.6603   2.6179  -0.3674   0.9764  -0.9857 -29190.00    0.0
2018/11/05 00:49:00.000  -74.525911837  163.457809641    25.8372   5  11   0.6780   0.6599   2.6170  -0.3673   0.9757  -0.9859 -29175.00    0.0
2018/11/05 00:49:15.000  -74.525913863  163.457810865    25.3678   5  11   0.6780   0.6594   2.6161  -0.3673   0.9750  -0.9862 -29160.00    0.0
2018/11/05 00:49:30.000  -74.525914325  163.457818344    25.7856   5  11   0.6781   0.6591   2.6153  -0.3672   0.9744  -0.9865 -29145.00    0.0
2018/11/05 00:49:45.000  -74.525912775  163.457812664    25.6169   5  11   0.6783   0.6588   2.6147  -0.3672   0.9738  -0.9868 -29130.00    0.0
2018/11/05 00:50:00.000  -74.525911928  163.457810515    25.7197   5  11   0.6785   0.6586   2.6142  -0.3672   0.9732  -0.9872 -29115.00    0.0
2018/11/05 00:50:15.000  -74.525912215  163.457812021    25.5379   5  11   0.6788   0.6584   2.6139  -0.3673   0.9728  -0.9876 -29100.00    0.0
2018/11/05 00:50:30.000  -74.525912469  163.457809392    25.2833   5  11   0.6791   0.6584   2.6137  -0.3673   0.9723  -0.9881 -29085.00    0.0
2018/11/05 00:50:45.000  -74.525912193  163.457814402    25.3269   5  11   0.6795   0.6584   2.6137  -0.3674   0.9719  -0.9886 -29070.00    0.0
2018/11/05 00:51:00.000  -74.525911870  163.457812448    25.0730   5  11   0.6800   0.6584   2.6137  -0.3675   0.9715  -0.9891 -29055.00    0.0
2018/11/05 00:51:15.000  -74.525912926  163.457821174    26.0180   5  11   0.6805   0.6585   2.6139  -0.3676   0.9712  -0.9897 -29040.00    0.0
2018/11/05 00:51:30.000  -74.525912652  163.457813888    25.7753   5  11   0.6810   0.6587   2.6141  -0.3677   0.9708  -0.9902 -29025.00    0.0
2018/11/05 00:51:45.000  -74.525913115  163.457814414    25.6912   5  11   0.6816   0.6589   2.6145  -0.3678   0.9705  -0.9908 -29010.00    0.0
2018/11/05 00:52:00.000  -74.525913316  163.457813409    26.0423   5  11   0.6823   0.6592   2.6149  -0.3680   0.9702  -0.9914 -28995.00    0.0
2018/11/05 00:52:15.000  -74.525914051  163.457816536    26.0308   5  11   0.6830   0.6596   2.6155  -0.3681   0.9700  -0.9921 -28980.00    0.0
2018/11/05 00:52:30.000  -74.525910860  163.457812418    25.9516   5  11   0.6838   0.6600   2.6161  -0.3683   0.9697  -0.9927 -28965.00    0.0
2018/11/05 00:52:45.000  -74.525911827  163.457819175    26.6010   5  11   0.6833   0.6588   2.6112  -0.3675   0.9672  -0.9916 -28950.00    0.0
2018/11/05 00:53:00.000  -74.525913360  163.457818020    26.8896   5  11   0.6829   0.6577   2.6064  -0.3667   0.9646  -0.9905 -28935.00    0.0
2018/11/05 00:53:15.000  -74.525911518  163.457814136    26.0538   5  11   0.6825   0.6566   2.6017  -0.3660   0.9621  -0.9894 -28920.00    0.0
2018/11/05 00:53:30.000  -74.525914344  163.457817505    26.2329   5  11   0.6822   0.6557   2.5971  -0.3653   0.9597  -0.9883 -28905.00    0.0
2018/11/05 00:53:45.000  -74.525914700  163.457819111    26.9794   5  11   0.6819   0.6547   2.5926  -0.3646   0.9573  -0.9873 -28890.00    0.0
2018/11/05 00:54:00.000  -74.525912950  163.457816771    25.8979   5  11   0.6817   0.6539   2.5883  -0.3639   0.9549  -0.9863 -28875.00    0.0
2018/11/05 00:54:15.000  -74.525915019  163.457813076    25.6060   5  11   0.6816   0.6531   2.5841  -0.3632   0.9526  -0.9854 -28860.00    0.0
2018/11/05 00:54:30.000  -74.525914979  163.457818050    27.5236   5  11   0.6815   0.6524   2.5800  -0.3626   0.9503  -0.9844 -28845.00    0.0
2018/11/05 00:54:45.000  -74.525913592  163.457815150    26.9387   5  11   0.6814   0.6517   2.5761  -0.3619   0.9480  -0.9835 -28830.00    0.0
2018/11/05 00:55:00.000  -74.525913718  163.457814813    26.2694   5  11   0.6814   0.6511   2.5722  -0.3613   0.9458  -0.9827 -28815.00    0.0
2018/11/05 00:55:15.000  -74.525913818  163.457815252    25.7620   5  11   0.6815   0.6506   2.5687  -0.3607   0.9436  -0.9819 -28800.00    0.0
2018/11/05 00:55:30.000  -74.525915314  163.457826314    26.7465   5  11   0.6817   0.6501   2.5652  -0.3602   0.9415  -0.9811 -28785.00    0.0
2018/11/05 00:55:45.000  -74.525914257  163.457813265    26.2491   5  11   0.6819   0.6498   2.5619  -0.3596   0.9394  -0.9803 -28770.00    0.0
2018/11/05 00:56:00.000  -74.525914739  163.457818421    26.6143   5  11   0.6821   0.6494   2.5587  -0.3590   0.9374  -0.9796 -28755.00    0.0
2018/11/05 00:56:15.000  -74.525914577  163.457814421    25.9980   5  11   0.6824   0.6492   2.5557  -0.3585   0.9354  -0.9789 -28740.00    0.0
2018/11/05 00:56:30.000  -74.525916160  163.457817791    27.1113   5  11   0.6828   0.6490   2.5527  -0.3580   0.9334  -0.9783 -28725.00    0.0
2018/11/05 00:56:45.000  -74.525916767  163.457817063    27.0936   5  11   0.6832   0.6489   2.5499  -0.3575   0.9314  -0.9777 -28710.00    0.0
2018/11/05 00:57:00.000  -74.525913425  163.457818608    26.4194   5  11   0.6836   0.6488   2.5473  -0.3569   0.9295  -0.9771 -28695.00    0.0
2018/11/05 00:57:15.000  -74.525914083  163.457815060    26.3630   5  11   0.6841   0.6488   2.5448  -0.3564   0.9276  -0.9765 -28680.00    0.0
2018/11/05 00:57:30.000  -74.525914891  163.457815883    27.0032   5  11   0.6847   0.6488   2.5424  -0.3560   0.9257  -0.9759 -28665.00    0.0
2018/11/05 00:57:45.000  -74.525914456  163.457812222    25.9095   5  11   0.6841   0.6474   2.5346  -0.3547   0.9218  -0.9737 -28650.00    0.0
2018/11/05 00:58:00.000  -74.525915100  163.457817557    25.4279   5  11   0.6835   0.6460   2.5271  -0.3534   0.9179  -0.9716 -28635.00    0.0
2018/11/05 00:58:15.000  -74.525914756  163.457810915    26.1323   5  11   0.6830   0.6447   2.5197  -0.3521   0.9140  -0.9695 -28620.00    0.0
2018/11/05 00:58:30.000  -74.525914414  163.457810564    25.9095   5  11   0.6825   0.6435   2.5125  -0.3509   0.9102  -0.9674 -28605.00    0.0
2018/11/05 00:58:45.000  -74.525905326  163.457809743    22.4906   5  10   0.9294   0.6747   3.5620  -0.5027   1.1596  -1.5907 -28590.00    0.0
2018/11/05 00:59:00.000  -74.525906785  163.457798140    22.4993   5  10   0.9282   0.6732   3.5517  -0.5006   1.1544  -1.5869 -28575.00    0.0
2018/11/05 00:59:15.000  -74.525909180  163.457804802    23.0688   5  10   0.9271   0.6717   3.5415  -0.4986   1.1492  -1.5832 -28560.00    0.0
2018/11/05 00:59:30.000  -74.525905879  163.457810159    22.5925   5  10   0.9261   0.6703   3.5314  -0.4965   1.1441  -1.5795 -28545.00    0.0
2018/11/05 00:59:45.000  -74.525906533  163.457808449    23.0609   5  10   0.9251   0.6690   3.5215  -0.4945   1.1389  -1.5758 -28530.00    0.0
2018/11/05 01:00:00.000  -74.525903990  163.457796565    22.1040   5  10   0.9241   0.6678   3.5117  -0.4925   1.1338  -1.5722 -28515.00    0.0
2018/11/05 01:00:15.000  -74.525906801  163.457812664    22.6586   5  10   0.9233   0.6666   3.5022  -0.4905   1.1288  -1.5687 -28500.00    0.0
2018/11/05 01:00:30.000  -74.525905312  163.457804748    22.4587   5  10   0.9225   0.6655   3.4930  -0.4885   1.1237  -1.5653 -28485.00    0.0
2018/11/05 01:00:45.000  -74.525908074  163.457810255    23.2804   5  10   0.9218   0.6645   3.4839  -0.4866   1.1188  -1.5620 -28470.00    0.0
2018/11/05 01:01:00.000  -74.525903186  163.457809598    21.9575   5  10   0.9212   0.6635   3.4750  -0.4846   1.1138  -1.5587 -28455.00    0.0
2018/11/05 01:01:15.000  -74.525906341  163.457804295    22.5280   5  10   0.9206   0.6626   3.4663  -0.4826   1.1089  -1.5555 -28440.00    0.0
2018/11/05 01:01:30.000  -74.525907498  163.457804433    23.1849   5  10   0.9201   0.6618   3.4578  -0.4807   1.1040  -1.5524 -28425.00    0.0
2018/11/05 01:01:45.000  -74.525906117  163.457814976    22.4502   5  10   0.9196   0.6610   3.4495  -0.4787   1.0991  -1.5493 -28410.00    0.0
2018/11/05 01:02:00.000  -74.525906891  163.457807460    22.4797   5  10   0.9193   0.6603   3.4414  -0.4768   1.0943  -1.5464 -28395.00    0.0
2018/11/05 01:02:15.000  -74.525905048  163.457810595    22.2467   5  10   0.9189   0.6597   3.4336  -0.4749   1.0895  -1.5435 -28380.00    0.0
2018/11/05 01:02:30.000  -74.525904378  163.457802561    21.9128   5   9   0.9227   0.6592   3.6814  -0.4720   1.0784  -1.5778 -28365.00    0.0
2018/11/05 01:02:45.000  -74.525907358  163.457812575    21.6900   5   9   0.9203   0.6570   3.6651  -0.4687   1.0705  -1.5711 -28350.00    0.0
2018/11/05 01:03:00.000  -74.525906830  163.457800065    21.0036   5   9   0.9179   0.6549   3.6491  -0.4654   1.0627  -1.5646 -28335.00    0.0
2018/11/05 01:03:15.000  -74.525908801  163.457812130    22.7230   5   9   0.9157   0.6529   3.6334  -0.4621   1.0549  -1.5581 -28320.00    0.0
2018/11/05 01:03:30.000  -74.525905114  163.457808453    21.7079   5   9   0.9135   0.6510   3.6179  -0.4589   1.0472  -1.5518 -28305.00    0.0
2018/11/05 01:03:45.000  -74.525905431  163.457807069    21.4808   5   9   0.9114   0.6492   3.6027  -0.4557   1.0395  -1.5456 -28290.00    0.0
2018/11/05 01:04:00.000  -74.525906648  163.457811958    22.9226   5   9   0.9094   0.6475   3.5878  -0.4525   1.0319  -1.5394 -28275.00    0.0
2018/11/05 01:04:15.000  -74.525906473  163.457805404    20.4192   5   9   0.9075   0.6458   3.5733  -0.4493   1.0243  -1.5334 -28260.00    0.0
2018/11/05 01:04:30.000  -74.525908798  163.457804144    22.6821   5   9   0.9057   0.6442   3.5590  -0.4462   1.0169  -1.5275 -28245.00    0.0
2018/11/05 01:04:45.000  -74.525908569  163.457817503    22.9926   5   9   0.9039   0.6427   3.5451  -0.4431   1.0094  -1.5218 -28230.00    0.0
2018/11/05 01:05:00.000  -74.525907902  163.457817900    21.3038   5   9   0.9023   0.6413   3.5316  -0.4400   1.0021  -1.5162 -28215.00    0.0
2018/11/05 01:05:15.000  -74.525909720  163.457811983    22.4078   5   9   0.9007   0.6400   3.5187  -0.4370   0.9948  -1.5108 -28200.00    0.0
2018/11/05 01:05:30.000  -74.525913315  163.457816993    24.9103   5  10   0.7431   0.6351   2.6679  -0.3920   0.9053  -1.0556 -28185.00    0.0
2018/11/05 01:05:45.000  -74.525910886  163.457814417    24.4827   5  10   0.7430   0.6342   2.6641  -0.3908   0.9017  -1.0542 -28170.00    0.0
2018/11/05 01:06:00.000  -74.525912328  163.457814885    25.4530   5  10   0.7429   0.6335   2.6604  -0.3897   0.8983  -1.0527 -28155.00    0.0
2018/11/05 01:06:15.000  -74.525915025  163.457812865    25.4967   5  10   0.7430   0.6328   2.6570  -0.3886   0.8948  -1.0514 -28140.00    0.0
2018/11/05 01:06:30.000  -74.525913365  163.457812528    23.7200   5  10   0.7430   0.6321   2.6539  -0.3875   0.8915  -1.0501 -28125.00    0.0
2018/11/05 01:06:45.000  -74.525914039  163.457813414    25.1588   5  10   0.7432   0.6316   2.6510  -0.3864   0.8881  -1.0489 -28110.00    0.0
2018/11/05 01:07:00.000  -74.525911552  163.457808439    23.8715   5  10   0.7434   0.6311   2.6483  -0.3854   0.8849  -1.0477 -28095.00    0.0
2018/11/05 01:07:15.000  -74.525913765  163.457803253    23.7358   5  10   0.7437   0.6307   2.6459  -0.3844   0.8816  -1.0466 -28080.00    0.0
2018/11/05 01:07:30.000  -74.525908934  163.457805555    23.9212   5  10   0.7440   0.6303   2.6437  -0.3834   0.8784  -1.0456 -28065.00    0.0
2018/11/05 01:07:45.000  -74.525914951  163.457808735    25.0723   5  10   0.7430   0.6285   2.6348  -0.3815   0.8731  -1.0425 -28050.00    0.0
2018/11/05 01:08:00.000  -74.525912549  163.457805239    24.1751   5  10   0.7420   0.6268   2.6262  -0.3796   0.8679  -1.0394 -28035.00    0.0
2018/11/05 01:08:15.000  -74.525911244  163.457812228    23.7050   5  10   0.7411   0.6252   2.6178  -0.3777   0.8627  -1.0364 -28020.00    0.0
2018/11/05 01:08:30.000  -74.525915064  163.457807878    25.3976   5  10   0.7402   0.6236   2.6096  -0.3759   0.8576  -1.0335 -28005.00    0.0
2018/11/05 01:08:45.000  -74.525911886  163.457811140    22.9270   5  10   0.7394   0.6222   2.6017  -0.3741   0.8525  -1.0306 -27990.00    0.0
2018/11/05 01:09:00.000  -74.525915421  163.457815380    25.1164   5  10   0.7387   0.6208   2.5940  -0.3723   0.8475  -1.0278 -27975.00    0.0
2018/11/05 01:09:15.000  -74.525915950  163.457814714    25.0796   5  10   0.7380   0.6194   2.5866  -0.3706   0.8426  -1.0251 -27960.00    0.0
2018/11/05 01:09:30.000  -74.525913141  163.457806004    24.7957   5  10   0.7375   0.6182   2.5795  -0.3689   0.8377  -1.0225 -27945.00    0.0
2018/11/05 01:09:45.000  -74.525913948  163.457813029    24.3086   5  10   0.7370   0.6170   2.5727  -0.3673   0.8329  -1.0200 -27930.00    0.0
2018/11/05 01:10:00.000  -74.525911166  163.457808233    24.3435   5  10   0.7365   0.6159   2.5662  -0.3656   0.8282  -1.0175 -27915.00    0.0
2018/11/05 01:10:15.000  -74.525913198  163.457813909    24.5830   5  10   0.7362   0.6149   2.5601  -0.3641   0.8236  -1.0152 -27900.00    0.0
2018/11/05 01:10:30.000  -74.525914286  163.457808143    25.1923   5  10   0.7359   0.6140   2.5543  -0.3625   0.8190  -1.0129 -27885.00    0.0
2018/11/05 01:10:45.000  -74.525915312  163.457804655    24.7843   5  10   0.7357   0.6131   2.5488  -0.3610   0.8145  -1.0107 -27870.00    0.0
2018/11/05 01:11:00.000  -74.525914005  163.457809300    25.0190   5  10   0.7356   0.6124   2.5436  -0.3595   0.8101  -1.0086 -27855.00    0.0
2018/11/05 01:11:15.000  -74.525914541  163.457814582    24.3504   5  10   0.7355   0.6117   2.5387  -0.3581   0.8057  -1.0066 -27840.00    0.0
2018/11/05 01:11:30.000  -74.525912639  163.457806814    23.2905   5  10   0.7355   0.6110   2.5341  -0.3567   0.8014  -1.0047 -27825.00    0.0
2018/11/05 01:11:45.000  -74.525912997  163.457812572    23.7948   5  10   0.7356   0.6105   2.5299  -0.3553   0.7971  -1.0029 -27810.00    0.0
2018/11/05 01:12:00.000  -74.525912744  163.457806314    23.8259   5  10   0.7357   0.6100   2.5259  -0.3540   0.7929  -1.0011 -27795.00    0.0
2018/11/05 01:12:15.000  -74.525912223  163.457809823    23.6060   5  10   0.7359   0.6096   2.5223  -0.3526   0.7888  -0.9995 -27780.00    0.0
2018/11/05 01:12:30.000  -74.525913100  163.457803895    23.8429   5  10   0.7362   0.6093   2.5190  -0.3514   0.7847  -0.9979 -27765.00    0.0
2018/11/05 01:12:45.000  -74.525913785  163.457813388    24.2348   5  10   0.7351   0.6076   2.5087  -0.3492   0.7788  -0.9942 -27750.00    0.0
2018/11/05 01:13:00.000  -74.525914300  163.457806947    23.7348   5  10   0.7341   0.6060   2.4988  -0.3471   0.7728  -0.9907 -27735.00    0.0
2018/11/05 01:13:15.000  -74.525913612  163.457818053    24.7441   5  10   0.7331   0.6045   2.4893  -0.3451   0.7670  -0.9872 -27720.00    0.0
2018/11/05 01:13:30.000  -74.525914212  163.457814337    24.3513   5  10   0.7323   0.6031   2.4800  -0.3431   0.7612  -0.9838 -27705.00    0.0
2018/11/05 01:13:45.000  -74.525913739  163.457814542    24.8049   5  10   0.7315   0.6017   2.4711  -0.3411   0.7556  -0.9806 -27690.00    0.0
2018/11/05 01:14:00.000  -74.525913874  163.457809759    24.3584   5  10   0.7307   0.6004   2.4626  -0.3391   0.7500  -0.9774 -27675.00    0.0
2018/11/05 01:14:15.000  -74.525916521  163.457809068    25.1440   5  10   0.7301   0.5992   2.4543  -0.3372   0.7444  -0.9743 -27660.00    0.0
2018/11/05 01:14:30.000  -74.525914894  163.457822381    25.4722   5  10   0.7295   0.5981   2.4464  -0.3354   0.7390  -0.9713 -27645.00    0.0
2018/11/05 01:14:45.000  -74.525914899  163.457815604    25.3779   5  10   0.7290   0.5971   2.4389  -0.3335   0.7336  -0.9684 -27630.00    0.0
2018/11/05 01:15:00.000  -74.525912950  163.457808243    24.0946   5  10   0.7286   0.5961   2.4317  -0.3317   0.7283  -0.9657 -27615.00    0.0
2018/11/05 01:15:15.000  -74.525915696  163.457813420    24.1348   5  10   0.7282   0.5952   2.4250  -0.3300   0.7231  -0.9630 -27600.00    0.0
2018/11/05 01:15:30.000  -74.525914617  163.457817294    25.4241   5  10   0.7280   0.5944   2.4187  -0.3283   0.7180  -0.9605 -27585.00    0.0
2018/11/05 01:15:45.000  -74.525914046  163.457808878    24.3249   5  10   0.7278   0.5937   2.4127  -0.3266   0.7129  -0.9581 -27570.00    0.0
2018/11/05 01:16:00.000  -74.525912003  163.457811875    24.7971   5  10   0.7276   0.5931   2.4070  -0.3250   0.7079  -0.9557 -27555.00    0.0
2018/11/05 01:16:15.000  -74.525914735  163.457809879    24.4778   5  10   0.7276   0.5926   2.4018  -0.3234   0.7030  -0.9535 -27540.00    0.0
2018/11/05 01:16:30.000  -74.525913479  163.457810401    24.2582   5  10   0.7276   0.5921   2.3969  -0.3218   0.6981  -0.9514 -27525.00    0.0
2018/11/05 01:16:45.000  -74.525913764  163.457810384    23.9492   5  10   0.7277   0.5917   2.3923  -0.3203   0.6933  -0.9493 -27510.00    0.0
2018/11/05 01:17:00.000  -74.525914416  163.457807028    23.3547   5  10   0.7279   0.5914   2.3881  -0.3188   0.6885  -0.9474 -27495.00    0.0
2018/11/05 01:17:15.000  -74.525915582  163.457814009    25.5236   5  10   0.7281   0.5911   2.3843  -0.3173   0.6838  -0.9456 -27480.00    0.0
2018/11/05 01:17:30.000  -74.525914361  163.457814951    24.5861   5  10   0.7284   0.5909   2.3808  -0.3159   0.6792  -0.9438 -27465.00    0.0
2018/11/05 01:17:45.000  -74.525912719  163.457815169    24.8335   5  10   0.7274   0.5895   2.3706  -0.3137   0.6729  -0.9401 -27450.00    0.0
2018/11/05 01:18:00.000  -74.525912889  163.457802104    23.8908   5  10   0.7265   0.5881   2.3606  -0.3116   0.6667  -0.9365 -27435.00    0.0
2018/11/05 01:18:15.000  -74.525913433  163.457809810    24.0914   5  10   0.7256   0.5869   2.3510  -0.3095   0.6606  -0.9330 -27420.00    0.0
2018/11/05 01:18:30.000  -74.525914767  163.457811874    23.8311   5  10   0.7248   0.5856   2.3418  -0.3074   0.6546  -0.9296 -27405.00    0.0
2018/11/05 01:18:45.000  -74.525913267  163.457809988    24.1259   5  10   0.7241   0.5845   2.3330  -0.3054   0.6486  -0.9263 -27390.00    0.0
2018/11/05 01:19:00.000  -74.525914064  163.457810574    25.0956   5  10   0.7234   0.5835   2.3245  -0.3034   0.6427  -0.9232 -27375.00    0.0
2018/11/05 01:19:15.000  -74.525911886  163.457811159    24.2904   5  10   0.7229   0.5825   2.3164  -0.3014   0.6369  -0.9201 -27360.00    0.0
2018/11/05 01:19:30.000  -74.525914215  163.457815072    24.0257   5  10   0.7224   0.5816   2.3087  -0.2995   0.6311  -0.9171 -27345.00    0.0
2018/11/05 01:19:45.000  -74.525914097  163.457812630    24.2039   5  10   0.7219   0.5808   2.3014  -0.2976   0.6254  -0.9143 -27330.00    0.0
2018/11/05 01:20:00.000  -74.525912630  163.457804111    24.8317   5  10   0.7216   0.5801   2.2944  -0.2958   0.6198  -0.9116 -27315.00    0.0
2018/11/05 01:20:15.000  -74.525914318  163.457812231    25.3560   5  10   0.7213   0.5794   2.2880  -0.2940   0.6143  -0.9090 -27300.00    0.0
2018/11/05 01:20:30.000  -74.525912107  163.457806829    24.5153   5  10   0.7211   0.5789   2.2820  -0.2922   0.6088  -0.9065 -27285.00    0.0
2018/11/05 01:20:45.000  -74.525913726  163.457802498    23.9145   5  10   0.7210   0.5784   2.2764  -0.2905   0.6033  -0.9041 -27270.00    0.0
2018/11/05 01:21:00.000  -74.525914910  163.457810896    24.5290   5  10   0.7210   0.5780   2.2711  -0.2888   0.5980  -0.9019 -27255.00    0.0
2018/11/05 01:21:15.000  -74.525916150  163.457807016    24.9333   5  10   0.7210   0.5777   2.2662  -0.2871   0.5926  -0.8997 -27240.00    0.0
2018/11/05 01:21:30.000  -74.525915174  163.457806194    25.1203   5  10   0.7211   0.5774   2.2617  -0.2855   0.5873  -0.8977 -27225.00    0.0
2018/11/05 01:21:45.000  -74.525911798  163.457811038    23.8068   5  10   0.7213   0.5772   2.2576  -0.2839   0.5821  -0.8957 -27210.00    0.0
2018/11/05 01:22:00.000  -74.525914434  163.457804628    24.1568   5  10   0.7216   0.5771   2.2539  -0.2824   0.5768  -0.8939 -27195.00    0.0
2018/11/05 01:22:15.000  -74.525913466  163.457806666    23.5215   5  10   0.7219   0.5771   2.2505  -0.2808   0.5716  -0.8921 -27180.00    0.0
2018/11/05 01:22:30.000  -74.525917136  163.457808620    23.9018   5  10   0.7223   0.5772   2.2475  -0.2793   0.5665  -0.8905 -27165.00    0.0
2018/11/05 01:22:45.000  -74.525914205  163.457815393    24.3371   5  10   0.7214   0.5760   2.2378  -0.2771   0.5600  -0.8870 -27150.00    0.0
2018/11/05 01:23:00.000  -74.525913822  163.457803860    23.7491   5  10   0.7206   0.5749   2.2285  -0.2750   0.5536  -0.8836 -27135.00    0.0
2018/11/05 01:23:15.000  -74.525910350  163.457802115    23.8428   5  10   0.7198   0.5739   2.2196  -0.2729   0.5473  -0.8804 -27120.00    0.0
2018/11/05 01:23:30.000  -74.525913835  163.457802640    24.1922   5  10   0.7192   0.5729   2.2111  -0.2709   0.5411  -0.8772 -27105.00    0.0
2018/11/05 01:23:45.000  -74.525915298  163.457802483    23.6269   5  10   0.7186   0.5721   2.2030  -0.2689   0.5349  -0.8742 -27090.00    0.0
2018/11/05 01:24:00.000  -74.525916199  163.457809081    24.3512   5  10   0.7180   0.5713   2.1952  -0.2669   0.5287  -0.8713 -27075.00    0.0
2018/11/05 01:24:15.000  -74.525913612  163.457804011    23.8059   5  10   0.7176   0.5706   2.1879  -0.2649   0.5226  -0.8685 -27060.00    0.0
2018/11/05 01:24:30.000  -74.525915329  163.457806599    23.3792   5  10   0.7172   0.5700   2.1810  -0.2630   0.5165  -0.8658 -27045.00    0.0
2018/11/05 01:24:45.000  -74.525913416  163.457807675    23.7475   5  10   0.7169   0.5694   2.1744  -0.2612   0.5105  -0.8632 -27030.00    0.0
2018/11/05 01:25:00.000  -74.525910882  163.457804758    23.7343   5  10   0.7167   0.5689   2.1683  -0.2593   0.5045  -0.8607 -27015.00    0.0
2018/11/05 01:25:15.000  -74.525914846  163.457808779    23.5360   5  10   0.7166   0.5686   2.1626  -0.2575   0.4985  -0.8584 -27000.00    0.0
2018/11/05 01:25:30.000  -74.525914577  163.457804915    23.2010   5  10   0.7165   0.5683   2.1574  -0.2557   0.4926  -0.8561 -26985.00    0.0
2018/11/05 01:25:45.000  -74.525912623  163.457809057    24.0671   5  10   0.7165   0.5680   2.1525  -0.2540   0.4866  -0.8540 -26970.00    0.0
2018/11/05 01:26:00.000  -74.525914342  163.457809952    24.4631   5  10   0.7166   0.5679   2.1480  -0.2523   0.4807  -0.8520 -26955.00    0.0
2018/11/05 01:26:15.000  -74.525913133  163.457810090    24.6021   5  10   0.7167   0.5678   2.1440  -0.2506   0.4748  -0.8501 -26940.00    0.0
2018/11/05 01:26:30.000  -74.525915230  163.457815914    24.7942   5  11   0.6190   0.5506   1.7989  -0.1089   0.2434  -0.5478 -26925.00    0.0
2018/11/05 01:26:45.000  -74.525915129  163.457810229    24.5680   5  11   0.6194   0.5510   1.7987  -0.1068   0.2359  -0.5471 -26910.00    0.0
2018/11/05 01:27:00.000  -74.525914924  163.457812022    24.5455   5  11   0.6198   0.5513   1.7988  -0.1047   0.2282  -0.5465 -26895.00    0.0
2018/11/05 01:27:15.000  -74.525916627  163.457815256    25.2655   5  11   0.6203   0.5518   1.7993  -0.1025   0.2202  -0.5460 -26880.00    0.0
2018/11/05 01:27:30.000  -74.525916184  163.457814102    25.0968   5  11   0.6208   0.5523   1.8000  -0.1003   0.2118  -0.5455 -26865.00    0.0
2018/11/05 01:27:45.000  -74.525916120  163.457811286    25.0191   5  11   0.6204   0.5517   1.7956  -0.0980   0.2037  -0.5445 -26850.00    0.0
2018/11/05 01:28:00.000  -74.525914805  163.457812708    24.0491   5  11   0.6200   0.5512   1.7914  -0.0955   0.1952  -0.5435 -26835.00    0.0
2018/11/05 01:28:15.000  -74.525915732  163.457812901    25.6150   5  11   0.6197   0.5507   1.7876  -0.0931   0.1864  -0.5426 -26820.00    0.0
2018/11/05 01:28:30.000  -74.525918848  163.457813117    24.8438   5  11   0.6195   0.5503   1.7840  -0.0905   0.1772  -0.5418 -26805.00    0.0
2018/11/05 01:28:45.000  -74.525914309  163.457817600    24.5309   5  11   0.6192   0.5499   1.7807  -0.0879   0.1674  -0.5410 -26790.00    0.0
2018/11/05 01:29:00.000  -74.525917214  163.457805494    25.1968   5  11   0.6191   0.5497   1.7777  -0.0853   0.1571  -0.5402 -26775.00    0.0
2018/11/05 01:29:15.000  -74.525917091  163.457811007    25.2153   5  11   0.6190   0.5494   1.7749  -0.0825   0.1460  -0.5394 -26760.00    0.0
2018/11/05 01:29:30.000  -74.525917295  163.457813732    25.4847   5  11   0.6189   0.5493   1.7725  -0.0797   0.1339  -0.5387 -26745.00    0.0
2018/11/05 01:29:45.000  -74.525918105  163.457803201    25.5711   5  11   0.6189   0.5492   1.7704  -0.0767   0.1206  -0.5380 -26730.00    0.0
2018/11/05 01:30:00.000  -74.525914214  163.457815573    24.3723   5  11   0.6190   0.5492   1.7686  -0.0737   0.1057  -0.5374 -26715.00    0.0
2018/11/05 01:30:15.000  -74.525918312  163.457810703    24.8835   5  12   0.6117   0.5267   1.7003  -0.1412  -0.2596  -0.5782 -26700.00    0.0
2018/11/05 01:30:30.000  -74.525916738  163.457809222    24.5812   5  12   0.6117   0.5268   1.7003  -0.1401  -0.2650  -0.5778 -26685.00    0.0
2018/11/05 01:30:45.000  -74.525915470  163.457807031    24.2727   5  12   0.6118   0.5270   1.7006  -0.1390  -0.2703  -0.5773 -26670.00    0.0
2018/11/05 01:31:00.000  -74.525917857  163.457805106    24.9135   5  12   0.6120   0.5273   1.7011  -0.1378  -0.2757  -0.5769 -26655.00    0.0
2018/11/05 01:31:15.000  -74.525916627  163.457808412    24.2570   5  12   0.6122   0.5276   1.7020  -0.1367  -0.2810  -0.5765 -26640.00    0.0
2018/11/05 01:31:30.000  -74.525917581  163.457811311    24.0290   5  12   0.6124   0.5280   1.7031  -0.1356  -0.2863  -0.5762 -26625.00    0.0
2018/11/05 01:31:45.000  -74.525916772  163.457808154    23.6271   5  12   0.6127   0.5284   1.7045  -0.1346  -0.2917  -0.5760 -26610.00    0.0
2018/11/05 01:32:00.000  -74.525916137  163.457807015    24.2122   5  12   0.6131   0.5289   1.7062  -0.1335  -0.2970  -0.5757 -26595.00    0.0
2018/11/05 01:32:15.000  -74.525916242  163.457815334    24.3436   5  12   0.6135   0.5294   1.7082  -0.1324  -0.3023  -0.5755 -26580.00    0.0
2018/11/05 01:32:30.000  -74.525915581  163.457812492    24.0654   5  12   0.6140   0.5301   1.7105  -0.1313  -0.3076  -0.5754 -26565.00    0.0
2018/11/05 01:32:45.000  -74.525917855  163.457808305    24.0606   5  12   0.6135   0.5296   1.7077  -0.1299  -0.3112  -0.5746 -26550.00    0.0
2018/11/05 01:33:00.000  -74.525917374  163.457810734    24.7561   5  12   0.6131   0.5293   1.7053  -0.1285  -0.3149  -0.5737 -26535.00    0.0
2018/11/05 01:33:15.000  -74.525916047  163.457805328    24.2704   5  12   0.6127   0.5289   1.7031  -0.1271  -0.3186  -0.5730 -26520.00    0.0
2018/11/05 01:33:30.000  -74.525914042  163.457815591    24.0053   5  12   0.6124   0.5287   1.7012  -0.1258  -0.3224  -0.5723 -26505.00    0.0
2018/11/05 01:33:45.000  -74.525913984  163.457815293    23.6849   5  12   0.6122   0.5285   1.6996  -0.1244  -0.3261  -0.5716 -26490.00    0.0
2018/11/05 01:34:00.000  -74.525916212  163.457812040    23.4527   5  12   0.6120   0.5283   1.6982  -0.1230  -0.3299  -0.5709 -26475.00    0.0
2018/11/05 01:34:15.000  -74.525914467  163.457809145    23.9534   5  12   0.6118   0.5282   1.6971  -0.1216  -0.3337  -0.5703 -26460.00    0.0
2018/11/05 01:34:30.000  -74.525914478  163.457808248    23.9774   5  12   0.6117   0.5282   1.6963  -0.1203  -0.3375  -0.5698 -26445.00    0.0
2018/11/05 01:34:45.000  -74.525916094  163.457803041    24.5512   5  12   0.6116   0.5283   1.6958  -0.1189  -0.3414  -0.5693 -26430.00    0.0
2018/11/05 01:35:00.000  -74.525913849  163.457806099    24.2146   5  12   0.6116   0.5284   1.6956  -0.1175  -0.3453  -0.5688 -26415.00    0.0
2018/11/05 01:35:15.000  -74.525915604  163.457806733    25.0644   5  12   0.6117   0.5285   1.6957  -0.1162  -0.3493  -0.5684 -26400.00    0.0
2018/11/05 01:35:30.000  -74.525913891  163.457811260    24.2838   5  12   0.6118   0.5288   1.6962  -0.1148  -0.3533  -0.5681 -26385.00    0.0
2018/11/05 01:35:45.000  -74.525915236  163.457807496    24.3374   5  12   0.6119   0.5291   1.6969  -0.1135  -0.3573  -0.5678 -26370.00    0.0
2018/11/05 01:36:00.000  -74.525914792  163.457807865    24.8256   5  12   0.6122   0.5295   1.6979  -0.1121  -0.3614  -0.5676 -26355.00    0.0
2018/11/05 01:36:15.000  -74.525916218  163.457809195    25.0123   5  12   0.6124   0.5299   1.6993  -0.1108  -0.3656  -0.5673 -26340.00    0.0
2018/11/05 01:36:30.000  -74.525916909  163.457805031    24.4652   5  12   0.6127   0.5304   1.7008  -0.1095  -0.3697  -0.5672 -26325.00    0.0
2018/11/05 01:36:45.000  -74.525914857  163.457800439    24.5561   5  12   0.6131   0.5309   1.7027  -0.1081  -0.3739  -0.5671 -26310.00    0.0
2018/11/05 01:37:00.000  -74.525918137  163.457806395    24.7931   5  12   0.6135   0.5315   1.7049  -0.1068  -0.3782  -0.5670 -26295.00    0.0
2018/11/05 01:37:15.000  -74.525914330  163.457811189    25.1001   5  12   0.6140   0.5322   1.7073  -0.1054  -0.3824  -0.5670 -26280.00    0.0
2018/11/05 01:37:30.000  -74.525915103  163.457809048    24.3312   5  12   0.6145   0.5329   1.7101  -0.1041  -0.3868  -0.5670 -26265.00    0.0
2018/11/05 01:37:45.000  -74.525916108  163.457807048    24.2660   5  12   0.6141   0.5326   1.7077  -0.1024  -0.3895  -0.5663 -26250.00    0.0
2018/11/05 01:38:00.000  -74.525917434  163.457805742    25.2149   5  12   0.6137   0.5323   1.7056  -0.1007  -0.3923  -0.5656 -26235.00    0.0
2018/11/05 01:38:15.000  -74.525914540  163.457809235    24.5577   5  12   0.6134   0.5321   1.7038  -0.0990  -0.3952  -0.5650 -26220.00    0.0
2018/11/05 01:38:30.000  -74.525915787  163.457805764    24.2384   5  12   0.6132   0.5319   1.7023  -0.0972  -0.3981  -0.5644 -26205.00    0.0
2018/11/05 01:38:45.000  -74.525916621  163.457807206    24.3164   5  12   0.6130   0.5319   1.7011  -0.0955  -0.4010  -0.5639 -26190.00    0.0
2018/11/05 01:39:00.000  -74.525916342  163.457800630    24.8172   5  12   0.6128   0.5318   1.7001  -0.0937  -0.4040  -0.5634 -26175.00    0.0
2018/11/05 01:39:15.000  -74.525918547  163.457812618    24.1663   5  12   0.6127   0.5318   1.6995  -0.0920  -0.4071  -0.5630 -26160.00    0.0
2018/11/05 01:39:30.000  -74.525916047  163.457810192    24.4122   5  12   0.6126   0.5319   1.6991  -0.0902  -0.4102  -0.5626 -26145.00    0.0
2018/11/05 01:39:45.000  -74.525916135  163.457807626    25.5646   5  12   0.6126   0.5321   1.6990  -0.0884  -0.4133  -0.5623 -26130.00    0.0
2018/11/05 01:40:00.000  -74.525917733  163.457802896    25.5124   5  12   0.6127   0.5323   1.6992  -0.0865  -0.4166  -0.5620 -26115.00    0.0
2018/11/05 01:40:15.000  -74.525915182  163.457804221    24.3582   5  12   0.6128   0.5326   1.6998  -0.0847  -0.4199  -0.5617 -26100.00    0.0
2018/11/05 01:40:30.000  -74.525914195  163.457811086    24.2343   5  12   0.6130   0.5329   1.7007  -0.0829  -0.4232  -0.5616 -26085.00    0.0
2018/11/05 01:40:45.000  -74.525915352  163.457804198    24.3821   5  12   0.6132   0.5333   1.7018  -0.0810  -0.4266  -0.5614 -26070.00    0.0
2018/11/05 01:41:00.000  -74.525914926  163.457802985    24.4885   5  12   0.6134   0.5338   1.7033  -0.0792  -0.4301  -0.5613 -26055.00    0.0
2018/11/05 01:41:15.000  -74.525914579  163.457805436    23.6894   5  12   0.6138   0.5343   1.7050  -0.0772  -0.4336  -0.5613 -26040.00    0.0
2018/11/05 01:41:30.000  -74.525914376  163.457813046    24.8985   5  12   0.6141   0.5349   1.7071  -0.0753  -0.4371  -0.5613 -26025.00    0.0
2018/11/05 01:41:45.000  -74.525914500  163.457806886    24.2278   5  12   0.6145   0.5355   1.7094  -0.0733  -0.4408  -0.5613 -26010.00    0.0
2018/11/05 01:42:00.000  -74.525914096  163.457803613    23.9117   5  12   0.6150   0.5362   1.7120  -0.0713  -0.4444  -0.5614 -25995.00    0.0
