% program   : RTKLIB ver.2.4.3
% inp file  : _by_type/_obs/blake/20181106.18o
% inp file  : _by_type/_obs/base/20181106.18o
% inp file  : _by_type/_sp3+clk/igs20262.clk
% inp file  : _by_type/_sp3+clk/igs20262.sp3
% inp file  : _by_type/_nav/blake/20181106.18n
% obs start : 2018/11/06 00:00:00.0 GPST (week2026 172800.0s)
% obs end   : 2018/11/06 23:59:45.0 GPST (week2026 259185.0s)
% pos mode  : dgps
% freqs     : L1+L2
% solution  : combined
% elev mask : 15.0 deg
% dynamics  : off
% tidecorr  : off
% ionos opt : iono-free
% tropo opt : est ztd+grad
% ephemeris : precise
% navi sys  : gps glonass
% antenna1  :                       ( 0.0000  0.0000  0.0000)
% antenna2  :                       ( 0.0000  0.0000  0.0000)
% ref pos   : 90.000000000   0.000000000-6335367.6285
%
% (lat/lon/height=WGS84/ellipsoidal,Q=1:fix,2:float,3:sbas,4:dgps,5:single,6:ppp,ns=# of satellites)
%  GPST                  latitude(deg) longitude(deg)  height(m)   Q  ns   sdn(m)   sde(m)   sdu(m)  sdne(m)  sdeu(m)  sdun(m) age(s)  ratio
2018/11/06 00:00:00.000  -74.407204679  163.437653558    79.6572   5   8   0.8207   0.6421   2.6626   0.2361  -0.4847  -1.1432   0.00    0.0
2018/11/06 00:00:15.000  -74.407202707  163.437650989    78.7634   5   9   0.6888   0.6151   2.0163  -0.1626   0.2972  -0.7285   0.00    0.0
2018/11/06 00:00:30.000  -74.407206014  163.437645228    79.6208   5   9   0.6885   0.6151   2.0207  -0.1632   0.3017  -0.7292   0.00    0.0
2018/11/06 00:00:45.000  -74.407204351  163.437660251    79.0268   5   9   0.6882   0.6152   2.0252  -0.1640   0.3062  -0.7299   0.00    0.0
2018/11/06 00:01:00.000  -74.407201212  163.437645955    79.0036   5   9   0.6881   0.6154   2.0301  -0.1647   0.3108  -0.7308   0.00    0.0
2018/11/06 00:01:15.000  -74.407203783  163.437654375    79.1523   5   9   0.6880   0.6157   2.0352  -0.1656   0.3154  -0.7317   0.00    0.0
2018/11/06 00:01:30.000  -74.407203469  163.437653571    80.0602   5   9   0.6880   0.6160   2.0405  -0.1664   0.3201  -0.7327   0.00    0.0
2018/11/06 00:01:45.000  -74.407203800  163.437653216    79.5542   5   9   0.6880   0.6165   2.0462  -0.1674   0.3248  -0.7338   0.00    0.0
2018/11/06 00:02:00.000  -74.407202184  163.437656868    79.2386   5   9   0.6882   0.6170   2.0521  -0.1683   0.3296  -0.7350   0.00    0.0
2018/11/06 00:02:15.000  -74.407203521  163.437655890    79.8398   5   9   0.6884   0.6176   2.0583  -0.1694   0.3345  -0.7363   0.00    0.0
2018/11/06 00:02:30.000  -74.407201912  163.437657653    78.2814   5   9   0.6887   0.6183   2.0648  -0.1705   0.3394  -0.7376   0.00    0.0
2018/11/06 00:02:45.000  -74.407203488  163.437660589    79.3528   5   9   0.6876   0.6174   2.0667  -0.1708   0.3431  -0.7377   0.00    0.0
2018/11/06 00:03:00.000  -74.407201146  163.437663519    78.3481   5   9   0.6867   0.6166   2.0689  -0.1712   0.3468  -0.7378   0.00    0.0
2018/11/06 00:03:15.000  -74.407203050  163.437658588    79.0966   5   9   0.6858   0.6159   2.0714  -0.1715   0.3505  -0.7381   0.00    0.0
2018/11/06 00:03:30.000  -74.407202403  163.437655492    79.9775   5   9   0.6850   0.6153   2.0740  -0.1720   0.3543  -0.7384   0.00    0.0
2018/11/06 00:03:45.000  -74.407202018  163.437661744    79.3753   5   9   0.6842   0.6148   2.0770  -0.1725   0.3581  -0.7388   0.00    0.0
2018/11/06 00:04:00.000  -74.407204380  163.437657860    79.2530   5   9   0.6836   0.6143   2.0802  -0.1730   0.3620  -0.7392   0.00    0.0
2018/11/06 00:04:15.000  -74.407203846  163.437662478    80.2339   5   9   0.6830   0.6139   2.0837  -0.1736   0.3660  -0.7398   0.00    0.0
2018/11/06 00:04:30.000  -74.407202855  163.437660099    79.1782   5   9   0.6825   0.6137   2.0874  -0.1742   0.3700  -0.7404   0.00    0.0
2018/11/06 00:04:45.000  -74.407201723  163.437655208    80.2375   5   9   0.6820   0.6135   2.0914  -0.1749   0.3740  -0.7412   0.00    0.0
2018/11/06 00:05:00.000  -74.407203129  163.437658430    79.7195   5   9   0.6817   0.6134   2.0957  -0.1756   0.3782  -0.7420   0.00    0.0
2018/11/06 00:05:15.000  -74.407203623  163.437663137    78.6380   5   9   0.6814   0.6134   2.1004  -0.1764   0.3824  -0.7429   0.00    0.0
2018/11/06 00:05:30.000  -74.407203728  163.437664019    80.0591   5   9   0.6812   0.6135   2.1054  -0.1773   0.3868  -0.7440   0.00    0.0
2018/11/06 00:05:45.000  -74.407203323  163.437663712    80.2879   5   9   0.6811   0.6137   2.1107  -0.1782   0.3912  -0.7451   0.00    0.0
2018/11/06 00:06:00.000  -74.407199442  163.437666525    78.5752   5   9   0.6811   0.6140   2.1163  -0.1792   0.3957  -0.7464   0.00    0.0
2018/11/06 00:06:15.000  -74.407205441  163.437667997    79.3058   5   9   0.6812   0.6144   2.1221  -0.1803   0.4003  -0.7477   0.00    0.0
2018/11/06 00:06:30.000  -74.407202763  163.437667230    80.1377   5   9   0.6813   0.6148   2.1283  -0.1814   0.4049  -0.7491   0.00    0.0
2018/11/06 00:06:45.000  -74.407201670  163.437669240    79.4857   5   9   0.6815   0.6154   2.1347  -0.1825   0.4097  -0.7506   0.00    0.0
2018/11/06 00:07:00.000  -74.407201061  163.437666116    79.0922   5   9   0.6818   0.6160   2.1415  -0.1837   0.4145  -0.7522   0.00    0.0
2018/11/06 00:07:15.000  -74.407203705  163.437659853    79.9401   5   9   0.6821   0.6168   2.1485  -0.1850   0.4195  -0.7539   0.00    0.0
2018/11/06 00:07:30.000  -74.407201454  163.437668976    79.6593   5   9   0.6826   0.6176   2.1559  -0.1863   0.4245  -0.7557   0.00    0.0
2018/11/06 00:07:45.000  -74.407202971  163.437665161    79.4244   5   9   0.6817   0.6168   2.1582  -0.1867   0.4279  -0.7561   0.00    0.0
2018/11/06 00:08:00.000  -74.407202995  163.437665789    79.7406   5   9   0.6808   0.6161   2.1609  -0.1872   0.4314  -0.7566   0.00    0.0
2018/11/06 00:08:15.000  -74.407204188  163.437665213    79.7622   5   9   0.6801   0.6155   2.1638  -0.1878   0.4349  -0.7571   0.00    0.0
2018/11/06 00:08:30.000  -74.407201896  163.437665983    79.9621   5   9   0.6794   0.6150   2.1670  -0.1884   0.4386  -0.7578   0.00    0.0
2018/11/06 00:08:45.000  -74.407201552  163.437670115    79.3707   5   9   0.6788   0.6146   2.1705  -0.1890   0.4423  -0.7585   0.00    0.0
2018/11/06 00:09:00.000  -74.407201119  163.437668270    78.6695   5   9   0.6783   0.6143   2.1743  -0.1897   0.4461  -0.7593   0.00    0.0
2018/11/06 00:09:15.000  -74.407202739  163.437656241    79.0108   5   9   0.6778   0.6140   2.1783  -0.1905   0.4499  -0.7602   0.00    0.0
2018/11/06 00:09:30.000  -74.407201371  163.437662456    80.2813   5   9   0.6775   0.6139   2.1827  -0.1913   0.4539  -0.7612   0.00    0.0
2018/11/06 00:09:45.000  -74.407201803  163.437661641    79.5877   5   9   0.6772   0.6138   2.1873  -0.1921   0.4579  -0.7623   0.00    0.0
2018/11/06 00:10:00.000  -74.407201121  163.437664800    79.6535   5   9   0.6769   0.6138   2.1922  -0.1930   0.4621  -0.7635   0.00    0.0
2018/11/06 00:10:15.000  -74.407203399  163.437654006    79.9592   5   9   0.6768   0.6140   2.1975  -0.1941   0.4664  -0.7648   0.00    0.0
2018/11/06 00:10:30.000  -74.407204673  163.437660854    80.7378   5   9   0.6768   0.6142   2.2032  -0.1951   0.4707  -0.7663   0.00    0.0
2018/11/06 00:10:45.000  -74.407202838  163.437660700    80.0418   5   9   0.6769   0.6146   2.2092  -0.1963   0.4752  -0.7678   0.00    0.0
2018/11/06 00:11:00.000  -74.407203367  163.437671639    79.7382   5   9   0.6770   0.6150   2.2154  -0.1974   0.4798  -0.7694   0.00    0.0
2018/11/06 00:11:15.000  -74.407202443  163.437653706    79.3955   5   9   0.6772   0.6155   2.2220  -0.1987   0.4845  -0.7712   0.00    0.0
2018/11/06 00:11:30.000  -74.407201385  163.437667080    79.8235   5   9   0.6774   0.6161   2.2289  -0.2000   0.4893  -0.7730   0.00    0.0
2018/11/06 00:11:45.000  -74.407202103  163.437667312    79.3677   5   9   0.6778   0.6168   2.2361  -0.2013   0.4941  -0.7750   0.00    0.0
2018/11/06 00:12:00.000  -74.407201432  163.437667646    79.9617   5   9   0.6782   0.6176   2.2436  -0.2028   0.4991  -0.7770   0.00    0.0
2018/11/06 00:12:15.000  -74.407200507  163.437663797    78.3524   5   9   0.6787   0.6185   2.2514  -0.2042   0.5042  -0.7792   0.00    0.0
2018/11/06 00:12:30.000  -74.407203339  163.437663084    80.3222   5   9   0.6793   0.6194   2.2596  -0.2058   0.5095  -0.7814   0.00    0.0
2018/11/06 00:12:45.000  -74.407201735  163.437658858    79.3138   5   9   0.6786   0.6188   2.2624  -0.2063   0.5128  -0.7821   0.00    0.0
2018/11/06 00:13:00.000  -74.407200853  163.437674775    79.4076   5   9   0.6779   0.6182   2.2654  -0.2070   0.5162  -0.7828   0.00    0.0
2018/11/06 00:13:15.000  -74.407203551  163.437661889    79.6231   5   9   0.6773   0.6178   2.2688  -0.2077   0.5197  -0.7837   0.00    0.0
2018/11/06 00:13:30.000  -74.407203067  163.437665596    78.8456   5   9   0.6767   0.6174   2.2724  -0.2084   0.5233  -0.7847   0.00    0.0
2018/11/06 00:13:45.000  -74.407201594  163.437676260    79.1426   5   9   0.6763   0.6171   2.2764  -0.2092   0.5269  -0.7857   0.00    0.0
2018/11/06 00:14:00.000  -74.407203353  163.437669808    80.3251   5   9   0.6759   0.6169   2.2806  -0.2101   0.5307  -0.7869   0.00    0.0
2018/11/06 00:14:15.000  -74.407203735  163.437670384    79.5701   5   9   0.6756   0.6168   2.2851  -0.2110   0.5346  -0.7881   0.00    0.0
2018/11/06 00:14:30.000  -74.407202202  163.437663999    78.7747   5   9   0.6753   0.6168   2.2899  -0.2120   0.5386  -0.7895   0.00    0.0
2018/11/06 00:14:45.000  -74.407200881  163.437666952    78.9228   5   9   0.6752   0.6169   2.2950  -0.2130   0.5427  -0.7909   0.00    0.0
2018/11/06 00:15:00.000  -74.407202006  163.437674339    79.6692   5   9   0.6751   0.6171   2.3005  -0.2141   0.5468  -0.7925   0.00    0.0
2018/11/06 00:15:15.000  -74.407200854  163.437670388    78.6578   5   9   0.6751   0.6174   2.3063  -0.2153   0.5512  -0.7942   0.00    0.0
2018/11/06 00:15:30.000  -74.407204465  163.437668044    79.9436   5   9   0.6753   0.6178   2.3126  -0.2166   0.5557  -0.7960   0.00    0.0
2018/11/06 00:15:45.000  -74.407204822  163.437674417    79.4048   5   9   0.6754   0.6183   2.3191  -0.2179   0.5602  -0.7979   0.00    0.0
2018/11/06 00:16:00.000  -74.407201449  163.437674861    78.3615   5  10   0.6529   0.6095   2.0753  -0.2584   0.6572  -0.6760   0.00    0.0
2018/11/06 00:16:15.000  -74.407203050  163.437668155    78.6783   5  10   0.6532   0.6102   2.0826  -0.2595   0.6612  -0.6783   0.00    0.0
2018/11/06 00:16:30.000  -74.407201936  163.437661213    78.0181   5  10   0.6537   0.6110   2.0902  -0.2607   0.6655  -0.6807   0.00    0.0
2018/11/06 00:16:45.000  -74.407199648  163.437666025    77.8560   5  10   0.6542   0.6119   2.0981  -0.2620   0.6698  -0.6832   0.00    0.0
2018/11/06 00:17:00.000  -74.407200882  163.437671515    78.9498   5  10   0.6548   0.6129   2.1062  -0.2633   0.6743  -0.6859   0.00    0.0
2018/11/06 00:17:15.000  -74.407201497  163.437668892    78.5466   5  10   0.6554   0.6140   2.1147  -0.2647   0.6789  -0.6886   0.00    0.0
2018/11/06 00:17:30.000  -74.407197572  163.437668930    78.0945   5  10   0.6562   0.6152   2.1235  -0.2662   0.6836  -0.6914   0.00    0.0
2018/11/06 00:17:45.000  -74.407198655  163.437673687    77.9846   5  10   0.6556   0.6148   2.1272  -0.2666   0.6861  -0.6928   0.00    0.0
2018/11/06 00:18:00.000  -74.407201082  163.437668344    77.6965   5  10   0.6551   0.6144   2.1313  -0.2671   0.6886  -0.6943   0.00    0.0
2018/11/06 00:18:15.000  -74.407201790  163.437671929    78.4501   5  10   0.6547   0.6142   2.1356  -0.2676   0.6913  -0.6959   0.00    0.0
2018/11/06 00:18:30.000  -74.407200649  163.437675591    78.2009   5  10   0.6543   0.6140   2.1402  -0.2683   0.6941  -0.6977   0.00    0.0
2018/11/06 00:18:45.000  -74.407199200  163.437678426    78.7255   5  10   0.6540   0.6139   2.1451  -0.2689   0.6970  -0.6995   0.00    0.0
2018/11/06 00:19:00.000  -74.407201363  163.437672907    78.3014   5  10   0.6539   0.6139   2.1502  -0.2697   0.7001  -0.7014   0.00    0.0
2018/11/06 00:19:15.000  -74.407199843  163.437674986    77.6361   5  10   0.6537   0.6140   2.1557  -0.2705   0.7033  -0.7033   0.00    0.0
2018/11/06 00:19:30.000  -74.407200950  163.437672788    78.1862   5  10   0.6537   0.6142   2.1614  -0.2713   0.7066  -0.7054   0.00    0.0
2018/11/06 00:19:45.000  -74.407202160  163.437678934    78.9078   5  10   0.6537   0.6145   2.1674  -0.2722   0.7100  -0.7076   0.00    0.0
2018/11/06 00:20:00.000  -74.407200655  163.437677996    79.0598   5  10   0.6538   0.6149   2.1738  -0.2732   0.7135  -0.7099   0.00    0.0
2018/11/06 00:20:15.000  -74.407203180  163.437672946    79.3571   5  10   0.6541   0.6154   2.1805  -0.2743   0.7173  -0.7123   0.00    0.0
2018/11/06 00:20:30.000  -74.407201053  163.437677946    78.3176   5  10   0.6544   0.6160   2.1876  -0.2754   0.7212  -0.7148   0.00    0.0
2018/11/06 00:20:45.000  -74.407199651  163.437670241    79.4390   5  10   0.6547   0.6167   2.1950  -0.2766   0.7252  -0.7174   0.00    0.0
2018/11/06 00:21:00.000  -74.407202221  163.437677640    78.4394   5  10   0.6552   0.6175   2.2026  -0.2779   0.7293  -0.7201   0.00    0.0
2018/11/06 00:21:15.000  -74.407199988  163.437677725    78.1943   5  10   0.6557   0.6184   2.2106  -0.2792   0.7336  -0.7229   0.00    0.0
2018/11/06 00:21:30.000  -74.407199588  163.437673136    78.2898   5  10   0.6563   0.6194   2.2189  -0.2806   0.7380  -0.7258   0.00    0.0
2018/11/06 00:21:45.000  -74.407204060  163.437674088    79.2341   5  10   0.6570   0.6204   2.2275  -0.2821   0.7425  -0.7288   0.00    0.0
2018/11/06 00:22:00.000  -74.407201596  163.437668283    78.9704   5  10   0.6577   0.6216   2.2364  -0.2836   0.7472  -0.7319   0.00    0.0
2018/11/06 00:22:15.000  -74.407197968  163.437665291    77.6053   5  10   0.6586   0.6229   2.2456  -0.2852   0.7520  -0.7352   0.00    0.0
2018/11/06 00:22:30.000  -74.407200614  163.437676585    78.5661   5  10   0.6595   0.6242   2.2551  -0.2869   0.7570  -0.7385   0.00    0.0
2018/11/06 00:22:45.000  -74.407201682  163.437666960    78.1497   5  10   0.6591   0.6239   2.2593  -0.2875   0.7595  -0.7403   0.00    0.0
2018/11/06 00:23:00.000  -74.407202030  163.437670770    78.3966   5  10   0.6588   0.6237   2.2637  -0.2881   0.7621  -0.7422   0.00    0.0
2018/11/06 00:23:15.000  -74.407199306  163.437674436    78.4157   5  10   0.6585   0.6236   2.2683  -0.2888   0.7648  -0.7442   0.00    0.0
2018/11/06 00:23:30.000  -74.407202242  163.437675238    78.8180   5  10   0.6583   0.6235   2.2732  -0.2896   0.7676  -0.7463   0.00    0.0
2018/11/06 00:23:45.000  -74.407200451  163.437679956    79.2931   5  10   0.6582   0.6236   2.2784  -0.2904   0.7705  -0.7484   0.00    0.0
2018/11/06 00:24:00.000  -74.407201369  163.437674824    78.9068   5  10   0.6582   0.6237   2.2839  -0.2913   0.7736  -0.7507   0.00    0.0
2018/11/06 00:24:15.000  -74.407203134  163.437674940    79.3005   5  10   0.6583   0.6239   2.2896  -0.2922   0.7768  -0.7530   0.00    0.0
2018/11/06 00:24:30.000  -74.407199768  163.437671281    77.9261   5  10   0.6584   0.6242   2.2957  -0.2932   0.7801  -0.7555   0.00    0.0
2018/11/06 00:24:45.000  -74.407201397  163.437668649    78.9842   5  10   0.6586   0.6246   2.3020  -0.2943   0.7835  -0.7580   0.00    0.0
2018/11/06 00:25:00.000  -74.407197716  163.437672701    77.9844   5  10   0.6589   0.6251   2.3087  -0.2954   0.7871  -0.7606   0.00    0.0
2018/11/06 00:25:15.000  -74.407201387  163.437678742    78.9187   5  10   0.6593   0.6258   2.3158  -0.2966   0.7909  -0.7634   0.00    0.0
2018/11/06 00:25:30.000  -74.407197735  163.437676969    78.6996   5  10   0.6597   0.6265   2.3232  -0.2979   0.7948  -0.7663   0.00    0.0
2018/11/06 00:25:45.000  -74.407202373  163.437673187    78.1602   5  10   0.6603   0.6273   2.3308  -0.2993   0.7988  -0.7693   0.00    0.0
2018/11/06 00:26:00.000  -74.407200615  163.437670426    77.3283   5  10   0.6609   0.6283   2.3388  -0.3007   0.8029  -0.7724   0.00    0.0
2018/11/06 00:26:15.000  -74.407197952  163.437673574    78.0272   5  10   0.6616   0.6293   2.3471  -0.3022   0.8072  -0.7756   0.00    0.0
2018/11/06 00:26:30.000  -74.407199782  163.437678046    78.7888   5  10   0.6624   0.6304   2.3556  -0.3037   0.8116  -0.7788   0.00    0.0
2018/11/06 00:26:45.000  -74.407198862  163.437674877    78.3665   5  10   0.6633   0.6316   2.3645  -0.3053   0.8162  -0.7822   0.00    0.0
2018/11/06 00:27:00.000  -74.407201666  163.437675812    78.6211   5  10   0.6642   0.6329   2.3736  -0.3070   0.8208  -0.7857   0.00    0.0
2018/11/06 00:27:15.000  -74.407199143  163.437669106    78.0343   5  10   0.6652   0.6342   2.3830  -0.3087   0.8256  -0.7893   0.00    0.0
2018/11/06 00:27:30.000  -74.407200586  163.437668154    78.0328   5  10   0.6663   0.6357   2.3928  -0.3105   0.8305  -0.7930   0.00    0.0
2018/11/06 00:27:45.000  -74.407201334  163.437673918    78.9512   5  10   0.6661   0.6354   2.3966  -0.3111   0.8326  -0.7949   0.00    0.0
2018/11/06 00:28:00.000  -74.407199060  163.437676645    78.7904   5  10   0.6659   0.6352   2.4007  -0.3118   0.8350  -0.7970   0.00    0.0
2018/11/06 00:28:15.000  -74.407200616  163.437678982    78.8356   5  10   0.6658   0.6352   2.4052  -0.3126   0.8375  -0.7991   0.00    0.0
2018/11/06 00:28:30.000  -74.407200012  163.437676873    78.7008   5  10   0.6658   0.6352   2.4099  -0.3134   0.8401  -0.8014   0.00    0.0
2018/11/06 00:28:45.000  -74.407199795  163.437675871    78.2506   5  10   0.6658   0.6353   2.4149  -0.3143   0.8429  -0.8038   0.00    0.0
2018/11/06 00:29:00.000  -74.407202453  163.437674317    78.7164   5  10   0.6659   0.6355   2.4201  -0.3153   0.8457  -0.8062   0.00    0.0
2018/11/06 00:29:15.000  -74.407199676  163.437674639    78.5439   5  10   0.6661   0.6358   2.4256  -0.3163   0.8487  -0.8087   0.00    0.0
2018/11/06 00:29:30.000  -74.407201147  163.437664980    77.8287   5  10   0.6664   0.6362   2.4314  -0.3174   0.8517  -0.8113   0.00    0.0
2018/11/06 00:29:45.000  -74.407201017  163.437670173    78.3561   5  10   0.6668   0.6366   2.4375  -0.3185   0.8549  -0.8140   0.00    0.0
2018/11/06 00:30:00.000  -74.407203073  163.437673431    79.0161   5  11   0.6546   0.6372   2.3493  -0.3183   0.8608  -0.8685   0.00    0.0
2018/11/06 00:30:15.000  -74.407205083  163.437679833    79.5397   5  11   0.6550   0.6378   2.3564  -0.3197   0.8642  -0.8713   0.00    0.0
2018/11/06 00:30:30.000  -74.407201125  163.437670899    78.6226   5  11   0.6556   0.6386   2.3638  -0.3210   0.8677  -0.8743   0.00    0.0
2018/11/06 00:30:45.000  -74.407201682  163.437667270    78.4525   5  11   0.6562   0.6395   2.3715  -0.3225   0.8713  -0.8774   0.00    0.0
2018/11/06 00:31:00.000  -74.407205475  163.437678131    79.3914   5  11   0.6569   0.6404   2.3794  -0.3239   0.8750  -0.8806   0.00    0.0
2018/11/06 00:31:15.000  -74.407204840  163.437675139    79.2510   5  11   0.6577   0.6415   2.3875  -0.3255   0.8788  -0.8838   0.00    0.0
2018/11/06 00:31:30.000  -74.407202022  163.437674580    78.9610   5  11   0.6585   0.6426   2.3959  -0.3270   0.8828  -0.8872   0.00    0.0
2018/11/06 00:31:45.000  -74.407203099  163.437672780    78.3889   5  11   0.6594   0.6438   2.4046  -0.3287   0.8868  -0.8906   0.00    0.0
2018/11/06 00:32:00.000  -74.407201958  163.437670769    78.2870   5  11   0.6604   0.6451   2.4135  -0.3304   0.8910  -0.8941   0.00    0.0
2018/11/06 00:32:15.000  -74.407204156  163.437669310    78.4607   5  11   0.6615   0.6465   2.4227  -0.3321   0.8952  -0.8978   0.00    0.0
2018/11/06 00:32:30.000  -74.407201613  163.437672970    78.6016   5  11   0.6626   0.6479   2.4321  -0.3339   0.8996  -0.9015   0.00    0.0
2018/11/06 00:32:45.000  -74.407203463  163.437669753    78.3959   5  11   0.6624   0.6477   2.4359  -0.3346   0.9013  -0.9033   0.00    0.0
2018/11/06 00:33:00.000  -74.407205650  163.437675555    79.7273   5  11   0.6623   0.6475   2.4398  -0.3353   0.9031  -0.9051   0.00    0.0
2018/11/06 00:33:15.000  -74.407202434  163.437674892    78.6285   5  11   0.6622   0.6474   2.4439  -0.3360   0.9050  -0.9070   0.00    0.0
2018/11/06 00:33:30.000  -74.407199264  163.437672866    77.4209   5  11   0.6623   0.6474   2.4482  -0.3368   0.9069  -0.9090   0.00    0.0
2018/11/06 00:33:45.000  -74.407199088  163.437668322    77.9602   5  11   0.6624   0.6474   2.4528  -0.3376   0.9090  -0.9111   0.00    0.0
2018/11/06 00:34:00.000  -74.407200125  163.437672847    78.0928   5  11   0.6625   0.6476   2.4576  -0.3385   0.9112  -0.9132   0.00    0.0
2018/11/06 00:34:15.000  -74.407202521  163.437675152    78.7475   5  11   0.6627   0.6478   2.4626  -0.3395   0.9134  -0.9155   0.00    0.0
2018/11/06 00:34:30.000  -74.407200669  163.437673928    78.1178   5  11   0.6630   0.6481   2.4678  -0.3404   0.9158  -0.9178   0.00    0.0
2018/11/06 00:34:45.000  -74.407199917  163.437679356    79.0231   5  11   0.6634   0.6485   2.4732  -0.3415   0.9183  -0.9202   0.00    0.0
2018/11/06 00:35:00.000  -74.407200836  163.437668781    78.3780   5  11   0.6639   0.6490   2.4789  -0.3425   0.9208  -0.9227   0.00    0.0
2018/11/06 00:35:15.000  -74.407199596  163.437679562    78.9530   5  11   0.6644   0.6496   2.4849  -0.3437   0.9235  -0.9253   0.00    0.0
2018/11/06 00:35:30.000  -74.407202360  163.437675889    78.9021   5  11   0.6650   0.6502   2.4911  -0.3449   0.9263  -0.9280   0.00    0.0
2018/11/06 00:35:45.000  -74.407201520  163.437679747    79.6446   5  11   0.6657   0.6510   2.4975  -0.3461   0.9292  -0.9307   0.00    0.0
2018/11/06 00:36:00.000  -74.407202597  163.437671719    78.3555   5  11   0.6664   0.6518   2.5041  -0.3474   0.9322  -0.9335   0.00    0.0
2018/11/06 00:36:15.000  -74.407200728  163.437677627    78.6423   5  11   0.6672   0.6527   2.5109  -0.3487   0.9352  -0.9364   0.00    0.0
2018/11/06 00:36:30.000  -74.407200636  163.437669747    78.4498   5  11   0.6681   0.6537   2.5180  -0.3500   0.9383  -0.9394   0.00    0.0
2018/11/06 00:36:45.000  -74.407199780  163.437673443    77.7294   5  11   0.6691   0.6548   2.5252  -0.3514   0.9416  -0.9425   0.00    0.0
2018/11/06 00:37:00.000  -74.407199907  163.437661452    77.6218   5  11   0.6701   0.6559   2.5326  -0.3528   0.9448  -0.9456   0.00    0.0
2018/11/06 00:37:15.000  -74.407200747  163.437670485    78.1437   5  11   0.6711   0.6572   2.5401  -0.3543   0.9482  -0.9487   0.00    0.0
2018/11/06 00:37:30.000  -74.407199756  163.437681212    79.0710   5  11   0.6723   0.6585   2.5479  -0.3558   0.9516  -0.9520   0.00    0.0
2018/11/06 00:37:45.000  -74.407200547  163.437675663    78.5386   5  11   0.6721   0.6580   2.5498  -0.3562   0.9524  -0.9532   0.00    0.0
2018/11/06 00:38:00.000  -74.407200405  163.437677032    78.6701   5  11   0.6720   0.6577   2.5518  -0.3566   0.9532  -0.9545   0.00    0.0
2018/11/06 00:38:15.000  -74.407200214  163.437671851    78.7180   5  11   0.6719   0.6574   2.5541  -0.3571   0.9541  -0.9558   0.00    0.0
2018/11/06 00:38:30.000  -74.407200590  163.437676651    78.3292   5  11   0.6719   0.6571   2.5564  -0.3575   0.9551  -0.9572   0.00    0.0
2018/11/06 00:38:45.000  -74.407200164  163.437673692    77.9180   5  11   0.6720   0.6570   2.5590  -0.3581   0.9561  -0.9587   0.00    0.0
2018/11/06 00:39:00.000  -74.407203558  163.437680208    79.6657   5  11   0.6722   0.6569   2.5617  -0.3586   0.9572  -0.9602   0.00    0.0
2018/11/06 00:39:15.000  -74.407203060  163.437682831    78.7091   5  11   0.6724   0.6569   2.5646  -0.3592   0.9584  -0.9617   0.00    0.0
2018/11/06 00:39:30.000  -74.407199364  163.437682804    78.1329   5  11   0.6726   0.6570   2.5676  -0.3598   0.9596  -0.9634   0.00    0.0
2018/11/06 00:39:45.000  -74.407201375  163.437673492    78.8790   5  11   0.6730   0.6572   2.5708  -0.3605   0.9609  -0.9651   0.00    0.0
2018/11/06 00:40:00.000  -74.407199093  163.437674196    77.8986   5  11   0.6734   0.6574   2.5742  -0.3612   0.9623  -0.9668   0.00    0.0
2018/11/06 00:40:15.000  -74.407200244  163.437680473    77.9827   5  11   0.6739   0.6577   2.5778  -0.3619   0.9637  -0.9686   0.00    0.0
2018/11/06 00:40:30.000  -74.407200290  163.437671377    77.3381   5  11   0.6744   0.6581   2.5816  -0.3627   0.9653  -0.9705   0.00    0.0
2018/11/06 00:40:45.000  -74.407203128  163.437681056    79.0542   5  11   0.6750   0.6586   2.5855  -0.3635   0.9669  -0.9725   0.00    0.0
2018/11/06 00:41:00.000  -74.407200186  163.437679500    77.7784   5  11   0.6757   0.6591   2.5896  -0.3643   0.9685  -0.9745   0.00    0.0
2018/11/06 00:41:15.000  -74.407199030  163.437681344    78.2218   5  11   0.6764   0.6598   2.5938  -0.3652   0.9702  -0.9765   0.00    0.0
2018/11/06 00:41:30.000  -74.407198941  163.437684091    78.4932   5  11   0.6772   0.6604   2.5982  -0.3661   0.9720  -0.9786   0.00    0.0
2018/11/06 00:41:45.000  -74.407200579  163.437678230    78.1983   5  11   0.6781   0.6612   2.6027  -0.3670   0.9738  -0.9807   0.00    0.0
2018/11/06 00:42:00.000  -74.407199974  163.437670239    77.5691   5  11   0.6790   0.6620   2.6072  -0.3679   0.9756  -0.9828   0.00    0.0
2018/11/06 00:42:15.000  -74.407199243  163.437672876    77.4477   5  11   0.6799   0.6629   2.6120  -0.3688   0.9775  -0.9850   0.00    0.0
2018/11/06 00:42:30.000  -74.407200865  163.437674013    78.0807   5  11   0.6810   0.6638   2.6168  -0.3698   0.9794  -0.9872   0.00    0.0
2018/11/06 00:42:45.000  -74.407196398  163.437669170    76.7342   5  11   0.6807   0.6630   2.6157  -0.3697   0.9787  -0.9874   0.00    0.0
2018/11/06 00:43:00.000  -74.407199514  163.437674361    77.7911   5  11   0.6804   0.6623   2.6149  -0.3696   0.9780  -0.9877   0.00    0.0
2018/11/06 00:43:15.000  -74.407200646  163.437676339    77.4176   5  11   0.6803   0.6617   2.6141  -0.3696   0.9775  -0.9881   0.00    0.0
2018/11/06 00:43:30.000  -74.407199193  163.437676251    78.4558   5  11   0.6802   0.6612   2.6135  -0.3695   0.9770  -0.9884   0.00    0.0
2018/11/06 00:43:45.000  -74.407198334  163.437673527    77.7170   5  11   0.6801   0.6607   2.6130  -0.3696   0.9765  -0.9889   0.00    0.0
2018/11/06 00:44:00.000  -74.407198995  163.437679319    78.0357   5  11   0.6801   0.6603   2.6126  -0.3696   0.9761  -0.9893   0.00    0.0
2018/11/06 00:44:15.000  -74.407198774  163.437669808    77.8322   5  11   0.6802   0.6599   2.6124  -0.3696   0.9757  -0.9898   0.00    0.0
2018/11/06 00:44:30.000  -74.407199729  163.437670540    78.1200   5  11   0.6803   0.6596   2.6122  -0.3697   0.9754  -0.9903   0.00    0.0
2018/11/06 00:44:45.000  -74.407197856  163.437670220    77.6638   5  11   0.6805   0.6594   2.6122  -0.3698   0.9751  -0.9909   0.00    0.0
2018/11/06 00:45:00.000  -74.407201451  163.437680855    78.1382   5  11   0.6808   0.6593   2.6123  -0.3699   0.9748  -0.9915   0.00    0.0
2018/11/06 00:45:15.000  -74.407200224  163.437679167    78.8252   5  11   0.6811   0.6592   2.6126  -0.3701   0.9747  -0.9921   0.00    0.0
2018/11/06 00:45:30.000  -74.407201834  163.437679836    77.9839   5  11   0.6815   0.6592   2.6131  -0.3702   0.9745  -0.9928   0.00    0.0
2018/11/06 00:45:45.000  -74.407202037  163.437679597    79.4137   5  11   0.6819   0.6593   2.6136  -0.3704   0.9744  -0.9935   0.00    0.0
2018/11/06 00:46:00.000  -74.407201565  163.437682343    78.9400   5  11   0.6824   0.6594   2.6143  -0.3706   0.9743  -0.9943   0.00    0.0
2018/11/06 00:46:15.000  -74.407199721  163.437674305    78.7503   5  11   0.6829   0.6596   2.6150  -0.3708   0.9743  -0.9950   0.00    0.0
2018/11/06 00:46:30.000  -74.407201750  163.437674454    79.1084   5  11   0.6835   0.6599   2.6159  -0.3711   0.9743  -0.9958   0.00    0.0
2018/11/06 00:46:45.000  -74.407199324  163.437673911    78.4936   5  11   0.6842   0.6602   2.6169  -0.3713   0.9743  -0.9967   0.00    0.0
2018/11/06 00:47:00.000  -74.407198975  163.437681590    77.9732   5  11   0.6849   0.6605   2.6179  -0.3716   0.9743  -0.9975   0.00    0.0
2018/11/06 00:47:15.000  -74.407199834  163.437668510    77.2796   5  11   0.6856   0.6610   2.6191  -0.3718   0.9743  -0.9984   0.00    0.0
2018/11/06 00:47:30.000  -74.407200130  163.437676392    77.3700   5  11   0.6864   0.6615   2.6203  -0.3721   0.9744  -0.9993   0.00    0.0
2018/11/06 00:47:45.000  -74.407197207  163.437673566    77.7482   5  11   0.6860   0.6603   2.6159  -0.3714   0.9720  -0.9982   0.00    0.0
2018/11/06 00:48:00.000  -74.407199681  163.437681159    77.4576   5  11   0.6856   0.6593   2.6116  -0.3707   0.9698  -0.9973   0.00    0.0
2018/11/06 00:48:15.000  -74.407200246  163.437680280    76.7998   5  11   0.6852   0.6583   2.6075  -0.3701   0.9676  -0.9964   0.00    0.0
2018/11/06 00:48:30.000  -74.407199849  163.437677179    77.1483   5  11   0.6850   0.6573   2.6035  -0.3695   0.9654  -0.9956   0.00    0.0
2018/11/06 00:48:45.000  -74.407200125  163.437671269    77.6198   5  11   0.6847   0.6565   2.5996  -0.3689   0.9633  -0.9947   0.00    0.0
2018/11/06 00:49:00.000  -74.407198560  163.437681169    78.0991   5  11   0.6845   0.6557   2.5958  -0.3683   0.9612  -0.9940   0.00    0.0
2018/11/06 00:49:15.000  -74.407199773  163.437685266    78.0062   5  11   0.6844   0.6549   2.5922  -0.3677   0.9592  -0.9932   0.00    0.0
2018/11/06 00:49:30.000  -74.407200333  163.437679018    76.9295   5  11   0.6843   0.6543   2.5886  -0.3672   0.9572  -0.9925   0.00    0.0
2018/11/06 00:49:45.000  -74.407199878  163.437676817    77.4271   5  11   0.6843   0.6537   2.5852  -0.3666   0.9552  -0.9917   0.00    0.0
2018/11/06 00:50:00.000  -74.407200919  163.437683341    77.9689   5  11   0.6844   0.6531   2.5819  -0.3661   0.9532  -0.9911   0.00    0.0
2018/11/06 00:50:15.000  -74.407201765  163.437685833    77.8440   5  11   0.6845   0.6527   2.5789  -0.3656   0.9513  -0.9904   0.00    0.0
2018/11/06 00:50:30.000  -74.407198807  163.437682415    76.7184   5  11   0.6846   0.6523   2.5759  -0.3651   0.9495  -0.9898   0.00    0.0
2018/11/06 00:50:45.000  -74.407200719  163.437673479    76.6492   5  11   0.6849   0.6520   2.5731  -0.3646   0.9477  -0.9893   0.00    0.0
2018/11/06 00:51:00.000  -74.407200765  163.437685511    78.1514   5  11   0.6851   0.6517   2.5704  -0.3642   0.9459  -0.9887   0.00    0.0
2018/11/06 00:51:15.000  -74.407198317  163.437675417    77.1124   5  11   0.6855   0.6515   2.5678  -0.3637   0.9441  -0.9882   0.00    0.0
2018/11/06 00:51:30.000  -74.407199191  163.437676925    77.1040   5  11   0.6859   0.6514   2.5653  -0.3633   0.9423  -0.9877   0.00    0.0
2018/11/06 00:51:45.000  -74.407200182  163.437682394    78.6758   5  11   0.6863   0.6513   2.5630  -0.3629   0.9406  -0.9873   0.00    0.0
2018/11/06 00:52:00.000  -74.407195381  163.437677583    77.3928   5  11   0.6868   0.6513   2.5608  -0.3624   0.9390  -0.9868   0.00    0.0
2018/11/06 00:52:15.000  -74.407197040  163.437677181    77.1010   5  11   0.6873   0.6513   2.5587  -0.3620   0.9373  -0.9864   0.00    0.0
2018/11/06 00:52:30.000  -74.407197513  163.437683651    77.3458   5  11   0.6879   0.6514   2.5568  -0.3616   0.9357  -0.9860   0.00    0.0
2018/11/06 00:52:45.000  -74.407201242  163.437678609    78.6737   5  11   0.6873   0.6500   2.5496  -0.3604   0.9320  -0.9840   0.00    0.0
2018/11/06 00:53:00.000  -74.407197502  163.437671816    77.8645   5  11   0.6867   0.6487   2.5424  -0.3592   0.9283  -0.9820   0.00    0.0
2018/11/06 00:53:15.000  -74.407197095  163.437682719    76.7876   5  11   0.6862   0.6474   2.5354  -0.3580   0.9247  -0.9800   0.00    0.0
2018/11/06 00:53:30.000  -74.407196293  163.437676765    77.2185   5  11   0.6857   0.6462   2.5286  -0.3569   0.9210  -0.9781   0.00    0.0
2018/11/06 00:53:45.000  -74.407199630  163.437679365    77.9713   5  11   0.6853   0.6450   2.5219  -0.3557   0.9175  -0.9762   0.00    0.0
2018/11/06 00:54:00.000  -74.407200181  163.437673717    77.7246   5  11   0.6850   0.6439   2.5153  -0.3546   0.9140  -0.9743   0.00    0.0
2018/11/06 00:54:15.000  -74.407199901  163.437678917    78.4162   5  11   0.6847   0.6429   2.5090  -0.3534   0.9105  -0.9725   0.00    0.0
2018/11/06 00:54:30.000  -74.407197970  163.437672456    77.1820   5  11   0.6844   0.6420   2.5028  -0.3523   0.9071  -0.9707   0.00    0.0
2018/11/06 00:54:45.000  -74.407196537  163.437676750    76.4595   5  10   0.9347   0.6735   3.5539  -0.5047   1.1570  -1.5967   0.00    0.0
2018/11/06 00:55:00.000  -74.407194259  163.437677314    75.4750   5  10   0.9340   0.6723   3.5454  -0.5029   1.1523  -1.5937   0.00    0.0
2018/11/06 00:55:15.000  -74.407193021  163.437669256    75.0896   5  10   0.9333   0.6712   3.5373  -0.5012   1.1478  -1.5908   0.00    0.0
2018/11/06 00:55:30.000  -74.407192476  163.437668374    75.2226   5  10   0.9327   0.6702   3.5292  -0.4994   1.1433  -1.5879   0.00    0.0
2018/11/06 00:55:45.000  -74.407191120  163.437664987    74.9910   5  10   0.9322   0.6692   3.5213  -0.4977   1.1388  -1.5851   0.00    0.0
2018/11/06 00:56:00.000  -74.407191875  163.437665096    75.4587   5  10   0.9317   0.6683   3.5135  -0.4959   1.1343  -1.5824   0.00    0.0
2018/11/06 00:56:15.000  -74.407194118  163.437672166    74.8149   5  10   0.9313   0.6675   3.5059  -0.4942   1.1298  -1.5797   0.00    0.0
2018/11/06 00:56:30.000  -74.407193513  163.437680793    74.3134   5  10   0.9309   0.6667   3.4985  -0.4924   1.1253  -1.5770   0.00    0.0
2018/11/06 00:56:45.000  -74.407192728  163.437674879    74.0879   5  10   0.9307   0.6660   3.4912  -0.4907   1.1209  -1.5744   0.00    0.0
2018/11/06 00:57:00.000  -74.407193998  163.437673219    75.0737   5  10   0.9304   0.6653   3.4841  -0.4889   1.1164  -1.5719   0.00    0.0
2018/11/06 00:57:15.000  -74.407192767  163.437671981    75.1676   5  10   0.9302   0.6647   3.4772  -0.4872   1.1120  -1.5695   0.00    0.0
2018/11/06 00:57:30.000  -74.407193019  163.437663682    74.4459   5  10   0.9301   0.6642   3.4704  -0.4854   1.1077  -1.5671   0.00    0.0
2018/11/06 00:57:45.000  -74.407194815  163.437682470    75.2170   5  10   0.9277   0.6621   3.4538  -0.4823   1.1001  -1.5603   0.00    0.0
2018/11/06 00:58:00.000  -74.407191155  163.437668672    74.9855   5  10   0.9254   0.6600   3.4374  -0.4791   1.0927  -1.5536   0.00    0.0
2018/11/06 00:58:15.000  -74.407193794  163.437666580    73.9575   5   9   0.9272   0.6581   3.6719  -0.4751   1.0791  -1.5839   0.00    0.0
2018/11/06 00:58:30.000  -74.407195366  163.437670859    75.4440   5   9   0.9251   0.6562   3.6575  -0.4719   1.0717  -1.5779   0.00    0.0
2018/11/06 00:58:45.000  -74.407196442  163.437683639    76.4434   5   9   0.9231   0.6543   3.6433  -0.4688   1.0644  -1.5721   0.00    0.0
2018/11/06 00:59:00.000  -74.407194070  163.437675367    75.6656   5   9   0.9212   0.6526   3.6293  -0.4658   1.0571  -1.5663   0.00    0.0
2018/11/06 00:59:15.000  -74.407193764  163.437674396    74.9792   5   9   0.9193   0.6509   3.6156  -0.4627   1.0499  -1.5606   0.00    0.0
2018/11/06 00:59:30.000  -74.407194927  163.437672442    76.2425   5   9   0.9175   0.6493   3.6022  -0.4597   1.0427  -1.5551   0.00    0.0
2018/11/06 00:59:45.000  -74.407193491  163.437665934    75.6308   5   9   0.9158   0.6478   3.5891  -0.4567   1.0356  -1.5496   0.00    0.0
2018/11/06 01:00:00.000  -74.407194792  163.437670269    75.9288   5   9   0.9142   0.6464   3.5763  -0.4537   1.0285  -1.5443   0.00    0.0
2018/11/06 01:00:15.000  -74.407194852  163.437674084    75.5451   5   9   0.9128   0.6450   3.5641  -0.4508   1.0215  -1.5392   0.00    0.0
2018/11/06 01:00:30.000  -74.407193159  163.437667581    75.2921   5   9   0.9114   0.6438   3.5523  -0.4479   1.0146  -1.5342   0.00    0.0
2018/11/06 01:00:45.000  -74.407195057  163.437670364    76.1349   5   9   0.9101   0.6426   3.5408  -0.4451   1.0078  -1.5294   0.00    0.0
2018/11/06 01:01:00.000  -74.407195350  163.437678649    74.9664   5   9   0.9089   0.6416   3.5297  -0.4422   1.0010  -1.5247   0.00    0.0
2018/11/06 01:01:15.000  -74.407198924  163.437680546    77.7037   5  10   0.7478   0.6366   2.6718  -0.3958   0.9090  -1.0641   0.00    0.0
2018/11/06 01:01:30.000  -74.407197929  163.437672156    76.5437   5  10   0.7479   0.6360   2.6690  -0.3948   0.9058  -1.0630   0.00    0.0
2018/11/06 01:01:45.000  -74.407197738  163.437673733    76.0775   5  10   0.7481   0.6355   2.6664  -0.3937   0.9027  -1.0619   0.00    0.0
2018/11/06 01:02:00.000  -74.407199885  163.437673614    78.7479   5  10   0.7483   0.6350   2.6641  -0.3928   0.8996  -1.0609   0.00    0.0
2018/11/06 01:02:15.000  -74.407197616  163.437672543    76.7434   5  10   0.7486   0.6346   2.6620  -0.3918   0.8966  -1.0599   0.00    0.0
2018/11/06 01:02:30.000  -74.407198116  163.437673404    77.3643   5  10   0.7490   0.6343   2.6602  -0.3909   0.8936  -1.0590   0.00    0.0
2018/11/06 01:02:45.000  -74.407198262  163.437674782    77.5683   5  10   0.7479   0.6325   2.6515  -0.3890   0.8885  -1.0560   0.00    0.0
2018/11/06 01:03:00.000  -74.407199738  163.437665991    77.1815   5  10   0.7469   0.6308   2.6433  -0.3872   0.8834  -1.0531   0.00    0.0
2018/11/06 01:03:15.000  -74.407197508  163.437678225    76.8615   5  10   0.7460   0.6291   2.6352  -0.3853   0.8784  -1.0502   0.00    0.0
2018/11/06 01:03:30.000  -74.407198185  163.437674860    77.2490   5  10   0.7452   0.6276   2.6273  -0.3835   0.8734  -1.0473   0.00    0.0
2018/11/06 01:03:45.000  -74.407200137  163.437671401    77.7502   5  10   0.7444   0.6261   2.6197  -0.3818   0.8685  -1.0446   0.00    0.0
2018/11/06 01:04:00.000  -74.407199266  163.437678355    77.5218   5  10   0.7436   0.6246   2.6124  -0.3801   0.8637  -1.0419   0.00    0.0
2018/11/06 01:04:15.000  -74.407196716  163.437668818    77.1903   5  10   0.7430   0.6233   2.6053  -0.3784   0.8589  -1.0392   0.00    0.0
2018/11/06 01:04:30.000  -74.407199159  163.437674380    76.9139   5  10   0.7424   0.6220   2.5984  -0.3767   0.8541  -1.0367   0.00    0.0
2018/11/06 01:04:45.000  -74.407200301  163.437677169    77.6936   5  10   0.7419   0.6208   2.5919  -0.3751   0.8495  -1.0342   0.00    0.0
2018/11/06 01:05:00.000  -74.407200146  163.437673879    78.0194   5  10   0.7414   0.6197   2.5855  -0.3735   0.8449  -1.0318   0.00    0.0
2018/11/06 01:05:15.000  -74.407199093  163.437673701    76.5139   5  10   0.7411   0.6187   2.5797  -0.3719   0.8404  -1.0296   0.00    0.0
2018/11/06 01:05:30.000  -74.407196569  163.437673121    76.5022   5  10   0.7408   0.6178   2.5740  -0.3704   0.8360  -1.0274   0.00    0.0
2018/11/06 01:05:45.000  -74.407200424  163.437676726    77.9023   5  10   0.7406   0.6169   2.5687  -0.3689   0.8316  -1.0252   0.00    0.0
2018/11/06 01:06:00.000  -74.407197354  163.437676629    77.4249   5  10   0.7405   0.6161   2.5637  -0.3675   0.8273  -1.0232   0.00    0.0
2018/11/06 01:06:15.000  -74.407199250  163.437666881    76.8091   5  10   0.7404   0.6154   2.5590  -0.3661   0.8231  -1.0213   0.00    0.0
2018/11/06 01:06:30.000  -74.407197202  163.437671253    76.7165   5  10   0.7404   0.6148   2.5546  -0.3647   0.8189  -1.0194   0.00    0.0
2018/11/06 01:06:45.000  -74.407197180  163.437673325    77.0736   5  10   0.7404   0.6142   2.5504  -0.3633   0.8148  -1.0176   0.00    0.0
2018/11/06 01:07:00.000  -74.407197357  163.437676233    77.6495   5  10   0.7406   0.6137   2.5466  -0.3620   0.8107  -1.0159   0.00    0.0
2018/11/06 01:07:15.000  -74.407197574  163.437677074    76.3095   5  10   0.7408   0.6133   2.5431  -0.3607   0.8067  -1.0143   0.00    0.0
2018/11/06 01:07:30.000  -74.407199089  163.437678871    78.2985   5  10   0.7411   0.6130   2.5399  -0.3594   0.8028  -1.0128   0.00    0.0
2018/11/06 01:07:45.000  -74.407196875  163.437676309    76.8177   5  10   0.7399   0.6113   2.5299  -0.3573   0.7969  -1.0092   0.00    0.0
2018/11/06 01:08:00.000  -74.407199837  163.437685244    78.3872   5  10   0.7389   0.6096   2.5201  -0.3552   0.7910  -1.0056   0.00    0.0
2018/11/06 01:08:15.000  -74.407198565  163.437685207    77.4413   5  10   0.7379   0.6081   2.5107  -0.3531   0.7852  -1.0021   0.00    0.0
2018/11/06 01:08:30.000  -74.407194733  163.437668415    76.6622   5  10   0.7370   0.6066   2.5015  -0.3511   0.7796  -0.9988   0.00    0.0
2018/11/06 01:08:45.000  -74.407198727  163.437684279    77.0737   5  10   0.7362   0.6052   2.4927  -0.3491   0.7739  -0.9955   0.00    0.0
2018/11/06 01:09:00.000  -74.407197861  163.437672876    77.6224   5  10   0.7354   0.6039   2.4842  -0.3472   0.7684  -0.9923   0.00    0.0
2018/11/06 01:09:15.000  -74.407197766  163.437675943    76.9455   5  10   0.7348   0.6026   2.4760  -0.3453   0.7630  -0.9892   0.00    0.0
2018/11/06 01:09:30.000  -74.407195981  163.437670428    76.9938   5  10   0.7341   0.6015   2.4681  -0.3434   0.7576  -0.9862   0.00    0.0
2018/11/06 01:09:45.000  -74.407199460  163.437676798    76.9129   5  10   0.7336   0.6004   2.4606  -0.3415   0.7523  -0.9834   0.00    0.0
2018/11/06 01:10:00.000  -74.407198653  163.437682985    78.1276   5  10   0.7331   0.5994   2.4534  -0.3397   0.7470  -0.9806   0.00    0.0
2018/11/06 01:10:15.000  -74.407196166  163.437672037    76.7735   5  10   0.7328   0.5985   2.4468  -0.3380   0.7419  -0.9779   0.00    0.0
2018/11/06 01:10:30.000  -74.407200097  163.437674871    78.6754   5  10   0.7325   0.5977   2.4404  -0.3363   0.7369  -0.9754   0.00    0.0
2018/11/06 01:10:45.000  -74.407199281  163.437679149    77.3251   5  10   0.7323   0.5969   2.4345  -0.3346   0.7319  -0.9729   0.00    0.0
2018/11/06 01:11:00.000  -74.407198475  163.437675365    75.3383   5  10   0.7321   0.5963   2.4289  -0.3330   0.7270  -0.9706   0.00    0.0
2018/11/06 01:11:15.000  -74.407200467  163.437676511    77.3807   5  10   0.7321   0.5957   2.4236  -0.3314   0.7221  -0.9684   0.00    0.0
2018/11/06 01:11:30.000  -74.407198533  163.437685286    78.0157   5  10   0.7321   0.5952   2.4187  -0.3298   0.7173  -0.9662   0.00    0.0
2018/11/06 01:11:45.000  -74.407197331  163.437678985    75.3999   5  10   0.7321   0.5948   2.4141  -0.3283   0.7126  -0.9642   0.00    0.0
2018/11/06 01:12:00.000  -74.407197551  163.437680868    77.3191   5  10   0.7323   0.5944   2.4099  -0.3268   0.7079  -0.9622   0.00    0.0
2018/11/06 01:12:15.000  -74.407195785  163.437668294    76.3766   5  10   0.7325   0.5941   2.4061  -0.3253   0.7033  -0.9604   0.00    0.0
2018/11/06 01:12:30.000  -74.407197857  163.437684341    76.0569   5  10   0.7328   0.5939   2.4026  -0.3239   0.6987  -0.9587   0.00    0.0
2018/11/06 01:12:45.000  -74.407198159  163.437675740    76.5823   5  10   0.7317   0.5924   2.3922  -0.3217   0.6925  -0.9549   0.00    0.0
2018/11/06 01:13:00.000  -74.407195576  163.437678676    75.9989   5  10   0.7307   0.5910   2.3822  -0.3195   0.6863  -0.9512   0.00    0.0
2018/11/06 01:13:15.000  -74.407200667  163.437677870    77.8157   5  10   0.7298   0.5897   2.3725  -0.3173   0.6802  -0.9476   0.00    0.0
2018/11/06 01:13:30.000  -74.407200869  163.437681348    78.1655   5  10   0.7290   0.5884   2.3632  -0.3152   0.6742  -0.9442   0.00    0.0
2018/11/06 01:13:45.000  -74.407200023  163.437681628    77.8451   5  10   0.7282   0.5872   2.3543  -0.3132   0.6683  -0.9408   0.00    0.0
2018/11/06 01:14:00.000  -74.407198407  163.437679076    78.3002   5  10   0.7275   0.5861   2.3457  -0.3112   0.6624  -0.9376   0.00    0.0
2018/11/06 01:14:15.000  -74.407198089  163.437680848    78.0525   5  10   0.7269   0.5851   2.3375  -0.3092   0.6566  -0.9345   0.00    0.0
2018/11/06 01:14:30.000  -74.407197576  163.437674497    78.0362   5  10   0.7264   0.5842   2.3297  -0.3072   0.6509  -0.9314   0.00    0.0
2018/11/06 01:14:45.000  -74.407199293  163.437681196    78.0120   5  10   0.7259   0.5833   2.3223  -0.3053   0.6452  -0.9285   0.00    0.0
2018/11/06 01:15:00.000  -74.407200388  163.437684422    77.5959   5  10   0.7255   0.5825   2.3153  -0.3035   0.6397  -0.9257   0.00    0.0
2018/11/06 01:15:15.000  -74.407198590  163.437678817    78.2349   5  10   0.7252   0.5818   2.3088  -0.3017   0.6342  -0.9231   0.00    0.0
2018/11/06 01:15:30.000  -74.407199090  163.437674661    77.4411   5  10   0.7250   0.5812   2.3026  -0.2999   0.6288  -0.9206   0.00    0.0
2018/11/06 01:15:45.000  -74.407198411  163.437678538    77.1477   5  10   0.7249   0.5807   2.2969  -0.2982   0.6234  -0.9181   0.00    0.0
2018/11/06 01:16:00.000  -74.407199630  163.437679128    78.2229   5  10   0.7248   0.5803   2.2916  -0.2964   0.6181  -0.9158   0.00    0.0
2018/11/06 01:16:15.000  -74.407199628  163.437680587    77.6163   5  10   0.7248   0.5799   2.2866  -0.2948   0.6128  -0.9136   0.00    0.0
2018/11/06 01:16:30.000  -74.407201627  163.437674575    77.7044   5  10   0.7249   0.5796   2.2820  -0.2931   0.6076  -0.9115   0.00    0.0
2018/11/06 01:16:45.000  -74.407202515  163.437673654    77.4297   5  10   0.7250   0.5794   2.2777  -0.2915   0.6024  -0.9095   0.00    0.0
2018/11/06 01:17:00.000  -74.407201247  163.437680156    77.0990   5  10   0.7252   0.5793   2.2739  -0.2899   0.5973  -0.9076   0.00    0.0
2018/11/06 01:17:15.000  -74.407199899  163.437674151    77.5938   5  10   0.7255   0.5792   2.2704  -0.2884   0.5922  -0.9058   0.00    0.0
2018/11/06 01:17:30.000  -74.407200404  163.437674536    76.9892   5  10   0.7259   0.5792   2.2673  -0.2869   0.5871  -0.9042   0.00    0.0
2018/11/06 01:17:45.000  -74.407197279  163.437674653    77.4069   5  10   0.7249   0.5780   2.2575  -0.2846   0.5807  -0.9006   0.00    0.0
2018/11/06 01:18:00.000  -74.407200931  163.437686134    78.2978   5  10   0.7241   0.5768   2.2480  -0.2825   0.5744  -0.8971   0.00    0.0
2018/11/06 01:18:15.000  -74.407199560  163.437670438    77.5828   5  10   0.7233   0.5757   2.2389  -0.2804   0.5681  -0.8937   0.00    0.0
2018/11/06 01:18:30.000  -74.407200094  163.437677443    78.2946   5  10   0.7226   0.5748   2.2302  -0.2783   0.5619  -0.8905   0.00    0.0
2018/11/06 01:18:45.000  -74.407198628  163.437683587    77.4040   5  10   0.7220   0.5738   2.2219  -0.2763   0.5557  -0.8873   0.00    0.0
2018/11/06 01:19:00.000  -74.407199943  163.437684349    77.7504   5  10   0.7214   0.5730   2.2140  -0.2742   0.5496  -0.8843   0.00    0.0
2018/11/06 01:19:15.000  -74.407198029  163.437676651    77.5794   5  10   0.7209   0.5723   2.2065  -0.2723   0.5436  -0.8814   0.00    0.0
2018/11/06 01:19:30.000  -74.407199825  163.437673148    77.5559   5  10   0.7205   0.5716   2.1994  -0.2703   0.5375  -0.8786   0.00    0.0
2018/11/06 01:19:45.000  -74.407201204  163.437674958    78.0017   5  10   0.7201   0.5710   2.1927  -0.2684   0.5316  -0.8760   0.00    0.0
2018/11/06 01:20:00.000  -74.407199818  163.437678735    77.9171   5  10   0.7199   0.5704   2.1864  -0.2665   0.5257  -0.8734   0.00    0.0
2018/11/06 01:20:15.000  -74.407200268  163.437678817    77.9362   5  10   0.7197   0.5700   2.1806  -0.2647   0.5198  -0.8710   0.00    0.0
2018/11/06 01:20:30.000  -74.407197842  163.437676084    78.2775   5  10   0.7196   0.5697   2.1752  -0.2629   0.5140  -0.8687   0.00    0.0
2018/11/06 01:20:45.000  -74.407201467  163.437676580    78.6978   5  10   0.7196   0.5694   2.1702  -0.2612   0.5081  -0.8665   0.00    0.0
2018/11/06 01:21:00.000  -74.407198655  163.437680909    77.9412   5  10   0.7196   0.5692   2.1656  -0.2594   0.5023  -0.8644   0.00    0.0
2018/11/06 01:21:15.000  -74.407198161  163.437673058    77.7496   5  10   0.7197   0.5691   2.1613  -0.2577   0.4966  -0.8624   0.00    0.0
2018/11/06 01:21:30.000  -74.407201733  163.437675470    79.0140   5  10   0.7199   0.5690   2.1575  -0.2560   0.4908  -0.8605   0.00    0.0
2018/11/06 01:21:45.000  -74.407200143  163.437675348    77.6604   5  10   0.7202   0.5691   2.1540  -0.2544   0.4850  -0.8587   0.00    0.0
2018/11/06 01:22:00.000  -74.407197893  163.437677087    78.6115   5  10   0.7205   0.5692   2.1509  -0.2527   0.4793  -0.8570   0.00    0.0
2018/11/06 01:22:15.000  -74.407199339  163.437683083    77.8898   5  11   0.6212   0.5519   1.8030  -0.1093   0.2469  -0.5520   0.00    0.0
2018/11/06 01:22:30.000  -74.407200042  163.437682946    78.3152   5  11   0.6217   0.5524   1.8036  -0.1072   0.2395  -0.5514   0.00    0.0
2018/11/06 01:22:45.000  -74.407200276  163.437676198    78.7860   5  11   0.6213   0.5518   1.7990  -0.1049   0.2324  -0.5504   0.00    0.0
2018/11/06 01:23:00.000  -74.407200139  163.437672305    78.1550   5  11   0.6209   0.5512   1.7948  -0.1026   0.2249  -0.5494   0.00    0.0
2018/11/06 01:23:15.000  -74.407201179  163.437685068    77.6555   5  11   0.6206   0.5507   1.7908  -0.1002   0.2172  -0.5485   0.00    0.0
2018/11/06 01:23:30.000  -74.407199991  163.437673280    77.6046   5  11   0.6203   0.5503   1.7872  -0.0979   0.2092  -0.5475   0.00    0.0
2018/11/06 01:23:45.000  -74.407197755  163.437672150    77.7844   5  11   0.6201   0.5499   1.7839  -0.0954   0.2009  -0.5467   0.00    0.0
2018/11/06 01:24:00.000  -74.407199368  163.437675006    77.0550   5  11   0.6199   0.5496   1.7808  -0.0929   0.1923  -0.5458   0.00    0.0
2018/11/06 01:24:15.000  -74.407199482  163.437677338    77.6271   5  11   0.6198   0.5493   1.7780  -0.0904   0.1833  -0.5450   0.00    0.0
2018/11/06 01:24:30.000  -74.407200278  163.437679713    77.4457   5  11   0.6197   0.5492   1.7755  -0.0878   0.1738  -0.5443   0.00    0.0
2018/11/06 01:24:45.000  -74.407200302  163.437679740    77.7827   5  11   0.6197   0.5490   1.7733  -0.0851   0.1637  -0.5435   0.00    0.0
2018/11/06 01:25:00.000  -74.407200133  163.437676150    77.1613   5  11   0.6198   0.5490   1.7714  -0.0823   0.1529  -0.5428   0.00    0.0
2018/11/06 01:25:15.000  -74.407202171  163.437683918    78.2740   5  11   0.6199   0.5491   1.7699  -0.0794   0.1413  -0.5422   0.00    0.0
2018/11/06 01:25:30.000  -74.407199348  163.437678657    77.6866   5  11   0.6200   0.5492   1.7687  -0.0765   0.1286  -0.5416   0.00    0.0
2018/11/06 01:25:45.000  -74.407200058  163.437678151    77.8969   5  11   0.6203   0.5494   1.7678  -0.0734   0.1144  -0.5410   0.00    0.0
2018/11/06 01:26:00.000  -74.407200657  163.437676875    77.7251   5  11   0.6205   0.5496   1.7672  -0.0702   0.0981  -0.5405   0.00    0.0
2018/11/06 01:26:15.000  -74.407199841  163.437671710    77.6556   5  12   0.6134   0.5273   1.7006  -0.1396  -0.2622  -0.5812   0.00    0.0
2018/11/06 01:26:30.000  -74.407200195  163.437671566    77.8795   5  12   0.6136   0.5277   1.7017  -0.1385  -0.2678  -0.5809   0.00    0.0
2018/11/06 01:26:45.000  -74.407197975  163.437673347    77.2555   5  12   0.6139   0.5281   1.7030  -0.1374  -0.2735  -0.5806   0.00    0.0
2018/11/06 01:27:00.000  -74.407200667  163.437675631    78.0115   5  12   0.6142   0.5286   1.7046  -0.1363  -0.2791  -0.5803   0.00    0.0
2018/11/06 01:27:15.000  -74.407199674  163.437667043    78.0428   5  12   0.6146   0.5291   1.7064  -0.1352  -0.2847  -0.5801   0.00    0.0
2018/11/06 01:27:30.000  -74.407200327  163.437679657    77.9582   5  12   0.6151   0.5297   1.7086  -0.1341  -0.2903  -0.5799   0.00    0.0
2018/11/06 01:27:45.000  -74.407200997  163.437674065    78.4481   5  12   0.6146   0.5293   1.7060  -0.1328  -0.2943  -0.5791   0.00    0.0
2018/11/06 01:28:00.000  -74.407201122  163.437677110    77.9969   5  12   0.6142   0.5289   1.7034  -0.1314  -0.2982  -0.5782   0.00    0.0
2018/11/06 01:28:15.000  -74.407200788  163.437673866    77.9213   5  12   0.6138   0.5285   1.7012  -0.1300  -0.3022  -0.5774   0.00    0.0
2018/11/06 01:28:30.000  -74.407200567  163.437689812    78.0311   5  12   0.6135   0.5282   1.6992  -0.1286  -0.3061  -0.5767   0.00    0.0
2018/11/06 01:28:45.000  -74.407199912  163.437682913    78.3396   5  12   0.6132   0.5280   1.6975  -0.1272  -0.3101  -0.5760   0.00    0.0
2018/11/06 01:29:00.000  -74.407200321  163.437675174    78.1752   5  12   0.6130   0.5278   1.6961  -0.1259  -0.3141  -0.5753   0.00    0.0
2018/11/06 01:29:15.000  -74.407199662  163.437674386    78.2017   5  12   0.6128   0.5277   1.6950  -0.1245  -0.3181  -0.5747   0.00    0.0
2018/11/06 01:29:30.000  -74.407202670  163.437680791    78.2394   5  12   0.6127   0.5277   1.6941  -0.1231  -0.3221  -0.5741   0.00    0.0
2018/11/06 01:29:45.000  -74.407201626  163.437677213    77.9645   5  12   0.6126   0.5277   1.6935  -0.1218  -0.3262  -0.5736   0.00    0.0
2018/11/06 01:30:00.000  -74.407203106  163.437676847    77.6603   5  12   0.6126   0.5278   1.6932  -0.1204  -0.3303  -0.5731   0.00    0.0
2018/11/06 01:30:15.000  -74.407200704  163.437683417    77.2202   5  12   0.6126   0.5280   1.6933  -0.1190  -0.3344  -0.5727   0.00    0.0
2018/11/06 01:30:30.000  -74.407200197  163.437684298    77.2943   5  12   0.6127   0.5282   1.6937  -0.1177  -0.3386  -0.5723   0.00    0.0
2018/11/06 01:30:45.000  -74.407202154  163.437674489    77.5613   5  12   0.6129   0.5285   1.6943  -0.1164  -0.3428  -0.5720   0.00    0.0
2018/11/06 01:31:00.000  -74.407202261  163.437677262    77.7728   5  12   0.6131   0.5288   1.6953  -0.1150  -0.3471  -0.5717   0.00    0.0
2018/11/06 01:31:15.000  -74.407201301  163.437676342    77.6502   5  12   0.6133   0.5292   1.6965  -0.1137  -0.3513  -0.5715   0.00    0.0
2018/11/06 01:31:30.000  -74.407202200  163.437676348    78.1989   5  12   0.6136   0.5297   1.6980  -0.1123  -0.3556  -0.5713   0.00    0.0
2018/11/06 01:31:45.000  -74.407201999  163.437678703    77.7106   5  12   0.6140   0.5302   1.6998  -0.1110  -0.3600  -0.5711   0.00    0.0
2018/11/06 01:32:00.000  -74.407202178  163.437680234    77.2791   5  12   0.6144   0.5308   1.7019  -0.1096  -0.3644  -0.5711   0.00    0.0
2018/11/06 01:32:15.000  -74.407202309  163.437676795    76.9606   5  12   0.6148   0.5315   1.7043  -0.1083  -0.3688  -0.5710   0.00    0.0
2018/11/06 01:32:30.000  -74.407203300  163.437673334    77.4465   5  12   0.6153   0.5322   1.7069  -0.1070  -0.3733  -0.5710   0.00    0.0
2018/11/06 01:32:45.000  -74.407203159  163.437673869    77.9748   5  12   0.6149   0.5318   1.7046  -0.1053  -0.3762  -0.5703   0.00    0.0
2018/11/06 01:33:00.000  -74.407201850  163.437683498    77.5996   5  12   0.6145   0.5315   1.7024  -0.1036  -0.3791  -0.5696   0.00    0.0
2018/11/06 01:33:15.000  -74.407201366  163.437679601    77.3185   5  12   0.6142   0.5313   1.7006  -0.1019  -0.3821  -0.5689   0.00    0.0
2018/11/06 01:33:30.000  -74.407201304  163.437681374    77.2452   5  12   0.6139   0.5311   1.6990  -0.1002  -0.3851  -0.5683   0.00    0.0
2018/11/06 01:33:45.000  -74.407201500  163.437672419    77.8015   5  12   0.6137   0.5310   1.6977  -0.0984  -0.3881  -0.5678   0.00    0.0
2018/11/06 01:34:00.000  -74.407203244  163.437678664    78.0959   5  12   0.6136   0.5310   1.6966  -0.0967  -0.3912  -0.5673   0.00    0.0
2018/11/06 01:34:15.000  -74.407200136  163.437673620    77.6591   5  12   0.6134   0.5310   1.6959  -0.0950  -0.3944  -0.5668   0.00    0.0
2018/11/06 01:34:30.000  -74.407200922  163.437674903    78.5514   5  12   0.6134   0.5310   1.6954  -0.0932  -0.3976  -0.5664   0.00    0.0
2018/11/06 01:34:45.000  -74.407201397  163.437677993    78.5539   5  12   0.6134   0.5311   1.6952  -0.0914  -0.4009  -0.5660   0.00    0.0
2018/11/06 01:35:00.000  -74.407198848  163.437674816    77.6625   5  12   0.6134   0.5313   1.6953  -0.0896  -0.4042  -0.5657   0.00    0.0
2018/11/06 01:35:15.000  -74.407201997  163.437673573    78.0999   5  12   0.6135   0.5316   1.6959  -0.0878  -0.4076  -0.5655   0.00    0.0
2018/11/06 01:35:30.000  -74.407201884  163.437678269    77.5321   5  12   0.6136   0.5319   1.6967  -0.0860  -0.4110  -0.5652   0.00    0.0
2018/11/06 01:35:45.000  -74.407200254  163.437669039    77.5587   5  12   0.6138   0.5323   1.6978  -0.0842  -0.4145  -0.5651   0.00    0.0
2018/11/06 01:36:00.000  -74.407200717  163.437678268    78.3277   5  12   0.6141   0.5328   1.6992  -0.0824  -0.4180  -0.5650   0.00    0.0
2018/11/06 01:36:15.000  -74.407201495  163.437670227    77.9053   5  12   0.6144   0.5333   1.7009  -0.0805  -0.4216  -0.5649   0.00    0.0
2018/11/06 01:36:30.000  -74.407200444  163.437681276    78.4304   5  12   0.6148   0.5339   1.7028  -0.0786  -0.4253  -0.5649   0.00    0.0
2018/11/06 01:36:45.000  -74.407200751  163.437670637    77.1608   5  12   0.6152   0.5345   1.7051  -0.0766  -0.4290  -0.5649   0.00    0.0
2018/11/06 01:37:00.000  -74.407199665  163.437672914    77.3849   5  12   0.6156   0.5352   1.7076  -0.0747  -0.4328  -0.5650   0.00    0.0
2018/11/06 01:37:15.000  -74.407201156  163.437673798    77.9191   5  12   0.6161   0.5360   1.7104  -0.0727  -0.4366  -0.5651   0.00    0.0
2018/11/06 01:37:30.000  -74.407200627  163.437682504    77.4327   5  12   0.6167   0.5368   1.7135  -0.0706  -0.4405  -0.5652   0.00    0.0
2018/11/06 01:37:45.000  -74.407201543  163.437679735    77.8927   5  12   0.6163   0.5365   1.7115  -0.0682  -0.4428  -0.5647   0.00    0.0
2018/11/06 01:38:00.000  -74.407199728  163.437676117    77.7359   5  12   0.6160   0.5363   1.7097  -0.0656  -0.4452  -0.5641   0.00    0.0
2018/11/06 01:38:15.000  -74.407198938  163.437672753    77.0958   5  12   0.6157   0.5362   1.7083  -0.0629  -0.4476  -0.5637   0.00    0.0
2018/11/06 01:38:30.000  -74.407199849  163.437673578    77.6027   5  12   0.6155   0.5361   1.7071  -0.0601  -0.4501  -0.5632   0.00    0.0
2018/11/06 01:38:45.000  -74.407200418  163.437673237    77.0207   5  12   0.6154   0.5361   1.7062  -0.0572  -0.4526  -0.5628   0.00    0.0
2018/11/06 01:39:00.000  -74.407199721  163.437675471    76.9929   5  12   0.6152   0.5361   1.7055  -0.0542  -0.4552  -0.5625   0.00    0.0
2018/11/06 01:39:15.000  -74.407200419  163.437680892    77.5849   5  12   0.6152   0.5362   1.7052  -0.0511  -0.4579  -0.5622   0.00    0.0
2018/11/06 01:39:30.000  -74.407201298  163.437670931    77.5088   5  12   0.6152   0.5364   1.7051  -0.0477  -0.4606  -0.5620   0.00    0.0
2018/11/06 01:39:45.000  -74.407201547  163.437677919    76.9911   5  12   0.6152   0.5366   1.7054  -0.0442  -0.4634  -0.5618   0.00    0.0
2018/11/06 01:40:00.000  -74.407200138  163.437675527    77.0904   5  12   0.6153   0.5368   1.7059  -0.0403  -0.4663  -0.5616   0.00    0.0
2018/11/06 01:40:15.000  -74.407201762  163.437671260    78.0126   5  12   0.6155   0.5372   1.7068  -0.0362  -0.4692  -0.5616   0.00    0.0
2018/11/06 01:40:30.000  -74.407200683  163.437675026    76.8705   5  12   0.6157   0.5376   1.7081  -0.0316  -0.4722  -0.5615   0.00    0.0
2018/11/06 01:40:45.000  -74.407200540  163.437674936    77.4201   5  12   0.6159   0.5381   1.7096  -0.0262  -0.4752  -0.5615   0.00    0.0
2018/11/06 01:41:00.000  -74.407202472  163.437670946    78.3057   5  12   0.6162   0.5387   1.7114  -0.0194  -0.4784  -0.5616   0.00    0.0
2018/11/06 01:41:15.000  -74.407204044  163.437678367    77.3183   5  12   0.6166   0.5393   1.7134  -0.0083  -0.4816  -0.5617   0.00    0.0
2018/11/06 01:41:30.000  -74.407202538  163.437674757    78.0005   5  12   0.6170   0.5399   1.7158   0.0154  -0.4848  -0.5618   0.00    0.0
2018/11/06 01:41:45.000  -74.407198646  163.437674186    76.9632   5  12   0.6175   0.5406   1.7184   0.0232  -0.4881  -0.5620   0.00    0.0
2018/11/06 01:42:00.000  -74.407202008  163.437674570    78.4709   5  12   0.6180   0.5414   1.7213   0.0290  -0.4915  -0.5622   0.00    0.0
2018/11/06 01:42:15.000  -74.407200867  163.437675397    77.8070   5  12   0.6185   0.5423   1.7245   0.0338  -0.4949  -0.5625   0.00    0.0
2018/11/06 01:42:30.000  -74.407202738  163.437677907    76.8355   5  12   0.6191   0.5432   1.7280   0.0379  -0.4984  -0.5628   0.00    0.0
2018/11/06 01:42:45.000  -74.407202109  163.437675586    77.6622   5  12   0.6189   0.5430   1.7263   0.0424  -0.5003  -0.5625   0.00    0.0
2018/11/06 01:43:00.000  -74.407198610  163.437675552    77.0025   5  12   0.6186   0.5428   1.7249   0.0463  -0.5023  -0.5621   0.00    0.0
2018/11/06 01:43:15.000  -74.407202224  163.437678818    78.0446   5  12   0.6184   0.5428   1.7238   0.0498  -0.5044  -0.5618   0.00    0.0
2018/11/06 01:43:30.000  -74.407202514  163.437682188    77.7037   5  12   0.6182   0.5428   1.7231   0.0531  -0.5065  -0.5616   0.00    0.0
2018/11/06 01:43:45.000  -74.407201448  163.437681684    78.2084   5  12   0.6181   0.5428   1.7225   0.0562  -0.5087  -0.5614   0.00    0.0
2018/11/06 01:44:00.000  -74.407201344  163.437678482    77.7037   5  12   0.6181   0.5429   1.7223   0.0591  -0.5110  -0.5612   0.00    0.0
2018/11/06 01:44:15.000  -74.407201051  163.437678760    77.9214   5  12   0.6180   0.5431   1.7224   0.0618  -0.5133  -0.5611   0.00    0.0
