% program   : RTKLIB ver.2.4.3
% inp file  : _by_type/_obs/blake/20181109.18o
% inp file  : _by_type/_obs/base/20181109.18o
% inp file  : _by_type/_sp3+clk/igs20265.clk
% inp file  : _by_type/_sp3+clk/igs20265.sp3
% inp file  : _by_type/_nav/blake/20181109.18n
% obs start : 2018/11/09 00:00:00.0 GPST (week2026 432000.0s)
% obs end   : 2018/11/09 23:59:45.0 GPST (week2026 518385.0s)
% pos mode  : dgps
% freqs     : L1+L2
% solution  : combined
% elev mask : 15.0 deg
% dynamics  : off
% tidecorr  : off
% ionos opt : iono-free
% tropo opt : est ztd+grad
% ephemeris : precise
% navi sys  : gps glonass
% antenna1  :                       ( 0.0000  0.0000  0.0000)
% antenna2  :                       ( 0.0000  0.0000  0.0000)
% ref pos   : 90.000000000   0.000000000-6335367.6285
%
% (lat/lon/height=WGS84/ellipsoidal,Q=1:fix,2:float,3:sbas,4:dgps,5:single,6:ppp,ns=# of satellites)
%  GPST                  latitude(deg) longitude(deg)  height(m)   Q  ns   sdn(m)   sde(m)   sdu(m)  sdne(m)  sdeu(m)  sdun(m) age(s)  ratio
2018/11/09 00:00:00.000  -74.407211859  163.437633627    80.0924   5   9   0.6755   0.6146   2.2402  -0.2021   0.4997  -0.7744   0.00    0.0
2018/11/09 00:00:15.000  -74.407210863  163.437637830    78.5103   5   9   0.6755   0.6148   2.2458  -0.2032   0.5041  -0.7759   0.00    0.0
2018/11/09 00:00:30.000  -74.407213272  163.437640093    79.4361   5   9   0.6755   0.6151   2.2518  -0.2044   0.5085  -0.7775   0.00    0.0
2018/11/09 00:00:45.000  -74.407212554  163.437632023    79.4509   5   9   0.6756   0.6155   2.2580  -0.2056   0.5130  -0.7793   0.00    0.0
2018/11/09 00:01:00.000  -74.407212485  163.437645983    79.7449   5   9   0.6758   0.6160   2.2646  -0.2069   0.5177  -0.7811   0.00    0.0
2018/11/09 00:01:15.000  -74.407214154  163.437624005    79.8731   5   9   0.6760   0.6166   2.2715  -0.2082   0.5224  -0.7830   0.00    0.0
2018/11/09 00:01:30.000  -74.407212848  163.437634687    79.4591   5   9   0.6764   0.6173   2.2787  -0.2096   0.5273  -0.7850   0.00    0.0
2018/11/09 00:01:45.000  -74.407213641  163.437634495    79.7393   5   9   0.6768   0.6180   2.2862  -0.2110   0.5323  -0.7871   0.00    0.0
2018/11/09 00:02:00.000  -74.407213809  163.437640158    79.2126   5   9   0.6773   0.6189   2.2940  -0.2125   0.5374  -0.7894   0.00    0.0
2018/11/09 00:02:15.000  -74.407212910  163.437632180    80.0844   5   9   0.6779   0.6198   2.3022  -0.2141   0.5426  -0.7917   0.00    0.0
2018/11/09 00:02:30.000  -74.407212272  163.437636414    78.7479   5   9   0.6785   0.6209   2.3106  -0.2157   0.5479  -0.7941   0.00    0.0
2018/11/09 00:02:45.000  -74.407212394  163.437629723    79.0270   5   9   0.6778   0.6203   2.3134  -0.2163   0.5512  -0.7949   0.00    0.0
2018/11/09 00:03:00.000  -74.407213784  163.437637763    80.0026   5   9   0.6772   0.6198   2.3167  -0.2170   0.5545  -0.7958   0.00    0.0
2018/11/09 00:03:15.000  -74.407211183  163.437623128    78.5284   5   9   0.6766   0.6194   2.3202  -0.2178   0.5580  -0.7969   0.00    0.0
2018/11/09 00:03:30.000  -74.407209357  163.437636840    78.0672   5  10   0.6535   0.6096   2.0733  -0.2580   0.6548  -0.6741   0.00    0.0
2018/11/09 00:03:45.000  -74.407211877  163.437631986    77.5758   5  10   0.6531   0.6095   2.0779  -0.2585   0.6577  -0.6757   0.00    0.0
2018/11/09 00:04:00.000  -74.407210491  163.437642627    78.1163   5  10   0.6529   0.6094   2.0828  -0.2592   0.6606  -0.6773   0.00    0.0
2018/11/09 00:04:15.000  -74.407209264  163.437639517    77.5260   5  10   0.6526   0.6094   2.0879  -0.2599   0.6637  -0.6791   0.00    0.0
2018/11/09 00:04:30.000  -74.407210773  163.437645649    78.2190   5  10   0.6525   0.6095   2.0933  -0.2606   0.6670  -0.6809   0.00    0.0
2018/11/09 00:04:45.000  -74.407211316  163.437646077    78.4444   5  10   0.6525   0.6097   2.0990  -0.2614   0.6703  -0.6828   0.00    0.0
2018/11/09 00:05:00.000  -74.407209037  163.437637211    77.2208   5  10   0.6525   0.6100   2.1050  -0.2623   0.6738  -0.6849   0.00    0.0
2018/11/09 00:05:15.000  -74.407210381  163.437634707    78.1015   5  10   0.6526   0.6105   2.1115  -0.2633   0.6774  -0.6870   0.00    0.0
2018/11/09 00:05:30.000  -74.407211923  163.437638714    78.0513   5  10   0.6528   0.6110   2.1182  -0.2643   0.6812  -0.6893   0.00    0.0
2018/11/09 00:05:45.000  -74.407211754  163.437642391    78.7500   5  10   0.6531   0.6116   2.1252  -0.2654   0.6852  -0.6916   0.00    0.0
2018/11/09 00:06:00.000  -74.407210020  163.437648347    79.2187   5  10   0.6534   0.6123   2.1326  -0.2666   0.6892  -0.6941   0.00    0.0
2018/11/09 00:06:15.000  -74.407210423  163.437644033    78.4081   5  10   0.6539   0.6131   2.1402  -0.2678   0.6934  -0.6966   0.00    0.0
2018/11/09 00:06:30.000  -74.407208844  163.437640858    78.0550   5  10   0.6544   0.6140   2.1482  -0.2691   0.6978  -0.6993   0.00    0.0
2018/11/09 00:06:45.000  -74.407210770  163.437642487    77.9705   5  10   0.6550   0.6150   2.1564  -0.2705   0.7022  -0.7020   0.00    0.0
2018/11/09 00:07:00.000  -74.407210282  163.437645968    78.6860   5  10   0.6556   0.6161   2.1650  -0.2719   0.7068  -0.7049   0.00    0.0
2018/11/09 00:07:15.000  -74.407210331  163.437644970    78.4995   5  10   0.6564   0.6172   2.1739  -0.2734   0.7116  -0.7078   0.00    0.0
2018/11/09 00:07:30.000  -74.407208827  163.437641255    77.9549   5  10   0.6572   0.6185   2.1831  -0.2750   0.7164  -0.7109   0.00    0.0
2018/11/09 00:07:45.000  -74.407211139  163.437638485    77.7794   5  10   0.6567   0.6181   2.1871  -0.2755   0.7189  -0.7125   0.00    0.0
2018/11/09 00:08:00.000  -74.407212880  163.437639326    78.6992   5  10   0.6563   0.6179   2.1914  -0.2760   0.7215  -0.7143   0.00    0.0
2018/11/09 00:08:15.000  -74.407208418  163.437647201    78.6964   5  10   0.6559   0.6177   2.1959  -0.2766   0.7242  -0.7161   0.00    0.0
2018/11/09 00:08:30.000  -74.407210463  163.437646471    79.5609   5  10   0.6557   0.6175   2.2007  -0.2773   0.7271  -0.7180   0.00    0.0
2018/11/09 00:08:45.000  -74.407211975  163.437644979    78.3040   5  10   0.6555   0.6175   2.2057  -0.2780   0.7300  -0.7199   0.00    0.0
2018/11/09 00:09:00.000  -74.407211684  163.437634024    78.5639   5  10   0.6553   0.6176   2.2111  -0.2788   0.7331  -0.7220   0.00    0.0
2018/11/09 00:09:15.000  -74.407209399  163.437635228    77.8115   5  10   0.6553   0.6178   2.2168  -0.2797   0.7363  -0.7242   0.00    0.0
2018/11/09 00:09:30.000  -74.407210662  163.437641395    78.3449   5  10   0.6553   0.6180   2.2227  -0.2806   0.7396  -0.7265   0.00    0.0
2018/11/09 00:09:45.000  -74.407212933  163.437646585    78.0516   5  10   0.6555   0.6184   2.2289  -0.2816   0.7430  -0.7288   0.00    0.0
2018/11/09 00:10:00.000  -74.407209911  163.437644757    78.3419   5  10   0.6556   0.6188   2.2355  -0.2827   0.7466  -0.7313   0.00    0.0
2018/11/09 00:10:15.000  -74.407209930  163.437638966    78.7775   5  10   0.6559   0.6194   2.2425  -0.2838   0.7504  -0.7339   0.00    0.0
2018/11/09 00:10:30.000  -74.407212225  163.437643563    78.9689   5  10   0.6563   0.6200   2.2498  -0.2850   0.7544  -0.7366   0.00    0.0
2018/11/09 00:10:45.000  -74.407211299  163.437638088    79.3413   5  10   0.6568   0.6208   2.2574  -0.2863   0.7584  -0.7394   0.00    0.0
2018/11/09 00:11:00.000  -74.407211482  163.437639714    79.0563   5  10   0.6573   0.6217   2.2653  -0.2877   0.7626  -0.7423   0.00    0.0
2018/11/09 00:11:15.000  -74.407211777  163.437637437    78.2046   5  10   0.6579   0.6226   2.2735  -0.2891   0.7669  -0.7453   0.00    0.0
2018/11/09 00:11:30.000  -74.407211001  163.437645600    78.4049   5  10   0.6586   0.6237   2.2820  -0.2906   0.7714  -0.7485   0.00    0.0
2018/11/09 00:11:45.000  -74.407213812  163.437645466    78.4525   5  10   0.6594   0.6248   2.2908  -0.2921   0.7760  -0.7517   0.00    0.0
2018/11/09 00:12:00.000  -74.407213532  163.437641931    78.1618   5  10   0.6602   0.6260   2.3000  -0.2937   0.7807  -0.7550   0.00    0.0
2018/11/09 00:12:15.000  -74.407212395  163.437636601    78.3644   5  10   0.6611   0.6273   2.3094  -0.2954   0.7856  -0.7584   0.00    0.0
2018/11/09 00:12:30.000  -74.407211701  163.437648914    78.8968   5  10   0.6621   0.6288   2.3191  -0.2971   0.7905  -0.7619   0.00    0.0
2018/11/09 00:12:45.000  -74.407212240  163.437642563    77.9614   5  10   0.6618   0.6285   2.3232  -0.2977   0.7929  -0.7639   0.00    0.0
2018/11/09 00:13:00.000  -74.407212103  163.437647220    78.6259   5  10   0.6615   0.6283   2.3276  -0.2984   0.7955  -0.7659   0.00    0.0
2018/11/09 00:13:15.000  -74.407211107  163.437642676    77.1205   5  10   0.6614   0.6282   2.3322  -0.2991   0.7981  -0.7680   0.00    0.0
2018/11/09 00:13:30.000  -74.407214311  163.437645973    78.8661   5  10   0.6613   0.6282   2.3372  -0.2999   0.8008  -0.7702   0.00    0.0
2018/11/09 00:13:45.000  -74.407211694  163.437644014    78.8919   5  10   0.6612   0.6283   2.3423  -0.3008   0.8037  -0.7725   0.00    0.0
2018/11/09 00:14:00.000  -74.407213828  163.437641798    78.7705   5  10   0.6613   0.6284   2.3478  -0.3017   0.8067  -0.7748   0.00    0.0
2018/11/09 00:14:15.000  -74.407213017  163.437645753    78.6809   5  10   0.6614   0.6287   2.3536  -0.3027   0.8098  -0.7773   0.00    0.0
2018/11/09 00:14:30.000  -74.407209626  163.437644260    78.5022   5  10   0.6616   0.6290   2.3596  -0.3037   0.8131  -0.7799   0.00    0.0
2018/11/09 00:14:45.000  -74.407213106  163.437644352    78.6398   5  10   0.6619   0.6295   2.3659  -0.3048   0.8164  -0.7825   0.00    0.0
2018/11/09 00:15:00.000  -74.407211980  163.437643447    79.0000   5  10   0.6622   0.6300   2.3725  -0.3060   0.8199  -0.7853   0.00    0.0
2018/11/09 00:15:15.000  -74.407211008  163.437646966    78.8871   5  10   0.6627   0.6307   2.3796  -0.3073   0.8236  -0.7882   0.00    0.0
2018/11/09 00:15:30.000  -74.407213495  163.437646603    78.7150   5  10   0.6633   0.6315   2.3869  -0.3086   0.8274  -0.7912   0.00    0.0
2018/11/09 00:15:45.000  -74.407210002  163.437648290    78.9287   5  10   0.6639   0.6323   2.3945  -0.3100   0.8314  -0.7943   0.00    0.0
2018/11/09 00:16:00.000  -74.407212785  163.437649689    79.2451   5  10   0.6646   0.6333   2.4024  -0.3114   0.8354  -0.7974   0.00    0.0
2018/11/09 00:16:15.000  -74.407211178  163.437645612    78.7646   5  10   0.6654   0.6343   2.4106  -0.3129   0.8396  -0.8007   0.00    0.0
2018/11/09 00:16:30.000  -74.407214240  163.437650192    79.4785   5  10   0.6662   0.6354   2.4190  -0.3145   0.8439  -0.8041   0.00    0.0
2018/11/09 00:16:45.000  -74.407214058  163.437647550    79.4377   5  10   0.6672   0.6366   2.4278  -0.3161   0.8483  -0.8076   0.00    0.0
2018/11/09 00:17:00.000  -74.407214267  163.437639307    78.5263   5  10   0.6682   0.6380   2.4368  -0.3178   0.8529  -0.8111   0.00    0.0
2018/11/09 00:17:15.000  -74.407213162  163.437648203    78.6505   5  10   0.6693   0.6394   2.4460  -0.3196   0.8575  -0.8148   0.00    0.0
2018/11/09 00:17:30.000  -74.407214124  163.437642391    78.2812   5  10   0.6705   0.6408   2.4556  -0.3214   0.8623  -0.8186   0.00    0.0
2018/11/09 00:17:45.000  -74.407214218  163.437649919    78.9521   5  11   0.6574   0.6406   2.3638  -0.3207   0.8669  -0.8728   0.00    0.0
2018/11/09 00:18:00.000  -74.407214567  163.437647009    78.5791   5  11   0.6573   0.6404   2.3682  -0.3215   0.8690  -0.8748   0.00    0.0
2018/11/09 00:18:15.000  -74.407213070  163.437646875    77.9465   5  11   0.6572   0.6403   2.3729  -0.3223   0.8712  -0.8768   0.00    0.0
2018/11/09 00:18:30.000  -74.407215877  163.437640599    78.2742   5  11   0.6572   0.6404   2.3778  -0.3232   0.8735  -0.8789   0.00    0.0
2018/11/09 00:18:45.000  -74.407213775  163.437641492    78.9470   5  11   0.6572   0.6405   2.3830  -0.3241   0.8759  -0.8812   0.00    0.0
2018/11/09 00:19:00.000  -74.407214773  163.437645727    79.6005   5  11   0.6574   0.6407   2.3884  -0.3250   0.8784  -0.8835   0.00    0.0
2018/11/09 00:19:15.000  -74.407212279  163.437643611    77.8735   5  11   0.6576   0.6409   2.3941  -0.3261   0.8810  -0.8859   0.00    0.0
2018/11/09 00:19:30.000  -74.407213765  163.437646228    78.1118   5  11   0.6578   0.6413   2.4000  -0.3272   0.8837  -0.8884   0.00    0.0
2018/11/09 00:19:45.000  -74.407214521  163.437644911    78.6588   5  11   0.6582   0.6417   2.4061  -0.3283   0.8866  -0.8910   0.00    0.0
2018/11/09 00:20:00.000  -74.407211958  163.437637000    78.6129   5  11   0.6586   0.6423   2.4125  -0.3295   0.8895  -0.8936   0.00    0.0
2018/11/09 00:20:15.000  -74.407213320  163.437640828    78.1946   5  11   0.6591   0.6429   2.4193  -0.3307   0.8927  -0.8965   0.00    0.0
2018/11/09 00:20:30.000  -74.407212127  163.437643899    78.4727   5  11   0.6597   0.6437   2.4264  -0.3321   0.8960  -0.8994   0.00    0.0
2018/11/09 00:20:45.000  -74.407212653  163.437637374    77.7246   5  11   0.6604   0.6445   2.4336  -0.3334   0.8993  -0.9024   0.00    0.0
2018/11/09 00:21:00.000  -74.407214659  163.437652938    78.9051   5  11   0.6611   0.6455   2.4411  -0.3348   0.9028  -0.9055   0.00    0.0
2018/11/09 00:21:15.000  -74.407213435  163.437642341    77.5236   5  11   0.6619   0.6465   2.4489  -0.3363   0.9064  -0.9086   0.00    0.0
2018/11/09 00:21:30.000  -74.407213429  163.437654440    78.6841   5  11   0.6628   0.6475   2.4569  -0.3378   0.9100  -0.9119   0.00    0.0
2018/11/09 00:21:45.000  -74.407214222  163.437642331    79.1943   5  11   0.6637   0.6487   2.4651  -0.3394   0.9138  -0.9152   0.00    0.0
2018/11/09 00:22:00.000  -74.407212584  163.437643664    77.7617   5  11   0.6647   0.6500   2.4735  -0.3410   0.9176  -0.9187   0.00    0.0
2018/11/09 00:22:15.000  -74.407211746  163.437646568    77.7365   5  11   0.6658   0.6513   2.4821  -0.3426   0.9216  -0.9222   0.00    0.0
2018/11/09 00:22:30.000  -74.407212770  163.437638862    78.6684   5  11   0.6669   0.6527   2.4910  -0.3443   0.9256  -0.9257   0.00    0.0
2018/11/09 00:22:45.000  -74.407215693  163.437644924    79.4105   5  11   0.6668   0.6524   2.4939  -0.3448   0.9269  -0.9273   0.00    0.0
2018/11/09 00:23:00.000  -74.407214348  163.437647617    78.7397   5  11   0.6667   0.6521   2.4971  -0.3454   0.9283  -0.9289   0.00    0.0
2018/11/09 00:23:15.000  -74.407213657  163.437653072    79.6013   5  11   0.6667   0.6520   2.5006  -0.3461   0.9297  -0.9307   0.00    0.0
2018/11/09 00:23:30.000  -74.407209621  163.437640897    78.3899   5  11   0.6667   0.6519   2.5042  -0.3468   0.9313  -0.9325   0.00    0.0
2018/11/09 00:23:45.000  -74.407212279  163.437641798    78.6340   5  11   0.6668   0.6518   2.5080  -0.3475   0.9330  -0.9343   0.00    0.0
2018/11/09 00:24:00.000  -74.407212904  163.437639942    79.2286   5  11   0.6670   0.6519   2.5120  -0.3482   0.9347  -0.9363   0.00    0.0
2018/11/09 00:24:15.000  -74.407212788  163.437644700    78.8780   5  11   0.6672   0.6521   2.5162  -0.3491   0.9366  -0.9383   0.00    0.0
2018/11/09 00:24:30.000  -74.407210400  163.437641564    78.1946   5  11   0.6675   0.6523   2.5206  -0.3499   0.9385  -0.9404   0.00    0.0
2018/11/09 00:24:45.000  -74.407214147  163.437634973    78.5104   5  11   0.6679   0.6526   2.5252  -0.3508   0.9405  -0.9425   0.00    0.0
2018/11/09 00:25:00.000  -74.407214306  163.437635585    79.2296   5  11   0.6683   0.6530   2.5300  -0.3517   0.9426  -0.9447   0.00    0.0
2018/11/09 00:25:15.000  -74.407214072  163.437648911    79.4946   5  11   0.6689   0.6535   2.5351  -0.3527   0.9448  -0.9471   0.00    0.0
2018/11/09 00:25:30.000  -74.407212772  163.437643966    79.0194   5  11   0.6695   0.6540   2.5404  -0.3537   0.9471  -0.9495   0.00    0.0
2018/11/09 00:25:45.000  -74.407213261  163.437642385    78.9565   5  11   0.6701   0.6547   2.5459  -0.3548   0.9495  -0.9519   0.00    0.0
2018/11/09 00:26:00.000  -74.407215466  163.437643727    79.9451   5  11   0.6709   0.6554   2.5515  -0.3559   0.9519  -0.9544   0.00    0.0
2018/11/09 00:26:15.000  -74.407212476  163.437641731    79.1142   5  11   0.6716   0.6562   2.5573  -0.3570   0.9544  -0.9570   0.00    0.0
2018/11/09 00:26:30.000  -74.407211352  163.437649058    77.8376   5  11   0.6725   0.6571   2.5632  -0.3582   0.9570  -0.9596   0.00    0.0
2018/11/09 00:26:45.000  -74.407213908  163.437645119    79.1252   5  11   0.6734   0.6580   2.5694  -0.3594   0.9597  -0.9623   0.00    0.0
2018/11/09 00:27:00.000  -74.407215113  163.437650453    79.6834   5  11   0.6744   0.6590   2.5756  -0.3606   0.9624  -0.9650   0.00    0.0
2018/11/09 00:27:15.000  -74.407212617  163.437648345    79.0419   5  11   0.6754   0.6601   2.5820  -0.3619   0.9651  -0.9678   0.00    0.0
2018/11/09 00:27:30.000  -74.407214623  163.437652971    79.2997   5  11   0.6765   0.6613   2.5886  -0.3632   0.9679  -0.9707   0.00    0.0
2018/11/09 00:27:45.000  -74.407213865  163.437652283    78.8017   5  11   0.6763   0.6607   2.5894  -0.3633   0.9681  -0.9715   0.00    0.0
2018/11/09 00:28:00.000  -74.407212591  163.437648805    78.5556   5  11   0.6762   0.6602   2.5902  -0.3636   0.9683  -0.9724   0.00    0.0
2018/11/09 00:28:15.000  -74.407212826  163.437643294    77.8884   5  11   0.6761   0.6598   2.5912  -0.3638   0.9686  -0.9734   0.00    0.0
2018/11/09 00:28:30.000  -74.407213322  163.437653315    79.7497   5  11   0.6761   0.6594   2.5924  -0.3641   0.9689  -0.9744   0.00    0.0
2018/11/09 00:28:45.000  -74.407213555  163.437657392    78.5350   5  11   0.6761   0.6591   2.5936  -0.3644   0.9693  -0.9754   0.00    0.0
2018/11/09 00:29:00.000  -74.407214468  163.437651928    78.8555   5  11   0.6762   0.6589   2.5951  -0.3647   0.9698  -0.9765   0.00    0.0
2018/11/09 00:29:15.000  -74.407212369  163.437651234    78.0809   5  11   0.6764   0.6588   2.5966  -0.3651   0.9703  -0.9776   0.00    0.0
2018/11/09 00:29:30.000  -74.407212066  163.437638786    77.9120   5  11   0.6766   0.6587   2.5983  -0.3655   0.9708  -0.9788   0.00    0.0
2018/11/09 00:29:45.000  -74.407214602  163.437647892    78.4935   5  11   0.6769   0.6587   2.6002  -0.3659   0.9714  -0.9801   0.00    0.0
2018/11/09 00:30:00.000  -74.407211872  163.437655351    79.3465   5  11   0.6773   0.6588   2.6021  -0.3664   0.9721  -0.9813   0.00    0.0
2018/11/09 00:30:15.000  -74.407211388  163.437652465    78.2275   5  11   0.6777   0.6589   2.6043  -0.3669   0.9729  -0.9827   0.00    0.0
2018/11/09 00:30:30.000  -74.407212019  163.437651736    78.5594   5  11   0.6782   0.6591   2.6067  -0.3674   0.9737  -0.9841   0.00    0.0
2018/11/09 00:30:45.000  -74.407213854  163.437642809    78.4141   5  11   0.6787   0.6594   2.6092  -0.3679   0.9745  -0.9855   0.00    0.0
2018/11/09 00:31:00.000  -74.407212827  163.437640964    77.7954   5  11   0.6793   0.6598   2.6118  -0.3685   0.9754  -0.9870   0.00    0.0
2018/11/09 00:31:15.000  -74.407212748  163.437654322    79.1968   5  11   0.6800   0.6602   2.6145  -0.3691   0.9764  -0.9884   0.00    0.0
2018/11/09 00:31:30.000  -74.407211048  163.437648806    77.5999   5  11   0.6807   0.6607   2.6173  -0.3697   0.9774  -0.9900   0.00    0.0
2018/11/09 00:31:45.000  -74.407212408  163.437640833    77.9175   5  11   0.6815   0.6613   2.6202  -0.3703   0.9784  -0.9915   0.00    0.0
2018/11/09 00:32:00.000  -74.407214685  163.437653960    79.4717   5  11   0.6823   0.6619   2.6232  -0.3709   0.9794  -0.9931   0.00    0.0
2018/11/09 00:32:15.000  -74.407210750  163.437644906    77.9331   5  11   0.6832   0.6626   2.6263  -0.3715   0.9805  -0.9947   0.00    0.0
2018/11/09 00:32:30.000  -74.407212851  163.437638230    78.4965   5  11   0.6841   0.6633   2.6296  -0.3722   0.9816  -0.9964   0.00    0.0
2018/11/09 00:32:45.000  -74.407213360  163.437639884    79.0554   5  11   0.6838   0.6624   2.6271  -0.3719   0.9802  -0.9961   0.00    0.0
2018/11/09 00:33:00.000  -74.407211415  163.437645353    78.6314   5  11   0.6835   0.6616   2.6247  -0.3716   0.9788  -0.9959   0.00    0.0
2018/11/09 00:33:15.000  -74.407212055  163.437656859    78.9784   5  11   0.6832   0.6608   2.6224  -0.3712   0.9775  -0.9957   0.00    0.0
2018/11/09 00:33:30.000  -74.407211473  163.437641029    78.3079   5  11   0.6831   0.6600   2.6203  -0.3709   0.9762  -0.9955   0.00    0.0
2018/11/09 00:33:45.000  -74.407214542  163.437638563    78.7700   5  11   0.6829   0.6594   2.6182  -0.3707   0.9750  -0.9953   0.00    0.0
2018/11/09 00:34:00.000  -74.407211698  163.437643159    78.1177   5  11   0.6829   0.6588   2.6163  -0.3704   0.9738  -0.9952   0.00    0.0
2018/11/09 00:34:15.000  -74.407211280  163.437642082    77.7822   5  11   0.6828   0.6582   2.6144  -0.3702   0.9726  -0.9952   0.00    0.0
2018/11/09 00:34:30.000  -74.407210483  163.437641474    76.6236   5  11   0.6829   0.6578   2.6127  -0.3700   0.9715  -0.9951   0.00    0.0
2018/11/09 00:34:45.000  -74.407210777  163.437640788    77.6319   5  11   0.6830   0.6574   2.6111  -0.3698   0.9704  -0.9951   0.00    0.0
2018/11/09 00:35:00.000  -74.407211928  163.437653754    77.9711   5  11   0.6831   0.6570   2.6096  -0.3696   0.9694  -0.9951   0.00    0.0
2018/11/09 00:35:15.000  -74.407212508  163.437645645    77.3963   5  11   0.6834   0.6568   2.6083  -0.3694   0.9684  -0.9952   0.00    0.0
2018/11/09 00:35:30.000  -74.407213345  163.437638154    77.7713   5  11   0.6837   0.6566   2.6072  -0.3693   0.9675  -0.9953   0.00    0.0
2018/11/09 00:35:45.000  -74.407211322  163.437646761    77.2059   5  11   0.6840   0.6565   2.6061  -0.3692   0.9666  -0.9954   0.00    0.0
2018/11/09 00:36:00.000  -74.407212618  163.437651715    77.7600   5  11   0.6844   0.6564   2.6052  -0.3691   0.9657  -0.9956   0.00    0.0
2018/11/09 00:36:15.000  -74.407213001  163.437649852    77.1607   5  11   0.6848   0.6564   2.6043  -0.3690   0.9648  -0.9957   0.00    0.0
2018/11/09 00:36:30.000  -74.407213349  163.437652167    78.0214   5  11   0.6853   0.6565   2.6036  -0.3689   0.9640  -0.9959   0.00    0.0
2018/11/09 00:36:45.000  -74.407211007  163.437648866    78.7602   5  11   0.6859   0.6566   2.6030  -0.3689   0.9632  -0.9962   0.00    0.0
2018/11/09 00:37:00.000  -74.407212565  163.437645859    77.2422   5  11   0.6865   0.6568   2.6025  -0.3688   0.9624  -0.9964   0.00    0.0
2018/11/09 00:37:15.000  -74.407212064  163.437643406    77.4466   5  11   0.6871   0.6570   2.6021  -0.3688   0.9617  -0.9967   0.00    0.0
2018/11/09 00:37:30.000  -74.407212891  163.437649016    78.8260   5  11   0.6879   0.6573   2.6017  -0.3687   0.9609  -0.9969   0.00    0.0
2018/11/09 00:37:45.000  -74.407209978  163.437646332    77.6578   5  11   0.6873   0.6560   2.5959  -0.3677   0.9579  -0.9954   0.00    0.0
2018/11/09 00:38:00.000  -74.407210762  163.437644324    78.4359   5  11   0.6868   0.6548   2.5902  -0.3668   0.9549  -0.9940   0.00    0.0
2018/11/09 00:38:15.000  -74.407211509  163.437639283    77.5506   5  11   0.6864   0.6537   2.5846  -0.3659   0.9520  -0.9926   0.00    0.0
2018/11/09 00:38:30.000  -74.407211829  163.437645097    77.9349   5  11   0.6860   0.6526   2.5792  -0.3650   0.9491  -0.9912   0.00    0.0
2018/11/09 00:38:45.000  -74.407214068  163.437651492    78.4631   5  11   0.6857   0.6516   2.5739  -0.3641   0.9463  -0.9898   0.00    0.0
2018/11/09 00:39:00.000  -74.407211353  163.437651916    78.2249   5  11   0.6854   0.6506   2.5687  -0.3633   0.9435  -0.9885   0.00    0.0
2018/11/09 00:39:15.000  -74.407211505  163.437648757    78.0571   5  11   0.6852   0.6497   2.5637  -0.3624   0.9407  -0.9872   0.00    0.0
2018/11/09 00:39:30.000  -74.407210192  163.437645282    77.4699   5  11   0.6851   0.6489   2.5588  -0.3616   0.9380  -0.9859   0.00    0.0
2018/11/09 00:39:45.000  -74.407212522  163.437645327    77.8819   5  11   0.6850   0.6482   2.5540  -0.3608   0.9353  -0.9847   0.00    0.0
2018/11/09 00:40:00.000  -74.407211565  163.437639295    78.2398   5  11   0.6849   0.6475   2.5494  -0.3600   0.9327  -0.9835   0.00    0.0
2018/11/09 00:40:15.000  -74.407211664  163.437643100    77.8158   5  11   0.6850   0.6469   2.5450  -0.3592   0.9301  -0.9824   0.00    0.0
2018/11/09 00:40:30.000  -74.407211839  163.437653248    78.2612   5  11   0.6851   0.6464   2.5408  -0.3585   0.9276  -0.9813   0.00    0.0
2018/11/09 00:40:45.000  -74.407212096  163.437654403    78.0280   5  11   0.6852   0.6459   2.5367  -0.3577   0.9251  -0.9802   0.00    0.0
2018/11/09 00:41:00.000  -74.407212456  163.437646718    77.8324   5  11   0.6854   0.6455   2.5327  -0.3570   0.9226  -0.9792   0.00    0.0
2018/11/09 00:41:15.000  -74.407210435  163.437642689    77.1908   5  11   0.6857   0.6452   2.5289  -0.3563   0.9202  -0.9782   0.00    0.0
2018/11/09 00:41:30.000  -74.407212891  163.437644983    78.1011   5  11   0.6860   0.6449   2.5253  -0.3556   0.9178  -0.9772   0.00    0.0
2018/11/09 00:41:45.000  -74.407212272  163.437654692    78.3280   5  11   0.6863   0.6447   2.5218  -0.3549   0.9155  -0.9763   0.00    0.0
2018/11/09 00:42:00.000  -74.407210208  163.437647540    77.5810   5  11   0.6867   0.6446   2.5184  -0.3542   0.9131  -0.9754   0.00    0.0
2018/11/09 00:42:15.000  -74.407211887  163.437651757    78.6855   5  11   0.6872   0.6445   2.5152  -0.3536   0.9109  -0.9745   0.00    0.0
2018/11/09 00:42:30.000  -74.407207327  163.437642398    75.2899   5  10   0.9422   0.6775   3.5878  -0.5090   1.1665  -1.6118   0.00    0.0
2018/11/09 00:42:45.000  -74.407208652  163.437647761    75.4409   5  10   0.9403   0.6755   3.5748  -0.5065   1.1603  -1.6067   0.00    0.0
2018/11/09 00:43:00.000  -74.407207456  163.437638784    75.3049   5  10   0.9386   0.6736   3.5617  -0.5040   1.1542  -1.6017   0.00    0.0
2018/11/09 00:43:15.000  -74.407204258  163.437635772    74.0535   5  10   0.9368   0.6718   3.5488  -0.5015   1.1480  -1.5967   0.00    0.0
2018/11/09 00:43:30.000  -74.407205488  163.437635022    74.4953   5  10   0.9352   0.6700   3.5360  -0.4990   1.1419  -1.5917   0.00    0.0
2018/11/09 00:43:45.000  -74.407207217  163.437640709    75.7514   5  10   0.9336   0.6683   3.5234  -0.4965   1.1358  -1.5868   0.00    0.0
2018/11/09 00:44:00.000  -74.407205742  163.437640453    74.8877   5  10   0.9320   0.6667   3.5109  -0.4940   1.1298  -1.5819   0.00    0.0
2018/11/09 00:44:15.000  -74.407207322  163.437645667    74.6495   5  10   0.9306   0.6651   3.4986  -0.4916   1.1238  -1.5772   0.00    0.0
2018/11/09 00:44:30.000  -74.407211029  163.437638840    76.9817   5  10   0.9291   0.6636   3.4864  -0.4891   1.1178  -1.5724   0.00    0.0
2018/11/09 00:44:45.000  -74.407206576  163.437647087    74.9865   5  10   0.9278   0.6621   3.4745  -0.4867   1.1118  -1.5678   0.00    0.0
2018/11/09 00:45:00.000  -74.407209808  163.437643700    77.1880   5  10   0.9265   0.6608   3.4627  -0.4842   1.1060  -1.5632   0.00    0.0
2018/11/09 00:45:15.000  -74.407202314  163.437631043    73.2884   5  10   0.9254   0.6595   3.4514  -0.4819   1.1002  -1.5588   0.00    0.0
2018/11/09 00:45:30.000  -74.407207419  163.437647370    75.6934   5  10   0.9243   0.6583   3.4404  -0.4795   1.0944  -1.5546   0.00    0.0
2018/11/09 00:45:45.000  -74.407209546  163.437635904    75.8523   5  10   0.9233   0.6572   3.4296  -0.4772   1.0887  -1.5504   0.00    0.0
2018/11/09 00:46:00.000  -74.407208966  163.437647227    77.0367   5   9   0.9264   0.6562   3.6690  -0.4739   1.0768  -1.5830   0.00    0.0
2018/11/09 00:46:15.000  -74.407206850  163.437644975    74.8359   5   9   0.9256   0.6552   3.6610  -0.4716   1.0711  -1.5797   0.00    0.0
2018/11/09 00:46:30.000  -74.407206483  163.437647896    75.9090   5   9   0.9249   0.6543   3.6534  -0.4692   1.0655  -1.5765   0.00    0.0
2018/11/09 00:46:45.000  -74.407205252  163.437641866    75.1910   5   9   0.9243   0.6535   3.6459  -0.4669   1.0599  -1.5734   0.00    0.0
2018/11/09 00:47:00.000  -74.407209054  163.437643989    76.6339   5   9   0.9238   0.6527   3.6388  -0.4646   1.0543  -1.5704   0.00    0.0
2018/11/09 00:47:15.000  -74.407206958  163.437635613    75.0214   5   9   0.9233   0.6520   3.6319  -0.4623   1.0488  -1.5674   0.00    0.0
2018/11/09 00:47:30.000  -74.407206599  163.437645102    75.9103   5   9   0.9230   0.6514   3.6253  -0.4601   1.0433  -1.5646   0.00    0.0
2018/11/09 00:47:45.000  -74.407208039  163.437651774    76.2400   5   9   0.9202   0.6492   3.6069  -0.4564   1.0347  -1.5570   0.00    0.0
2018/11/09 00:48:00.000  -74.407208182  163.437647672    75.9369   5   9   0.9177   0.6471   3.5891  -0.4528   1.0263  -1.5496   0.00    0.0
2018/11/09 00:48:15.000  -74.407206454  163.437648271    75.3156   5   9   0.9152   0.6451   3.5717  -0.4493   1.0179  -1.5424   0.00    0.0
2018/11/09 00:48:30.000  -74.407208086  163.437650005    75.0217   5   9   0.9127   0.6432   3.5546  -0.4458   1.0096  -1.5353   0.00    0.0
2018/11/09 00:48:45.000  -74.407205469  163.437641745    74.5881   5   9   0.9104   0.6414   3.5379  -0.4423   1.0014  -1.5283   0.00    0.0
2018/11/09 00:49:00.000  -74.407214630  163.437655825    79.0262   5  10   0.7479   0.6357   2.6725  -0.3953   0.9081  -1.0646   0.00    0.0
2018/11/09 00:49:15.000  -74.407212435  163.437656228    78.3826   5  10   0.7473   0.6344   2.6665  -0.3938   0.9039  -1.0624   0.00    0.0
2018/11/09 00:49:30.000  -74.407209626  163.437648678    77.2240   5  10   0.7468   0.6332   2.6607  -0.3923   0.8998  -1.0603   0.00    0.0
2018/11/09 00:49:45.000  -74.407211046  163.437659987    77.8649   5  10   0.7463   0.6320   2.6551  -0.3908   0.8957  -1.0583   0.00    0.0
2018/11/09 00:50:00.000  -74.407212327  163.437650755    77.8695   5  10   0.7459   0.6309   2.6497  -0.3894   0.8916  -1.0563   0.00    0.0
2018/11/09 00:50:15.000  -74.407212177  163.437655180    77.6376   5  10   0.7456   0.6299   2.6448  -0.3881   0.8876  -1.0544   0.00    0.0
2018/11/09 00:50:30.000  -74.407212071  163.437651781    76.4953   5  10   0.7454   0.6290   2.6401  -0.3867   0.8837  -1.0526   0.00    0.0
2018/11/09 00:50:45.000  -74.407209632  163.437650137    75.9819   5  10   0.7452   0.6281   2.6356  -0.3854   0.8799  -1.0508   0.00    0.0
2018/11/09 00:51:00.000  -74.407213341  163.437655733    77.0926   5  10   0.7451   0.6273   2.6313  -0.3841   0.8760  -1.0492   0.00    0.0
2018/11/09 00:51:15.000  -74.407210203  163.437656690    76.8528   5  10   0.7451   0.6266   2.6274  -0.3829   0.8723  -1.0475   0.00    0.0
2018/11/09 00:51:30.000  -74.407209586  163.437650253    76.4239   5  10   0.7451   0.6259   2.6236  -0.3817   0.8686  -1.0460   0.00    0.0
2018/11/09 00:51:45.000  -74.407209278  163.437658406    77.0220   5  10   0.7452   0.6253   2.6202  -0.3805   0.8649  -1.0445   0.00    0.0
2018/11/09 00:52:00.000  -74.407211670  163.437661407    77.4019   5  10   0.7454   0.6248   2.6170  -0.3793   0.8613  -1.0431   0.00    0.0
2018/11/09 00:52:15.000  -74.407211739  163.437651738    77.8737   5  10   0.7456   0.6244   2.6141  -0.3782   0.8578  -1.0418   0.00    0.0
2018/11/09 00:52:30.000  -74.407210976  163.437646952    77.1229   5  10   0.7459   0.6240   2.6115  -0.3771   0.8543  -1.0406   0.00    0.0
2018/11/09 00:52:45.000  -74.407209187  163.437647329    76.4202   5  10   0.7449   0.6223   2.6021  -0.3750   0.8488  -1.0372   0.00    0.0
2018/11/09 00:53:00.000  -74.407212976  163.437645523    77.3840   5  10   0.7438   0.6206   2.5929  -0.3730   0.8433  -1.0339   0.00    0.0
2018/11/09 00:53:15.000  -74.407214229  163.437647273    76.7131   5  10   0.7429   0.6190   2.5840  -0.3711   0.8378  -1.0307   0.00    0.0
2018/11/09 00:53:30.000  -74.407212280  163.437648161    77.0959   5  10   0.7420   0.6174   2.5754  -0.3691   0.8325  -1.0275   0.00    0.0
2018/11/09 00:53:45.000  -74.407209216  163.437647319    77.1976   5  10   0.7411   0.6160   2.5670  -0.3672   0.8272  -1.0244   0.00    0.0
2018/11/09 00:54:00.000  -74.407214427  163.437647654    76.9374   5  10   0.7404   0.6146   2.5589  -0.3654   0.8219  -1.0215   0.00    0.0
2018/11/09 00:54:15.000  -74.407212363  163.437645909    77.6081   5  10   0.7397   0.6132   2.5511  -0.3636   0.8168  -1.0185   0.00    0.0
2018/11/09 00:54:30.000  -74.407211639  163.437647192    77.2488   5  10   0.7391   0.6120   2.5436  -0.3618   0.8117  -1.0157   0.00    0.0
2018/11/09 00:54:45.000  -74.407210037  163.437651723    77.0231   5  10   0.7385   0.6109   2.5364  -0.3600   0.8067  -1.0130   0.00    0.0
2018/11/09 00:55:00.000  -74.407210405  163.437644850    77.2578   5  10   0.7381   0.6098   2.5295  -0.3583   0.8017  -1.0104   0.00    0.0
2018/11/09 00:55:15.000  -74.407212561  163.437652159    78.1684   5  10   0.7377   0.6088   2.5231  -0.3566   0.7969  -1.0078   0.00    0.0
2018/11/09 00:55:30.000  -74.407212209  163.437656654    77.2972   5  10   0.7374   0.6079   2.5170  -0.3550   0.7921  -1.0054   0.00    0.0
2018/11/09 00:55:45.000  -74.407210982  163.437653810    77.9593   5  10   0.7372   0.6071   2.5112  -0.3534   0.7874  -1.0031   0.00    0.0
2018/11/09 00:56:00.000  -74.407209838  163.437645876    76.8588   5  10   0.7370   0.6063   2.5058  -0.3518   0.7828  -1.0009   0.00    0.0
2018/11/09 00:56:15.000  -74.407211963  163.437645978    76.9359   5  10   0.7369   0.6057   2.5007  -0.3503   0.7782  -0.9987   0.00    0.0
2018/11/09 00:56:30.000  -74.407210127  163.437657266    76.9933   5  10   0.7369   0.6051   2.4959  -0.3488   0.7737  -0.9967   0.00    0.0
2018/11/09 00:56:45.000  -74.407208287  163.437649782    77.0695   5  10   0.7370   0.6045   2.4914  -0.3474   0.7692  -0.9947   0.00    0.0
2018/11/09 00:57:00.000  -74.407211696  163.437653433    77.1422   5  10   0.7371   0.6041   2.4873  -0.3459   0.7648  -0.9929   0.00    0.0
2018/11/09 00:57:15.000  -74.407213567  163.437653730    78.3183   5  10   0.7373   0.6037   2.4835  -0.3445   0.7605  -0.9911   0.00    0.0
2018/11/09 00:57:30.000  -74.407211895  163.437652972    77.6754   5  10   0.7376   0.6034   2.4800  -0.3432   0.7562  -0.9894   0.00    0.0
2018/11/09 00:57:45.000  -74.407211122  163.437658097    76.8943   5  10   0.7364   0.6018   2.4695  -0.3409   0.7501  -0.9856   0.00    0.0
2018/11/09 00:58:00.000  -74.407211272  163.437654972    78.0030   5  10   0.7354   0.6002   2.4594  -0.3388   0.7440  -0.9819   0.00    0.0
2018/11/09 00:58:15.000  -74.407215910  163.437660260    78.3399   5  10   0.7345   0.5988   2.4497  -0.3367   0.7381  -0.9784   0.00    0.0
2018/11/09 00:58:30.000  -74.407212506  163.437654378    77.9909   5  10   0.7336   0.5974   2.4404  -0.3346   0.7322  -0.9749   0.00    0.0
2018/11/09 00:58:45.000  -74.407211847  163.437651936    77.6291   5  10   0.7328   0.5961   2.4314  -0.3325   0.7264  -0.9716   0.00    0.0
2018/11/09 00:59:00.000  -74.407210989  163.437658294    77.1438   5  10   0.7320   0.5949   2.4227  -0.3305   0.7207  -0.9683   0.00    0.0
2018/11/09 00:59:15.000  -74.407211624  163.437654069    77.8066   5  10   0.7314   0.5937   2.4144  -0.3286   0.7150  -0.9651   0.00    0.0
2018/11/09 00:59:30.000  -74.407214185  163.437658216    78.6269   5  10   0.7308   0.5927   2.4064  -0.3267   0.7095  -0.9621   0.00    0.0
2018/11/09 00:59:45.000  -74.407211606  163.437656935    78.0914   5  10   0.7303   0.5917   2.3988  -0.3248   0.7040  -0.9592   0.00    0.0
2018/11/09 01:00:00.000  -74.407211557  163.437652389    78.3953   5  10   0.7298   0.5908   2.3916  -0.3229   0.6986  -0.9563   0.00    0.0
2018/11/09 01:00:15.000  -74.407212579  163.437656034    78.1037   5  10   0.7295   0.5900   2.3849  -0.3211   0.6933  -0.9536   0.00    0.0
2018/11/09 01:00:30.000  -74.407210397  163.437653135    76.9194   5  10   0.7292   0.5892   2.3785  -0.3194   0.6880  -0.9510   0.00    0.0
2018/11/09 01:00:45.000  -74.407214155  163.437666460    78.0551   5  10   0.7290   0.5886   2.3725  -0.3176   0.6828  -0.9486   0.00    0.0
2018/11/09 01:01:00.000  -74.407212580  163.437653951    78.0938   5  10   0.7289   0.5880   2.3669  -0.3159   0.6777  -0.9462   0.00    0.0
2018/11/09 01:01:15.000  -74.407212111  163.437660398    77.8234   5  10   0.7289   0.5875   2.3617  -0.3143   0.6726  -0.9439   0.00    0.0
2018/11/09 01:01:30.000  -74.407216230  163.437659845    78.4561   5  10   0.7289   0.5871   2.3568  -0.3127   0.6676  -0.9417   0.00    0.0
2018/11/09 01:01:45.000  -74.407215957  163.437660289    79.5667   5  10   0.7290   0.5868   2.3523  -0.3111   0.6626  -0.9397   0.00    0.0
2018/11/09 01:02:00.000  -74.407210604  163.437655730    76.9498   5  10   0.7291   0.5865   2.3481  -0.3095   0.6577  -0.9377   0.00    0.0
2018/11/09 01:02:15.000  -74.407213787  163.437653571    77.3440   5  10   0.7294   0.5863   2.3443  -0.3080   0.6529  -0.9359   0.00    0.0
2018/11/09 01:02:30.000  -74.407212529  163.437655746    77.2314   5  10   0.7297   0.5862   2.3409  -0.3065   0.6481  -0.9341   0.00    0.0
2018/11/09 01:02:45.000  -74.407213023  163.437657230    77.2366   5  10   0.7287   0.5848   2.3308  -0.3043   0.6418  -0.9304   0.00    0.0
2018/11/09 01:03:00.000  -74.407210743  163.437658529    76.2708   5  10   0.7278   0.5835   2.3209  -0.3021   0.6355  -0.9268   0.00    0.0
2018/11/09 01:03:15.000  -74.407210560  163.437651175    76.4154   5  10   0.7269   0.5823   2.3114  -0.3000   0.6293  -0.9233   0.00    0.0
2018/11/09 01:03:30.000  -74.407215367  163.437660956    77.7052   5  10   0.7261   0.5812   2.3023  -0.2979   0.6232  -0.9199   0.00    0.0
2018/11/09 01:03:45.000  -74.407209377  163.437652298    77.3391   5  10   0.7254   0.5801   2.2935  -0.2958   0.6172  -0.9166   0.00    0.0
2018/11/09 01:04:00.000  -74.407212546  163.437662758    77.1801   5  10   0.7248   0.5791   2.2852  -0.2938   0.6112  -0.9134   0.00    0.0
2018/11/09 01:04:15.000  -74.407214647  163.437662243    77.8700   5  10   0.7242   0.5782   2.2772  -0.2918   0.6053  -0.9104   0.00    0.0
2018/11/09 01:04:30.000  -74.407214063  163.437659075    78.0147   5  10   0.7237   0.5774   2.2697  -0.2898   0.5995  -0.9074   0.00    0.0
2018/11/09 01:04:45.000  -74.407212033  163.437663252    76.3119   5  10   0.7233   0.5767   2.2625  -0.2879   0.5937  -0.9046   0.00    0.0
2018/11/09 01:05:00.000  -74.407214261  163.437657420    77.1920   5  10   0.7229   0.5760   2.2557  -0.2861   0.5880  -0.9019   0.00    0.0
2018/11/09 01:05:15.000  -74.407212278  163.437659411    77.0542   5  10   0.7227   0.5755   2.2495  -0.2842   0.5823  -0.8993   0.00    0.0
2018/11/09 01:05:30.000  -74.407216238  163.437659377    77.6092   5  10   0.7225   0.5750   2.2436  -0.2824   0.5767  -0.8969   0.00    0.0
2018/11/09 01:05:45.000  -74.407215885  163.437657905    78.4663   5  10   0.7224   0.5746   2.2381  -0.2807   0.5712  -0.8945   0.00    0.0
2018/11/09 01:06:00.000  -74.407217662  163.437656011    78.8657   5  10   0.7224   0.5742   2.2330  -0.2789   0.5656  -0.8923   0.00    0.0
2018/11/09 01:06:15.000  -74.407213082  163.437654828    77.6461   5  10   0.7225   0.5740   2.2283  -0.2772   0.5602  -0.8902   0.00    0.0
2018/11/09 01:06:30.000  -74.407213328  163.437658219    78.1220   5  10   0.7226   0.5738   2.2240  -0.2755   0.5547  -0.8881   0.00    0.0
2018/11/09 01:06:45.000  -74.407212691  163.437655942    78.0490   5  10   0.7228   0.5737   2.2201  -0.2739   0.5493  -0.8862   0.00    0.0
2018/11/09 01:07:00.000  -74.407211906  163.437660258    77.4844   5  10   0.7230   0.5736   2.2165  -0.2723   0.5439  -0.8844   0.00    0.0
2018/11/09 01:07:15.000  -74.407211704  163.437656589    77.4582   5  10   0.7234   0.5737   2.2133  -0.2707   0.5385  -0.8827   0.00    0.0
2018/11/09 01:07:30.000  -74.407213188  163.437658319    78.3096   5  10   0.7238   0.5738   2.2105  -0.2691   0.5332  -0.8811   0.00    0.0
2018/11/09 01:07:45.000  -74.407213061  163.437655107    78.4445   5  10   0.7229   0.5727   2.2011  -0.2670   0.5267  -0.8776   0.00    0.0
2018/11/09 01:08:00.000  -74.407212138  163.437659837    77.4089   5  10   0.7221   0.5717   2.1920  -0.2648   0.5202  -0.8743   0.00    0.0
2018/11/09 01:08:15.000  -74.407211556  163.437660417    77.2555   5  10   0.7214   0.5708   2.1833  -0.2627   0.5138  -0.8711   0.00    0.0
2018/11/09 01:08:30.000  -74.407215137  163.437654708    79.0318   5  10   0.7208   0.5699   2.1750  -0.2606   0.5074  -0.8680   0.00    0.0
2018/11/09 01:08:45.000  -74.407213798  163.437659025    77.1677   5  10   0.7202   0.5691   2.1671  -0.2586   0.5011  -0.8650   0.00    0.0
2018/11/09 01:09:00.000  -74.407214249  163.437656282    78.0009   5  10   0.7197   0.5684   2.1597  -0.2566   0.4948  -0.8621   0.00    0.0
2018/11/09 01:09:15.000  -74.407210594  163.437659007    77.2975   5  10   0.7193   0.5678   2.1526  -0.2546   0.4886  -0.8594   0.00    0.0
2018/11/09 01:09:30.000  -74.407211662  163.437657132    77.0705   5  10   0.7189   0.5672   2.1459  -0.2527   0.4824  -0.8567   0.00    0.0
2018/11/09 01:09:45.000  -74.407211789  163.437652774    77.5667   5  11   0.6193   0.5493   1.7941  -0.1096   0.2532  -0.5521   0.00    0.0
2018/11/09 01:10:00.000  -74.407214443  163.437664423    77.7554   5  11   0.6193   0.5492   1.7919  -0.1075   0.2463  -0.5512   0.00    0.0
2018/11/09 01:10:15.000  -74.407214471  163.437670252    77.6753   5  11   0.6194   0.5492   1.7901  -0.1053   0.2391  -0.5504   0.00    0.0
2018/11/09 01:10:30.000  -74.407213541  163.437663037    78.1684   5  11   0.6195   0.5492   1.7887  -0.1031   0.2316  -0.5497   0.00    0.0
2018/11/09 01:10:45.000  -74.407213161  163.437662436    77.3373   5  11   0.6197   0.5493   1.7875  -0.1008   0.2239  -0.5490   0.00    0.0
2018/11/09 01:11:00.000  -74.407215060  163.437659512    78.6965   5  11   0.6199   0.5495   1.7866  -0.0985   0.2160  -0.5483   0.00    0.0
2018/11/09 01:11:15.000  -74.407212735  163.437656927    77.4494   5  11   0.6202   0.5497   1.7859  -0.0961   0.2077  -0.5476   0.00    0.0
2018/11/09 01:11:30.000  -74.407212215  163.437662938    77.3978   5  11   0.6205   0.5500   1.7856  -0.0937   0.1990  -0.5470   0.00    0.0
2018/11/09 01:11:45.000  -74.407213642  163.437665735    76.7877   5  11   0.6209   0.5504   1.7856  -0.0912   0.1898  -0.5465   0.00    0.0
2018/11/09 01:12:00.000  -74.407210728  163.437658827    77.3159   5  11   0.6214   0.5508   1.7859  -0.0887   0.1802  -0.5460   0.00    0.0
2018/11/09 01:12:15.000  -74.407211379  163.437665820    77.5514   5  11   0.6219   0.5513   1.7865  -0.0860   0.1699  -0.5455   0.00    0.0
2018/11/09 01:12:30.000  -74.407212435  163.437664440    77.7317   5  11   0.6224   0.5519   1.7873  -0.0833   0.1589  -0.5451   0.00    0.0
2018/11/09 01:12:45.000  -74.407214102  163.437651792    78.2694   5  11   0.6220   0.5513   1.7831  -0.0804   0.1482  -0.5442   0.00    0.0
2018/11/09 01:13:00.000  -74.407214474  163.437655386    76.9845   5  11   0.6217   0.5508   1.7791  -0.0774   0.1367  -0.5433   0.00    0.0
2018/11/09 01:13:15.000  -74.407214809  163.437658469    78.3222   5  11   0.6214   0.5504   1.7754  -0.0743   0.1241  -0.5425   0.00    0.0
2018/11/09 01:13:30.000  -74.407212246  163.437654747    78.0314   5  11   0.6211   0.5500   1.7719  -0.0711   0.1101  -0.5417   0.00    0.0
2018/11/09 01:13:45.000  -74.407212763  163.437658801    77.7557   5  12   0.6135   0.5270   1.7018  -0.1399  -0.2579  -0.5821   0.00    0.0
2018/11/09 01:14:00.000  -74.407211622  163.437664604    77.8173   5  12   0.6132   0.5268   1.7001  -0.1386  -0.2628  -0.5813   0.00    0.0
2018/11/09 01:14:15.000  -74.407214318  163.437655912    77.7248   5  12   0.6130   0.5267   1.6987  -0.1373  -0.2676  -0.5806   0.00    0.0
2018/11/09 01:14:30.000  -74.407211159  163.437652593    78.3318   5  12   0.6129   0.5266   1.6976  -0.1361  -0.2725  -0.5800   0.00    0.0
2018/11/09 01:14:45.000  -74.407214306  163.437662320    78.1039   5  12   0.6128   0.5265   1.6968  -0.1348  -0.2773  -0.5794   0.00    0.0
2018/11/09 01:15:00.000  -74.407212974  163.437659307    77.7949   5  12   0.6127   0.5265   1.6963  -0.1336  -0.2821  -0.5788   0.00    0.0
2018/11/09 01:15:15.000  -74.407213700  163.437660837    77.8292   5  12   0.6127   0.5266   1.6961  -0.1323  -0.2870  -0.5783   0.00    0.0
2018/11/09 01:15:30.000  -74.407212377  163.437658908    77.6847   5  12   0.6128   0.5268   1.6963  -0.1311  -0.2918  -0.5779   0.00    0.0
2018/11/09 01:15:45.000  -74.407213401  163.437660369    77.8094   5  12   0.6129   0.5270   1.6967  -0.1299  -0.2967  -0.5774   0.00    0.0
2018/11/09 01:16:00.000  -74.407211889  163.437665230    77.4972   5  12   0.6131   0.5273   1.6974  -0.1287  -0.3016  -0.5771   0.00    0.0
2018/11/09 01:16:15.000  -74.407213602  163.437654914    78.2869   5  12   0.6133   0.5277   1.6983  -0.1275  -0.3065  -0.5768   0.00    0.0
2018/11/09 01:16:30.000  -74.407212593  163.437662818    78.0958   5  12   0.6136   0.5281   1.6996  -0.1262  -0.3114  -0.5765   0.00    0.0
2018/11/09 01:16:45.000  -74.407212836  163.437657216    77.9581   5  12   0.6139   0.5286   1.7012  -0.1250  -0.3163  -0.5763   0.00    0.0
2018/11/09 01:17:00.000  -74.407214783  163.437662819    77.2438   5  12   0.6142   0.5291   1.7030  -0.1238  -0.3212  -0.5761   0.00    0.0
2018/11/09 01:17:15.000  -74.407213737  163.437655572    77.8784   5  12   0.6147   0.5297   1.7051  -0.1226  -0.3262  -0.5759   0.00    0.0
2018/11/09 01:17:30.000  -74.407212906  163.437665792    78.4465   5  12   0.6151   0.5303   1.7075  -0.1215  -0.3312  -0.5758   0.00    0.0
2018/11/09 01:17:45.000  -74.407212878  163.437658208    77.8087   5  12   0.6147   0.5299   1.7048  -0.1200  -0.3345  -0.5750   0.00    0.0
2018/11/09 01:18:00.000  -74.407212843  163.437654378    77.4695   5  12   0.6143   0.5296   1.7024  -0.1184  -0.3378  -0.5742   0.00    0.0
2018/11/09 01:18:15.000  -74.407211550  163.437667226    77.5753   5  12   0.6139   0.5293   1.7004  -0.1169  -0.3412  -0.5735   0.00    0.0
2018/11/09 01:18:30.000  -74.407213938  163.437663150    78.3416   5  12   0.6136   0.5291   1.6985  -0.1154  -0.3447  -0.5728   0.00    0.0
2018/11/09 01:18:45.000  -74.407214286  163.437657125    78.0480   5  12   0.6134   0.5289   1.6970  -0.1139  -0.3481  -0.5722   0.00    0.0
2018/11/09 01:19:00.000  -74.407215276  163.437665509    78.5643   5  12   0.6132   0.5288   1.6958  -0.1124  -0.3516  -0.5716   0.00    0.0
2018/11/09 01:19:15.000  -74.407213298  163.437660029    77.3522   5  12   0.6130   0.5287   1.6948  -0.1109  -0.3552  -0.5710   0.00    0.0
2018/11/09 01:19:30.000  -74.407213774  163.437663120    77.5865   5  12   0.6129   0.5287   1.6941  -0.1094  -0.3588  -0.5705   0.00    0.0
2018/11/09 01:19:45.000  -74.407212979  163.437668641    77.3564   5  12   0.6129   0.5288   1.6937  -0.1078  -0.3624  -0.5701   0.00    0.0
2018/11/09 01:20:00.000  -74.407216155  163.437657583    77.8930   5  12   0.6129   0.5290   1.6936  -0.1063  -0.3660  -0.5697   0.00    0.0
2018/11/09 01:20:15.000  -74.407213588  163.437664727    78.2354   5  12   0.6130   0.5292   1.6938  -0.1048  -0.3698  -0.5693   0.00    0.0
2018/11/09 01:20:30.000  -74.407212528  163.437668291    76.9825   5  12   0.6131   0.5294   1.6944  -0.1033  -0.3736  -0.5690   0.00    0.0
2018/11/09 01:20:45.000  -74.407212124  163.437660575    77.5441   5  12   0.6133   0.5298   1.6952  -0.1017  -0.3774  -0.5687   0.00    0.0
2018/11/09 01:21:00.000  -74.407212025  163.437656905    77.7743   5  12   0.6135   0.5302   1.6964  -0.1002  -0.3813  -0.5685   0.00    0.0
2018/11/09 01:21:15.000  -74.407213905  163.437660513    77.4159   5  12   0.6138   0.5306   1.6978  -0.0986  -0.3852  -0.5684   0.00    0.0
2018/11/09 01:21:30.000  -74.407214896  163.437660054    77.5957   5  12   0.6141   0.5312   1.6995  -0.0971  -0.3892  -0.5683   0.00    0.0
2018/11/09 01:21:45.000  -74.407213426  163.437667207    77.3961   5  12   0.6144   0.5317   1.7015  -0.0955  -0.3932  -0.5682   0.00    0.0
2018/11/09 01:22:00.000  -74.407212824  163.437661494    77.6209   5  12   0.6149   0.5324   1.7038  -0.0940  -0.3972  -0.5682   0.00    0.0
2018/11/09 01:22:15.000  -74.407213254  163.437661817    78.1682   5  12   0.6153   0.5331   1.7064  -0.0924  -0.4013  -0.5682   0.00    0.0
2018/11/09 01:22:30.000  -74.407212746  163.437663366    78.0169   5  12   0.6159   0.5338   1.7093  -0.0908  -0.4055  -0.5683   0.00    0.0
2018/11/09 01:22:45.000  -74.407214865  163.437655820    78.2466   5  12   0.6155   0.5335   1.7071  -0.0888  -0.4081  -0.5676   0.00    0.0
2018/11/09 01:23:00.000  -74.407213775  163.437665888    77.9007   5  12   0.6151   0.5333   1.7051  -0.0868  -0.4107  -0.5670   0.00    0.0
2018/11/09 01:23:15.000  -74.407212569  163.437664368    77.7018   5  12   0.6148   0.5331   1.7034  -0.0848  -0.4134  -0.5664   0.00    0.0
2018/11/09 01:23:30.000  -74.407212793  163.437657793    78.2625   5  12   0.6146   0.5330   1.7019  -0.0828  -0.4161  -0.5659   0.00    0.0
2018/11/09 01:23:45.000  -74.407212528  163.437667269    77.7733   5  12   0.6144   0.5329   1.7008  -0.0807  -0.4189  -0.5654   0.00    0.0
2018/11/09 01:24:00.000  -74.407213550  163.437669102    77.8936   5  12   0.6143   0.5329   1.6999  -0.0786  -0.4218  -0.5650   0.00    0.0
2018/11/09 01:24:15.000  -74.407212022  163.437658694    77.3814   5  12   0.6142   0.5329   1.6994  -0.0764  -0.4247  -0.5646   0.00    0.0
2018/11/09 01:24:30.000  -74.407212576  163.437660679    77.4593   5  12   0.6141   0.5331   1.6991  -0.0742  -0.4276  -0.5642   0.00    0.0
2018/11/09 01:24:45.000  -74.407213876  163.437661158    77.4252   5  12   0.6141   0.5332   1.6991  -0.0720  -0.4306  -0.5639   0.00    0.0
2018/11/09 01:25:00.000  -74.407214288  163.437661971    77.7376   5  12   0.6142   0.5335   1.6994  -0.0697  -0.4337  -0.5637   0.00    0.0
2018/11/09 01:25:15.000  -74.407211268  163.437668825    77.3101   5  12   0.6143   0.5338   1.7001  -0.0674  -0.4369  -0.5635   0.00    0.0
2018/11/09 01:25:30.000  -74.407214109  163.437659174    78.0525   5  12   0.6145   0.5341   1.7011  -0.0650  -0.4401  -0.5634   0.00    0.0
2018/11/09 01:25:45.000  -74.407213537  163.437659139    78.0648   5  12   0.6147   0.5346   1.7024  -0.0626  -0.4433  -0.5633   0.00    0.0
2018/11/09 01:26:00.000  -74.407209881  163.437662985    77.5327   5  12   0.6150   0.5351   1.7039  -0.0601  -0.4467  -0.5632   0.00    0.0
2018/11/09 01:26:15.000  -74.407213816  163.437665133    77.6915   5  12   0.6153   0.5356   1.7058  -0.0574  -0.4501  -0.5632   0.00    0.0
2018/11/09 01:26:30.000  -74.407212729  163.437661911    77.2456   5  12   0.6157   0.5363   1.7079  -0.0547  -0.4535  -0.5633   0.00    0.0
2018/11/09 01:26:45.000  -74.407214174  163.437664012    78.1521   5  12   0.6161   0.5369   1.7104  -0.0519  -0.4570  -0.5634   0.00    0.0
2018/11/09 01:27:00.000  -74.407213595  163.437658316    77.6067   5  12   0.6166   0.5377   1.7131  -0.0489  -0.4606  -0.5635   0.00    0.0
2018/11/09 01:27:15.000  -74.407213512  163.437655861    77.7132   5  12   0.6171   0.5385   1.7161  -0.0457  -0.4642  -0.5637   0.00    0.0
2018/11/09 01:27:30.000  -74.407214094  163.437670727    77.6022   5  12   0.6177   0.5393   1.7193  -0.0423  -0.4679  -0.5639   0.00    0.0
2018/11/09 01:27:45.000  -74.407213421  163.437658979    77.0338   5  12   0.6174   0.5391   1.7174  -0.0380  -0.4700  -0.5635   0.00    0.0
2018/11/09 01:28:00.000  -74.407213485  163.437659600    77.4963   5  12   0.6171   0.5389   1.7158  -0.0332  -0.4722  -0.5630   0.00    0.0
2018/11/09 01:28:15.000  -74.407212541  163.437659803    77.5822   5  12   0.6168   0.5388   1.7145  -0.0276  -0.4744  -0.5626   0.00    0.0
2018/11/09 01:28:30.000  -74.407213115  163.437660563    77.0827   5  12   0.6167   0.5388   1.7135  -0.0206  -0.4768  -0.5623   0.00    0.0
2018/11/09 01:28:45.000  -74.407212087  163.437651245    77.6715   5  12   0.6165   0.5388   1.7128  -0.0094  -0.4791  -0.5620   0.00    0.0
2018/11/09 01:29:00.000  -74.407213270  163.437664359    77.8337   5  12   0.6164   0.5389   1.7123   0.0157  -0.4816  -0.5617   0.00    0.0
2018/11/09 01:29:15.000  -74.407210931  163.437662609    77.9125   5  12   0.6164   0.5390   1.7122   0.0240  -0.4840  -0.5615   0.00    0.0
2018/11/09 01:29:30.000  -74.407210977  163.437665921    77.6782   5  12   0.6164   0.5392   1.7123   0.0301  -0.4866  -0.5613   0.00    0.0
2018/11/09 01:29:45.000  -74.407212933  163.437661520    78.1648   5  12   0.6165   0.5395   1.7127   0.0351  -0.4892  -0.5612   0.00    0.0
2018/11/09 01:30:00.000  -74.407212673  163.437659460    77.5262   5  12   0.6166   0.5398   1.7134   0.0394  -0.4919  -0.5612   0.00    0.0
2018/11/09 01:30:15.000  -74.407212944  163.437655994    78.1670   5  12   0.6168   0.5402   1.7145   0.0433  -0.4947  -0.5611   0.00    0.0
2018/11/09 01:30:30.000  -74.407214662  163.437665910    78.0285   5  12   0.6170   0.5406   1.7159   0.0468  -0.4975  -0.5612   0.00    0.0
2018/11/09 01:30:45.000  -74.407214358  163.437662817    78.0204   5  12   0.6173   0.5412   1.7175   0.0501  -0.5004  -0.5613   0.00    0.0
2018/11/09 01:31:00.000  -74.407212471  163.437663054    78.6829   5  12   0.6176   0.5417   1.7195   0.0531  -0.5034  -0.5614   0.00    0.0
2018/11/09 01:31:15.000  -74.407214269  163.437669668    78.4496   5  12   0.6180   0.5424   1.7217   0.0560  -0.5064  -0.5616   0.00    0.0
2018/11/09 01:31:30.000  -74.407211509  163.437668953    77.6016   5  12   0.6184   0.5431   1.7241   0.0587  -0.5095  -0.5618   0.00    0.0
2018/11/09 01:31:45.000  -74.407213768  163.437667460    78.5162   5  12   0.6189   0.5438   1.7269   0.0612  -0.5126  -0.5620   0.00    0.0
2018/11/09 01:32:00.000  -74.407213630  163.437666180    78.1386   5  12   0.6194   0.5446   1.7299   0.0637  -0.5159  -0.5624   0.00    0.0
2018/11/09 01:32:15.000  -74.407213384  163.437669828    78.5271   5  12   0.6200   0.5455   1.7332   0.0661  -0.5191  -0.5627   0.00    0.0
2018/11/09 01:32:30.000  -74.407217920  163.437666393    78.2229   5  12   0.6207   0.5464   1.7368   0.0683  -0.5225  -0.5631   0.00    0.0
2018/11/09 01:32:45.000  -74.407214944  163.437660575    77.5996   5  12   0.6204   0.5463   1.7354   0.0708  -0.5243  -0.5628   0.00    0.0
2018/11/09 01:33:00.000  -74.407216193  163.437660207    78.1957   5  12   0.6202   0.5462   1.7342   0.0732  -0.5261  -0.5626   0.00    0.0
2018/11/09 01:33:15.000  -74.407216715  163.437670983    78.1186   5  12   0.6200   0.5462   1.7333   0.0754  -0.5281  -0.5623   0.00    0.0
2018/11/09 01:33:30.000  -74.407215023  163.437663339    77.9625   5  12   0.6198   0.5462   1.7326   0.0777  -0.5301  -0.5622   0.00    0.0
2018/11/09 01:33:45.000  -74.407215040  163.437661219    77.3025   5  12   0.6198   0.5463   1.7323   0.0798  -0.5321  -0.5621   0.00    0.0
2018/11/09 01:34:00.000  -74.407214792  163.437664702    77.5195   5  12   0.6197   0.5464   1.7322   0.0819  -0.5342  -0.5620   0.00    0.0
2018/11/09 01:34:15.000  -74.407215082  163.437662030    77.8470   5  12   0.6197   0.5466   1.7324   0.0839  -0.5364  -0.5620   0.00    0.0
2018/11/09 01:34:30.000  -74.407214210  163.437660924    78.6590   5  12   0.6198   0.5469   1.7329   0.0858  -0.5387  -0.5620   0.00    0.0
2018/11/09 01:34:45.000  -74.407215218  163.437665953    77.9477   5  12   0.6199   0.5472   1.7336   0.0877  -0.5410  -0.5621   0.00    0.0
2018/11/09 01:35:00.000  -74.407213491  163.437663194    77.6963   5  12   0.6201   0.5476   1.7347   0.0895  -0.5434  -0.5622   0.00    0.0
2018/11/09 01:35:15.000  -74.407215175  163.437667856    78.0183   5  12   0.6203   0.5480   1.7361   0.0913  -0.5458  -0.5623   0.00    0.0
2018/11/09 01:35:30.000  -74.407214090  163.437668097    78.1580   5  12   0.6206   0.5486   1.7377   0.0931  -0.5484  -0.5625   0.00    0.0
2018/11/09 01:35:45.000  -74.407212679  163.437660717    78.3230   5  12   0.6210   0.5491   1.7397   0.0948  -0.5510  -0.5628   0.00    0.0
2018/11/09 01:36:00.000  -74.407214558  163.437661922    78.6230   5  12   0.6214   0.5498   1.7419   0.0965  -0.5536  -0.5631   0.00    0.0
2018/11/09 01:36:15.000  -74.407212306  163.437661438    77.5338   5  12   0.6218   0.5504   1.7444   0.0981  -0.5563  -0.5634   0.00    0.0
2018/11/09 01:36:30.000  -74.407213106  163.437667150    78.1871   5  12   0.6223   0.5512   1.7471   0.0997  -0.5591  -0.5638   0.00    0.0
2018/11/09 01:36:45.000  -74.407211981  163.437666601    78.0311   5  12   0.6228   0.5520   1.7501   0.1013  -0.5620  -0.5642   0.00    0.0
2018/11/09 01:37:00.000  -74.407213429  163.437666324    77.3418   5  12   0.6234   0.5529   1.7533   0.1028  -0.5649  -0.5647   0.00    0.0
2018/11/09 01:37:15.000  -74.407215904  163.437651410    78.0653   5  12   0.6241   0.5538   1.7568   0.1043  -0.5678  -0.5652   0.00    0.0
2018/11/09 01:37:30.000  -74.407213371  163.437653998    78.6302   5  12   0.6248   0.5547   1.7606   0.1058  -0.5708  -0.5658   0.00    0.0
2018/11/09 01:37:45.000  -74.407213273  163.437667135    77.6503   5  12   0.6246   0.5546   1.7595   0.1074  -0.5724  -0.5656   0.00    0.0
2018/11/09 01:38:00.000  -74.407214782  163.437667695    77.1233   5  12   0.6244   0.5546   1.7587   0.1090  -0.5740  -0.5656   0.00    0.0
2018/11/09 01:38:15.000  -74.407212506  163.437668363    76.9395   5  12   0.6242   0.5546   1.7581   0.1106  -0.5757  -0.5656   0.00    0.0
2018/11/09 01:38:30.000  -74.407212101  163.437663829    77.6205   5  12   0.6242   0.5547   1.7578   0.1121  -0.5774  -0.5656   0.00    0.0
2018/11/09 01:38:45.000  -74.407213220  163.437664849    77.1463   5  12   0.6241   0.5548   1.7577   0.1136  -0.5792  -0.5657   0.00    0.0
2018/11/09 01:39:00.000  -74.407214456  163.437665495    77.4393   5  12   0.6242   0.5550   1.7579   0.1151  -0.5810  -0.5658   0.00    0.0
2018/11/09 01:39:15.000  -74.407213590  163.437667348    77.2205   5  12   0.6242   0.5552   1.7584   0.1165  -0.5829  -0.5659   0.00    0.0
2018/11/09 01:39:30.000  -74.407215941  163.437663291    77.7492   5  12   0.6244   0.5555   1.7591   0.1179  -0.5849  -0.5661   0.00    0.0
2018/11/09 01:39:45.000  -74.407214958  163.437663338    77.1024   5  12   0.6245   0.5559   1.7601   0.1194  -0.5869  -0.5664   0.00    0.0
2018/11/09 01:40:00.000  -74.407212917  163.437664822    77.5888   5  12   0.6248   0.5563   1.7614   0.1207  -0.5890  -0.5667   0.00    0.0
2018/11/09 01:40:15.000  -74.407215126  163.437669991    76.6947   5  12   0.6251   0.5568   1.7630   0.1221  -0.5912  -0.5670   0.00    0.0
2018/11/09 01:40:30.000  -74.407212475  163.437664795    77.6541   5  12   0.6254   0.5573   1.7649   0.1234  -0.5934  -0.5674   0.00    0.0
2018/11/09 01:40:45.000  -74.407214614  163.437661164    78.3020   5  12   0.6258   0.5579   1.7670   0.1247  -0.5957  -0.5678   0.00    0.0
2018/11/09 01:41:00.000  -74.407212920  163.437669353    77.8395   5  12   0.6263   0.5586   1.7693   0.1260  -0.5981  -0.5682   0.00    0.0
2018/11/09 01:41:15.000  -74.407213651  163.437671914    77.4270   5  12   0.6268   0.5593   1.7719   0.1273  -0.6005  -0.5687   0.00    0.0
2018/11/09 01:41:30.000  -74.407214635  163.437665784    77.5096   5  12   0.6273   0.5601   1.7748   0.1286  -0.6030  -0.5693   0.00    0.0
2018/11/09 01:41:45.000  -74.407210347  163.437661805    77.6053   5  12   0.6279   0.5609   1.7778   0.1298  -0.6055  -0.5698   0.00    0.0
2018/11/09 01:42:00.000  -74.407213985  163.437665441    77.7182   5  12   0.6286   0.5618   1.7811   0.1310  -0.6081  -0.5704   0.00    0.0
2018/11/09 01:42:15.000  -74.407214661  163.437661104    77.7409   5  12   0.6293   0.5627   1.7846   0.1322  -0.6107  -0.5711   0.00    0.0
2018/11/09 01:42:30.000  -74.407214623  163.437661434    77.6610   5  12   0.6301   0.5637   1.7884   0.1334  -0.6133  -0.5717   0.00    0.0
2018/11/09 01:42:45.000  -74.407213333  163.437657970    78.8580   5  12   0.6299   0.5636   1.7876   0.1347  -0.6146  -0.5719   0.00    0.0
2018/11/09 01:43:00.000  -74.407215200  163.437668511    77.6373   5  12   0.6298   0.5636   1.7871   0.1360  -0.6160  -0.5720   0.00    0.0
2018/11/09 01:43:15.000  -74.407212861  163.437663001    77.6063   5  12   0.6297   0.5636   1.7867   0.1373  -0.6174  -0.5722   0.00    0.0
2018/11/09 01:43:30.000  -74.407216127  163.437667553    77.6309   5  12   0.6297   0.5637   1.7866   0.1385  -0.6188  -0.5724   0.00    0.0
2018/11/09 01:43:45.000  -74.407217835  163.437663638    78.4895   5  11   0.6610   0.5676   1.8232   0.1804  -0.6011  -0.5051   0.00    0.0
2018/11/09 01:44:00.000  -74.407214347  163.437667586    78.0551   5  11   0.6608   0.5677   1.8238   0.1811  -0.6027  -0.5054   0.00    0.0
2018/11/09 01:44:15.000  -74.407216074  163.437661483    77.6251   5  11   0.6608   0.5679   1.8248   0.1818  -0.6044  -0.5057   0.00    0.0
