% program   : RTKLIB ver.2.4.3
% inp file  : _by_type/_obs/shirase/20181111.18o
% inp file  : _by_type/_obs/base/20181111.18o
% inp file  : _by_type/_sp3+clk/igs20270.clk
% inp file  : _by_type/_sp3+clk/igs20270.sp3
% inp file  : _by_type/_nav/shirase/20181111.18n
% obs start : 2018/11/11 00:00:00.0 GPST (week2027      0.0s)
% obs end   : 2018/11/11 23:59:45.0 GPST (week2027  86385.0s)
% pos mode  : dgps
% freqs     : L1+L2
% solution  : combined
% elev mask : 15.0 deg
% dynamics  : off
% tidecorr  : off
% ionos opt : iono-free
% tropo opt : est ztd+grad
% ephemeris : precise
% navi sys  : gps glonass
% antenna1  :                       ( 0.0000  0.0000  0.0000)
% antenna2  :                       ( 0.0000  0.0000  0.0000)
% ref pos   : 90.000000000   0.000000000-6335367.6285
%
% (lat/lon/height=WGS84/ellipsoidal,Q=1:fix,2:float,3:sbas,4:dgps,5:single,6:ppp,ns=# of satellites)
%  GPST                  latitude(deg) longitude(deg)  height(m)   Q  ns   sdn(m)   sde(m)   sdu(m)  sdne(m)  sdeu(m)  sdun(m) age(s)  ratio
2018/11/11 00:00:00.000  -74.525931369  163.457840776    24.5177   5  10   0.6522   0.6147   2.1896  -0.2724   0.7189  -0.7071   0.00    0.0
2018/11/11 00:00:15.000  -74.525933715  163.457848257    25.6180   5  10   0.6524   0.6153   2.1965  -0.2734   0.7227  -0.7096   0.00    0.0
2018/11/11 00:00:30.000  -74.525931896  163.457850750    24.8906   5  10   0.6527   0.6159   2.2036  -0.2746   0.7266  -0.7121   0.00    0.0
2018/11/11 00:00:45.000  -74.525934157  163.457846864    25.1220   5  10   0.6531   0.6166   2.2111  -0.2758   0.7306  -0.7147   0.00    0.0
2018/11/11 00:01:00.000  -74.525931295  163.457849565    25.1465   5  10   0.6536   0.6174   2.2188  -0.2770   0.7348  -0.7174   0.00    0.0
2018/11/11 00:01:15.000  -74.525929762  163.457844858    25.2071   5  10   0.6541   0.6183   2.2269  -0.2784   0.7391  -0.7203   0.00    0.0
2018/11/11 00:01:30.000  -74.525932884  163.457852004    26.2224   5  10   0.6547   0.6193   2.2353  -0.2798   0.7435  -0.7232   0.00    0.0
2018/11/11 00:01:45.000  -74.525931489  163.457844867    25.3726   5  10   0.6554   0.6204   2.2440  -0.2812   0.7481  -0.7262   0.00    0.0
2018/11/11 00:02:00.000  -74.525931168  163.457850307    25.9504   5  10   0.6562   0.6215   2.2530  -0.2827   0.7528  -0.7293   0.00    0.0
2018/11/11 00:02:15.000  -74.525936030  163.457859306    26.1850   5  10   0.6570   0.6228   2.2623  -0.2843   0.7576  -0.7326   0.00    0.0
2018/11/11 00:02:30.000  -74.525933173  163.457845015    25.4201   5  10   0.6579   0.6242   2.2719  -0.2860   0.7626  -0.7359   0.00    0.0
2018/11/11 00:02:45.000  -74.525932960  163.457847136    25.3772   5  10   0.6575   0.6238   2.2760  -0.2865   0.7650  -0.7377   0.00    0.0
2018/11/11 00:03:00.000  -74.525933821  163.457850881    25.4367   5  10   0.6572   0.6236   2.2804  -0.2872   0.7676  -0.7397   0.00    0.0
2018/11/11 00:03:15.000  -74.525930925  163.457841610    25.2423   5  10   0.6569   0.6235   2.2850  -0.2879   0.7703  -0.7417   0.00    0.0
2018/11/11 00:03:30.000  -74.525932426  163.457852059    25.5045   5  10   0.6568   0.6235   2.2900  -0.2886   0.7731  -0.7438   0.00    0.0
2018/11/11 00:03:45.000  -74.525933870  163.457835991    25.2931   5  10   0.6567   0.6235   2.2952  -0.2894   0.7760  -0.7459   0.00    0.0
2018/11/11 00:04:00.000  -74.525932790  163.457844474    25.4908   5  10   0.6566   0.6236   2.3008  -0.2903   0.7791  -0.7482   0.00    0.0
2018/11/11 00:04:15.000  -74.525931540  163.457844041    24.7075   5  10   0.6567   0.6239   2.3066  -0.2912   0.7823  -0.7506   0.00    0.0
2018/11/11 00:04:30.000  -74.525933643  163.457839784    25.8577   5  10   0.6568   0.6242   2.3127  -0.2922   0.7856  -0.7531   0.00    0.0
2018/11/11 00:04:45.000  -74.525932675  163.457848816    25.1542   5  10   0.6570   0.6246   2.3190  -0.2933   0.7890  -0.7556   0.00    0.0
2018/11/11 00:05:00.000  -74.525932992  163.457846655    26.1600   5  10   0.6573   0.6251   2.3257  -0.2944   0.7926  -0.7583   0.00    0.0
2018/11/11 00:05:15.000  -74.525929804  163.457848605    24.4070   5  10   0.6577   0.6257   2.3328  -0.2956   0.7963  -0.7611   0.00    0.0
2018/11/11 00:05:30.000  -74.525930914  163.457848756    24.9940   5  10   0.6582   0.6265   2.3403  -0.2969   0.8002  -0.7640   0.00    0.0
2018/11/11 00:05:45.000  -74.525932699  163.457855555    25.7471   5  10   0.6587   0.6273   2.3480  -0.2983   0.8043  -0.7670   0.00    0.0
2018/11/11 00:06:00.000  -74.525930793  163.457850458    25.4566   5  10   0.6594   0.6282   2.3560  -0.2997   0.8084  -0.7701   0.00    0.0
2018/11/11 00:06:15.000  -74.525931117  163.457850791    25.3180   5  10   0.6601   0.6292   2.3643  -0.3011   0.8127  -0.7732   0.00    0.0
2018/11/11 00:06:30.000  -74.525931544  163.457840914    25.0562   5  10   0.6609   0.6304   2.3728  -0.3027   0.8171  -0.7765   0.00    0.0
2018/11/11 00:06:45.000  -74.525932608  163.457848254    25.0267   5  10   0.6617   0.6315   2.3817  -0.3042   0.8216  -0.7799   0.00    0.0
2018/11/11 00:07:00.000  -74.525931506  163.457848685    25.6578   5  10   0.6627   0.6328   2.3909  -0.3059   0.8263  -0.7834   0.00    0.0
2018/11/11 00:07:15.000  -74.525930236  163.457849113    25.4297   5  10   0.6637   0.6342   2.4003  -0.3076   0.8311  -0.7870   0.00    0.0
2018/11/11 00:07:30.000  -74.525931558  163.457847014    25.2856   5  10   0.6648   0.6357   2.4101  -0.3094   0.8360  -0.7906   0.00    0.0
2018/11/11 00:07:45.000  -74.525931867  163.457848335    24.9722   5  10   0.6645   0.6354   2.4140  -0.3100   0.8381  -0.7927   0.00    0.0
2018/11/11 00:08:00.000  -74.525930296  163.457850509    25.7548   5  10   0.6644   0.6353   2.4181  -0.3107   0.8405  -0.7948   0.00    0.0
2018/11/11 00:08:15.000  -74.525929599  163.457843807    25.4864   5  10   0.6643   0.6352   2.4226  -0.3115   0.8430  -0.7969   0.00    0.0
2018/11/11 00:08:30.000  -74.525932842  163.457855050    26.7185   5  10   0.6642   0.6352   2.4272  -0.3123   0.8455  -0.7992   0.00    0.0
2018/11/11 00:08:45.000  -74.525930068  163.457847588    24.6962   5  10   0.6643   0.6353   2.4322  -0.3132   0.8482  -0.8016   0.00    0.0
2018/11/11 00:09:00.000  -74.525932570  163.457851919    25.4814   5  11   0.6516   0.6355   2.3409  -0.3127   0.8539  -0.8572   0.00    0.0
2018/11/11 00:09:15.000  -74.525930442  163.457847938    24.4553   5  11   0.6517   0.6358   2.3468  -0.3137   0.8567  -0.8596   0.00    0.0
2018/11/11 00:09:30.000  -74.525933450  163.457853115    24.8272   5  11   0.6519   0.6361   2.3530  -0.3148   0.8596  -0.8622   0.00    0.0
2018/11/11 00:09:45.000  -74.525932338  163.457849927    24.6474   5  11   0.6522   0.6366   2.3594  -0.3160   0.8627  -0.8648   0.00    0.0
2018/11/11 00:10:00.000  -74.525931189  163.457850031    24.2432   5  11   0.6526   0.6371   2.3662  -0.3172   0.8658  -0.8675   0.00    0.0
2018/11/11 00:10:15.000  -74.525932785  163.457857722    25.2709   5  11   0.6531   0.6378   2.3733  -0.3185   0.8692  -0.8704   0.00    0.0
2018/11/11 00:10:30.000  -74.525931313  163.457848674    24.8653   5  11   0.6536   0.6386   2.3807  -0.3198   0.8726  -0.8733   0.00    0.0
2018/11/11 00:10:45.000  -74.525932890  163.457846935    25.1556   5  11   0.6543   0.6395   2.3883  -0.3213   0.8762  -0.8764   0.00    0.0
2018/11/11 00:11:00.000  -74.525932154  163.457847726    24.9674   5  11   0.6549   0.6404   2.3962  -0.3227   0.8799  -0.8796   0.00    0.0
2018/11/11 00:11:15.000  -74.525933363  163.457849624    25.4159   5  11   0.6557   0.6414   2.4044  -0.3242   0.8837  -0.8828   0.00    0.0
2018/11/11 00:11:30.000  -74.525931033  163.457852927    24.1057   5  11   0.6565   0.6426   2.4128  -0.3258   0.8876  -0.8861   0.00    0.0
2018/11/11 00:11:45.000  -74.525933833  163.457850649    24.0525   5  11   0.6574   0.6438   2.4214  -0.3274   0.8916  -0.8896   0.00    0.0
2018/11/11 00:12:00.000  -74.525932394  163.457849645    25.1044   5  11   0.6584   0.6450   2.4303  -0.3291   0.8958  -0.8931   0.00    0.0
2018/11/11 00:12:15.000  -74.525933415  163.457855001    26.0748   5  11   0.6595   0.6464   2.4395  -0.3308   0.9000  -0.8967   0.00    0.0
2018/11/11 00:12:30.000  -74.525933716  163.457868122    25.9993   5  11   0.6606   0.6479   2.4489  -0.3325   0.9043  -0.9004   0.00    0.0
2018/11/11 00:12:45.000  -74.525930365  163.457860341    25.0021   5  11   0.6604   0.6476   2.4523  -0.3331   0.9058  -0.9020   0.00    0.0
2018/11/11 00:13:00.000  -74.525930729  163.457855680    24.3195   5  11   0.6603   0.6474   2.4561  -0.3338   0.9076  -0.9039   0.00    0.0
2018/11/11 00:13:15.000  -74.525931809  163.457864739    25.7138   5  11   0.6602   0.6473   2.4602  -0.3345   0.9094  -0.9058   0.00    0.0
2018/11/11 00:13:30.000  -74.525932792  163.457857184    25.3070   5  11   0.6602   0.6472   2.4645  -0.3353   0.9113  -0.9077   0.00    0.0
2018/11/11 00:13:45.000  -74.525932703  163.457860396    25.7543   5  11   0.6603   0.6473   2.4690  -0.3361   0.9133  -0.9098   0.00    0.0
2018/11/11 00:14:00.000  -74.525931481  163.457853199    24.6677   5  11   0.6605   0.6474   2.4737  -0.3370   0.9154  -0.9119   0.00    0.0
2018/11/11 00:14:15.000  -74.525933411  163.457850001    25.0723   5  11   0.6607   0.6476   2.4786  -0.3379   0.9176  -0.9141   0.00    0.0
2018/11/11 00:14:30.000  -74.525933002  163.457862357    25.1911   5  11   0.6610   0.6479   2.4837  -0.3389   0.9199  -0.9164   0.00    0.0
2018/11/11 00:14:45.000  -74.525931373  163.457859759    24.4253   5  11   0.6614   0.6483   2.4891  -0.3399   0.9223  -0.9188   0.00    0.0
2018/11/11 00:15:00.000  -74.525932844  163.457860813    25.2374   5  11   0.6618   0.6488   2.4947  -0.3409   0.9248  -0.9212   0.00    0.0
2018/11/11 00:15:15.000  -74.525932183  163.457864106    25.6429   5  11   0.6623   0.6493   2.5005  -0.3420   0.9274  -0.9238   0.00    0.0
2018/11/11 00:15:30.000  -74.525933051  163.457862236    25.4747   5  11   0.6629   0.6500   2.5066  -0.3432   0.9302  -0.9264   0.00    0.0
2018/11/11 00:15:45.000  -74.525931782  163.457856983    24.5856   5  11   0.6636   0.6507   2.5129  -0.3444   0.9330  -0.9291   0.00    0.0
2018/11/11 00:16:00.000  -74.525932449  163.457844355    24.8009   5  11   0.6643   0.6515   2.5194  -0.3456   0.9358  -0.9319   0.00    0.0
2018/11/11 00:16:15.000  -74.525932382  163.457863407    25.9863   5  11   0.6651   0.6524   2.5261  -0.3469   0.9388  -0.9347   0.00    0.0
2018/11/11 00:16:30.000  -74.525931071  163.457855144    25.0019   5  11   0.6660   0.6534   2.5329  -0.3482   0.9418  -0.9377   0.00    0.0
2018/11/11 00:16:45.000  -74.525930787  163.457851747    25.1899   5  11   0.6669   0.6544   2.5400  -0.3495   0.9450  -0.9406   0.00    0.0
2018/11/11 00:17:00.000  -74.525932867  163.457860692    24.8289   5  11   0.6679   0.6556   2.5472  -0.3509   0.9482  -0.9437   0.00    0.0
2018/11/11 00:17:15.000  -74.525931247  163.457865873    24.8335   5  11   0.6690   0.6567   2.5546  -0.3523   0.9514  -0.9468   0.00    0.0
2018/11/11 00:17:30.000  -74.525930700  163.457854585    24.8283   5  11   0.6701   0.6580   2.5622  -0.3538   0.9547  -0.9499   0.00    0.0
2018/11/11 00:17:45.000  -74.525931174  163.457863614    24.9611   5  11   0.6699   0.6576   2.5640  -0.3542   0.9555  -0.9512   0.00    0.0
2018/11/11 00:18:00.000  -74.525932620  163.457864735    25.8669   5  11   0.6698   0.6572   2.5659  -0.3545   0.9562  -0.9524   0.00    0.0
2018/11/11 00:18:15.000  -74.525932243  163.457864838    25.8655   5  11   0.6698   0.6569   2.5679  -0.3550   0.9570  -0.9537   0.00    0.0
2018/11/11 00:18:30.000  -74.525932103  163.457867997    25.9575   5  11   0.6698   0.6566   2.5702  -0.3554   0.9578  -0.9550   0.00    0.0
2018/11/11 00:18:45.000  -74.525932792  163.457861828    25.6359   5  11   0.6698   0.6565   2.5725  -0.3559   0.9587  -0.9564   0.00    0.0
2018/11/11 00:19:00.000  -74.525929338  163.457854506    24.4616   5  11   0.6700   0.6564   2.5751  -0.3564   0.9597  -0.9579   0.00    0.0
2018/11/11 00:19:15.000  -74.525930515  163.457862280    26.6522   5  11   0.6702   0.6564   2.5778  -0.3570   0.9608  -0.9594   0.00    0.0
2018/11/11 00:19:30.000  -74.525929554  163.457863414    25.5739   5  11   0.6704   0.6564   2.5806  -0.3576   0.9619  -0.9610   0.00    0.0
2018/11/11 00:19:45.000  -74.525931856  163.457852484    24.1735   5  11   0.6708   0.6565   2.5836  -0.3582   0.9631  -0.9626   0.00    0.0
2018/11/11 00:20:00.000  -74.525930798  163.457862150    24.7499   5  11   0.6712   0.6567   2.5867  -0.3588   0.9643  -0.9643   0.00    0.0
2018/11/11 00:20:15.000  -74.525932415  163.457858281    25.3931   5  11   0.6716   0.6570   2.5902  -0.3595   0.9657  -0.9661   0.00    0.0
2018/11/11 00:20:30.000  -74.525931079  163.457860054    25.6593   5  11   0.6722   0.6574   2.5937  -0.3603   0.9671  -0.9679   0.00    0.0
2018/11/11 00:20:45.000  -74.525933075  163.457871804    26.4456   5  11   0.6728   0.6579   2.5974  -0.3610   0.9686  -0.9697   0.00    0.0
2018/11/11 00:21:00.000  -74.525932019  163.457868594    26.1117   5  11   0.6734   0.6584   2.6013  -0.3618   0.9701  -0.9716   0.00    0.0
2018/11/11 00:21:15.000  -74.525931622  163.457873505    25.6888   5  11   0.6741   0.6589   2.6052  -0.3626   0.9717  -0.9736   0.00    0.0
2018/11/11 00:21:30.000  -74.525930969  163.457865058    25.0220   5  11   0.6749   0.6596   2.6093  -0.3634   0.9733  -0.9756   0.00    0.0
2018/11/11 00:21:45.000  -74.525930978  163.457867251    25.2797   5  11   0.6757   0.6603   2.6135  -0.3643   0.9750  -0.9776   0.00    0.0
2018/11/11 00:22:00.000  -74.525932433  163.457868064    25.9150   5  11   0.6766   0.6611   2.6179  -0.3651   0.9767  -0.9796   0.00    0.0
2018/11/11 00:22:15.000  -74.525932800  163.457870031    26.0082   5  11   0.6776   0.6619   2.6223  -0.3660   0.9784  -0.9817   0.00    0.0
2018/11/11 00:22:30.000  -74.525932966  163.457873642    26.0345   5  11   0.6786   0.6628   2.6269  -0.3669   0.9802  -0.9838   0.00    0.0
2018/11/11 00:22:45.000  -74.525932372  163.457866935    26.0980   5  11   0.6783   0.6620   2.6257  -0.3668   0.9794  -0.9841   0.00    0.0
2018/11/11 00:23:00.000  -74.525934674  163.457875643    26.9085   5  11   0.6781   0.6613   2.6246  -0.3667   0.9786  -0.9843   0.00    0.0
2018/11/11 00:23:15.000  -74.525933558  163.457870729    26.4017   5  11   0.6779   0.6607   2.6236  -0.3666   0.9779  -0.9846   0.00    0.0
2018/11/11 00:23:30.000  -74.525929767  163.457865164    24.8843   5  11   0.6778   0.6601   2.6227  -0.3666   0.9773  -0.9848   0.00    0.0
2018/11/11 00:23:45.000  -74.525930837  163.457870249    25.5100   5  11   0.6778   0.6596   2.6219  -0.3665   0.9767  -0.9852   0.00    0.0
2018/11/11 00:24:00.000  -74.525930260  163.457865852    25.2773   5  11   0.6778   0.6591   2.6213  -0.3665   0.9761  -0.9856   0.00    0.0
2018/11/11 00:24:15.000  -74.525927977  163.457864123    25.3073   5  11   0.6778   0.6587   2.6207  -0.3665   0.9756  -0.9860   0.00    0.0
2018/11/11 00:24:30.000  -74.525929721  163.457864584    24.7208   5  11   0.6779   0.6584   2.6203  -0.3665   0.9751  -0.9864   0.00    0.0
2018/11/11 00:24:45.000  -74.525932608  163.457864338    26.9983   5  11   0.6781   0.6581   2.6200  -0.3666   0.9747  -0.9869   0.00    0.0
2018/11/11 00:25:00.000  -74.525929860  163.457863883    24.8034   5  11   0.6783   0.6580   2.6198  -0.3666   0.9742  -0.9874   0.00    0.0
2018/11/11 00:25:15.000  -74.525929744  163.457858147    25.6618   5  11   0.6787   0.6579   2.6199  -0.3667   0.9739  -0.9879   0.00    0.0
2018/11/11 00:25:30.000  -74.525928482  163.457865830    25.4849   5  11   0.6790   0.6578   2.6200  -0.3669   0.9737  -0.9886   0.00    0.0
2018/11/11 00:25:45.000  -74.525930826  163.457869052    26.4153   5  11   0.6795   0.6579   2.6203  -0.3670   0.9734  -0.9892   0.00    0.0
2018/11/11 00:26:00.000  -74.525931829  163.457859611    26.2661   5  11   0.6799   0.6580   2.6207  -0.3671   0.9732  -0.9898   0.00    0.0
2018/11/11 00:26:15.000  -74.525933504  163.457865702    26.3166   5  11   0.6805   0.6581   2.6211  -0.3673   0.9730  -0.9905   0.00    0.0
2018/11/11 00:26:30.000  -74.525931107  163.457866885    26.0056   5  11   0.6810   0.6583   2.6217  -0.3675   0.9728  -0.9912   0.00    0.0
2018/11/11 00:26:45.000  -74.525931451  163.457869980    26.4590   5  11   0.6817   0.6586   2.6224  -0.3677   0.9727  -0.9920   0.00    0.0
2018/11/11 00:27:00.000  -74.525931910  163.457862209    25.9070   5  11   0.6824   0.6590   2.6231  -0.3679   0.9726  -0.9927   0.00    0.0
2018/11/11 00:27:15.000  -74.525930623  163.457869272    26.3172   5  11   0.6831   0.6594   2.6240  -0.3681   0.9725  -0.9935   0.00    0.0
2018/11/11 00:27:30.000  -74.525932396  163.457877834    25.5136   5  11   0.6839   0.6598   2.6249  -0.3683   0.9724  -0.9943   0.00    0.0
2018/11/11 00:27:45.000  -74.525930917  163.457869817    25.5565   5  11   0.6834   0.6587   2.6202  -0.3676   0.9699  -0.9932   0.00    0.0
2018/11/11 00:28:00.000  -74.525930759  163.457873569    25.5932   5  11   0.6830   0.6576   2.6157  -0.3669   0.9676  -0.9922   0.00    0.0
2018/11/11 00:28:15.000  -74.525931354  163.457868232    26.1700   5  11   0.6827   0.6565   2.6113  -0.3662   0.9652  -0.9912   0.00    0.0
2018/11/11 00:28:30.000  -74.525929399  163.457857875    25.5651   5  11   0.6824   0.6556   2.6070  -0.3655   0.9629  -0.9903   0.00    0.0
2018/11/11 00:28:45.000  -74.525932807  163.457868419    26.9887   5  11   0.6822   0.6547   2.6028  -0.3649   0.9606  -0.9894   0.00    0.0
2018/11/11 00:29:00.000  -74.525930792  163.457863570    25.8153   5  11   0.6820   0.6539   2.5988  -0.3642   0.9584  -0.9886   0.00    0.0
2018/11/11 00:29:15.000  -74.525930715  163.457875730    26.0363   5  11   0.6818   0.6531   2.5949  -0.3636   0.9562  -0.9877   0.00    0.0
2018/11/11 00:29:30.000  -74.525929648  163.457858122    25.1428   5  11   0.6818   0.6524   2.5911  -0.3630   0.9540  -0.9869   0.00    0.0
2018/11/11 00:29:45.000  -74.525931739  163.457859872    25.6578   5  11   0.6817   0.6518   2.5874  -0.3624   0.9519  -0.9861   0.00    0.0
2018/11/11 00:30:00.000  -74.525930307  163.457864134    24.9710   5  11   0.6818   0.6512   2.5838  -0.3619   0.9498  -0.9854   0.00    0.0
2018/11/11 00:30:15.000  -74.525930422  163.457870577    26.2441   5  11   0.6819   0.6507   2.5805  -0.3613   0.9478  -0.9847   0.00    0.0
2018/11/11 00:30:30.000  -74.525931230  163.457873844    25.9914   5  11   0.6820   0.6503   2.5773  -0.3608   0.9458  -0.9840   0.00    0.0
2018/11/11 00:30:45.000  -74.525930659  163.457871779    25.7902   5  11   0.6823   0.6499   2.5742  -0.3603   0.9438  -0.9834   0.00    0.0
2018/11/11 00:31:00.000  -74.525930359  163.457871641    26.0466   5  11   0.6825   0.6497   2.5712  -0.3598   0.9419  -0.9828   0.00    0.0
2018/11/11 00:31:15.000  -74.525935257  163.457864043    26.1668   5  11   0.6829   0.6494   2.5684  -0.3593   0.9400  -0.9822   0.00    0.0
2018/11/11 00:31:30.000  -74.525929801  163.457870023    25.2443   5  11   0.6832   0.6493   2.5657  -0.3588   0.9382  -0.9816   0.00    0.0
2018/11/11 00:31:45.000  -74.525929485  163.457863913    24.7185   5  11   0.6837   0.6492   2.5631  -0.3584   0.9363  -0.9811   0.00    0.0
2018/11/11 00:32:00.000  -74.525931219  163.457872513    25.8561   5  11   0.6841   0.6491   2.5606  -0.3579   0.9345  -0.9806   0.00    0.0
2018/11/11 00:32:15.000  -74.525933187  163.457869034    26.3951   5  11   0.6847   0.6491   2.5583  -0.3574   0.9327  -0.9801   0.00    0.0
2018/11/11 00:32:30.000  -74.525930478  163.457865892    25.9706   5  11   0.6853   0.6492   2.5561  -0.3570   0.9310  -0.9797   0.00    0.0
2018/11/11 00:32:45.000  -74.525930288  163.457866866    25.7411   5  11   0.6846   0.6478   2.5486  -0.3558   0.9272  -0.9776   0.00    0.0
2018/11/11 00:33:00.000  -74.525930583  163.457859194    25.8502   5  11   0.6841   0.6464   2.5412  -0.3545   0.9233  -0.9755   0.00    0.0
2018/11/11 00:33:15.000  -74.525928558  163.457867115    25.0091   5  11   0.6836   0.6451   2.5340  -0.3533   0.9196  -0.9735   0.00    0.0
2018/11/11 00:33:30.000  -74.525932422  163.457865079    25.6511   5  11   0.6831   0.6439   2.5270  -0.3521   0.9159  -0.9715   0.00    0.0
2018/11/11 00:33:45.000  -74.525931182  163.457867569    26.6532   5  11   0.6827   0.6427   2.5201  -0.3509   0.9122  -0.9696   0.00    0.0
2018/11/11 00:34:00.000  -74.525925239  163.457864629    23.0361   5  10   0.9320   0.6746   3.5830  -0.5045   1.1651  -1.5992   0.00    0.0
2018/11/11 00:34:15.000  -74.525922573  163.457860277    22.1761   5  10   0.9310   0.6732   3.5734  -0.5026   1.1602  -1.5957   0.00    0.0
2018/11/11 00:34:30.000  -74.525924449  163.457864784    23.7592   5  10   0.9300   0.6719   3.5639  -0.5007   1.1552  -1.5923   0.00    0.0
2018/11/11 00:34:45.000  -74.525919534  163.457854253    20.9965   5  10   0.9291   0.6706   3.5545  -0.4988   1.1503  -1.5889   0.00    0.0
2018/11/11 00:35:00.000  -74.525920561  163.457858303    22.3425   5  10   0.9282   0.6693   3.5452  -0.4968   1.1454  -1.5855   0.00    0.0
2018/11/11 00:35:15.000  -74.525924090  163.457857126    23.1102   5  10   0.9275   0.6682   3.5362  -0.4949   1.1405  -1.5823   0.00    0.0
2018/11/11 00:35:30.000  -74.525922248  163.457856923    21.5348   5  10   0.9268   0.6672   3.5274  -0.4931   1.1357  -1.5791   0.00    0.0
2018/11/11 00:35:45.000  -74.525923148  163.457854486    22.2955   5  10   0.9262   0.6661   3.5187  -0.4912   1.1309  -1.5760   0.00    0.0
2018/11/11 00:36:00.000  -74.525920516  163.457845734    20.6754   5  10   0.9256   0.6652   3.5102  -0.4893   1.1261  -1.5730   0.00    0.0
2018/11/11 00:36:15.000  -74.525925684  163.457859602    22.8148   5  10   0.9251   0.6643   3.5019  -0.4874   1.1214  -1.5700   0.00    0.0
2018/11/11 00:36:30.000  -74.525921575  163.457852108    21.7593   5  10   0.9247   0.6635   3.4937  -0.4856   1.1167  -1.5670   0.00    0.0
2018/11/11 00:36:45.000  -74.525923049  163.457863247    23.0290   5  10   0.9243   0.6628   3.4857  -0.4837   1.1119  -1.5642   0.00    0.0
2018/11/11 00:37:00.000  -74.525924738  163.457855322    22.4576   5  10   0.9240   0.6621   3.4779  -0.4818   1.1073  -1.5613   0.00    0.0
2018/11/11 00:37:15.000  -74.525923600  163.457858944    22.9833   5  10   0.9237   0.6614   3.4703  -0.4800   1.1026  -1.5586   0.00    0.0
2018/11/11 00:37:30.000  -74.525918941  163.457857119    20.0843   5  10   0.9235   0.6609   3.4629  -0.4781   1.0980  -1.5560   0.00    0.0
2018/11/11 00:37:45.000  -74.525923640  163.457860770    21.9571   5  10   0.9211   0.6587   3.4457  -0.4749   1.0902  -1.5490   0.00    0.0
2018/11/11 00:38:00.000  -74.525923160  163.457854676    21.9427   5  10   0.9187   0.6567   3.4287  -0.4716   1.0826  -1.5421   0.00    0.0
2018/11/11 00:38:15.000  -74.525920663  163.457863613    20.9783   5   9   0.9206   0.6547   3.6689  -0.4675   1.0685  -1.5732   0.00    0.0
2018/11/11 00:38:30.000  -74.525922994  163.457861030    22.3091   5   9   0.9184   0.6528   3.6537  -0.4643   1.0609  -1.5670   0.00    0.0
2018/11/11 00:38:45.000  -74.525923939  163.457852127    22.9287   5   9   0.9164   0.6510   3.6389  -0.4611   1.0533  -1.5609   0.00    0.0
2018/11/11 00:39:00.000  -74.525919211  163.457851584    21.5941   5   9   0.9144   0.6492   3.6243  -0.4579   1.0458  -1.5549   0.00    0.0
2018/11/11 00:39:15.000  -74.525921494  163.457866787    22.7270   5   9   0.9125   0.6476   3.6100  -0.4548   1.0384  -1.5490   0.00    0.0
2018/11/11 00:39:30.000  -74.525926689  163.457867378    23.9410   5   9   0.9107   0.6460   3.5960  -0.4517   1.0310  -1.5432   0.00    0.0
2018/11/11 00:39:45.000  -74.525918520  163.457862098    20.0001   5   9   0.9090   0.6444   3.5823  -0.4487   1.0236  -1.5376   0.00    0.0
2018/11/11 00:40:00.000  -74.525918711  163.457858906    21.3219   5   9   0.9073   0.6430   3.5690  -0.4456   1.0163  -1.5321   0.00    0.0
2018/11/11 00:40:15.000  -74.525922835  163.457857052    21.9861   5   9   0.9058   0.6417   3.5562  -0.4426   1.0092  -1.5268   0.00    0.0
2018/11/11 00:40:30.000  -74.525917871  163.457864673    20.7225   5   9   0.9044   0.6405   3.5438  -0.4397   1.0020  -1.5216   0.00    0.0
2018/11/11 00:40:45.000  -74.525922206  163.457858246    21.9521   5   9   0.9031   0.6393   3.5317  -0.4367   0.9950  -1.5165   0.00    0.0
2018/11/11 00:41:00.000  -74.525926032  163.457856426    23.5178   5  10   0.7442   0.6346   2.6745  -0.3916   0.9053  -1.0580   0.00    0.0
2018/11/11 00:41:15.000  -74.525928131  163.457861910    23.9844   5  10   0.7443   0.6339   2.6712  -0.3905   0.9020  -1.0567   0.00    0.0
2018/11/11 00:41:30.000  -74.525929829  163.457861213    24.2276   5  10   0.7444   0.6332   2.6682  -0.3895   0.8987  -1.0555   0.00    0.0
2018/11/11 00:41:45.000  -74.525926269  163.457855534    23.1778   5  10   0.7445   0.6327   2.6654  -0.3884   0.8954  -1.0543   0.00    0.0
2018/11/11 00:42:00.000  -74.525925378  163.457858677    22.9289   5  10   0.7447   0.6322   2.6628  -0.3874   0.8922  -1.0532   0.00    0.0
2018/11/11 00:42:15.000  -74.525926873  163.457869121    24.7968   5  10   0.7450   0.6318   2.6604  -0.3864   0.8891  -1.0522   0.00    0.0
2018/11/11 00:42:30.000  -74.525926510  163.457862162    23.4073   5  10   0.7454   0.6315   2.6583  -0.3855   0.8860  -1.0512   0.00    0.0
2018/11/11 00:42:45.000  -74.525925793  163.457862559    23.8583   5  10   0.7443   0.6297   2.6496  -0.3836   0.8807  -1.0481   0.00    0.0
2018/11/11 00:43:00.000  -74.525924037  163.457856932    23.3976   5  10   0.7433   0.6280   2.6411  -0.3817   0.8755  -1.0451   0.00    0.0
2018/11/11 00:43:15.000  -74.525926913  163.457861920    24.3977   5  10   0.7424   0.6263   2.6328  -0.3798   0.8704  -1.0422   0.00    0.0
2018/11/11 00:43:30.000  -74.525926120  163.457866886    24.2163   5  10   0.7416   0.6248   2.6247  -0.3780   0.8653  -1.0393   0.00    0.0
2018/11/11 00:43:45.000  -74.525926314  163.457870030    25.1503   5  10   0.7408   0.6233   2.6169  -0.3763   0.8603  -1.0365   0.00    0.0
2018/11/11 00:44:00.000  -74.525927495  163.457859713    24.5189   5  10   0.7401   0.6219   2.6094  -0.3745   0.8554  -1.0337   0.00    0.0
2018/11/11 00:44:15.000  -74.525924770  163.457861657    22.9448   5  10   0.7394   0.6205   2.6021  -0.3728   0.8505  -1.0311   0.00    0.0
2018/11/11 00:44:30.000  -74.525923164  163.457860209    23.4343   5  10   0.7389   0.6193   2.5951  -0.3711   0.8457  -1.0285   0.00    0.0
2018/11/11 00:44:45.000  -74.525927403  163.457867638    23.8952   5  10   0.7384   0.6181   2.5883  -0.3695   0.8410  -1.0260   0.00    0.0
2018/11/11 00:45:00.000  -74.525925356  163.457862729    24.3335   5  10   0.7379   0.6170   2.5818  -0.3679   0.8363  -1.0235   0.00    0.0
2018/11/11 00:45:15.000  -74.525925280  163.457866482    24.3169   5  10   0.7376   0.6160   2.5758  -0.3663   0.8317  -1.0212   0.00    0.0
2018/11/11 00:45:30.000  -74.525925759  163.457857881    23.3462   5  10   0.7373   0.6150   2.5700  -0.3648   0.8272  -1.0190   0.00    0.0
2018/11/11 00:45:45.000  -74.525927628  163.457867431    23.7695   5  10   0.7371   0.6142   2.5645  -0.3633   0.8227  -1.0168   0.00    0.0
2018/11/11 00:46:00.000  -74.525927749  163.457860495    24.3135   5  10   0.7370   0.6134   2.5593  -0.3618   0.8183  -1.0147   0.00    0.0
2018/11/11 00:46:15.000  -74.525927017  163.457868014    24.0017   5  10   0.7369   0.6127   2.5544  -0.3604   0.8140  -1.0128   0.00    0.0
2018/11/11 00:46:30.000  -74.525926964  163.457860204    24.4892   5  10   0.7369   0.6121   2.5498  -0.3590   0.8097  -1.0108   0.00    0.0
2018/11/11 00:46:45.000  -74.525926318  163.457862068    23.1951   5  10   0.7370   0.6115   2.5455  -0.3576   0.8055  -1.0090   0.00    0.0
2018/11/11 00:47:00.000  -74.525925390  163.457869594    23.0426   5  10   0.7371   0.6110   2.5416  -0.3563   0.8014  -1.0073   0.00    0.0
2018/11/11 00:47:15.000  -74.525924692  163.457860096    23.4189   5  10   0.7373   0.6106   2.5379  -0.3549   0.7973  -1.0056   0.00    0.0
2018/11/11 00:47:30.000  -74.525925536  163.457860698    24.7445   5  10   0.7376   0.6103   2.5346  -0.3537   0.7932  -1.0041   0.00    0.0
2018/11/11 00:47:45.000  -74.525925248  163.457861319    23.5905   5  10   0.7365   0.6086   2.5244  -0.3515   0.7873  -1.0004   0.00    0.0
2018/11/11 00:48:00.000  -74.525926468  163.457868794    24.1857   5  10   0.7355   0.6070   2.5145  -0.3494   0.7814  -0.9969   0.00    0.0
2018/11/11 00:48:15.000  -74.525923446  163.457862539    22.2927   5  10   0.7345   0.6055   2.5050  -0.3474   0.7755  -0.9934   0.00    0.0
2018/11/11 00:48:30.000  -74.525925132  163.457865138    22.9098   5  10   0.7336   0.6040   2.4957  -0.3453   0.7698  -0.9900   0.00    0.0
2018/11/11 00:48:45.000  -74.525925067  163.457855693    23.1478   5  10   0.7328   0.6026   2.4868  -0.3434   0.7641  -0.9868   0.00    0.0
2018/11/11 00:49:00.000  -74.525925039  163.457861727    23.4742   5  10   0.7321   0.6013   2.4782  -0.3414   0.7586  -0.9836   0.00    0.0
2018/11/11 00:49:15.000  -74.525922907  163.457861729    23.1862   5  10   0.7314   0.6001   2.4700  -0.3395   0.7531  -0.9805   0.00    0.0
2018/11/11 00:49:30.000  -74.525924039  163.457865491    24.0713   5  10   0.7309   0.5990   2.4621  -0.3376   0.7476  -0.9775   0.00    0.0
2018/11/11 00:49:45.000  -74.525924894  163.457858242    23.3065   5  10   0.7303   0.5979   2.4545  -0.3358   0.7423  -0.9747   0.00    0.0
2018/11/11 00:50:00.000  -74.525926928  163.457868029    24.4951   5  10   0.7299   0.5969   2.4473  -0.3340   0.7370  -0.9719   0.00    0.0
2018/11/11 00:50:15.000  -74.525925882  163.457862577    23.9299   5  10   0.7295   0.5961   2.4405  -0.3322   0.7318  -0.9692   0.00    0.0
2018/11/11 00:50:30.000  -74.525925746  163.457867981    24.4468   5  10   0.7293   0.5953   2.4341  -0.3305   0.7267  -0.9667   0.00    0.0
2018/11/11 00:50:45.000  -74.525925156  163.457863747    23.9914   5  10   0.7291   0.5945   2.4281  -0.3289   0.7216  -0.9642   0.00    0.0
2018/11/11 00:51:00.000  -74.525926263  163.457864365    23.9632   5  10   0.7289   0.5939   2.4224  -0.3272   0.7166  -0.9619   0.00    0.0
2018/11/11 00:51:15.000  -74.525925474  163.457868969    24.6125   5  10   0.7289   0.5933   2.4170  -0.3256   0.7117  -0.9596   0.00    0.0
2018/11/11 00:51:30.000  -74.525927773  163.457861747    24.6300   5  10   0.7289   0.5929   2.4120  -0.3240   0.7069  -0.9575   0.00    0.0
2018/11/11 00:51:45.000  -74.525923413  163.457864115    23.8925   5  10   0.7290   0.5924   2.4074  -0.3225   0.7021  -0.9554   0.00    0.0
2018/11/11 00:52:00.000  -74.525925067  163.457867421    24.1082   5  10   0.7291   0.5921   2.4031  -0.3210   0.6973  -0.9535   0.00    0.0
2018/11/11 00:52:15.000  -74.525921290  163.457854117    22.1620   5  10   0.7294   0.5918   2.3992  -0.3195   0.6927  -0.9516   0.00    0.0
2018/11/11 00:52:30.000  -74.525928880  163.457864295    24.1988   5  10   0.7297   0.5917   2.3956  -0.3181   0.6880  -0.9499   0.00    0.0
2018/11/11 00:52:45.000  -74.525923592  163.457859124    24.0799   5  10   0.7286   0.5902   2.3853  -0.3158   0.6817  -0.9461   0.00    0.0
2018/11/11 00:53:00.000  -74.525924956  163.457862762    24.1839   5  10   0.7277   0.5888   2.3753  -0.3137   0.6755  -0.9425   0.00    0.0
2018/11/11 00:53:15.000  -74.525926881  163.457861214    23.4190   5  10   0.7268   0.5875   2.3656  -0.3116   0.6694  -0.9390   0.00    0.0
2018/11/11 00:53:30.000  -74.525926299  163.457867629    24.2397   5  10   0.7260   0.5863   2.3563  -0.3095   0.6634  -0.9356   0.00    0.0
2018/11/11 00:53:45.000  -74.525929733  163.457867315    25.1712   5  10   0.7252   0.5851   2.3474  -0.3074   0.6574  -0.9323   0.00    0.0
2018/11/11 00:54:00.000  -74.525924978  163.457853189    23.9034   5  10   0.7246   0.5840   2.3388  -0.3054   0.6515  -0.9291   0.00    0.0
2018/11/11 00:54:15.000  -74.525925262  163.457863868    23.6750   5  10   0.7240   0.5831   2.3307  -0.3035   0.6457  -0.9260   0.00    0.0
2018/11/11 00:54:30.000  -74.525924550  163.457859386    23.1806   5  10   0.7235   0.5821   2.3229  -0.3015   0.6400  -0.9230   0.00    0.0
2018/11/11 00:54:45.000  -74.525924672  163.457859344    23.5704   5  10   0.7230   0.5813   2.3155  -0.2997   0.6343  -0.9201   0.00    0.0
2018/11/11 00:55:00.000  -74.525923957  163.457863401    23.2190   5  10   0.7227   0.5806   2.3085  -0.2978   0.6287  -0.9174   0.00    0.0
2018/11/11 00:55:15.000  -74.525926082  163.457864851    24.3764   5  10   0.7224   0.5799   2.3019  -0.2960   0.6231  -0.9147   0.00    0.0
2018/11/11 00:55:30.000  -74.525926352  163.457864606    24.2725   5  10   0.7222   0.5793   2.2958  -0.2942   0.6176  -0.9122   0.00    0.0
2018/11/11 00:55:45.000  -74.525928959  163.457861594    24.7493   5  10   0.7221   0.5788   2.2900  -0.2925   0.6122  -0.9098   0.00    0.0
2018/11/11 00:56:00.000  -74.525923615  163.457866605    24.8500   5  10   0.7220   0.5784   2.2847  -0.2908   0.6068  -0.9075   0.00    0.0
2018/11/11 00:56:15.000  -74.525926173  163.457856666    24.4942   5  10   0.7221   0.5781   2.2797  -0.2891   0.6015  -0.9053   0.00    0.0
2018/11/11 00:56:30.000  -74.525926829  163.457865456    25.3122   5  10   0.7222   0.5778   2.2751  -0.2874   0.5962  -0.9033   0.00    0.0
2018/11/11 00:56:45.000  -74.525928428  163.457861699    25.6094   5  10   0.7223   0.5776   2.2708  -0.2858   0.5910  -0.9013   0.00    0.0
2018/11/11 00:57:00.000  -74.525927182  163.457867647    24.5866   5  10   0.7226   0.5775   2.2670  -0.2842   0.5858  -0.8994   0.00    0.0
2018/11/11 00:57:15.000  -74.525927529  163.457861127    24.1060   5  10   0.7229   0.5775   2.2635  -0.2827   0.5806  -0.8976   0.00    0.0
2018/11/11 00:57:30.000  -74.525925672  163.457866725    24.8392   5  10   0.7232   0.5775   2.2603  -0.2812   0.5755  -0.8959   0.00    0.0
2018/11/11 00:57:45.000  -74.525925824  163.457860419    24.3673   5  10   0.7223   0.5763   2.2505  -0.2790   0.5691  -0.8924   0.00    0.0
2018/11/11 00:58:00.000  -74.525925874  163.457863436    24.7674   5  10   0.7215   0.5752   2.2411  -0.2769   0.5627  -0.8890   0.00    0.0
2018/11/11 00:58:15.000  -74.525924637  163.457859410    23.1546   5  10   0.7208   0.5742   2.2321  -0.2748   0.5564  -0.8857   0.00    0.0
2018/11/11 00:58:30.000  -74.525930163  163.457866566    25.3078   5  10   0.7201   0.5732   2.2235  -0.2727   0.5501  -0.8825   0.00    0.0
2018/11/11 00:58:45.000  -74.525928889  163.457865122    24.7940   5  10   0.7195   0.5723   2.2152  -0.2707   0.5439  -0.8794   0.00    0.0
2018/11/11 00:59:00.000  -74.525926656  163.457864486    24.3184   5  10   0.7189   0.5715   2.2074  -0.2687   0.5378  -0.8765   0.00    0.0
2018/11/11 00:59:15.000  -74.525925188  163.457862668    23.4369   5  10   0.7185   0.5708   2.2000  -0.2667   0.5317  -0.8736   0.00    0.0
2018/11/11 00:59:30.000  -74.525928054  163.457859092    24.1589   5  10   0.7181   0.5701   2.1929  -0.2648   0.5256  -0.8709   0.00    0.0
2018/11/11 00:59:45.000  -74.525924353  163.457863752    23.4404   5  10   0.7178   0.5696   2.1863  -0.2629   0.5196  -0.8683   0.00    0.0
2018/11/11 01:00:00.000  -74.525925683  163.457855871    23.9777   5  10   0.7175   0.5691   2.1800  -0.2610   0.5136  -0.8658   0.00    0.0
2018/11/11 01:00:15.000  -74.525924703  163.457860098    23.7316   5  10   0.7174   0.5687   2.1742  -0.2592   0.5077  -0.8634   0.00    0.0
2018/11/11 01:00:30.000  -74.525925185  163.457862075    24.6878   5  10   0.7173   0.5684   2.1689  -0.2574   0.5018  -0.8611   0.00    0.0
2018/11/11 01:00:45.000  -74.525927819  163.457857636    25.1133   5  10   0.7173   0.5681   2.1639  -0.2556   0.4959  -0.8589   0.00    0.0
2018/11/11 01:01:00.000  -74.525923497  163.457861807    23.8266   5  10   0.7173   0.5680   2.1593  -0.2539   0.4900  -0.8569   0.00    0.0
2018/11/11 01:01:15.000  -74.525924298  163.457855316    24.1603   5  10   0.7175   0.5679   2.1550  -0.2522   0.4841  -0.8549   0.00    0.0
2018/11/11 01:01:30.000  -74.525925122  163.457864191    24.3989   5  10   0.7177   0.5678   2.1512  -0.2505   0.4783  -0.8531   0.00    0.0
2018/11/11 01:01:45.000  -74.525925668  163.457865595    24.1686   5  10   0.7180   0.5679   2.1477  -0.2488   0.4724  -0.8513   0.00    0.0
2018/11/11 01:02:00.000  -74.525927004  163.457863056    24.6646   5  11   0.6200   0.5511   1.8030  -0.1058   0.2404  -0.5484   0.00    0.0
2018/11/11 01:02:15.000  -74.525929042  163.457860334    25.7822   5  11   0.6205   0.5515   1.8033  -0.1037   0.2329  -0.5478   0.00    0.0
2018/11/11 01:02:30.000  -74.525927676  163.457862592    25.3050   5  11   0.6210   0.5520   1.8039  -0.1015   0.2250  -0.5472   0.00    0.0
2018/11/11 01:02:45.000  -74.525927579  163.457862969    24.3178   5  11   0.6206   0.5514   1.7996  -0.0991   0.2172  -0.5463   0.00    0.0
2018/11/11 01:03:00.000  -74.525928513  163.457864458    24.8851   5  11   0.6202   0.5509   1.7954  -0.0967   0.2093  -0.5453   0.00    0.0
2018/11/11 01:03:15.000  -74.525927654  163.457871852    24.9004   5  11   0.6199   0.5504   1.7915  -0.0943   0.2010  -0.5444   0.00    0.0
2018/11/11 01:03:30.000  -74.525926246  163.457866789    25.1408   5  11   0.6196   0.5500   1.7878  -0.0917   0.1924  -0.5435   0.00    0.0
2018/11/11 01:03:45.000  -74.525927891  163.457865713    24.4106   5  11   0.6194   0.5496   1.7845  -0.0892   0.1834  -0.5427   0.00    0.0
2018/11/11 01:04:00.000  -74.525928047  163.457867072    24.9711   5  11   0.6193   0.5493   1.7814  -0.0865   0.1740  -0.5419   0.00    0.0
2018/11/11 01:04:15.000  -74.525926963  163.457865437    24.8715   5  11   0.6192   0.5491   1.7787  -0.0838   0.1640  -0.5411   0.00    0.0
2018/11/11 01:04:30.000  -74.525927095  163.457863303    25.1164   5  11   0.6191   0.5489   1.7762  -0.0810   0.1533  -0.5404   0.00    0.0
2018/11/11 01:04:45.000  -74.525928232  163.457864131    25.0555   5  11   0.6191   0.5488   1.7740  -0.0782   0.1419  -0.5397   0.00    0.0
2018/11/11 01:05:00.000  -74.525929640  163.457861447    25.3532   5  11   0.6192   0.5488   1.7721  -0.0752   0.1293  -0.5391   0.00    0.0
2018/11/11 01:05:15.000  -74.525929129  163.457866844    25.7484   5  11   0.6193   0.5489   1.7707  -0.0720   0.1153  -0.5384   0.00    0.0
2018/11/11 01:05:30.000  -74.525928214  163.457854968    24.8136   5  12   0.6120   0.5263   1.7022  -0.1405  -0.2563  -0.5794   0.00    0.0
2018/11/11 01:05:45.000  -74.525929171  163.457861565    23.8890   5  12   0.6121   0.5265   1.7025  -0.1394  -0.2618  -0.5789   0.00    0.0
2018/11/11 01:06:00.000  -74.525924574  163.457861172    24.1230   5  12   0.6122   0.5267   1.7030  -0.1383  -0.2673  -0.5785   0.00    0.0
2018/11/11 01:06:15.000  -74.525927274  163.457862484    24.5405   5  12   0.6124   0.5270   1.7038  -0.1372  -0.2728  -0.5781   0.00    0.0
2018/11/11 01:06:30.000  -74.525928184  163.457863600    25.0387   5  12   0.6127   0.5274   1.7048  -0.1360  -0.2783  -0.5778   0.00    0.0
2018/11/11 01:06:45.000  -74.525927904  163.457857769    24.4127   5  12   0.6130   0.5278   1.7062  -0.1350  -0.2837  -0.5775   0.00    0.0
2018/11/11 01:07:00.000  -74.525926108  163.457865256    24.2648   5  12   0.6133   0.5283   1.7078  -0.1339  -0.2892  -0.5772   0.00    0.0
2018/11/11 01:07:15.000  -74.525927629  163.457861399    24.9092   5  12   0.6137   0.5289   1.7097  -0.1328  -0.2946  -0.5770   0.00    0.0
2018/11/11 01:07:30.000  -74.525927785  163.457855855    24.3847   5  12   0.6142   0.5295   1.7119  -0.1317  -0.3000  -0.5768   0.00    0.0
2018/11/11 01:07:45.000  -74.525927693  163.457863259    24.8449   5  12   0.6137   0.5291   1.7092  -0.1303  -0.3038  -0.5760   0.00    0.0
2018/11/11 01:08:00.000  -74.525926689  163.457864229    24.6043   5  12   0.6133   0.5287   1.7067  -0.1289  -0.3076  -0.5752   0.00    0.0
2018/11/11 01:08:15.000  -74.525928272  163.457866182    24.7654   5  12   0.6129   0.5283   1.7044  -0.1275  -0.3114  -0.5744   0.00    0.0
2018/11/11 01:08:30.000  -74.525928572  163.457866877    24.0682   5  12   0.6126   0.5281   1.7025  -0.1261  -0.3152  -0.5737   0.00    0.0
2018/11/11 01:08:45.000  -74.525926269  163.457857749    24.3790   5  12   0.6123   0.5279   1.7008  -0.1248  -0.3190  -0.5730   0.00    0.0
2018/11/11 01:09:00.000  -74.525926940  163.457865014    24.6050   5  12   0.6121   0.5277   1.6994  -0.1234  -0.3229  -0.5723   0.00    0.0
2018/11/11 01:09:15.000  -74.525926892  163.457856295    24.3968   5  12   0.6119   0.5276   1.6983  -0.1220  -0.3268  -0.5717   0.00    0.0
2018/11/11 01:09:30.000  -74.525928050  163.457862008    24.3143   5  12   0.6118   0.5276   1.6975  -0.1206  -0.3307  -0.5712   0.00    0.0
2018/11/11 01:09:45.000  -74.525930677  163.457864264    23.8825   5  12   0.6118   0.5276   1.6969  -0.1193  -0.3347  -0.5707   0.00    0.0
2018/11/11 01:10:00.000  -74.525928196  163.457870887    24.3957   5  12   0.6117   0.5277   1.6966  -0.1179  -0.3386  -0.5702   0.00    0.0
2018/11/11 01:10:15.000  -74.525926968  163.457861925    23.9808   5  12   0.6118   0.5279   1.6967  -0.1166  -0.3427  -0.5698   0.00    0.0
2018/11/11 01:10:30.000  -74.525927033  163.457862303    24.2830   5  12   0.6119   0.5281   1.6971  -0.1152  -0.3468  -0.5694   0.00    0.0
2018/11/11 01:10:45.000  -74.525929296  163.457870232    24.0818   5  12   0.6121   0.5284   1.6978  -0.1139  -0.3509  -0.5691   0.00    0.0
2018/11/11 01:11:00.000  -74.525925561  163.457860120    24.5668   5  12   0.6123   0.5288   1.6987  -0.1125  -0.3550  -0.5688   0.00    0.0
2018/11/11 01:11:15.000  -74.525929343  163.457858192    24.9367   5  12   0.6125   0.5292   1.7000  -0.1112  -0.3592  -0.5686   0.00    0.0
2018/11/11 01:11:30.000  -74.525928494  163.457862897    24.1095   5  12   0.6128   0.5297   1.7015  -0.1098  -0.3634  -0.5684   0.00    0.0
2018/11/11 01:11:45.000  -74.525928636  163.457861160    24.7702   5  12   0.6132   0.5302   1.7033  -0.1084  -0.3677  -0.5682   0.00    0.0
2018/11/11 01:12:00.000  -74.525926630  163.457866867    24.1650   5  12   0.6136   0.5309   1.7054  -0.1071  -0.3720  -0.5681   0.00    0.0
2018/11/11 01:12:15.000  -74.525928738  163.457865735    24.6931   5  12   0.6140   0.5315   1.7078  -0.1057  -0.3764  -0.5681   0.00    0.0
2018/11/11 01:12:30.000  -74.525928361  163.457858610    24.6275   5  12   0.6145   0.5322   1.7105  -0.1044  -0.3807  -0.5681   0.00    0.0
2018/11/11 01:12:45.000  -74.525929794  163.457857935    24.6952   5  12   0.6141   0.5319   1.7079  -0.1027  -0.3835  -0.5674   0.00    0.0
2018/11/11 01:13:00.000  -74.525926625  163.457861473    25.0227   5  12   0.6138   0.5316   1.7058  -0.1010  -0.3863  -0.5667   0.00    0.0
2018/11/11 01:13:15.000  -74.525927555  163.457866134    25.0573   5  12   0.6134   0.5314   1.7040  -0.0993  -0.3892  -0.5661   0.00    0.0
2018/11/11 01:13:30.000  -74.525928003  163.457861769    23.3160   5  12   0.6132   0.5312   1.7024  -0.0975  -0.3922  -0.5655   0.00    0.0
2018/11/11 01:13:45.000  -74.525926776  163.457868242    23.9787   5  12   0.6130   0.5311   1.7012  -0.0958  -0.3952  -0.5649   0.00    0.0
2018/11/11 01:14:00.000  -74.525928157  163.457857932    24.9721   5  12   0.6128   0.5311   1.7002  -0.0940  -0.3982  -0.5645   0.00    0.0
2018/11/11 01:14:15.000  -74.525929700  163.457863461    24.4350   5  12   0.6127   0.5311   1.6995  -0.0923  -0.4013  -0.5640   0.00    0.0
2018/11/11 01:14:30.000  -74.525930134  163.457860732    25.3326   5  12   0.6126   0.5312   1.6991  -0.0905  -0.4045  -0.5636   0.00    0.0
2018/11/11 01:14:45.000  -74.525929465  163.457865264    24.1991   5  12   0.6126   0.5313   1.6989  -0.0887  -0.4077  -0.5633   0.00    0.0
2018/11/11 01:15:00.000  -74.525927108  163.457862178    24.4836   5  12   0.6127   0.5315   1.6991  -0.0869  -0.4109  -0.5629   0.00    0.0
2018/11/11 01:15:15.000  -74.525926946  163.457859710    25.5493   5  12   0.6128   0.5318   1.6996  -0.0851  -0.4143  -0.5627   0.00    0.0
2018/11/11 01:15:30.000  -74.525929613  163.457855964    24.6646   5  12   0.6129   0.5321   1.7004  -0.0832  -0.4176  -0.5625   0.00    0.0
2018/11/11 01:15:45.000  -74.525928455  163.457861169    25.3422   5  12   0.6131   0.5325   1.7015  -0.0814  -0.4211  -0.5623   0.00    0.0
2018/11/11 01:16:00.000  -74.525928477  163.457858775    24.9625   5  12   0.6134   0.5330   1.7029  -0.0795  -0.4245  -0.5622   0.00    0.0
2018/11/11 01:16:15.000  -74.525928254  163.457857981    24.5628   5  12   0.6137   0.5335   1.7045  -0.0776  -0.4281  -0.5621   0.00    0.0
2018/11/11 01:16:30.000  -74.525927877  163.457859197    23.4967   5  12   0.6141   0.5341   1.7065  -0.0756  -0.4317  -0.5621   0.00    0.0
2018/11/11 01:16:45.000  -74.525928706  163.457860015    24.2990   5  12   0.6145   0.5347   1.7087  -0.0736  -0.4353  -0.5621   0.00    0.0
2018/11/11 01:17:00.000  -74.525928155  163.457858206    24.2598   5  12   0.6149   0.5354   1.7112  -0.0716  -0.4390  -0.5622   0.00    0.0
2018/11/11 01:17:15.000  -74.525928777  163.457862602    24.5249   5  12   0.6154   0.5362   1.7140  -0.0695  -0.4428  -0.5623   0.00    0.0
2018/11/11 01:17:30.000  -74.525928191  163.457859106    24.5255   5  12   0.6160   0.5370   1.7171  -0.0674  -0.4466  -0.5625   0.00    0.0
2018/11/11 01:17:45.000  -74.525929746  163.457865589    24.5450   5  12   0.6157   0.5368   1.7152  -0.0648  -0.4489  -0.5619   0.00    0.0
2018/11/11 01:18:00.000  -74.525930400  163.457865942    24.1550   5  12   0.6153   0.5366   1.7135  -0.0621  -0.4513  -0.5614   0.00    0.0
2018/11/11 01:18:15.000  -74.525929392  163.457865175    24.1730   5  12   0.6151   0.5365   1.7121  -0.0594  -0.4537  -0.5610   0.00    0.0
2018/11/11 01:18:30.000  -74.525929652  163.457863123    23.9710   5  12   0.6149   0.5364   1.7109  -0.0565  -0.4561  -0.5605   0.00    0.0
2018/11/11 01:18:45.000  -74.525929647  163.457867397    24.3112   5  12   0.6147   0.5364   1.7100  -0.0535  -0.4586  -0.5602   0.00    0.0
2018/11/11 01:19:00.000  -74.525930345  163.457859220    24.7001   5  12   0.6146   0.5364   1.7094  -0.0503  -0.4612  -0.5599   0.00    0.0
2018/11/11 01:19:15.000  -74.525930495  163.457864032    24.0890   5  12   0.6146   0.5365   1.7091  -0.0470  -0.4638  -0.5596   0.00    0.0
2018/11/11 01:19:30.000  -74.525930876  163.457868962    24.0289   5  12   0.6146   0.5367   1.7091  -0.0435  -0.4665  -0.5594   0.00    0.0
2018/11/11 01:19:45.000  -74.525930254  163.457859119    24.6609   5  12   0.6146   0.5369   1.7094  -0.0396  -0.4692  -0.5592   0.00    0.0
2018/11/11 01:20:00.000  -74.525929596  163.457856831    25.0447   5  12   0.6147   0.5372   1.7100  -0.0354  -0.4720  -0.5590   0.00    0.0
2018/11/11 01:20:15.000  -74.525930153  163.457865258    24.7228   5  12   0.6149   0.5376   1.7109  -0.0306  -0.4749  -0.5590   0.00    0.0
2018/11/11 01:20:30.000  -74.525929213  163.457859731    24.6206   5  12   0.6151   0.5380   1.7121  -0.0250  -0.4779  -0.5589   0.00    0.0
2018/11/11 01:20:45.000  -74.525929065  163.457864257    24.5646   5  12   0.6153   0.5385   1.7136  -0.0178  -0.4809  -0.5589   0.00    0.0
2018/11/11 01:21:00.000  -74.525927594  163.457859079    24.7623   5  12   0.6157   0.5391   1.7154  -0.0034  -0.4840  -0.5590   0.00    0.0
2018/11/11 01:21:15.000  -74.525930017  163.457860624    24.0873   5  12   0.6160   0.5397   1.7174   0.0171  -0.4871  -0.5591   0.00    0.0
2018/11/11 01:21:30.000  -74.525930741  163.457865013    24.3208   5  12   0.6164   0.5403   1.7198   0.0244  -0.4903  -0.5592   0.00    0.0
2018/11/11 01:21:45.000  -74.525929138  163.457861996    24.7067   5  12   0.6169   0.5411   1.7224   0.0299  -0.4936  -0.5594   0.00    0.0
2018/11/11 01:22:00.000  -74.525926989  163.457858392    24.5541   5  12   0.6174   0.5418   1.7253   0.0346  -0.4969  -0.5596   0.00    0.0
2018/11/11 01:22:15.000  -74.525928499  163.457862561    24.4098   5  12   0.6180   0.5427   1.7285   0.0386  -0.5003  -0.5599   0.00    0.0
2018/11/11 01:22:30.000  -74.525926995  163.457864930    24.1932   5  12   0.6186   0.5436   1.7319   0.0423  -0.5037  -0.5602   0.00    0.0
2018/11/11 01:22:45.000  -74.525929181  163.457859118    24.5106   5  12   0.6183   0.5434   1.7303   0.0461  -0.5056  -0.5599   0.00    0.0
2018/11/11 01:23:00.000  -74.525930603  163.457855632    24.5094   5  12   0.6180   0.5433   1.7289   0.0496  -0.5076  -0.5595   0.00    0.0
2018/11/11 01:23:15.000  -74.525929269  163.457861547    24.5547   5  12   0.6178   0.5433   1.7279   0.0529  -0.5096  -0.5593   0.00    0.0
2018/11/11 01:23:30.000  -74.525928925  163.457865259    24.4071   5  12   0.6177   0.5433   1.7271   0.0559  -0.5117  -0.5590   0.00    0.0
2018/11/11 01:23:45.000  -74.525931253  163.457854570    25.1389   5  12   0.6176   0.5433   1.7267   0.0588  -0.5139  -0.5588   0.00    0.0
2018/11/11 01:24:00.000  -74.525928510  163.457849596    25.1265   5  12   0.6175   0.5435   1.7265   0.0615  -0.5161  -0.5587   0.00    0.0
2018/11/11 01:24:15.000  -74.525929019  163.457862898    24.2337   5  12   0.6175   0.5436   1.7266   0.0641  -0.5184  -0.5586   0.00    0.0
2018/11/11 01:24:30.000  -74.525930761  163.457863830    24.5758   5  12   0.6176   0.5439   1.7269   0.0666  -0.5208  -0.5586   0.00    0.0
2018/11/11 01:24:45.000  -74.525928465  163.457869742    23.7587   5  12   0.6177   0.5442   1.7276   0.0690  -0.5232  -0.5586   0.00    0.0
2018/11/11 01:25:00.000  -74.525928588  163.457861082    25.1095   5  12   0.6178   0.5445   1.7285   0.0712  -0.5257  -0.5586   0.00    0.0
2018/11/11 01:25:15.000  -74.525931410  163.457858104    24.7694   5  12   0.6180   0.5450   1.7298   0.0734  -0.5283  -0.5587   0.00    0.0
2018/11/11 01:25:30.000  -74.525931052  163.457866934    25.0038   5  12   0.6183   0.5455   1.7313   0.0755  -0.5309  -0.5588   0.00    0.0
2018/11/11 01:25:45.000  -74.525931371  163.457856304    25.1738   5  12   0.6186   0.5460   1.7331   0.0776  -0.5336  -0.5590   0.00    0.0
2018/11/11 01:26:00.000  -74.525926210  163.457860930    23.6966   5  12   0.6190   0.5466   1.7352   0.0796  -0.5363  -0.5592   0.00    0.0
2018/11/11 01:26:15.000  -74.525926512  163.457864066    24.7932   5  12   0.6194   0.5473   1.7376   0.0815  -0.5392  -0.5595   0.00    0.0
2018/11/11 01:26:30.000  -74.525929701  163.457855238    24.8694   5  12   0.6199   0.5480   1.7402   0.0834  -0.5420  -0.5598   0.00    0.0
2018/11/11 01:26:45.000  -74.525928678  163.457861205    24.8827   5  12   0.6204   0.5488   1.7431   0.0852  -0.5450  -0.5602   0.00    0.0
2018/11/11 01:27:00.000  -74.525930081  163.457860843    24.5672   5  12   0.6210   0.5497   1.7462   0.0869  -0.5480  -0.5606   0.00    0.0
2018/11/11 01:27:15.000  -74.525929446  163.457859264    24.5340   5  12   0.6216   0.5506   1.7496   0.0887  -0.5510  -0.5610   0.00    0.0
2018/11/11 01:27:30.000  -74.525929638  163.457857248    25.1127   5  12   0.6223   0.5515   1.7533   0.0904  -0.5542  -0.5615   0.00    0.0
2018/11/11 01:27:45.000  -74.525929582  163.457867225    24.4799   5  12   0.6220   0.5514   1.7520   0.0922  -0.5558  -0.5613   0.00    0.0
2018/11/11 01:28:00.000  -74.525929489  163.457863866    24.5702   5  12   0.6218   0.5514   1.7511   0.0940  -0.5575  -0.5612   0.00    0.0
2018/11/11 01:28:15.000  -74.525928492  163.457853919    24.9502   5  12   0.6217   0.5514   1.7504   0.0958  -0.5592  -0.5611   0.00    0.0
2018/11/11 01:28:30.000  -74.525928553  163.457858468    25.6021   5  12   0.6216   0.5514   1.7500   0.0975  -0.5611  -0.5610   0.00    0.0
2018/11/11 01:28:45.000  -74.525929525  163.457861639    24.7970   5  12   0.6215   0.5515   1.7499   0.0992  -0.5630  -0.5610   0.00    0.0
2018/11/11 01:29:00.000  -74.525931894  163.457865697    24.7095   5  12   0.6216   0.5517   1.7500   0.1009  -0.5649  -0.5611   0.00    0.0
2018/11/11 01:29:15.000  -74.525929252  163.457861989    24.8435   5  12   0.6216   0.5519   1.7504   0.1025  -0.5669  -0.5612   0.00    0.0
2018/11/11 01:29:30.000  -74.525928238  163.457859723    24.7227   5  12   0.6217   0.5522   1.7511   0.1041  -0.5690  -0.5613   0.00    0.0
2018/11/11 01:29:45.000  -74.525929172  163.457856519    24.7450   5  12   0.6219   0.5526   1.7520   0.1056  -0.5711  -0.5615   0.00    0.0
2018/11/11 01:30:00.000  -74.525928618  163.457872478    23.9055   5  12   0.6221   0.5530   1.7532   0.1072  -0.5733  -0.5617   0.00    0.0
2018/11/11 01:30:15.000  -74.525929152  163.457863711    24.5521   5  12   0.6224   0.5535   1.7547   0.1086  -0.5756  -0.5620   0.00    0.0
2018/11/11 01:30:30.000  -74.525929076  163.457857770    24.8650   5  12   0.6227   0.5540   1.7565   0.1101  -0.5779  -0.5623   0.00    0.0
2018/11/11 01:30:45.000  -74.525926970  163.457866794    24.1265   5  12   0.6231   0.5546   1.7585   0.1115  -0.5803  -0.5626   0.00    0.0
2018/11/11 01:31:00.000  -74.525930749  163.457857688    25.1886   5  12   0.6235   0.5552   1.7608   0.1130  -0.5828  -0.5630   0.00    0.0
2018/11/11 01:31:15.000  -74.525927859  163.457865833    24.8159   5  12   0.6240   0.5559   1.7633   0.1144  -0.5853  -0.5634   0.00    0.0
2018/11/11 01:31:30.000  -74.525929148  163.457856111    24.9230   5  12   0.6245   0.5567   1.7661   0.1157  -0.5879  -0.5639   0.00    0.0
2018/11/11 01:31:45.000  -74.525928574  163.457859850    24.8698   5  12   0.6251   0.5575   1.7691   0.1171  -0.5905  -0.5644   0.00    0.0
2018/11/11 01:32:00.000  -74.525928534  163.457860920    23.9119   5  12   0.6257   0.5584   1.7724   0.1184  -0.5932  -0.5649   0.00    0.0
2018/11/11 01:32:15.000  -74.525929148  163.457855724    24.7168   5  12   0.6264   0.5593   1.7759   0.1197  -0.5959  -0.5655   0.00    0.0
2018/11/11 01:32:30.000  -74.525927405  163.457862016    24.6483   5  12   0.6272   0.5603   1.7796   0.1210  -0.5987  -0.5661   0.00    0.0
2018/11/11 01:32:45.000  -74.525931413  163.457854736    25.2000   5  12   0.6270   0.5603   1.7788   0.1224  -0.6001  -0.5661   0.00    0.0
2018/11/11 01:33:00.000  -74.525929026  163.457859539    24.5640   5  12   0.6268   0.5602   1.7781   0.1238  -0.6016  -0.5662   0.00    0.0
2018/11/11 01:33:15.000  -74.525929251  163.457853301    24.8280   5  12   0.6267   0.5603   1.7777   0.1251  -0.6031  -0.5663   0.00    0.0
2018/11/11 01:33:30.000  -74.525930069  163.457865030    25.2346   5  12   0.6267   0.5603   1.7776   0.1265  -0.6046  -0.5665   0.00    0.0
2018/11/11 01:33:45.000  -74.525929116  163.457865319    24.1187   5  12   0.6267   0.5605   1.7777   0.1278  -0.6062  -0.5667   0.00    0.0
2018/11/11 01:34:00.000  -74.525927492  163.457859234    24.6779   5  12   0.6268   0.5607   1.7781   0.1291  -0.6079  -0.5669   0.00    0.0
2018/11/11 01:34:15.000  -74.525930397  163.457861183    24.3924   5  12   0.6269   0.5609   1.7787   0.1304  -0.6096  -0.5671   0.00    0.0
2018/11/11 01:34:30.000  -74.525927438  163.457860399    24.8301   5  12   0.6270   0.5612   1.7795   0.1316  -0.6114  -0.5675   0.00    0.0
2018/11/11 01:34:45.000  -74.525929924  163.457850856    24.9680   5  12   0.6272   0.5616   1.7806   0.1329  -0.6133  -0.5678   0.00    0.0
2018/11/11 01:35:00.000  -74.525929555  163.457857960    24.7930   5  12   0.6275   0.5620   1.7820   0.1341  -0.6152  -0.5682   0.00    0.0
2018/11/11 01:35:15.000  -74.525931045  163.457862798    24.8639   5  12   0.6279   0.5625   1.7836   0.1353  -0.6171  -0.5686   0.00    0.0
2018/11/11 01:35:30.000  -74.525929279  163.457854227    24.5738   5  12   0.6282   0.5630   1.7855   0.1365  -0.6192  -0.5691   0.00    0.0
2018/11/11 01:35:45.000  -74.525927971  163.457863101    24.2513   5  12   0.6287   0.5636   1.7876   0.1377  -0.6212  -0.5696   0.00    0.0
2018/11/11 01:36:00.000  -74.525929862  163.457855306    24.2502   5  11   0.6603   0.5680   1.8268   0.1795  -0.6042  -0.5018   0.00    0.0
2018/11/11 01:36:15.000  -74.525928448  163.457866822    24.1950   5  11   0.6607   0.5686   1.8298   0.1802  -0.6064  -0.5022   0.00    0.0
2018/11/11 01:36:30.000  -74.525931652  163.457852980    24.3526   5  11   0.6612   0.5694   1.8329   0.1809  -0.6086  -0.5025   0.00    0.0
2018/11/11 01:36:45.000  -74.525931848  163.457859362    24.5440   5  11   0.6617   0.5702   1.8363   0.1816  -0.6109  -0.5029   0.00    0.0
2018/11/11 01:37:00.000  -74.525929457  163.457855476    24.6659   5  11   0.6623   0.5710   1.8399   0.1823  -0.6132  -0.5034   0.00    0.0
2018/11/11 01:37:15.000  -74.525930608  163.457859411    25.1328   5  11   0.6629   0.5719   1.8437   0.1830  -0.6156  -0.5038   0.00    0.0
2018/11/11 01:37:30.000  -74.525935088  163.457852423    24.0748   5  10   0.6753   0.6326   2.1049   0.0148  -0.8078  -0.3582   0.00    0.0
2018/11/11 01:37:45.000  -74.525933557  163.457858201    24.4062   5  10   0.6747   0.6326   2.1062   0.0268  -0.8094  -0.3596   0.00    0.0
2018/11/11 01:38:00.000  -74.525931491  163.457860517    24.1421   5  10   0.6742   0.6326   2.1079   0.0346  -0.8112  -0.3609   0.00    0.0
2018/11/11 01:38:15.000  -74.525928529  163.457867062    23.0986   5   9   0.7727   0.6846   2.6338   0.3171  -1.0359  -0.8529   0.00    0.0
2018/11/11 01:38:30.000  -74.525928779  163.457869983    22.5362   5   9   0.7725   0.6857   2.6419   0.3192  -1.0404  -0.8560   0.00    0.0
2018/11/11 01:38:45.000  -74.525930813  163.457870248    22.5165   5   9   0.7724   0.6868   2.6505   0.3213  -1.0451  -0.8591   0.00    0.0
2018/11/11 01:39:00.000  -74.525930450  163.457867795    22.3726   5   9   0.7723   0.6880   2.6595   0.3235  -1.0500  -0.8623   0.00    0.0
2018/11/11 01:39:15.000  -74.525930881  163.457867357    22.1925   5   9   0.7724   0.6893   2.6690   0.3257  -1.0550  -0.8656   0.00    0.0
2018/11/11 01:39:30.000  -74.525926935  163.457868845    22.5941   5   9   0.7725   0.6907   2.6789   0.3279  -1.0602  -0.8691   0.00    0.0
2018/11/11 01:39:45.000  -74.525929204  163.457879645    21.4595   5   9   0.7727   0.6922   2.6894   0.3301  -1.0656  -0.8726   0.00    0.0
2018/11/11 01:40:00.000  -74.525929408  163.457871498    22.5985   5   9   0.7729   0.6938   2.7003   0.3324  -1.0711  -0.8762   0.00    0.0
2018/11/11 01:40:15.000  -74.525928820  163.457864903    22.5073   5   9   0.7733   0.6955   2.7117   0.3347  -1.0769  -0.8799   0.00    0.0
2018/11/11 01:40:30.000  -74.525928497  163.457868925    22.7315   5   9   0.7737   0.6973   2.7236   0.3370  -1.0828  -0.8838   0.00    0.0
2018/11/11 01:40:45.000  -74.525928472  163.457873202    22.1883   5   9   0.7743   0.6991   2.7360   0.3393  -1.0888  -0.8877   0.00    0.0
2018/11/11 01:41:00.000  -74.525928089  163.457868045    23.0251   5   9   0.7749   0.7011   2.7488   0.3417  -1.0951  -0.8917   0.00    0.0
2018/11/11 01:41:15.000  -74.525927695  163.457870757    22.5339   5   9   0.7756   0.7032   2.7621   0.3441  -1.1015  -0.8958   0.00    0.0
2018/11/11 01:41:30.000  -74.525928879  163.457865029    23.2582   5   9   0.7763   0.7053   2.7758   0.3465  -1.1080  -0.9001   0.00    0.0
2018/11/11 01:41:45.000  -74.525925448  163.457865390    22.7929   5   9   0.7772   0.7075   2.7900   0.3490  -1.1147  -0.9044   0.00    0.0
2018/11/11 01:42:00.000  -74.525927609  163.457871861    22.6850   5   9   0.7781   0.7099   2.8046   0.3514  -1.1216  -0.9088   0.00    0.0
2018/11/11 01:42:15.000  -74.525927743  163.457868852    22.4645   5   9   0.7791   0.7123   2.8196   0.3539  -1.1287  -0.9133   0.00    0.0
2018/11/11 01:42:30.000  -74.525926920  163.457860367    23.7121   5   9   0.7802   0.7148   2.8351   0.3565  -1.1359  -0.9179   0.00    0.0
2018/11/11 01:42:45.000  -74.525928395  163.457858388    23.1344   5   9   0.7800   0.7155   2.8422   0.3584  -1.1396  -0.9211   0.00    0.0
2018/11/11 01:43:00.000  -74.525925476  163.457871789    22.5917   5   9   0.7798   0.7163   2.8497   0.3604  -1.1435  -0.9243   0.00    0.0
2018/11/11 01:43:15.000  -74.525927609  163.457872637    22.3220   5   9   0.7796   0.7172   2.8576   0.3623  -1.1475  -0.9276   0.00    0.0
2018/11/11 01:43:30.000  -74.525927835  163.457870960    22.1601   5   9   0.7796   0.7182   2.8660   0.3643  -1.1516  -0.9310   0.00    0.0
2018/11/11 01:43:45.000  -74.525927963  163.457870417    21.8229   5   9   0.7796   0.7193   2.8747   0.3663  -1.1559  -0.9345   0.00    0.0
2018/11/11 01:44:00.000  -74.525930142  163.457871897    22.4306   5   9   0.7798   0.7204   2.8838   0.3684  -1.1604  -0.9381   0.00    0.0
2018/11/11 01:44:15.000  -74.525930907  163.457861035    23.8432   5   9   0.7799   0.7216   2.8933   0.3704  -1.1650  -0.9417   0.00    0.0
