% program   : RTKLIB ver.2.4.3
% inp file  : _by_type/_obs/shirase/20181108.18o
% inp file  : _by_type/_obs/base/20181108.18o
% inp file  : _by_type/_sp3+clk/igs20264.clk
% inp file  : _by_type/_sp3+clk/igs20264.sp3
% inp file  : _by_type/_nav/shirase/20181108.18n
% obs start : 2018/11/08 00:00:00.0 GPST (week2026 345600.0s)
% obs end   : 2018/11/08 23:59:45.0 GPST (week2026 431985.0s)
% pos mode  : dgps
% freqs     : L1+L2
% solution  : combined
% elev mask : 15.0 deg
% dynamics  : off
% tidecorr  : off
% ionos opt : iono-free
% tropo opt : est ztd+grad
% ephemeris : precise
% navi sys  : gps glonass
% antenna1  :                       ( 0.0000  0.0000  0.0000)
% antenna2  :                       ( 0.0000  0.0000  0.0000)
% ref pos   : 90.000000000   0.000000000-6335367.6285
%
% (lat/lon/height=WGS84/ellipsoidal,Q=1:fix,2:float,3:sbas,4:dgps,5:single,6:ppp,ns=# of satellites)
%  GPST                  latitude(deg) longitude(deg)  height(m)   Q  ns   sdn(m)   sde(m)   sdu(m)  sdne(m)  sdeu(m)  sdun(m) age(s)  ratio
2018/11/08 00:00:00.000  -74.525917579  163.457804265    26.5778   5   9   0.6764   0.6131   2.1584  -0.1849   0.4298  -0.7497   0.00    0.0
2018/11/08 00:00:15.000  -74.525917894  163.457807048    25.5189   5   9   0.6762   0.6132   2.1635  -0.1859   0.4341  -0.7509   0.00    0.0
2018/11/08 00:00:30.000  -74.525916744  163.457802494    25.5118   5   9   0.6762   0.6134   2.1690  -0.1868   0.4385  -0.7522   0.00    0.0
2018/11/08 00:00:45.000  -74.525920532  163.457806791    26.2559   5   9   0.6761   0.6137   2.1747  -0.1879   0.4429  -0.7535   0.00    0.0
2018/11/08 00:01:00.000  -74.525915673  163.457811440    24.9300   5   9   0.6762   0.6140   2.1807  -0.1890   0.4475  -0.7550   0.00    0.0
2018/11/08 00:01:15.000  -74.525919421  163.457813012    26.3490   5   9   0.6763   0.6145   2.1871  -0.1901   0.4522  -0.7566   0.00    0.0
2018/11/08 00:01:30.000  -74.525915869  163.457808357    25.0998   5   9   0.6765   0.6150   2.1937  -0.1913   0.4569  -0.7582   0.00    0.0
2018/11/08 00:01:45.000  -74.525918427  163.457810691    25.9081   5   9   0.6768   0.6157   2.2006  -0.1926   0.4618  -0.7600   0.00    0.0
2018/11/08 00:02:00.000  -74.525919713  163.457807570    25.7653   5   9   0.6772   0.6164   2.2079  -0.1939   0.4667  -0.7618   0.00    0.0
2018/11/08 00:02:15.000  -74.525918452  163.457808734    25.6885   5   9   0.6776   0.6172   2.2154  -0.1953   0.4718  -0.7637   0.00    0.0
2018/11/08 00:02:30.000  -74.525914825  163.457798961    24.6128   5   9   0.6781   0.6181   2.2233  -0.1968   0.4769  -0.7658   0.00    0.0
2018/11/08 00:02:45.000  -74.525916678  163.457810212    25.5877   5   9   0.6773   0.6174   2.2259  -0.1972   0.4802  -0.7663   0.00    0.0
2018/11/08 00:03:00.000  -74.525916453  163.457809822    26.1235   5   9   0.6766   0.6168   2.2288  -0.1978   0.4836  -0.7669   0.00    0.0
2018/11/08 00:03:15.000  -74.525916601  163.457812914    25.2483   5   9   0.6759   0.6163   2.2321  -0.1984   0.4871  -0.7677   0.00    0.0
2018/11/08 00:03:30.000  -74.525916534  163.457804813    25.4724   5   9   0.6753   0.6159   2.2356  -0.1990   0.4907  -0.7685   0.00    0.0
2018/11/08 00:03:45.000  -74.525915617  163.457803640    25.1975   5   9   0.6748   0.6155   2.2393  -0.1998   0.4944  -0.7694   0.00    0.0
2018/11/08 00:04:00.000  -74.525918594  163.457808768    24.8111   5   9   0.6744   0.6153   2.2434  -0.2006   0.4982  -0.7704   0.00    0.0
2018/11/08 00:04:15.000  -74.525916187  163.457812110    25.5570   5   9   0.6740   0.6151   2.2478  -0.2014   0.5021  -0.7716   0.00    0.0
2018/11/08 00:04:30.000  -74.525915653  163.457807985    25.9829   5   9   0.6737   0.6150   2.2525  -0.2023   0.5060  -0.7728   0.00    0.0
2018/11/08 00:04:45.000  -74.525917218  163.457796475    25.7458   5   9   0.6735   0.6151   2.2574  -0.2032   0.5101  -0.7741   0.00    0.0
2018/11/08 00:05:00.000  -74.525916347  163.457814629    25.6909   5   9   0.6734   0.6152   2.2627  -0.2042   0.5142  -0.7754   0.00    0.0
2018/11/08 00:05:15.000  -74.525915522  163.457807484    24.4005   5   9   0.6733   0.6154   2.2684  -0.2053   0.5186  -0.7770   0.00    0.0
2018/11/08 00:05:30.000  -74.525916892  163.457807241    25.8456   5   9   0.6734   0.6158   2.2745  -0.2065   0.5230  -0.7786   0.00    0.0
2018/11/08 00:05:45.000  -74.525918719  163.457812567    25.8587   5   9   0.6735   0.6162   2.2808  -0.2077   0.5276  -0.7804   0.00    0.0
2018/11/08 00:06:00.000  -74.525920418  163.457816668    25.3827   5   9   0.6737   0.6167   2.2875  -0.2090   0.5323  -0.7822   0.00    0.0
2018/11/08 00:06:15.000  -74.525919836  163.457806002    26.1663   5   9   0.6740   0.6173   2.2944  -0.2103   0.5370  -0.7842   0.00    0.0
2018/11/08 00:06:30.000  -74.525916762  163.457798731    25.7620   5   9   0.6743   0.6180   2.3017  -0.2117   0.5419  -0.7862   0.00    0.0
2018/11/08 00:06:45.000  -74.525918703  163.457807486    26.1707   5   9   0.6748   0.6188   2.3093  -0.2132   0.5469  -0.7884   0.00    0.0
2018/11/08 00:07:00.000  -74.525917900  163.457809163    26.0118   5   9   0.6753   0.6197   2.3172  -0.2147   0.5520  -0.7907   0.00    0.0
2018/11/08 00:07:15.000  -74.525914946  163.457803624    25.2825   5   9   0.6759   0.6207   2.3255  -0.2163   0.5573  -0.7930   0.00    0.0
2018/11/08 00:07:30.000  -74.525917248  163.457802985    25.6012   5   9   0.6765   0.6218   2.3340  -0.2179   0.5626  -0.7955   0.00    0.0
2018/11/08 00:07:45.000  -74.525915498  163.457811836    23.6778   5  10   0.6534   0.6118   2.0849  -0.2579   0.6592  -0.6720   0.00    0.0
2018/11/08 00:08:00.000  -74.525914684  163.457814915    24.2158   5  10   0.6528   0.6114   2.0887  -0.2583   0.6617  -0.6734   0.00    0.0
2018/11/08 00:08:15.000  -74.525913532  163.457806214    23.8488   5  10   0.6523   0.6110   2.0928  -0.2587   0.6643  -0.6748   0.00    0.0
2018/11/08 00:08:30.000  -74.525914087  163.457814957    23.9762   5  10   0.6519   0.6108   2.0972  -0.2593   0.6671  -0.6764   0.00    0.0
2018/11/08 00:08:45.000  -74.525915896  163.457820058    23.6330   5  10   0.6516   0.6107   2.1019  -0.2599   0.6700  -0.6780   0.00    0.0
2018/11/08 00:09:00.000  -74.525915403  163.457810968    23.9765   5  10   0.6513   0.6106   2.1069  -0.2605   0.6730  -0.6797   0.00    0.0
2018/11/08 00:09:15.000  -74.525916182  163.457811355    23.7523   5  10   0.6512   0.6107   2.1121  -0.2612   0.6761  -0.6815   0.00    0.0
2018/11/08 00:09:30.000  -74.525914449  163.457815658    23.9496   5  10   0.6510   0.6108   2.1176  -0.2620   0.6793  -0.6834   0.00    0.0
2018/11/08 00:09:45.000  -74.525915433  163.457811545    24.0911   5  10   0.6510   0.6111   2.1235  -0.2628   0.6827  -0.6854   0.00    0.0
2018/11/08 00:10:00.000  -74.525914031  163.457819805    23.7725   5  10   0.6510   0.6114   2.1296  -0.2637   0.6862  -0.6875   0.00    0.0
2018/11/08 00:10:15.000  -74.525914192  163.457815695    24.2325   5  10   0.6512   0.6118   2.1361  -0.2647   0.6899  -0.6897   0.00    0.0
2018/11/08 00:10:30.000  -74.525916719  163.457817225    24.2376   5  10   0.6514   0.6124   2.1430  -0.2658   0.6937  -0.6920   0.00    0.0
2018/11/08 00:10:45.000  -74.525916028  163.457815501    24.3521   5  10   0.6517   0.6130   2.1501  -0.2669   0.6977  -0.6944   0.00    0.0
2018/11/08 00:11:00.000  -74.525916336  163.457816522    24.5923   5  10   0.6521   0.6138   2.1576  -0.2681   0.7018  -0.6969   0.00    0.0
2018/11/08 00:11:15.000  -74.525915899  163.457818775    23.9975   5  10   0.6525   0.6146   2.1654  -0.2693   0.7060  -0.6995   0.00    0.0
2018/11/08 00:11:30.000  -74.525914976  163.457812442    23.6339   5  10   0.6531   0.6155   2.1735  -0.2706   0.7104  -0.7022   0.00    0.0
2018/11/08 00:11:45.000  -74.525915755  163.457816528    24.6627   5  10   0.6537   0.6165   2.1818  -0.2720   0.7149  -0.7050   0.00    0.0
2018/11/08 00:12:00.000  -74.525915249  163.457811869    24.7672   5  10   0.6543   0.6176   2.1905  -0.2735   0.7195  -0.7079   0.00    0.0
2018/11/08 00:12:15.000  -74.525914363  163.457818666    24.4473   5  10   0.6551   0.6188   2.1996  -0.2750   0.7243  -0.7109   0.00    0.0
2018/11/08 00:12:30.000  -74.525913696  163.457814909    24.0950   5  10   0.6559   0.6201   2.2089  -0.2766   0.7292  -0.7141   0.00    0.0
2018/11/08 00:12:45.000  -74.525913436  163.457814138    24.7865   5  10   0.6555   0.6198   2.2129  -0.2771   0.7317  -0.7158   0.00    0.0
2018/11/08 00:13:00.000  -74.525914789  163.457818568    24.5912   5  10   0.6551   0.6195   2.2172  -0.2777   0.7343  -0.7175   0.00    0.0
2018/11/08 00:13:15.000  -74.525914904  163.457811660    24.2015   5  10   0.6548   0.6193   2.2218  -0.2783   0.7370  -0.7194   0.00    0.0
2018/11/08 00:13:30.000  -74.525915715  163.457819351    24.7944   5  10   0.6545   0.6192   2.2266  -0.2790   0.7398  -0.7213   0.00    0.0
2018/11/08 00:13:45.000  -74.525914543  163.457819480    24.5019   5  10   0.6543   0.6192   2.2318  -0.2797   0.7427  -0.7233   0.00    0.0
2018/11/08 00:14:00.000  -74.525913564  163.457810333    24.1980   5  10   0.6542   0.6193   2.2372  -0.2805   0.7458  -0.7254   0.00    0.0
2018/11/08 00:14:15.000  -74.525916622  163.457807236    24.0740   5  10   0.6542   0.6195   2.2429  -0.2814   0.7490  -0.7276   0.00    0.0
2018/11/08 00:14:30.000  -74.525914439  163.457812640    24.2617   5  10   0.6543   0.6198   2.2489  -0.2823   0.7523  -0.7299   0.00    0.0
2018/11/08 00:14:45.000  -74.525914904  163.457805157    23.2728   5  10   0.6544   0.6201   2.2552  -0.2833   0.7558  -0.7323   0.00    0.0
2018/11/08 00:15:00.000  -74.525913743  163.457808289    23.5041   5  10   0.6546   0.6206   2.2618  -0.2844   0.7593  -0.7348   0.00    0.0
2018/11/08 00:15:15.000  -74.525913957  163.457811602    23.5436   5  10   0.6549   0.6212   2.2688  -0.2855   0.7631  -0.7375   0.00    0.0
2018/11/08 00:15:30.000  -74.525914390  163.457812700    23.1777   5  10   0.6553   0.6219   2.2762  -0.2868   0.7671  -0.7402   0.00    0.0
2018/11/08 00:15:45.000  -74.525915745  163.457815610    24.4960   5  10   0.6558   0.6226   2.2838  -0.2881   0.7711  -0.7431   0.00    0.0
2018/11/08 00:16:00.000  -74.525915292  163.457815220    24.1263   5  10   0.6563   0.6235   2.2918  -0.2894   0.7753  -0.7460   0.00    0.0
2018/11/08 00:16:15.000  -74.525916124  163.457816087    24.6483   5  10   0.6570   0.6245   2.3000  -0.2909   0.7796  -0.7491   0.00    0.0
2018/11/08 00:16:30.000  -74.525915156  163.457812936    23.8097   5  10   0.6577   0.6256   2.3086  -0.2924   0.7841  -0.7522   0.00    0.0
2018/11/08 00:16:45.000  -74.525915464  163.457822663    24.3735   5  10   0.6585   0.6267   2.3174  -0.2939   0.7887  -0.7555   0.00    0.0
2018/11/08 00:17:00.000  -74.525916598  163.457827058    24.5338   5  10   0.6593   0.6280   2.3266  -0.2955   0.7934  -0.7588   0.00    0.0
2018/11/08 00:17:15.000  -74.525916717  163.457820614    24.7161   5  10   0.6603   0.6293   2.3361  -0.2972   0.7983  -0.7623   0.00    0.0
2018/11/08 00:17:30.000  -74.525918232  163.457808875    23.4620   5  10   0.6613   0.6308   2.3458  -0.2989   0.8032  -0.7658   0.00    0.0
2018/11/08 00:17:45.000  -74.525914846  163.457817028    24.1805   5  10   0.6609   0.6305   2.3498  -0.2995   0.8055  -0.7677   0.00    0.0
2018/11/08 00:18:00.000  -74.525914826  163.457817734    23.6589   5  10   0.6607   0.6303   2.3541  -0.3002   0.8080  -0.7697   0.00    0.0
2018/11/08 00:18:15.000  -74.525916917  163.457809118    23.3100   5  10   0.6605   0.6302   2.3587  -0.3009   0.8106  -0.7719   0.00    0.0
2018/11/08 00:18:30.000  -74.525915137  163.457810320    24.6605   5  10   0.6604   0.6302   2.3636  -0.3017   0.8133  -0.7741   0.00    0.0
2018/11/08 00:18:45.000  -74.525915286  163.457813881    24.2438   5  10   0.6604   0.6303   2.3688  -0.3026   0.8161  -0.7764   0.00    0.0
2018/11/08 00:19:00.000  -74.525916650  163.457820095    23.9253   5  10   0.6605   0.6304   2.3742  -0.3035   0.8191  -0.7788   0.00    0.0
2018/11/08 00:19:15.000  -74.525915351  163.457811495    24.0881   5  10   0.6606   0.6307   2.3799  -0.3045   0.8222  -0.7812   0.00    0.0
2018/11/08 00:19:30.000  -74.525914799  163.457804822    23.3466   5  10   0.6609   0.6311   2.3859  -0.3055   0.8254  -0.7838   0.00    0.0
2018/11/08 00:19:45.000  -74.525914792  163.457817208    23.4517   5  10   0.6612   0.6315   2.3922  -0.3067   0.8287  -0.7865   0.00    0.0
2018/11/08 00:20:00.000  -74.525917379  163.457811609    24.5955   5  10   0.6615   0.6321   2.3987  -0.3078   0.8321  -0.7892   0.00    0.0
2018/11/08 00:20:15.000  -74.525913504  163.457808842    23.2009   5  10   0.6620   0.6327   2.4057  -0.3091   0.8357  -0.7921   0.00    0.0
2018/11/08 00:20:30.000  -74.525916709  163.457813025    24.8789   5  10   0.6626   0.6335   2.4129  -0.3104   0.8395  -0.7951   0.00    0.0
2018/11/08 00:20:45.000  -74.525914327  163.457809143    23.4249   5  10   0.6632   0.6344   2.4204  -0.3118   0.8434  -0.7982   0.00    0.0
2018/11/08 00:21:00.000  -74.525916653  163.457804312    22.6857   5  10   0.6639   0.6353   2.4282  -0.3132   0.8474  -0.8014   0.00    0.0
2018/11/08 00:21:15.000  -74.525915644  163.457818097    24.3000   5  10   0.6647   0.6364   2.4363  -0.3147   0.8515  -0.8046   0.00    0.0
2018/11/08 00:21:30.000  -74.525913977  163.457809753    23.3696   5  11   0.6527   0.6375   2.3487  -0.3148   0.8585  -0.8610   0.00    0.0
2018/11/08 00:21:45.000  -74.525914719  163.457816526    23.1375   5  11   0.6535   0.6387   2.3576  -0.3164   0.8628  -0.8645   0.00    0.0
2018/11/08 00:22:00.000  -74.525914210  163.457818119    23.7320   5  11   0.6545   0.6400   2.3668  -0.3181   0.8671  -0.8680   0.00    0.0
2018/11/08 00:22:15.000  -74.525917112  163.457817682    24.0876   5  11   0.6555   0.6414   2.3763  -0.3199   0.8716  -0.8717   0.00    0.0
2018/11/08 00:22:30.000  -74.525915319  163.457823418    23.7051   5  11   0.6565   0.6429   2.3860  -0.3217   0.8762  -0.8754   0.00    0.0
2018/11/08 00:22:45.000  -74.525914368  163.457809176    23.4429   5  11   0.6563   0.6427   2.3902  -0.3225   0.8782  -0.8773   0.00    0.0
2018/11/08 00:23:00.000  -74.525916934  163.457819774    24.5115   5  11   0.6562   0.6425   2.3945  -0.3232   0.8801  -0.8792   0.00    0.0
2018/11/08 00:23:15.000  -74.525914768  163.457814851    22.9471   5  11   0.6561   0.6424   2.3990  -0.3240   0.8822  -0.8812   0.00    0.0
2018/11/08 00:23:30.000  -74.525916845  163.457820266    23.7724   5  11   0.6561   0.6424   2.4038  -0.3248   0.8844  -0.8833   0.00    0.0
2018/11/08 00:23:45.000  -74.525917476  163.457816730    23.4212   5  11   0.6561   0.6425   2.4088  -0.3257   0.8867  -0.8855   0.00    0.0
2018/11/08 00:24:00.000  -74.525916065  163.457814837    23.5114   5  11   0.6563   0.6427   2.4140  -0.3267   0.8891  -0.8877   0.00    0.0
2018/11/08 00:24:15.000  -74.525914804  163.457817245    23.5761   5  11   0.6565   0.6429   2.4195  -0.3277   0.8916  -0.8901   0.00    0.0
2018/11/08 00:24:30.000  -74.525911307  163.457808422    22.9076   5  11   0.6567   0.6433   2.4252  -0.3287   0.8943  -0.8925   0.00    0.0
2018/11/08 00:24:45.000  -74.525915463  163.457813448    23.0843   5  11   0.6571   0.6437   2.4312  -0.3298   0.8970  -0.8950   0.00    0.0
2018/11/08 00:25:00.000  -74.525916718  163.457819630    24.0386   5  11   0.6575   0.6442   2.4374  -0.3309   0.8998  -0.8976   0.00    0.0
2018/11/08 00:25:15.000  -74.525917273  163.457814800    23.1604   5  11   0.6580   0.6449   2.4440  -0.3322   0.9029  -0.9004   0.00    0.0
2018/11/08 00:25:30.000  -74.525913147  163.457809870    22.1835   5  11   0.6586   0.6456   2.4508  -0.3334   0.9060  -0.9032   0.00    0.0
2018/11/08 00:25:45.000  -74.525915886  163.457811438    23.6224   5  11   0.6593   0.6464   2.4579  -0.3348   0.9092  -0.9061   0.00    0.0
2018/11/08 00:26:00.000  -74.525915206  163.457817932    24.2780   5  11   0.6600   0.6473   2.4652  -0.3361   0.9126  -0.9091   0.00    0.0
2018/11/08 00:26:15.000  -74.525915595  163.457819787    24.2047   5  11   0.6608   0.6483   2.4727  -0.3376   0.9160  -0.9122   0.00    0.0
2018/11/08 00:26:30.000  -74.525915544  163.457817261    24.6937   5  11   0.6616   0.6494   2.4804  -0.3390   0.9195  -0.9154   0.00    0.0
2018/11/08 00:26:45.000  -74.525913956  163.457806125    23.1124   5  11   0.6626   0.6505   2.4884  -0.3405   0.9231  -0.9186   0.00    0.0
2018/11/08 00:27:00.000  -74.525914040  163.457818110    23.8429   5  11   0.6636   0.6517   2.4965  -0.3421   0.9268  -0.9220   0.00    0.0
2018/11/08 00:27:15.000  -74.525912039  163.457815908    23.6779   5  11   0.6646   0.6530   2.5049  -0.3437   0.9306  -0.9254   0.00    0.0
2018/11/08 00:27:30.000  -74.525915374  163.457817387    24.0231   5  11   0.6658   0.6544   2.5135  -0.3453   0.9345  -0.9288   0.00    0.0
2018/11/08 00:27:45.000  -74.525914936  163.457806962    23.0841   5  11   0.6656   0.6540   2.5161  -0.3458   0.9356  -0.9303   0.00    0.0
2018/11/08 00:28:00.000  -74.525914036  163.457815127    23.9256   5  11   0.6655   0.6538   2.5190  -0.3463   0.9368  -0.9318   0.00    0.0
2018/11/08 00:28:15.000  -74.525912856  163.457811414    23.0166   5  11   0.6654   0.6535   2.5220  -0.3469   0.9381  -0.9334   0.00    0.0
2018/11/08 00:28:30.000  -74.525914065  163.457807693    23.5073   5  11   0.6655   0.6534   2.5253  -0.3475   0.9395  -0.9351   0.00    0.0
2018/11/08 00:28:45.000  -74.525913994  163.457816007    24.0150   5  11   0.6656   0.6534   2.5287  -0.3482   0.9410  -0.9368   0.00    0.0
2018/11/08 00:29:00.000  -74.525911426  163.457805767    23.0421   5  11   0.6657   0.6534   2.5324  -0.3489   0.9425  -0.9386   0.00    0.0
2018/11/08 00:29:15.000  -74.525915861  163.457810882    23.6147   5  11   0.6659   0.6535   2.5362  -0.3496   0.9441  -0.9405   0.00    0.0
2018/11/08 00:29:30.000  -74.525915355  163.457814799    23.3125   5  11   0.6662   0.6537   2.5402  -0.3504   0.9458  -0.9424   0.00    0.0
2018/11/08 00:29:45.000  -74.525913964  163.457813137    22.9707   5  11   0.6666   0.6539   2.5443  -0.3512   0.9476  -0.9444   0.00    0.0
2018/11/08 00:30:00.000  -74.525912624  163.457805352    22.0429   5  11   0.6670   0.6542   2.5487  -0.3520   0.9495  -0.9465   0.00    0.0
2018/11/08 00:30:15.000  -74.525913424  163.457798678    22.6071   5  11   0.6675   0.6547   2.5534  -0.3529   0.9515  -0.9487   0.00    0.0
2018/11/08 00:30:30.000  -74.525915030  163.457810396    23.1222   5  11   0.6681   0.6552   2.5582  -0.3539   0.9536  -0.9509   0.00    0.0
2018/11/08 00:30:45.000  -74.525914610  163.457810019    23.2440   5  11   0.6687   0.6558   2.5633  -0.3549   0.9557  -0.9532   0.00    0.0
2018/11/08 00:31:00.000  -74.525913080  163.457809120    22.2200   5  11   0.6694   0.6565   2.5685  -0.3559   0.9579  -0.9556   0.00    0.0
2018/11/08 00:31:15.000  -74.525913997  163.457803609    22.0658   5  11   0.6702   0.6572   2.5738  -0.3570   0.9602  -0.9580   0.00    0.0
2018/11/08 00:31:30.000  -74.525915416  163.457809408    23.4956   5  11   0.6710   0.6581   2.5793  -0.3580   0.9626  -0.9605   0.00    0.0
2018/11/08 00:31:45.000  -74.525914476  163.457806132    22.7700   5  11   0.6719   0.6589   2.5849  -0.3591   0.9649  -0.9630   0.00    0.0
2018/11/08 00:32:00.000  -74.525914078  163.457816548    22.8997   5  11   0.6729   0.6599   2.5907  -0.3603   0.9674  -0.9655   0.00    0.0
2018/11/08 00:32:15.000  -74.525914112  163.457809394    22.9074   5  11   0.6739   0.6609   2.5967  -0.3614   0.9699  -0.9681   0.00    0.0
2018/11/08 00:32:30.000  -74.525916961  163.457819029    23.3999   5  11   0.6750   0.6620   2.6027  -0.3626   0.9724  -0.9708   0.00    0.0
2018/11/08 00:32:45.000  -74.525914316  163.457810620    22.8715   5  11   0.6747   0.6614   2.6029  -0.3627   0.9723  -0.9714   0.00    0.0
2018/11/08 00:33:00.000  -74.525914951  163.457810586    23.2816   5  11   0.6746   0.6608   2.6032  -0.3628   0.9723  -0.9722   0.00    0.0
2018/11/08 00:33:15.000  -74.525916164  163.457821395    23.2733   5  11   0.6744   0.6603   2.6037  -0.3630   0.9723  -0.9729   0.00    0.0
2018/11/08 00:33:30.000  -74.525914592  163.457833275    23.8791   5  11   0.6744   0.6599   2.6043  -0.3632   0.9723  -0.9737   0.00    0.0
2018/11/08 00:33:45.000  -74.525916418  163.457817511    23.0244   5  11   0.6744   0.6596   2.6050  -0.3634   0.9724  -0.9746   0.00    0.0
2018/11/08 00:34:00.000  -74.525914719  163.457815238    23.0650   5  11   0.6745   0.6593   2.6058  -0.3636   0.9726  -0.9754   0.00    0.0
2018/11/08 00:34:15.000  -74.525913572  163.457823759    23.7633   5  11   0.6746   0.6591   2.6068  -0.3639   0.9728  -0.9764   0.00    0.0
2018/11/08 00:34:30.000  -74.525917125  163.457814005    24.4778   5  11   0.6748   0.6589   2.6079  -0.3642   0.9731  -0.9774   0.00    0.0
2018/11/08 00:34:45.000  -74.525913185  163.457820928    23.0255   5  11   0.6751   0.6588   2.6092  -0.3645   0.9734  -0.9784   0.00    0.0
2018/11/08 00:35:00.000  -74.525914896  163.457812816    23.6857   5  11   0.6754   0.6588   2.6106  -0.3648   0.9738  -0.9794   0.00    0.0
2018/11/08 00:35:15.000  -74.525911973  163.457811379    22.8364   5  11   0.6758   0.6589   2.6122  -0.3652   0.9743  -0.9806   0.00    0.0
2018/11/08 00:35:30.000  -74.525914189  163.457805704    22.5839   5  11   0.6762   0.6591   2.6140  -0.3657   0.9748  -0.9818   0.00    0.0
2018/11/08 00:35:45.000  -74.525915239  163.457816101    23.2157   5  11   0.6767   0.6593   2.6159  -0.3661   0.9754  -0.9830   0.00    0.0
2018/11/08 00:36:00.000  -74.525916208  163.457810559    23.4157   5  11   0.6773   0.6596   2.6179  -0.3665   0.9760  -0.9842   0.00    0.0
2018/11/08 00:36:15.000  -74.525913278  163.457812439    22.5355   5  11   0.6779   0.6600   2.6200  -0.3670   0.9766  -0.9855   0.00    0.0
2018/11/08 00:36:30.000  -74.525915113  163.457820656    23.7861   5  11   0.6786   0.6604   2.6222  -0.3675   0.9773  -0.9868   0.00    0.0
2018/11/08 00:36:45.000  -74.525913589  163.457816818    22.6369   5  11   0.6793   0.6609   2.6245  -0.3680   0.9780  -0.9881   0.00    0.0
2018/11/08 00:37:00.000  -74.525914739  163.457821641    24.2784   5  11   0.6801   0.6614   2.6269  -0.3685   0.9787  -0.9895   0.00    0.0
2018/11/08 00:37:15.000  -74.525914206  163.457811677    22.5921   5  11   0.6809   0.6620   2.6294  -0.3691   0.9795  -0.9909   0.00    0.0
2018/11/08 00:37:30.000  -74.525915022  163.457811030    23.5742   5  11   0.6818   0.6627   2.6320  -0.3696   0.9802  -0.9923   0.00    0.0
2018/11/08 00:37:45.000  -74.525917277  163.457819476    23.5158   5  11   0.6814   0.6617   2.6289  -0.3691   0.9785  -0.9918   0.00    0.0
2018/11/08 00:38:00.000  -74.525918147  163.457824042    24.5422   5  11   0.6811   0.6607   2.6259  -0.3687   0.9769  -0.9913   0.00    0.0
2018/11/08 00:38:15.000  -74.525914080  163.457820151    24.7311   5  11   0.6809   0.6599   2.6230  -0.3683   0.9752  -0.9909   0.00    0.0
2018/11/08 00:38:30.000  -74.525917800  163.457816824    23.0481   5  11   0.6806   0.6591   2.6202  -0.3679   0.9737  -0.9905   0.00    0.0
2018/11/08 00:38:45.000  -74.525916241  163.457821072    23.1797   5  11   0.6805   0.6584   2.6175  -0.3675   0.9721  -0.9902   0.00    0.0
2018/11/08 00:39:00.000  -74.525915960  163.457816485    23.2331   5  11   0.6804   0.6577   2.6150  -0.3672   0.9706  -0.9899   0.00    0.0
2018/11/08 00:39:15.000  -74.525915253  163.457814341    23.2896   5  11   0.6803   0.6571   2.6126  -0.3668   0.9692  -0.9896   0.00    0.0
2018/11/08 00:39:30.000  -74.525917524  163.457812303    24.0287   5  11   0.6803   0.6565   2.6102  -0.3665   0.9677  -0.9893   0.00    0.0
2018/11/08 00:39:45.000  -74.525917338  163.457812285    23.6739   5  11   0.6804   0.6561   2.6080  -0.3662   0.9663  -0.9891   0.00    0.0
2018/11/08 00:40:00.000  -74.525914832  163.457816901    23.7086   5  11   0.6805   0.6557   2.6059  -0.3659   0.9650  -0.9889   0.00    0.0
2018/11/08 00:40:15.000  -74.525916200  163.457818965    23.9697   5  11   0.6807   0.6553   2.6041  -0.3656   0.9637  -0.9887   0.00    0.0
2018/11/08 00:40:30.000  -74.525915287  163.457816551    24.2482   5  11   0.6810   0.6551   2.6023  -0.3654   0.9625  -0.9886   0.00    0.0
2018/11/08 00:40:45.000  -74.525918582  163.457828455    24.4963   5  11   0.6813   0.6549   2.6007  -0.3652   0.9613  -0.9885   0.00    0.0
2018/11/08 00:41:00.000  -74.525914462  163.457818596    23.7986   5  11   0.6816   0.6548   2.5992  -0.3650   0.9601  -0.9885   0.00    0.0
2018/11/08 00:41:15.000  -74.525914296  163.457817446    23.1462   5  11   0.6821   0.6547   2.5978  -0.3648   0.9590  -0.9885   0.00    0.0
2018/11/08 00:41:30.000  -74.525916538  163.457824236    24.1946   5  11   0.6825   0.6547   2.5965  -0.3646   0.9579  -0.9884   0.00    0.0
2018/11/08 00:41:45.000  -74.525913217  163.457810835    23.5027   5  11   0.6830   0.6548   2.5953  -0.3644   0.9568  -0.9885   0.00    0.0
2018/11/08 00:42:00.000  -74.525915673  163.457822867    23.4774   5  11   0.6836   0.6549   2.5942  -0.3643   0.9557  -0.9885   0.00    0.0
2018/11/08 00:42:15.000  -74.525916618  163.457821072    23.7535   5  11   0.6842   0.6551   2.5932  -0.3641   0.9547  -0.9885   0.00    0.0
2018/11/08 00:42:30.000  -74.525916191  163.457816185    23.5934   5  11   0.6849   0.6553   2.5923  -0.3640   0.9536  -0.9886   0.00    0.0
2018/11/08 00:42:45.000  -74.525916099  163.457819994    23.7400   5  11   0.6843   0.6540   2.5860  -0.3629   0.9504  -0.9870   0.00    0.0
2018/11/08 00:43:00.000  -74.525917371  163.457813340    23.4047   5  11   0.6838   0.6527   2.5798  -0.3619   0.9471  -0.9853   0.00    0.0
2018/11/08 00:43:15.000  -74.525916440  163.457804408    22.6321   5  11   0.6834   0.6515   2.5738  -0.3609   0.9440  -0.9837   0.00    0.0
2018/11/08 00:43:30.000  -74.525914237  163.457821948    23.4628   5  11   0.6830   0.6504   2.5679  -0.3599   0.9408  -0.9822   0.00    0.0
2018/11/08 00:43:45.000  -74.525917360  163.457819015    23.3396   5  11   0.6827   0.6493   2.5621  -0.3590   0.9377  -0.9807   0.00    0.0
2018/11/08 00:44:00.000  -74.525913878  163.457811582    23.1588   5  11   0.6824   0.6483   2.5564  -0.3580   0.9347  -0.9792   0.00    0.0
2018/11/08 00:44:15.000  -74.525915084  163.457818739    23.0379   5  11   0.6822   0.6474   2.5509  -0.3571   0.9317  -0.9777   0.00    0.0
2018/11/08 00:44:30.000  -74.525919267  163.457824878    24.1208   5  11   0.6820   0.6465   2.5456  -0.3562   0.9287  -0.9763   0.00    0.0
2018/11/08 00:44:45.000  -74.525916791  163.457818798    23.4726   5  11   0.6819   0.6457   2.5404  -0.3553   0.9258  -0.9749   0.00    0.0
2018/11/08 00:45:00.000  -74.525914619  163.457816160    23.4838   5  11   0.6818   0.6450   2.5353  -0.3544   0.9229  -0.9736   0.00    0.0
2018/11/08 00:45:15.000  -74.525916314  163.457822604    23.5840   5  11   0.6818   0.6444   2.5305  -0.3536   0.9201  -0.9723   0.00    0.0
2018/11/08 00:45:30.000  -74.525914061  163.457810906    22.3142   5  11   0.6819   0.6438   2.5259  -0.3527   0.9174  -0.9711   0.00    0.0
2018/11/08 00:45:45.000  -74.525915006  163.457813958    22.9849   5  11   0.6820   0.6433   2.5214  -0.3519   0.9147  -0.9699   0.00    0.0
2018/11/08 00:46:00.000  -74.525916846  163.457822097    24.3014   5  11   0.6822   0.6429   2.5170  -0.3511   0.9120  -0.9687   0.00    0.0
2018/11/08 00:46:15.000  -74.525913120  163.457816507    22.9560   5  10   0.9314   0.6754   3.5779  -0.5047   1.1651  -1.5971   0.00    0.0
2018/11/08 00:46:30.000  -74.525916280  163.457809108    22.5609   5  10   0.9315   0.6748   3.5732  -0.5035   1.1617  -1.5957   0.00    0.0
2018/11/08 00:46:45.000  -74.525914075  163.457822810    22.6726   5  10   0.9316   0.6743   3.5685  -0.5023   1.1584  -1.5944   0.00    0.0
2018/11/08 00:47:00.000  -74.525908787  163.457812336    20.8112   5  10   0.9318   0.6738   3.5639  -0.5011   1.1550  -1.5932   0.00    0.0
2018/11/08 00:47:15.000  -74.525917233  163.457820109    23.3159   5  10   0.9321   0.6734   3.5595  -0.4999   1.1517  -1.5919   0.00    0.0
2018/11/08 00:47:30.000  -74.525913239  163.457816707    22.4649   5  10   0.9324   0.6730   3.5551  -0.4987   1.1483  -1.5907   0.00    0.0
2018/11/08 00:47:45.000  -74.525911602  163.457808037    20.6466   5  10   0.9304   0.6710   3.5408  -0.4960   1.1417  -1.5851   0.00    0.0
2018/11/08 00:48:00.000  -74.525907927  163.457820558    20.0132   5  10   0.9285   0.6690   3.5265  -0.4933   1.1350  -1.5795   0.00    0.0
2018/11/08 00:48:15.000  -74.525914153  163.457811377    22.3910   5  10   0.9266   0.6671   3.5124  -0.4906   1.1284  -1.5740   0.00    0.0
2018/11/08 00:48:30.000  -74.525911774  163.457814169    22.7989   5  10   0.9248   0.6653   3.4984  -0.4879   1.1218  -1.5685   0.00    0.0
2018/11/08 00:48:45.000  -74.525911367  163.457814743    22.3058   5  10   0.9230   0.6635   3.4847  -0.4852   1.1153  -1.5631   0.00    0.0
2018/11/08 00:49:00.000  -74.525914633  163.457811717    22.5364   5  10   0.9213   0.6618   3.4711  -0.4825   1.1089  -1.5578   0.00    0.0
2018/11/08 00:49:15.000  -74.525913706  163.457815066    22.4864   5  10   0.9197   0.6602   3.4578  -0.4798   1.1024  -1.5525   0.00    0.0
2018/11/08 00:49:30.000  -74.525911568  163.457813276    21.8089   5  10   0.9182   0.6586   3.4447  -0.4772   1.0961  -1.5474   0.00    0.0
2018/11/08 00:49:45.000  -74.525913349  163.457811362    21.9739   5  10   0.9167   0.6572   3.4318  -0.4746   1.0897  -1.5423   0.00    0.0
2018/11/08 00:50:00.000  -74.525915921  163.457814871    23.6724   5  10   0.9153   0.6558   3.4191  -0.4720   1.0835  -1.5374   0.00    0.0
2018/11/08 00:50:15.000  -74.525908977  163.457811100    20.2427   5   9   0.9180   0.6546   3.6589  -0.4685   1.0709  -1.5691   0.00    0.0
2018/11/08 00:50:30.000  -74.525911067  163.457811693    20.8527   5   9   0.9169   0.6533   3.6491  -0.4660   1.0648  -1.5650   0.00    0.0
2018/11/08 00:50:45.000  -74.525912581  163.457815143    21.1277   5   9   0.9158   0.6522   3.6396  -0.4635   1.0587  -1.5611   0.00    0.0
2018/11/08 00:51:00.000  -74.525914786  163.457812621    22.0480   5   9   0.9149   0.6511   3.6303  -0.4610   1.0526  -1.5573   0.00    0.0
2018/11/08 00:51:15.000  -74.525911318  163.457813463    21.0092   5   9   0.9140   0.6501   3.6213  -0.4585   1.0466  -1.5535   0.00    0.0
2018/11/08 00:51:30.000  -74.525913747  163.457815412    21.8085   5   9   0.9132   0.6492   3.6125  -0.4560   1.0405  -1.5499   0.00    0.0
2018/11/08 00:51:45.000  -74.525913922  163.457815029    22.5216   5   9   0.9125   0.6483   3.6041  -0.4536   1.0346  -1.5464   0.00    0.0
2018/11/08 00:52:00.000  -74.525912352  163.457816714    21.9274   5   9   0.9119   0.6476   3.5960  -0.4511   1.0286  -1.5429   0.00    0.0
2018/11/08 00:52:15.000  -74.525918459  163.457825439    22.9324   5   9   0.9113   0.6469   3.5882  -0.4487   1.0227  -1.5396   0.00    0.0
2018/11/08 00:52:30.000  -74.525914713  163.457819965    22.1819   5   9   0.9109   0.6462   3.5807  -0.4463   1.0168  -1.5364   0.00    0.0
2018/11/08 00:52:45.000  -74.525912746  163.457820397    22.3319   5   9   0.9082   0.6441   3.5618  -0.4426   1.0081  -1.5286   0.00    0.0
2018/11/08 00:53:00.000  -74.525910460  163.457816958    21.5520   5   9   0.9055   0.6421   3.5433  -0.4389   0.9994  -1.5210   0.00    0.0
2018/11/08 00:53:15.000  -74.525911358  163.457814733    21.7743   5  10   0.7452   0.6364   2.6782  -0.3929   0.9076  -1.0592   0.00    0.0
2018/11/08 00:53:30.000  -74.525914562  163.457818333    22.1395   5  10   0.7444   0.6348   2.6712  -0.3913   0.9030  -1.0567   0.00    0.0
2018/11/08 00:53:45.000  -74.525915642  163.457817382    22.8500   5  10   0.7437   0.6333   2.6644  -0.3896   0.8985  -1.0543   0.00    0.0
2018/11/08 00:54:00.000  -74.525912656  163.457819899    21.6129   5  10   0.7430   0.6319   2.6577  -0.3881   0.8940  -1.0519   0.00    0.0
2018/11/08 00:54:15.000  -74.525912701  163.457818937    23.0130   5  10   0.7424   0.6306   2.6513  -0.3865   0.8896  -1.0496   0.00    0.0
2018/11/08 00:54:30.000  -74.525913886  163.457813132    22.3660   5  10   0.7419   0.6293   2.6452  -0.3850   0.8852  -1.0473   0.00    0.0
2018/11/08 00:54:45.000  -74.525913880  163.457810340    21.9355   5  10   0.7414   0.6282   2.6392  -0.3835   0.8809  -1.0452   0.00    0.0
2018/11/08 00:55:00.000  -74.525913393  163.457817975    22.5829   5  10   0.7410   0.6270   2.6335  -0.3820   0.8767  -1.0430   0.00    0.0
2018/11/08 00:55:15.000  -74.525911999  163.457813394    21.8529   5  10   0.7407   0.6260   2.6282  -0.3806   0.8725  -1.0410   0.00    0.0
2018/11/08 00:55:30.000  -74.525914003  163.457811267    21.4250   5  10   0.7405   0.6251   2.6232  -0.3792   0.8684  -1.0391   0.00    0.0
2018/11/08 00:55:45.000  -74.525915829  163.457823284    22.9255   5  10   0.7403   0.6242   2.6183  -0.3779   0.8644  -1.0373   0.00    0.0
2018/11/08 00:56:00.000  -74.525914884  163.457823175    22.2512   5  10   0.7402   0.6234   2.6138  -0.3766   0.8604  -1.0355   0.00    0.0
2018/11/08 00:56:15.000  -74.525916367  163.457813559    22.7980   5  10   0.7402   0.6227   2.6095  -0.3753   0.8565  -1.0338   0.00    0.0
2018/11/08 00:56:30.000  -74.525913761  163.457822450    22.1559   5  10   0.7402   0.6221   2.6055  -0.3740   0.8526  -1.0321   0.00    0.0
2018/11/08 00:56:45.000  -74.525915373  163.457816476    22.3779   5  10   0.7403   0.6215   2.6018  -0.3728   0.8488  -1.0305   0.00    0.0
2018/11/08 00:57:00.000  -74.525915197  163.457819133    23.1980   5  10   0.7405   0.6210   2.5984  -0.3716   0.8451  -1.0291   0.00    0.0
2018/11/08 00:57:15.000  -74.525915948  163.457818142    22.8353   5  10   0.7407   0.6206   2.5952  -0.3704   0.8414  -1.0276   0.00    0.0
2018/11/08 00:57:30.000  -74.525914610  163.457817759    22.5424   5  10   0.7410   0.6202   2.5923  -0.3692   0.8377  -1.0263   0.00    0.0
2018/11/08 00:57:45.000  -74.525914888  163.457824688    22.2453   5  10   0.7399   0.6185   2.5827  -0.3672   0.8320  -1.0228   0.00    0.0
2018/11/08 00:58:00.000  -74.525916359  163.457816096    22.7519   5  10   0.7389   0.6168   2.5733  -0.3652   0.8264  -1.0195   0.00    0.0
2018/11/08 00:58:15.000  -74.525914688  163.457817333    22.0673   5  10   0.7379   0.6152   2.5642  -0.3632   0.8208  -1.0162   0.00    0.0
2018/11/08 00:58:30.000  -74.525914737  163.457817914    22.4898   5  10   0.7371   0.6136   2.5553  -0.3612   0.8153  -1.0130   0.00    0.0
2018/11/08 00:58:45.000  -74.525915627  163.457813512    21.3478   5  10   0.7363   0.6122   2.5468  -0.3593   0.8099  -1.0099   0.00    0.0
2018/11/08 00:59:00.000  -74.525913508  163.457813267    21.7933   5  10   0.7355   0.6108   2.5385  -0.3574   0.8046  -1.0069   0.00    0.0
2018/11/08 00:59:15.000  -74.525915979  163.457817287    21.8983   5  10   0.7349   0.6095   2.5306  -0.3556   0.7993  -1.0039   0.00    0.0
2018/11/08 00:59:30.000  -74.525912015  163.457816331    21.9859   5  10   0.7343   0.6083   2.5230  -0.3538   0.7941  -1.0011   0.00    0.0
2018/11/08 00:59:45.000  -74.525914172  163.457817481    22.4603   5  10   0.7337   0.6072   2.5156  -0.3520   0.7890  -0.9983   0.00    0.0
2018/11/08 01:00:00.000  -74.525913632  163.457817355    22.3477   5  10   0.7333   0.6061   2.5086  -0.3503   0.7839  -0.9956   0.00    0.0
2018/11/08 01:00:15.000  -74.525915759  163.457823624    22.2337   5  10   0.7329   0.6052   2.5021  -0.3486   0.7790  -0.9931   0.00    0.0
2018/11/08 01:00:30.000  -74.525917999  163.457829922    22.8549   5  10   0.7326   0.6043   2.4959  -0.3470   0.7741  -0.9906   0.00    0.0
2018/11/08 01:00:45.000  -74.525914958  163.457813294    22.6273   5  10   0.7324   0.6035   2.4900  -0.3454   0.7693  -0.9883   0.00    0.0
2018/11/08 01:01:00.000  -74.525915625  163.457820565    23.2884   5  10   0.7323   0.6028   2.4844  -0.3438   0.7646  -0.9860   0.00    0.0
2018/11/08 01:01:15.000  -74.525913257  163.457813053    22.0650   5  10   0.7322   0.6022   2.4792  -0.3423   0.7599  -0.9839   0.00    0.0
2018/11/08 01:01:30.000  -74.525913227  163.457812637    22.1813   5  10   0.7322   0.6016   2.4743  -0.3408   0.7553  -0.9818   0.00    0.0
2018/11/08 01:01:45.000  -74.525915949  163.457815239    22.8139   5  10   0.7323   0.6011   2.4698  -0.3393   0.7507  -0.9798   0.00    0.0
2018/11/08 01:02:00.000  -74.525915790  163.457818529    22.5534   5  10   0.7324   0.6007   2.4656  -0.3379   0.7463  -0.9779   0.00    0.0
2018/11/08 01:02:15.000  -74.525917446  163.457825128    22.6447   5  10   0.7326   0.6003   2.4618  -0.3365   0.7418  -0.9761   0.00    0.0
2018/11/08 01:02:30.000  -74.525914674  163.457810910    22.4563   5  10   0.7329   0.6001   2.4582  -0.3351   0.7374  -0.9744   0.00    0.0
2018/11/08 01:02:45.000  -74.525916351  163.457817969    22.7156   5  10   0.7318   0.5985   2.4477  -0.3329   0.7313  -0.9707   0.00    0.0
2018/11/08 01:03:00.000  -74.525914269  163.457826018    22.2253   5  10   0.7309   0.5970   2.4377  -0.3307   0.7252  -0.9670   0.00    0.0
2018/11/08 01:03:15.000  -74.525916070  163.457819647    22.5262   5  10   0.7299   0.5956   2.4280  -0.3286   0.7192  -0.9635   0.00    0.0
2018/11/08 01:03:30.000  -74.525912566  163.457819430    22.6579   5  10   0.7291   0.5942   2.4186  -0.3266   0.7133  -0.9601   0.00    0.0
2018/11/08 01:03:45.000  -74.525916407  163.457816395    22.8297   5  10   0.7283   0.5930   2.4096  -0.3245   0.7074  -0.9567   0.00    0.0
2018/11/08 01:04:00.000  -74.525918630  163.457819957    23.4641   5  10   0.7276   0.5918   2.4010  -0.3226   0.7016  -0.9535   0.00    0.0
2018/11/08 01:04:15.000  -74.525919672  163.457825096    23.7216   5  10   0.7270   0.5907   2.3927  -0.3206   0.6959  -0.9504   0.00    0.0
2018/11/08 01:04:30.000  -74.525917345  163.457819065    21.8823   5  10   0.7264   0.5896   2.3848  -0.3187   0.6903  -0.9474   0.00    0.0
2018/11/08 01:04:45.000  -74.525916140  163.457821783    22.3464   5  10   0.7259   0.5887   2.3772  -0.3168   0.6848  -0.9445   0.00    0.0
2018/11/08 01:05:00.000  -74.525917909  163.457823648    23.1897   5  10   0.7255   0.5878   2.3700  -0.3150   0.6793  -0.9417   0.00    0.0
2018/11/08 01:05:15.000  -74.525918510  163.457823662    23.3284   5  10   0.7252   0.5871   2.3633  -0.3132   0.6739  -0.9390   0.00    0.0
2018/11/08 01:05:30.000  -74.525920165  163.457821088    23.2615   5  10   0.7250   0.5864   2.3570  -0.3115   0.6686  -0.9365   0.00    0.0
2018/11/08 01:05:45.000  -74.525917679  163.457826535    23.3334   5  10   0.7248   0.5858   2.3511  -0.3097   0.6634  -0.9340   0.00    0.0
2018/11/08 01:06:00.000  -74.525916374  163.457827314    22.1835   5  10   0.7247   0.5853   2.3455  -0.3081   0.6582  -0.9317   0.00    0.0
2018/11/08 01:06:15.000  -74.525915590  163.457819392    23.1525   5  10   0.7247   0.5848   2.3403  -0.3064   0.6530  -0.9295   0.00    0.0
2018/11/08 01:06:30.000  -74.525916178  163.457818309    23.2212   5  10   0.7248   0.5844   2.3355  -0.3048   0.6480  -0.9273   0.00    0.0
2018/11/08 01:06:45.000  -74.525916095  163.457815728    23.4897   5  10   0.7249   0.5841   2.3310  -0.3032   0.6429  -0.9253   0.00    0.0
2018/11/08 01:07:00.000  -74.525915156  163.457828437    22.4993   5  10   0.7251   0.5839   2.3270  -0.3017   0.6380  -0.9234   0.00    0.0
2018/11/08 01:07:15.000  -74.525918892  163.457820787    23.1133   5  10   0.7254   0.5838   2.3232  -0.3002   0.6330  -0.9215   0.00    0.0
2018/11/08 01:07:30.000  -74.525920394  163.457822530    23.2553   5  10   0.7257   0.5837   2.3199  -0.2987   0.6281  -0.9198   0.00    0.0
2018/11/08 01:07:45.000  -74.525913993  163.457819334    22.8068   5  10   0.7247   0.5824   2.3098  -0.2965   0.6218  -0.9162   0.00    0.0
2018/11/08 01:08:00.000  -74.525921881  163.457831472    23.5767   5  10   0.7238   0.5811   2.3001  -0.2944   0.6155  -0.9126   0.00    0.0
2018/11/08 01:08:15.000  -74.525918844  163.457820268    23.5703   5  10   0.7230   0.5800   2.2907  -0.2923   0.6093  -0.9092   0.00    0.0
2018/11/08 01:08:30.000  -74.525918365  163.457833420    23.8437   5  10   0.7223   0.5789   2.2817  -0.2902   0.6032  -0.9059   0.00    0.0
2018/11/08 01:08:45.000  -74.525919017  163.457826081    23.4811   5  10   0.7216   0.5779   2.2731  -0.2882   0.5971  -0.9027   0.00    0.0
2018/11/08 01:09:00.000  -74.525917864  163.457829889    24.7812   5  10   0.7210   0.5769   2.2649  -0.2862   0.5911  -0.8996   0.00    0.0
2018/11/08 01:09:15.000  -74.525917696  163.457829075    23.6692   5  10   0.7205   0.5761   2.2571  -0.2842   0.5851  -0.8966   0.00    0.0
2018/11/08 01:09:30.000  -74.525918920  163.457824580    22.8542   5  10   0.7200   0.5753   2.2497  -0.2823   0.5792  -0.8938   0.00    0.0
2018/11/08 01:09:45.000  -74.525920878  163.457826856    22.8689   5  10   0.7197   0.5746   2.2427  -0.2804   0.5734  -0.8910   0.00    0.0
2018/11/08 01:10:00.000  -74.525916715  163.457822531    22.8104   5  10   0.7194   0.5740   2.2360  -0.2785   0.5676  -0.8884   0.00    0.0
2018/11/08 01:10:15.000  -74.525920392  163.457827111    23.9716   5  10   0.7192   0.5735   2.2299  -0.2767   0.5619  -0.8859   0.00    0.0
2018/11/08 01:10:30.000  -74.525916529  163.457827467    22.5112   5  10   0.7190   0.5731   2.2242  -0.2749   0.5562  -0.8835   0.00    0.0
2018/11/08 01:10:45.000  -74.525920948  163.457825991    22.5351   5  10   0.7190   0.5727   2.2188  -0.2732   0.5506  -0.8812   0.00    0.0
2018/11/08 01:11:00.000  -74.525920832  163.457825475    24.1144   5  10   0.7190   0.5724   2.2139  -0.2715   0.5450  -0.8790   0.00    0.0
2018/11/08 01:11:15.000  -74.525918841  163.457818336    22.7213   5  10   0.7191   0.5722   2.2093  -0.2698   0.5394  -0.8770   0.00    0.0
2018/11/08 01:11:30.000  -74.525918043  163.457823281    22.8851   5  10   0.7192   0.5721   2.2051  -0.2681   0.5339  -0.8750   0.00    0.0
2018/11/08 01:11:45.000  -74.525919526  163.457822628    24.8453   5  10   0.7194   0.5720   2.2013  -0.2665   0.5284  -0.8731   0.00    0.0
2018/11/08 01:12:00.000  -74.525917841  163.457825993    23.3213   5  10   0.7197   0.5720   2.1978  -0.2649   0.5229  -0.8714   0.00    0.0
2018/11/08 01:12:15.000  -74.525917017  163.457822481    23.0835   5  10   0.7201   0.5721   2.1947  -0.2634   0.5174  -0.8697   0.00    0.0
2018/11/08 01:12:30.000  -74.525919875  163.457826730    23.6559   5  10   0.7205   0.5723   2.1920  -0.2618   0.5119  -0.8682   0.00    0.0
2018/11/08 01:12:45.000  -74.525919551  163.457825701    23.7918   5  10   0.7197   0.5712   2.1828  -0.2597   0.5053  -0.8648   0.00    0.0
2018/11/08 01:13:00.000  -74.525918763  163.457824180    23.6773   5  10   0.7190   0.5703   2.1739  -0.2575   0.4988  -0.8616   0.00    0.0
2018/11/08 01:13:15.000  -74.525917666  163.457836431    23.8385   5  10   0.7183   0.5694   2.1655  -0.2555   0.4923  -0.8585   0.00    0.0
2018/11/08 01:13:30.000  -74.525919201  163.457825316    23.1756   5  10   0.7177   0.5686   2.1574  -0.2534   0.4859  -0.8555   0.00    0.0
2018/11/08 01:13:45.000  -74.525918962  163.457829226    24.0068   5  10   0.7172   0.5678   2.1497  -0.2514   0.4795  -0.8527   0.00    0.0
2018/11/08 01:14:00.000  -74.525919132  163.457829262    24.3691   5  10   0.7167   0.5672   2.1424  -0.2494   0.4731  -0.8499   0.00    0.0
2018/11/08 01:14:15.000  -74.525920728  163.457827415    23.7219   5  11   0.6185   0.5496   1.7954  -0.1072   0.2422  -0.5477   0.00    0.0
2018/11/08 01:14:30.000  -74.525919449  163.457834871    23.6373   5  11   0.6184   0.5494   1.7927  -0.1050   0.2349  -0.5468   0.00    0.0
2018/11/08 01:14:45.000  -74.525919879  163.457821374    24.4152   5  11   0.6184   0.5492   1.7903  -0.1028   0.2274  -0.5460   0.00    0.0
2018/11/08 01:15:00.000  -74.525920908  163.457829946    24.6353   5  11   0.6184   0.5491   1.7882  -0.1005   0.2197  -0.5452   0.00    0.0
2018/11/08 01:15:15.000  -74.525921133  163.457828700    24.1901   5  11   0.6185   0.5491   1.7865  -0.0983   0.2116  -0.5445   0.00    0.0
2018/11/08 01:15:30.000  -74.525920537  163.457830198    24.4364   5  11   0.6186   0.5492   1.7851  -0.0959   0.2032  -0.5438   0.00    0.0
2018/11/08 01:15:45.000  -74.525921760  163.457826087    23.5722   5  11   0.6188   0.5493   1.7839  -0.0935   0.1944  -0.5431   0.00    0.0
2018/11/08 01:16:00.000  -74.525920347  163.457832057    24.3782   5  11   0.6190   0.5495   1.7831  -0.0911   0.1852  -0.5425   0.00    0.0
2018/11/08 01:16:15.000  -74.525919676  163.457829819    23.8681   5  11   0.6193   0.5498   1.7826  -0.0885   0.1755  -0.5419   0.00    0.0
2018/11/08 01:16:30.000  -74.525920041  163.457830903    23.9069   5  11   0.6197   0.5501   1.7823  -0.0860   0.1651  -0.5414   0.00    0.0
2018/11/08 01:16:45.000  -74.525921451  163.457826174    24.1614   5  11   0.6201   0.5505   1.7824  -0.0833   0.1540  -0.5409   0.00    0.0
2018/11/08 01:17:00.000  -74.525918876  163.457824609    23.7460   5  11   0.6206   0.5509   1.7828  -0.0805   0.1419  -0.5404   0.00    0.0
2018/11/08 01:17:15.000  -74.525920818  163.457831958    24.5997   5  11   0.6211   0.5515   1.7834  -0.0777   0.1286  -0.5400   0.00    0.0
2018/11/08 01:17:30.000  -74.525921654  163.457831482    23.9453   5  11   0.6216   0.5521   1.7844  -0.0747   0.1137  -0.5396   0.00    0.0
2018/11/08 01:17:45.000  -74.525921733  163.457822769    23.9563   5  12   0.6138   0.5287   1.7119  -0.1421  -0.2589  -0.5807   0.00    0.0
2018/11/08 01:18:00.000  -74.525920962  163.457829357    23.6196   5  12   0.6133   0.5283   1.7093  -0.1408  -0.2634  -0.5798   0.00    0.0
2018/11/08 01:18:15.000  -74.525920077  163.457823850    23.4980   5  12   0.6130   0.5279   1.7069  -0.1395  -0.2680  -0.5789   0.00    0.0
2018/11/08 01:18:30.000  -74.525922626  163.457825514    23.4938   5  12   0.6126   0.5276   1.7048  -0.1382  -0.2725  -0.5781   0.00    0.0
2018/11/08 01:18:45.000  -74.525920780  163.457821135    23.5781   5  12   0.6123   0.5273   1.7030  -0.1370  -0.2770  -0.5774   0.00    0.0
2018/11/08 01:19:00.000  -74.525920978  163.457827678    23.9140   5  12   0.6121   0.5271   1.7014  -0.1357  -0.2815  -0.5767   0.00    0.0
2018/11/08 01:19:15.000  -74.525921251  163.457823247    23.9884   5  12   0.6119   0.5270   1.7001  -0.1344  -0.2860  -0.5760   0.00    0.0
2018/11/08 01:19:30.000  -74.525917656  163.457824637    22.9076   5  12   0.6117   0.5269   1.6991  -0.1331  -0.2906  -0.5754   0.00    0.0
2018/11/08 01:19:45.000  -74.525920424  163.457823717    23.9916   5  12   0.6116   0.5269   1.6983  -0.1319  -0.2951  -0.5748   0.00    0.0
2018/11/08 01:20:00.000  -74.525922437  163.457827190    23.7126   5  12   0.6116   0.5269   1.6979  -0.1306  -0.2996  -0.5743   0.00    0.0
2018/11/08 01:20:15.000  -74.525919272  163.457827383    24.0845   5  12   0.6116   0.5270   1.6978  -0.1294  -0.3042  -0.5738   0.00    0.0
2018/11/08 01:20:30.000  -74.525921569  163.457832169    23.2725   5  12   0.6117   0.5272   1.6980  -0.1282  -0.3088  -0.5734   0.00    0.0
2018/11/08 01:20:45.000  -74.525920133  163.457831982    23.8581   5  12   0.6118   0.5275   1.6985  -0.1270  -0.3134  -0.5730   0.00    0.0
2018/11/08 01:21:00.000  -74.525920640  163.457826062    23.9250   5  12   0.6120   0.5278   1.6992  -0.1258  -0.3180  -0.5726   0.00    0.0
2018/11/08 01:21:15.000  -74.525921478  163.457821043    24.3734   5  12   0.6122   0.5282   1.7003  -0.1246  -0.3227  -0.5723   0.00    0.0
2018/11/08 01:21:30.000  -74.525919806  163.457827585    23.9782   5  12   0.6125   0.5286   1.7016  -0.1234  -0.3273  -0.5721   0.00    0.0
2018/11/08 01:21:45.000  -74.525921631  163.457831914    23.7607   5  12   0.6129   0.5291   1.7032  -0.1222  -0.3320  -0.5719   0.00    0.0
2018/11/08 01:22:00.000  -74.525922344  163.457825022    23.7952   5  12   0.6132   0.5296   1.7051  -0.1210  -0.3367  -0.5717   0.00    0.0
2018/11/08 01:22:15.000  -74.525919008  163.457816989    23.4082   5  12   0.6137   0.5303   1.7073  -0.1198  -0.3415  -0.5716   0.00    0.0
2018/11/08 01:22:30.000  -74.525921018  163.457824369    23.9361   5  12   0.6142   0.5309   1.7097  -0.1186  -0.3463  -0.5715   0.00    0.0
2018/11/08 01:22:45.000  -74.525923179  163.457824068    24.6922   5  12   0.6137   0.5305   1.7072  -0.1170  -0.3494  -0.5707   0.00    0.0
2018/11/08 01:23:00.000  -74.525921866  163.457821683    23.9827   5  12   0.6133   0.5302   1.7049  -0.1155  -0.3526  -0.5700   0.00    0.0
2018/11/08 01:23:15.000  -74.525920883  163.457825896    23.4175   5  12   0.6130   0.5299   1.7029  -0.1140  -0.3559  -0.5693   0.00    0.0
2018/11/08 01:23:30.000  -74.525922254  163.457827177    23.9332   5  12   0.6127   0.5297   1.7012  -0.1125  -0.3592  -0.5686   0.00    0.0
2018/11/08 01:23:45.000  -74.525920839  163.457827233    24.3949   5  12   0.6125   0.5296   1.6997  -0.1110  -0.3625  -0.5680   0.00    0.0
2018/11/08 01:24:00.000  -74.525921515  163.457826734    24.0295   5  12   0.6123   0.5295   1.6985  -0.1094  -0.3658  -0.5675   0.00    0.0
2018/11/08 01:24:15.000  -74.525922354  163.457816979    24.4377   5  12   0.6121   0.5294   1.6976  -0.1079  -0.3692  -0.5669   0.00    0.0
2018/11/08 01:24:30.000  -74.525922043  163.457820550    23.5460   5  12   0.6121   0.5295   1.6970  -0.1064  -0.3727  -0.5665   0.00    0.0
2018/11/08 01:24:45.000  -74.525919367  163.457825265    23.8965   5  12   0.6120   0.5296   1.6967  -0.1048  -0.3762  -0.5660   0.00    0.0
2018/11/08 01:25:00.000  -74.525921665  163.457823585    23.7109   5  12   0.6120   0.5297   1.6967  -0.1033  -0.3797  -0.5657   0.00    0.0
2018/11/08 01:25:15.000  -74.525921379  163.457821339    23.6972   5  12   0.6121   0.5299   1.6970  -0.1018  -0.3833  -0.5653   0.00    0.0
2018/11/08 01:25:30.000  -74.525921277  163.457818815    24.0581   5  12   0.6123   0.5302   1.6976  -0.1002  -0.3870  -0.5651   0.00    0.0
2018/11/08 01:25:45.000  -74.525921885  163.457818727    23.6469   5  12   0.6124   0.5306   1.6985  -0.0987  -0.3907  -0.5648   0.00    0.0
2018/11/08 01:26:00.000  -74.525921870  163.457825396    23.9617   5  12   0.6127   0.5310   1.6998  -0.0971  -0.3944  -0.5646   0.00    0.0
2018/11/08 01:26:15.000  -74.525921406  163.457818746    24.3655   5  12   0.6130   0.5315   1.7013  -0.0956  -0.3982  -0.5645   0.00    0.0
2018/11/08 01:26:30.000  -74.525920411  163.457820439    23.9150   5  12   0.6133   0.5320   1.7030  -0.0940  -0.4021  -0.5644   0.00    0.0
2018/11/08 01:26:45.000  -74.525921459  163.457819723    24.0446   5  12   0.6137   0.5326   1.7051  -0.0924  -0.4060  -0.5643   0.00    0.0
2018/11/08 01:27:00.000  -74.525919551  163.457825717    23.3577   5  12   0.6141   0.5333   1.7075  -0.0908  -0.4099  -0.5643   0.00    0.0
2018/11/08 01:27:15.000  -74.525922749  163.457824239    24.4816   5  12   0.6146   0.5340   1.7101  -0.0892  -0.4139  -0.5644   0.00    0.0
2018/11/08 01:27:30.000  -74.525921007  163.457817301    23.7628   5  12   0.6151   0.5348   1.7130  -0.0876  -0.4180  -0.5645   0.00    0.0
2018/11/08 01:27:45.000  -74.525920411  163.457820235    24.3319   5  12   0.6148   0.5345   1.7110  -0.0856  -0.4205  -0.5638   0.00    0.0
2018/11/08 01:28:00.000  -74.525920075  163.457822794    24.4692   5  12   0.6144   0.5343   1.7091  -0.0836  -0.4230  -0.5632   0.00    0.0
2018/11/08 01:28:15.000  -74.525920783  163.457824498    24.8197   5  12   0.6141   0.5341   1.7074  -0.0816  -0.4256  -0.5627   0.00    0.0
2018/11/08 01:28:30.000  -74.525921606  163.457819103    24.4595   5  12   0.6139   0.5340   1.7061  -0.0795  -0.4282  -0.5622   0.00    0.0
2018/11/08 01:28:45.000  -74.525922323  163.457822929    23.9525   5  12   0.6137   0.5339   1.7050  -0.0773  -0.4309  -0.5618   0.00    0.0
2018/11/08 01:29:00.000  -74.525921333  163.457823275    23.8799   5  12   0.6136   0.5339   1.7042  -0.0752  -0.4337  -0.5614   0.00    0.0
2018/11/08 01:29:15.000  -74.525921330  163.457820023    24.7693   5  12   0.6135   0.5340   1.7037  -0.0730  -0.4365  -0.5610   0.00    0.0
2018/11/08 01:29:30.000  -74.525920225  163.457826734    23.9553   5  12   0.6135   0.5341   1.7035  -0.0707  -0.4394  -0.5607   0.00    0.0
2018/11/08 01:29:45.000  -74.525919666  163.457824265    23.3744   5  12   0.6135   0.5343   1.7036  -0.0684  -0.4423  -0.5605   0.00    0.0
2018/11/08 01:30:00.000  -74.525920622  163.457823520    24.4748   5  12   0.6136   0.5345   1.7040  -0.0661  -0.4453  -0.5603   0.00    0.0
2018/11/08 01:30:15.000  -74.525923914  163.457817776    24.9944   5  12   0.6137   0.5349   1.7047  -0.0637  -0.4484  -0.5601   0.00    0.0
2018/11/08 01:30:30.000  -74.525921517  163.457823308    23.9546   5  12   0.6139   0.5353   1.7058  -0.0612  -0.4515  -0.5600   0.00    0.0
2018/11/08 01:30:45.000  -74.525922147  163.457822577    24.2101   5  12   0.6142   0.5357   1.7072  -0.0586  -0.4547  -0.5599   0.00    0.0
2018/11/08 01:31:00.000  -74.525922298  163.457828333    24.6664   5  12   0.6144   0.5362   1.7088  -0.0560  -0.4580  -0.5599   0.00    0.0
2018/11/08 01:31:15.000  -74.525920630  163.457821410    25.1821   5  12   0.6148   0.5368   1.7107  -0.0532  -0.4613  -0.5599   0.00    0.0
2018/11/08 01:31:30.000  -74.525922302  163.457819496    24.2438   5  12   0.6152   0.5374   1.7129  -0.0503  -0.4647  -0.5600   0.00    0.0
2018/11/08 01:31:45.000  -74.525921438  163.457824044    23.9450   5  12   0.6156   0.5381   1.7154  -0.0473  -0.4681  -0.5601   0.00    0.0
2018/11/08 01:32:00.000  -74.525921581  163.457823863    24.1574   5  12   0.6161   0.5389   1.7182  -0.0441  -0.4716  -0.5602   0.00    0.0
2018/11/08 01:32:15.000  -74.525921140  163.457822106    24.4794   5  12   0.6166   0.5397   1.7213  -0.0406  -0.4751  -0.5605   0.00    0.0
2018/11/08 01:32:30.000  -74.525920402  163.457824362    23.8631   5  12   0.6172   0.5406   1.7246  -0.0369  -0.4788  -0.5607   0.00    0.0
2018/11/08 01:32:45.000  -74.525920866  163.457830750    23.9244   5  12   0.6169   0.5404   1.7227  -0.0318  -0.4808  -0.5603   0.00    0.0
2018/11/08 01:33:00.000  -74.525921825  163.457819392    24.0229   5  12   0.6166   0.5402   1.7212  -0.0260  -0.4829  -0.5599   0.00    0.0
2018/11/08 01:33:15.000  -74.525925083  163.457822895    24.8706   5  12   0.6164   0.5401   1.7200  -0.0184  -0.4851  -0.5595   0.00    0.0
2018/11/08 01:33:30.000  -74.525921060  163.457828119    23.7428   5  12   0.6162   0.5401   1.7191  -0.0023  -0.4874  -0.5592   0.00    0.0
2018/11/08 01:33:45.000  -74.525919833  163.457822279    24.0251   5  12   0.6161   0.5401   1.7184   0.0180  -0.4897  -0.5589   0.00    0.0
2018/11/08 01:34:00.000  -74.525922440  163.457819708    24.5118   5  12   0.6160   0.5402   1.7180   0.0256  -0.4920  -0.5587   0.00    0.0
2018/11/08 01:34:15.000  -74.525922937  163.457820441    24.5263   5  12   0.6160   0.5404   1.7179   0.0313  -0.4945  -0.5585   0.00    0.0
2018/11/08 01:34:30.000  -74.525919359  163.457820469    24.7061   5  12   0.6160   0.5406   1.7181   0.0361  -0.4970  -0.5584   0.00    0.0
2018/11/08 01:34:45.000  -74.525922553  163.457817514    24.7171   5  12   0.6161   0.5408   1.7186   0.0403  -0.4995  -0.5583   0.00    0.0
2018/11/08 01:35:00.000  -74.525922714  163.457823503    24.8315   5  12   0.6162   0.5412   1.7194   0.0441  -0.5021  -0.5583   0.00    0.0
2018/11/08 01:35:15.000  -74.525923082  163.457823891    25.0559   5  12   0.6164   0.5416   1.7205   0.0475  -0.5049  -0.5583   0.00    0.0
2018/11/08 01:35:30.000  -74.525922116  163.457821648    24.6150   5  12   0.6167   0.5420   1.7219   0.0507  -0.5076  -0.5583   0.00    0.0
2018/11/08 01:35:45.000  -74.525920622  163.457817387    24.2427   5  12   0.6170   0.5426   1.7237   0.0536  -0.5105  -0.5585   0.00    0.0
2018/11/08 01:36:00.000  -74.525920382  163.457826773    23.5418   5  12   0.6173   0.5431   1.7256   0.0564  -0.5134  -0.5586   0.00    0.0
2018/11/08 01:36:15.000  -74.525921021  163.457830695    24.0318   5  12   0.6177   0.5438   1.7279   0.0591  -0.5164  -0.5588   0.00    0.0
2018/11/08 01:36:30.000  -74.525922037  163.457825297    24.2362   5  12   0.6182   0.5445   1.7304   0.0616  -0.5194  -0.5590   0.00    0.0
2018/11/08 01:36:45.000  -74.525921328  163.457824529    24.3605   5  12   0.6186   0.5453   1.7333   0.0640  -0.5225  -0.5593   0.00    0.0
2018/11/08 01:37:00.000  -74.525920285  163.457817487    24.9068   5  12   0.6192   0.5461   1.7363   0.0663  -0.5256  -0.5596   0.00    0.0
2018/11/08 01:37:15.000  -74.525921944  163.457823523    24.8558   5  12   0.6198   0.5470   1.7397   0.0686  -0.5289  -0.5600   0.00    0.0
2018/11/08 01:37:30.000  -74.525923544  163.457824066    24.2551   5  12   0.6204   0.5479   1.7433   0.0707  -0.5321  -0.5604   0.00    0.0
2018/11/08 01:37:45.000  -74.525920947  163.457827676    24.5148   5  12   0.6202   0.5478   1.7419   0.0730  -0.5339  -0.5601   0.00    0.0
2018/11/08 01:38:00.000  -74.525921833  163.457826380    23.8297   5  12   0.6200   0.5477   1.7408   0.0753  -0.5357  -0.5599   0.00    0.0
2018/11/08 01:38:15.000  -74.525922227  163.457823157    24.6999   5  12   0.6198   0.5477   1.7400   0.0775  -0.5376  -0.5598   0.00    0.0
2018/11/08 01:38:30.000  -74.525920230  163.457824076    24.6475   5  12   0.6197   0.5477   1.7394   0.0797  -0.5395  -0.5596   0.00    0.0
2018/11/08 01:38:45.000  -74.525920358  163.457822417    24.3969   5  12   0.6196   0.5478   1.7391   0.0817  -0.5415  -0.5596   0.00    0.0
2018/11/08 01:39:00.000  -74.525922238  163.457832015    24.3331   5  12   0.6196   0.5479   1.7391   0.0837  -0.5436  -0.5595   0.00    0.0
2018/11/08 01:39:15.000  -74.525920842  163.457822236    24.7956   5  12   0.6196   0.5482   1.7393   0.0856  -0.5457  -0.5595   0.00    0.0
2018/11/08 01:39:30.000  -74.525920489  163.457826918    24.4082   5  12   0.6197   0.5484   1.7399   0.0875  -0.5479  -0.5596   0.00    0.0
2018/11/08 01:39:45.000  -74.525918844  163.457822149    24.4853   5  12   0.6198   0.5487   1.7407   0.0894  -0.5502  -0.5597   0.00    0.0
2018/11/08 01:40:00.000  -74.525919541  163.457822453    24.7161   5  12   0.6200   0.5491   1.7417   0.0912  -0.5525  -0.5598   0.00    0.0
2018/11/08 01:40:15.000  -74.525919678  163.457824777    24.4384   5  12   0.6202   0.5496   1.7432   0.0929  -0.5549  -0.5600   0.00    0.0
2018/11/08 01:40:30.000  -74.525921354  163.457833545    24.3198   5  12   0.6205   0.5501   1.7449   0.0946  -0.5574  -0.5602   0.00    0.0
2018/11/08 01:40:45.000  -74.525921354  163.457834263    24.2727   5  12   0.6209   0.5507   1.7469   0.0962  -0.5600  -0.5605   0.00    0.0
2018/11/08 01:41:00.000  -74.525921502  163.457825598    24.9312   5  12   0.6213   0.5513   1.7491   0.0978  -0.5626  -0.5608   0.00    0.0
2018/11/08 01:41:15.000  -74.525920129  163.457827144    24.3496   5  12   0.6217   0.5520   1.7516   0.0994  -0.5652  -0.5612   0.00    0.0
2018/11/08 01:41:30.000  -74.525921656  163.457830139    24.7694   5  12   0.6223   0.5528   1.7544   0.1010  -0.5680  -0.5616   0.00    0.0
2018/11/08 01:41:45.000  -74.525920318  163.457824860    25.0227   5  12   0.6228   0.5536   1.7574   0.1025  -0.5708  -0.5620   0.00    0.0
2018/11/08 01:42:00.000  -74.525921349  163.457825696    24.3776   5  12   0.6234   0.5545   1.7607   0.1040  -0.5736  -0.5625   0.00    0.0
2018/11/08 01:42:15.000  -74.525922178  163.457831887    24.1929   5  12   0.6241   0.5554   1.7642   0.1054  -0.5765  -0.5630   0.00    0.0
2018/11/08 01:42:30.000  -74.525921024  163.457831082    24.8127   5  12   0.6248   0.5563   1.7679   0.1069  -0.5795  -0.5636   0.00    0.0
2018/11/08 01:42:45.000  -74.525920791  163.457833353    24.4013   5  12   0.6246   0.5563   1.7669   0.1085  -0.5809  -0.5635   0.00    0.0
2018/11/08 01:43:00.000  -74.525921130  163.457820888    24.5377   5  12   0.6244   0.5562   1.7661   0.1100  -0.5825  -0.5635   0.00    0.0
2018/11/08 01:43:15.000  -74.525922365  163.457833287    24.1436   5  12   0.6243   0.5562   1.7656   0.1116  -0.5841  -0.5635   0.00    0.0
2018/11/08 01:43:30.000  -74.525921536  163.457818450    24.8112   5  12   0.6242   0.5563   1.7653   0.1131  -0.5858  -0.5636   0.00    0.0
2018/11/08 01:43:45.000  -74.525921600  163.457825275    24.9411   5  12   0.6242   0.5564   1.7653   0.1145  -0.5875  -0.5637   0.00    0.0
2018/11/08 01:44:00.000  -74.525920049  163.457825588    24.9176   5  12   0.6242   0.5566   1.7656   0.1160  -0.5893  -0.5638   0.00    0.0
2018/11/08 01:44:15.000  -74.525922179  163.457837035    24.8218   5  12   0.6243   0.5569   1.7661   0.1174  -0.5912  -0.5640   0.00    0.0
