% program   : RTKLIB ver.2.4.3
% inp file  : _by_type/_obs/tuati/20181105.18o
% inp file  : _by_type/_obs/base/20181105.18o
% inp file  : _by_type/_sp3+clk/igs20261.clk
% inp file  : _by_type/_sp3+clk/igs20261.sp3
% inp file  : _by_type/_nav/tuati/20181105.18n
% obs start : 2018/11/05 00:00:00.0 GPST (week2026  86400.0s)
% obs end   : 2018/11/05 23:59:30.0 GPST (week2026 172770.0s)
% pos mode  : dgps
% freqs     : L1+L2
% solution  : combined
% elev mask : 15.0 deg
% dynamics  : off
% tidecorr  : off
% ionos opt : iono-free
% tropo opt : est ztd+grad
% ephemeris : precise
% navi sys  : gps glonass
% antenna1  :                       ( 0.0000  0.0000  0.0000)
% antenna2  :                       ( 0.0000  0.0000  0.0000)
% ref pos   : 90.000000000   0.000000000-6335367.6285
%
% (lat/lon/height=WGS84/ellipsoidal,Q=1:fix,2:float,3:sbas,4:dgps,5:single,6:ppp,ns=# of satellites)
%  GPST                  latitude(deg) longitude(deg)  height(m)   Q  ns   sdn(m)   sde(m)   sdu(m)  sdne(m)  sdeu(m)  sdun(m) age(s)  ratio
2018/11/05 00:00:00.000  -74.425544220  163.418476262    66.3442   5   8   0.8299   0.6466   2.5994   0.2485  -0.5267  -1.1367 -32115.00    0.0
2018/11/05 00:00:30.000  -74.425544031  163.418477231    66.7563   5   8   0.8289   0.6462   2.6081   0.2474  -0.5226  -1.1379 -32085.00    0.0
2018/11/05 00:01:00.000  -74.425544098  163.418484537    65.9746   5   8   0.8284   0.6463   2.6183   0.2463  -0.5187  -1.1397 -32055.00    0.0
2018/11/05 00:01:30.000  -74.425546088  163.418481222    66.9564   5   8   0.8283   0.6467   2.6299   0.2453  -0.5150  -1.1421 -32025.00    0.0
2018/11/05 00:02:00.000  -74.425543513  163.418473953    65.8061   5   8   0.8285   0.6474   2.6429   0.2445  -0.5115  -1.1452 -31995.00    0.0
2018/11/05 00:02:30.000  -74.425544813  163.418482143    66.3745   5   8   0.8292   0.6485   2.6575   0.2437  -0.5080  -1.1489 -31965.00    0.0
2018/11/05 00:03:00.000  -74.425545093  163.418476713    66.0655   5   8   0.8263   0.6463   2.6588   0.2412  -0.5005  -1.1468 -31935.00    0.0
2018/11/05 00:03:30.000  -74.425542528  163.418484076    64.9642   5   8   0.8237   0.6445   2.6615   0.2388  -0.4933  -1.1454 -31905.00    0.0
2018/11/05 00:04:00.000  -74.425544948  163.418478576    65.5054   5   8   0.8216   0.6431   2.6656   0.2366  -0.4863  -1.1446 -31875.00    0.0
2018/11/05 00:04:30.000  -74.425540527  163.418478345    64.4978   5   9   0.6885   0.6153   2.0198  -0.1629   0.3007  -0.7291 -31845.00    0.0
2018/11/05 00:05:00.000  -74.425544200  163.418478024    65.6373   5   9   0.6875   0.6148   2.0271  -0.1640   0.3092  -0.7300 -31815.00    0.0
2018/11/05 00:05:30.000  -74.425541976  163.418487884    64.6922   5   9   0.6868   0.6148   2.0357  -0.1654   0.3180  -0.7314 -31785.00    0.0
2018/11/05 00:06:00.000  -74.425540560  163.418481327    64.7779   5   9   0.6865   0.6151   2.0453  -0.1670   0.3270  -0.7331 -31755.00    0.0
2018/11/05 00:06:30.000  -74.425541266  163.418480828    64.5452   5   9   0.6864   0.6157   2.0561  -0.1688   0.3363  -0.7352 -31725.00    0.0
2018/11/05 00:07:00.000  -74.425541932  163.418487155    64.4338   5   9   0.6867   0.6167   2.0679  -0.1708   0.3458  -0.7376 -31695.00    0.0
2018/11/05 00:07:30.000  -74.425541338  163.418480847    64.2796   5   9   0.6872   0.6181   2.0809  -0.1730   0.3556  -0.7404 -31665.00    0.0
2018/11/05 00:08:00.000  -74.425542283  163.418476967    64.7299   5   9   0.6853   0.6165   2.0853  -0.1737   0.3628  -0.7407 -31635.00    0.0
2018/11/05 00:08:30.000  -74.425539342  163.418475909    64.1628   5   9   0.6836   0.6152   2.0906  -0.1746   0.3702  -0.7414 -31605.00    0.0
2018/11/05 00:09:00.000  -74.425536407  163.418478954    63.9970   5   9   0.6823   0.6142   2.0970  -0.1756   0.3779  -0.7424 -31575.00    0.0
2018/11/05 00:09:30.000  -74.425540704  163.418482662    64.9682   5   9   0.6812   0.6136   2.1044  -0.1769   0.3858  -0.7437 -31545.00    0.0
2018/11/05 00:10:00.000  -74.425540018  163.418482161    64.0471   5   9   0.6805   0.6134   2.1129  -0.1784   0.3939  -0.7454 -31515.00    0.0
2018/11/05 00:10:30.000  -74.425538479  163.418480943    63.8367   5   9   0.6801   0.6136   2.1229  -0.1802   0.4025  -0.7475 -31485.00    0.0
2018/11/05 00:11:00.000  -74.425537750  163.418487226    63.6116   5   9   0.6800   0.6141   2.1340  -0.1822   0.4115  -0.7500 -31455.00    0.0
2018/11/05 00:11:30.000  -74.425539078  163.418483777    64.5462   5   9   0.6803   0.6150   2.1463  -0.1844   0.4207  -0.7529 -31425.00    0.0
2018/11/05 00:12:00.000  -74.425537819  163.418476225    63.7748   5   9   0.6808   0.6162   2.1597  -0.1868   0.4304  -0.7561 -31395.00    0.0
2018/11/05 00:12:30.000  -74.425538031  163.418484474    64.3558   5   9   0.6816   0.6178   2.1744  -0.1895   0.4404  -0.7598 -31365.00    0.0
2018/11/05 00:13:00.000  -74.425538146  163.418477910    63.8560   5   9   0.6799   0.6164   2.1795  -0.1904   0.4471  -0.7608 -31335.00    0.0
2018/11/05 00:13:30.000  -74.425536800  163.418480076    64.3473   5   9   0.6786   0.6153   2.1858  -0.1916   0.4543  -0.7621 -31305.00    0.0
2018/11/05 00:14:00.000  -74.425539033  163.418483501    63.3214   5   9   0.6775   0.6146   2.1933  -0.1930   0.4618  -0.7637 -31275.00    0.0
2018/11/05 00:14:30.000  -74.425534978  163.418476760    62.8556   5   9   0.6767   0.6143   2.2019  -0.1947   0.4696  -0.7658 -31245.00    0.0
2018/11/05 00:15:00.000  -74.425536777  163.418489077    64.3046   5   9   0.6763   0.6143   2.2117  -0.1965   0.4778  -0.7682 -31215.00    0.0
2018/11/05 00:15:30.000  -74.425535913  163.418491994    63.3250   5   9   0.6762   0.6147   2.2229  -0.1987   0.4865  -0.7711 -31185.00    0.0
2018/11/05 00:16:00.000  -74.425534564  163.418484541    63.3527   5   9   0.6764   0.6156   2.2353  -0.2010   0.4956  -0.7744 -31155.00    0.0
2018/11/05 00:16:30.000  -74.425535696  163.418479644    63.2068   5   9   0.6769   0.6167   2.2490  -0.2036   0.5051  -0.7781 -31125.00    0.0
2018/11/05 00:17:00.000  -74.425534123  163.418478762    62.7088   5   9   0.6777   0.6183   2.2639  -0.2065   0.5150  -0.7822 -31095.00    0.0
2018/11/05 00:17:30.000  -74.425533659  163.418481021    63.2259   5   9   0.6789   0.6201   2.2801  -0.2096   0.5254  -0.7868 -31065.00    0.0
2018/11/05 00:18:00.000  -74.425534663  163.418478075    63.7920   5   9   0.6775   0.6190   2.2861  -0.2109   0.5322  -0.7883 -31035.00    0.0
2018/11/05 00:18:30.000  -74.425534650  163.418482097    63.4775   5   9   0.6764   0.6183   2.2933  -0.2124   0.5392  -0.7903 -31005.00    0.0
2018/11/05 00:19:00.000  -74.425533662  163.418483741    63.2210   5   9   0.6756   0.6179   2.3016  -0.2141   0.5467  -0.7926 -30975.00    0.0
2018/11/05 00:19:30.000  -74.425535003  163.418477848    64.2871   5   9   0.6751   0.6178   2.3111  -0.2161   0.5545  -0.7953 -30945.00    0.0
2018/11/05 00:20:00.000  -74.425533404  163.418480747    63.1617   5  10   0.6521   0.6088   2.0711  -0.2574   0.6551  -0.6745 -30915.00    0.0
2018/11/05 00:20:30.000  -74.425533335  163.418487273    63.2980   5  10   0.6524   0.6096   2.0838  -0.2594   0.6625  -0.6786 -30885.00    0.0
2018/11/05 00:21:00.000  -74.425534910  163.418475489    63.9510   5  10   0.6529   0.6109   2.0977  -0.2615   0.6703  -0.6831 -30855.00    0.0
2018/11/05 00:21:30.000  -74.425531731  163.418484752    63.8615   5  10   0.6537   0.6125   2.1128  -0.2640   0.6787  -0.6880 -30825.00    0.0
2018/11/05 00:22:00.000  -74.425531372  163.418490603    63.5701   5  10   0.6549   0.6144   2.1291  -0.2666   0.6876  -0.6933 -30795.00    0.0
2018/11/05 00:22:30.000  -74.425533014  163.418481709    63.9992   5  10   0.6563   0.6168   2.1467  -0.2696   0.6971  -0.6990 -30765.00    0.0
2018/11/05 00:23:00.000  -74.425534885  163.418488792    64.9750   5  10   0.6553   0.6161   2.1547  -0.2706   0.7021  -0.7021 -30735.00    0.0
2018/11/05 00:23:30.000  -74.425533342  163.418491759    63.8875   5  10   0.6546   0.6157   2.1638  -0.2718   0.7077  -0.7056 -30705.00    0.0
2018/11/05 00:24:00.000  -74.425534231  163.418485481    64.2099   5  10   0.6542   0.6157   2.1740  -0.2732   0.7136  -0.7094 -30675.00    0.0
2018/11/05 00:24:30.000  -74.425534349  163.418488170    64.1801   5  10   0.6541   0.6160   2.1853  -0.2749   0.7201  -0.7136 -30645.00    0.0
2018/11/05 00:25:00.000  -74.425536087  163.418497018    64.7275   5  10   0.6543   0.6168   2.1979  -0.2769   0.7271  -0.7182 -30615.00    0.0
2018/11/05 00:25:30.000  -74.425534197  163.418503676    65.3985   5  10   0.6549   0.6179   2.2119  -0.2792   0.7348  -0.7233 -30585.00    0.0
2018/11/05 00:26:00.000  -74.425535355  163.418490313    64.6327   5  10   0.6558   0.6195   2.2271  -0.2817   0.7430  -0.7287 -30555.00    0.0
2018/11/05 00:26:30.000  -74.425535266  163.418484029    64.4553   5  10   0.6570   0.6214   2.2435  -0.2845   0.7517  -0.7346 -30525.00    0.0
2018/11/05 00:27:00.000  -74.425534891  163.418486543    65.3333   5  10   0.6585   0.6237   2.2612  -0.2876   0.7610  -0.7409 -30495.00    0.0
2018/11/05 00:27:30.000  -74.425533475  163.418488161    65.4922   5  10   0.6603   0.6263   2.2800  -0.2909   0.7708  -0.7476 -30465.00    0.0
2018/11/05 00:28:00.000  -74.425535108  163.418484547    65.5695   5  10   0.6596   0.6259   2.2887  -0.2922   0.7759  -0.7514 -30435.00    0.0
2018/11/05 00:28:30.000  -74.425532457  163.418483707    64.0618   5  10   0.6592   0.6257   2.2982  -0.2937   0.7814  -0.7555 -30405.00    0.0
2018/11/05 00:29:00.000  -74.425535283  163.418499351    65.0723   5  10   0.6592   0.6259   2.3089  -0.2954   0.7873  -0.7600 -30375.00    0.0
2018/11/05 00:29:30.000  -74.425535584  163.418494932    65.6288   5  10   0.6594   0.6265   2.3207  -0.2974   0.7937  -0.7649 -30345.00    0.0
2018/11/05 00:30:00.000  -74.425533169  163.418489459    65.4096   5  10   0.6599   0.6274   2.3337  -0.2996   0.8007  -0.7702 -30315.00    0.0
2018/11/05 00:30:30.000  -74.425537069  163.418492307    66.0878   5  10   0.6609   0.6288   2.3481  -0.3022   0.8083  -0.7759 -30285.00    0.0
2018/11/05 00:31:00.000  -74.425532161  163.418492212    65.0014   5  10   0.6621   0.6306   2.3637  -0.3050   0.8164  -0.7821 -30255.00    0.0
2018/11/05 00:31:30.000  -74.425533592  163.418491617    65.1218   5  10   0.6636   0.6328   2.3805  -0.3080   0.8251  -0.7886 -30225.00    0.0
2018/11/05 00:32:00.000  -74.425536866  163.418494280    64.9983   5  10   0.6655   0.6353   2.3984  -0.3113   0.8342  -0.7955 -30195.00    0.0
2018/11/05 00:32:30.000  -74.425534750  163.418491333    65.4199   5  10   0.6677   0.6382   2.4174  -0.3149   0.8438  -0.8029 -30165.00    0.0
2018/11/05 00:33:00.000  -74.425534447  163.418502318    66.0653   5  10   0.6673   0.6377   2.4253  -0.3162   0.8482  -0.8069 -30135.00    0.0
2018/11/05 00:33:30.000  -74.425536507  163.418495065    65.0795   5  10   0.6672   0.6377   2.4342  -0.3178   0.8532  -0.8113 -30105.00    0.0
2018/11/05 00:34:00.000  -74.425536370  163.418497638    64.9009   5  11   0.6548   0.6379   2.3494  -0.3183   0.8612  -0.8679 -30075.00    0.0
2018/11/05 00:34:30.000  -74.425537753  163.418497902    65.0398   5  11   0.6552   0.6386   2.3614  -0.3204   0.8668  -0.8728 -30045.00    0.0
2018/11/05 00:35:00.000  -74.425533153  163.418483911    63.8163   5  11   0.6559   0.6396   2.3743  -0.3228   0.8729  -0.8782 -30015.00    0.0
2018/11/05 00:35:30.000  -74.425532606  163.418485072    64.1555   5  11   0.6569   0.6411   2.3886  -0.3255   0.8796  -0.8840 -29985.00    0.0
2018/11/05 00:36:00.000  -74.425533428  163.418487636    65.9482   5  11   0.6583   0.6429   2.4039  -0.3284   0.8868  -0.8902 -29955.00    0.0
2018/11/05 00:36:30.000  -74.425532703  163.418482420    63.8423   5  11   0.6599   0.6450   2.4202  -0.3314   0.8944  -0.8967 -29925.00    0.0
2018/11/05 00:37:00.000  -74.425531800  163.418482416    63.9818   5  11   0.6618   0.6475   2.4374  -0.3347   0.9024  -0.9036 -29895.00    0.0
2018/11/05 00:37:30.000  -74.425531790  163.418480926    63.9019   5  11   0.6640   0.6503   2.4556  -0.3382   0.9108  -0.9109 -29865.00    0.0
2018/11/05 00:38:00.000  -74.425532495  163.418485903    64.0316   5  11   0.6637   0.6498   2.4627  -0.3394   0.9139  -0.9143 -29835.00    0.0
2018/11/05 00:38:30.000  -74.425534114  163.418482552    64.7507   5  11   0.6637   0.6497   2.4706  -0.3409   0.9175  -0.9180 -29805.00    0.0
2018/11/05 00:39:00.000  -74.425533697  163.418483056    64.5132   5  11   0.6640   0.6498   2.4793  -0.3425   0.9214  -0.9221 -29775.00    0.0
2018/11/05 00:39:30.000  -74.425532418  163.418474098    63.6369   5  11   0.6645   0.6503   2.4889  -0.3443   0.9257  -0.9264 -29745.00    0.0
2018/11/05 00:40:00.000  -74.425530980  163.418478267    63.2382   5  11   0.6653   0.6511   2.4994  -0.3463   0.9303  -0.9311 -29715.00    0.0
2018/11/05 00:40:30.000  -74.425530742  163.418482409    64.0044   5  11   0.6664   0.6523   2.5109  -0.3485   0.9354  -0.9362 -29685.00    0.0
2018/11/05 00:41:00.000  -74.425532269  163.418486725    64.9106   5  11   0.6678   0.6538   2.5232  -0.3509   0.9409  -0.9415 -29655.00    0.0
2018/11/05 00:41:30.000  -74.425533574  163.418487365    64.6099   5  11   0.6695   0.6556   2.5363  -0.3535   0.9467  -0.9472 -29625.00    0.0
2018/11/05 00:42:00.000  -74.425532247  163.418496363    64.9739   5  11   0.6714   0.6577   2.5500  -0.3561   0.9528  -0.9530 -29595.00    0.0
2018/11/05 00:42:30.000  -74.425532463  163.418492775    64.5753   5  11   0.6736   0.6601   2.5645  -0.3589   0.9591  -0.9591 -29565.00    0.0
2018/11/05 00:43:00.000  -74.425532188  163.418492436    64.5900   5  11   0.6733   0.6592   2.5674  -0.3595   0.9601  -0.9613 -29535.00    0.0
2018/11/05 00:43:30.000  -74.425532828  163.418489845    63.9807   5  11   0.6732   0.6586   2.5711  -0.3603   0.9615  -0.9637 -29505.00    0.0
2018/11/05 00:44:00.000  -74.425532656  163.418491490    64.7966   5  11   0.6734   0.6583   2.5754  -0.3612   0.9631  -0.9663 -29475.00    0.0
2018/11/05 00:44:30.000  -74.425533341  163.418485887    64.0189   5  11   0.6739   0.6583   2.5803  -0.3623   0.9650  -0.9692 -29445.00    0.0
2018/11/05 00:45:00.000  -74.425533036  163.418484577    63.8591   5  11   0.6746   0.6585   2.5857  -0.3634   0.9672  -0.9723 -29415.00    0.0
2018/11/05 00:45:30.000  -74.425531129  163.418485656    63.4834   5  11   0.6755   0.6591   2.5921  -0.3648   0.9696  -0.9756 -29385.00    0.0
2018/11/05 00:46:00.000  -74.425533244  163.418490723    64.9943   5  11   0.6768   0.6600   2.5989  -0.3662   0.9723  -0.9791 -29355.00    0.0
2018/11/05 00:46:30.000  -74.425532602  163.418487147    63.6058   5  11   0.6782   0.6611   2.6062  -0.3677   0.9751  -0.9828 -29325.00    0.0
2018/11/05 00:47:00.000  -74.425534298  163.418483117    64.3017   5  11   0.6799   0.6625   2.6141  -0.3693   0.9781  -0.9866 -29295.00    0.0
2018/11/05 00:47:30.000  -74.425535548  163.418482522    63.8411   5  11   0.6818   0.6642   2.6223  -0.3710   0.9813  -0.9905 -29265.00    0.0
2018/11/05 00:48:00.000  -74.425535359  163.418486890    64.0741   5  11   0.6813   0.6626   2.6193  -0.3706   0.9794  -0.9906 -29235.00    0.0
2018/11/05 00:48:30.000  -74.425535433  163.418474195    63.7415   5  11   0.6809   0.6613   2.6167  -0.3703   0.9777  -0.9909 -29205.00    0.0
2018/11/05 00:49:00.000  -74.425533336  163.418479975    63.6961   5  11   0.6808   0.6603   2.6146  -0.3701   0.9762  -0.9913 -29175.00    0.0
2018/11/05 00:49:30.000  -74.425532267  163.418485634    63.4656   5  11   0.6810   0.6595   2.6130  -0.3700   0.9749  -0.9919 -29145.00    0.0
2018/11/05 00:50:00.000  -74.425534304  163.418484019    64.1304   5  11   0.6813   0.6590   2.6117  -0.3700   0.9737  -0.9925 -29115.00    0.0
2018/11/05 00:50:30.000  -74.425536207  163.418479798    64.2909   5  11   0.6819   0.6588   2.6112  -0.3701   0.9728  -0.9934 -29085.00    0.0
2018/11/05 00:51:00.000  -74.425535599  163.418486423    64.6189   5  11   0.6828   0.6588   2.6112  -0.3702   0.9719  -0.9944 -29055.00    0.0
2018/11/05 00:51:30.000  -74.425532154  163.418477071    63.8424   5  11   0.6839   0.6591   2.6115  -0.3704   0.9712  -0.9955 -29025.00    0.0
2018/11/05 00:52:00.000  -74.425535865  163.418488720    64.9682   5  11   0.6851   0.6596   2.6122  -0.3707   0.9706  -0.9967 -28995.00    0.0
2018/11/05 00:52:30.000  -74.425533483  163.418469828    63.2902   5  11   0.6866   0.6604   2.6134  -0.3710   0.9701  -0.9979 -28965.00    0.0
2018/11/05 00:53:00.000  -74.425534022  163.418488411    63.8087   5  11   0.6857   0.6581   2.6036  -0.3694   0.9650  -0.9956 -28935.00    0.0
2018/11/05 00:53:30.000  -74.425535134  163.418483050    64.0347   5  11   0.6850   0.6560   2.5943  -0.3679   0.9600  -0.9934 -28905.00    0.0
2018/11/05 00:54:00.000  -74.425535445  163.418478688    64.2276   5  11   0.6845   0.6542   2.5854  -0.3665   0.9552  -0.9913 -28875.00    0.0
2018/11/05 00:54:30.000  -74.425536077  163.418483960    64.9976   5  11   0.6842   0.6527   2.5771  -0.3652   0.9505  -0.9894 -28845.00    0.0
2018/11/05 00:55:00.000  -74.425537709  163.418486396    64.7628   5  11   0.6841   0.6514   2.5692  -0.3639   0.9460  -0.9875 -28815.00    0.0
2018/11/05 00:55:30.000  -74.425535206  163.418484638    63.6913   5  11   0.6844   0.6505   2.5622  -0.3627   0.9417  -0.9859 -28785.00    0.0
2018/11/05 00:56:00.000  -74.425536577  163.418484282    64.9247   5  11   0.6848   0.6498   2.5556  -0.3616   0.9376  -0.9844 -28755.00    0.0
2018/11/05 00:56:30.000  -74.425537589  163.418487473    65.1075   5  11   0.6854   0.6493   2.5496  -0.3605   0.9335  -0.9830 -28725.00    0.0
2018/11/05 00:57:00.000  -74.425536927  163.418480105    64.1881   5  11   0.6863   0.6491   2.5441  -0.3594   0.9296  -0.9817 -28695.00    0.0
2018/11/05 00:57:30.000  -74.425537317  163.418478544    64.0114   5  11   0.6873   0.6491   2.5392  -0.3584   0.9258  -0.9806 -28665.00    0.0
2018/11/05 00:58:00.000  -74.425537114  163.418487121    64.5106   5  11   0.6861   0.6463   2.5239  -0.3558   0.9179  -0.9761 -28635.00    0.0
2018/11/05 00:58:30.000  -74.425536296  163.418488180    63.7310   5  11   0.6851   0.6437   2.5092  -0.3532   0.9103  -0.9719 -28605.00    0.0
2018/11/05 00:59:00.000  -74.425530821  163.418477548    60.8353   5  10   0.9339   0.6736   3.5503  -0.5037   1.1551  -1.5943 -28575.00    0.0
2018/11/05 00:59:30.000  -74.425528209  163.418471997    60.7819   5  10   0.9317   0.6707   3.5299  -0.4996   1.1447  -1.5868 -28545.00    0.0
2018/11/05 01:00:00.000  -74.425532358  163.418483144    62.2848   5  10   0.9297   0.6682   3.5101  -0.4955   1.1344  -1.5794 -28515.00    0.0
2018/11/05 01:00:30.000  -74.425530850  163.418477397    60.9725   5  10   0.9280   0.6659   3.4913  -0.4915   1.1243  -1.5724 -28485.00    0.0
2018/11/05 01:01:00.000  -74.425526961  163.418465646    59.3865   5  10   0.9266   0.6639   3.4733  -0.4875   1.1143  -1.5657 -28455.00    0.0
2018/11/05 01:01:30.000  -74.425528173  163.418474141    60.6485   5  10   0.9255   0.6621   3.4560  -0.4835   1.1045  -1.5593 -28425.00    0.0
2018/11/05 01:02:00.000  -74.425530160  163.418475421    59.8804   5  10   0.9246   0.6606   3.4395  -0.4796   1.0947  -1.5532 -28395.00    0.0
2018/11/05 01:02:30.000  -74.425532181  163.418474237    61.7575   5   9   0.9281   0.6595   3.6779  -0.4748   1.0790  -1.5849 -28365.00    0.0
2018/11/05 01:03:00.000  -74.425532469  163.418480996    61.9359   5   9   0.9233   0.6552   3.6456  -0.4681   1.0632  -1.5715 -28335.00    0.0
2018/11/05 01:03:30.000  -74.425530375  163.418484722    61.4430   5   9   0.9188   0.6513   3.6143  -0.4615   1.0476  -1.5586 -28305.00    0.0
2018/11/05 01:04:00.000  -74.425528689  163.418484345    61.3682   5   9   0.9146   0.6477   3.5841  -0.4550   1.0323  -1.5461 -28275.00    0.0
2018/11/05 01:04:30.000  -74.425534240  163.418484101    61.9375   5   9   0.9107   0.6445   3.5552  -0.4487   1.0173  -1.5341 -28245.00    0.0
2018/11/05 01:05:00.000  -74.425531378  163.418483508    61.8648   5   9   0.9072   0.6415   3.5276  -0.4425   1.0024  -1.5226 -28215.00    0.0
2018/11/05 01:05:30.000  -74.425534150  163.418475257    63.2064   5  10   0.7462   0.6353   2.6647  -0.3942   0.9055  -1.0608 -28185.00    0.0
2018/11/05 01:06:00.000  -74.425535661  163.418478369    62.8449   5  10   0.7461   0.6337   2.6572  -0.3918   0.8985  -1.0579 -28155.00    0.0
2018/11/05 01:06:30.000  -74.425534032  163.418477883    63.4362   5  10   0.7461   0.6323   2.6506  -0.3896   0.8917  -1.0552 -28125.00    0.0
2018/11/05 01:07:00.000  -74.425539191  163.418480354    63.4411   5  10   0.7465   0.6313   2.6450  -0.3875   0.8851  -1.0528 -28095.00    0.0
2018/11/05 01:07:30.000  -74.425536155  163.418473272    62.1698   5  10   0.7471   0.6305   2.6405  -0.3855   0.8787  -1.0506 -28065.00    0.0
2018/11/05 01:08:00.000  -74.425536431  163.418474440    62.7424   5  10   0.7450   0.6270   2.6229  -0.3816   0.8681  -1.0443 -28035.00    0.0
2018/11/05 01:08:30.000  -74.425538456  163.418489126    63.3875   5  10   0.7432   0.6238   2.6063  -0.3779   0.8578  -1.0384 -28005.00    0.0
2018/11/05 01:09:00.000  -74.425538295  163.418479831    63.1345   5  10   0.7417   0.6209   2.5907  -0.3743   0.8477  -1.0327 -27975.00    0.0
2018/11/05 01:09:30.000  -74.425536817  163.418473955    63.2664   5  10   0.7404   0.6183   2.5762  -0.3708   0.8379  -1.0273 -27945.00    0.0
2018/11/05 01:10:00.000  -74.425535990  163.418479739    63.3319   5  10   0.7394   0.6160   2.5628  -0.3675   0.8284  -1.0222 -27915.00    0.0
2018/11/05 01:10:30.000  -74.425536344  163.418468974    63.0451   5  10   0.7388   0.6141   2.5509  -0.3644   0.8192  -1.0175 -27885.00    0.0
2018/11/05 01:11:00.000  -74.425539933  163.418483040    63.5062   5  10   0.7384   0.6125   2.5402  -0.3614   0.8102  -1.0132 -27855.00    0.0
2018/11/05 01:11:30.000  -74.425539409  163.418480694    63.8873   5  10   0.7383   0.6112   2.5307  -0.3585   0.8015  -1.0092 -27825.00    0.0
2018/11/05 01:12:00.000  -74.425536935  163.418484210    64.3672   5  10   0.7385   0.6101   2.5225  -0.3557   0.7931  -1.0056 -27795.00    0.0
2018/11/05 01:12:30.000  -74.425540662  163.418481400    63.8072   5  10   0.7390   0.6094   2.5156  -0.3531   0.7848  -1.0024 -27765.00    0.0
2018/11/05 01:13:00.000  -74.425537480  163.418477868    63.2426   5  10   0.7368   0.6061   2.4954  -0.3488   0.7729  -0.9951 -27735.00    0.0
2018/11/05 01:13:30.000  -74.425539490  163.418479807    64.0849   5  10   0.7350   0.6031   2.4766  -0.3447   0.7613  -0.9881 -27705.00    0.0
2018/11/05 01:14:00.000  -74.425537871  163.418476286    62.9324   5  10   0.7334   0.6005   2.4591  -0.3407   0.7501  -0.9816 -27675.00    0.0
2018/11/05 01:14:30.000  -74.425538556  163.418483600    64.1717   5  10   0.7321   0.5982   2.4430  -0.3369   0.7391  -0.9755 -27645.00    0.0
2018/11/05 01:15:00.000  -74.425536280  163.418483843    63.7865   5  10   0.7312   0.5962   2.4283  -0.3332   0.7284  -0.9698 -27615.00    0.0
2018/11/05 01:15:30.000  -74.425537208  163.418473803    62.6317   5  10   0.7305   0.5945   2.4152  -0.3297   0.7181  -0.9646 -27585.00    0.0
2018/11/05 01:16:00.000  -74.425536345  163.418472717    63.0605   5  10   0.7302   0.5932   2.4036  -0.3264   0.7080  -0.9598 -27555.00    0.0
2018/11/05 01:16:30.000  -74.425538921  163.418482923    63.3426   5  10   0.7301   0.5921   2.3935  -0.3232   0.6982  -0.9554 -27525.00    0.0
2018/11/05 01:17:00.000  -74.425536642  163.418485434    62.3239   5  10   0.7304   0.5914   2.3847  -0.3201   0.6886  -0.9513 -27495.00    0.0
2018/11/05 01:17:30.000  -74.425538047  163.418472205    64.1148   5  10   0.7309   0.5910   2.3774  -0.3172   0.6792  -0.9477 -27465.00    0.0
2018/11/05 01:18:00.000  -74.425535988  163.418475597    62.6346   5  10   0.7289   0.5882   2.3572  -0.3128   0.6668  -0.9404 -27435.00    0.0
2018/11/05 01:18:30.000  -74.425536783  163.418477872    63.1663   5  10   0.7272   0.5857   2.3384  -0.3086   0.6546  -0.9334 -27405.00    0.0
2018/11/05 01:19:00.000  -74.425534851  163.418479019    63.7384   5  10   0.7258   0.5835   2.3211  -0.3045   0.6428  -0.9269 -27375.00    0.0
2018/11/05 01:19:30.000  -74.425537721  163.418476221    62.6952   5  10   0.7247   0.5816   2.3053  -0.3006   0.6312  -0.9208 -27345.00    0.0
2018/11/05 01:20:00.000  -74.425540246  163.418481175    63.1293   5  10   0.7239   0.5801   2.2911  -0.2969   0.6198  -0.9152 -27315.00    0.0
2018/11/05 01:20:30.000  -74.425535698  163.418480334    62.6650   5  10   0.7234   0.5789   2.2786  -0.2933   0.6088  -0.9101 -27285.00    0.0
2018/11/05 01:21:00.000  -74.425535983  163.418475170    62.3841   5  10   0.7232   0.5780   2.2678  -0.2898   0.5980  -0.9054 -27255.00    0.0
2018/11/05 01:21:30.000  -74.425537714  163.418478119    62.7611   5  10   0.7233   0.5774   2.2584  -0.2865   0.5874  -0.9011 -27225.00    0.0
2018/11/05 01:22:00.000  -74.425537832  163.418479389    62.8330   5  10   0.7238   0.5771   2.2506  -0.2833   0.5769  -0.8973 -27195.00    0.0
2018/11/05 01:22:30.000  -74.425537338  163.418471921    62.0533   5  10   0.7244   0.5772   2.2442  -0.2802   0.5665  -0.8939 -27165.00    0.0
2018/11/05 01:23:00.000  -74.425535259  163.418476976    62.2073   5  10   0.7227   0.5749   2.2252  -0.2759   0.5537  -0.8870 -27135.00    0.0
2018/11/05 01:23:30.000  -74.425536016  163.418479209    63.8054   5  10   0.7213   0.5729   2.2078  -0.2717   0.5411  -0.8805 -27105.00    0.0
2018/11/05 01:24:00.000  -74.425538775  163.418479651    63.3600   5  10   0.7201   0.5713   2.1919  -0.2677   0.5288  -0.8745 -27075.00    0.0
2018/11/05 01:24:30.000  -74.425536202  163.418475544    63.2916   5  10   0.7193   0.5700   2.1777  -0.2638   0.5166  -0.8689 -27045.00    0.0
2018/11/05 01:25:00.000  -74.425537537  163.418475018    63.4257   5  10   0.7187   0.5689   2.1650  -0.2600   0.5045  -0.8638 -27015.00    0.0
2018/11/05 01:25:30.000  -74.425538087  163.418473859    62.6276   5  10   0.7185   0.5682   2.1541  -0.2564   0.4926  -0.8592 -26985.00    0.0
2018/11/05 01:26:00.000  -74.425537680  163.418473328    62.8014   5  10   0.7186   0.5679   2.1448  -0.2529   0.4808  -0.8550 -26955.00    0.0
2018/11/05 01:26:30.000  -74.425540202  163.418476021    63.2931   5  11   0.6199   0.5506   1.7959  -0.1084   0.2435  -0.5504 -26925.00    0.0
2018/11/05 01:27:00.000  -74.425538606  163.418479721    63.8854   5  11   0.6207   0.5513   1.7959  -0.1041   0.2284  -0.5492 -26895.00    0.0
2018/11/05 01:27:30.000  -74.425538056  163.418474462    63.3537   5  11   0.6217   0.5522   1.7971  -0.0997   0.2121  -0.5481 -26865.00    0.0
2018/11/05 01:28:00.000  -74.425538954  163.418487718    63.0538   5  11   0.6209   0.5511   1.7886  -0.0948   0.1955  -0.5462 -26835.00    0.0
2018/11/05 01:28:30.000  -74.425539848  163.418472680    63.8242   5  11   0.6203   0.5502   1.7811  -0.0897   0.1775  -0.5444 -26805.00    0.0
2018/11/05 01:29:00.000  -74.425538958  163.418480852    63.7858   5  11   0.6199   0.5496   1.7748  -0.0843   0.1575  -0.5427 -26775.00    0.0
2018/11/05 01:29:30.000  -74.425539718  163.418480268    62.8457   5  11   0.6198   0.5492   1.7697  -0.0785   0.1345  -0.5413 -26745.00    0.0
2018/11/05 01:30:00.000  -74.425541165  163.418484238    63.8651   5  11   0.6199   0.5492   1.7658  -0.0724   0.1064  -0.5399 -26715.00    0.0
2018/11/05 01:30:30.000  -74.425541320  163.418471482    63.8210   5  12   0.6126   0.5268   1.6978  -0.1392  -0.2642  -0.5799 -26685.00    0.0
2018/11/05 01:31:00.000  -74.425539075  163.418484629    63.5306   5  12   0.6129   0.5272   1.6987  -0.1369  -0.2749  -0.5790 -26655.00    0.0
2018/11/05 01:31:30.000  -74.425538856  163.418475509    62.9088   5  12   0.6133   0.5279   1.7007  -0.1346  -0.2856  -0.5784 -26625.00    0.0
2018/11/05 01:32:00.000  -74.425537665  163.418476880    64.0064   5  12   0.6140   0.5288   1.7038  -0.1324  -0.2963  -0.5779 -26595.00    0.0
2018/11/05 01:32:30.000  -74.425541165  163.418485301    63.1395   5  12   0.6149   0.5300   1.7080  -0.1302  -0.3069  -0.5776 -26565.00    0.0
2018/11/05 01:33:00.000  -74.425537865  163.418478398    63.5213   5  12   0.6140   0.5292   1.7029  -0.1273  -0.3143  -0.5759 -26535.00    0.0
2018/11/05 01:33:30.000  -74.425537529  163.418475139    62.5888   5  12   0.6133   0.5286   1.6988  -0.1245  -0.3217  -0.5744 -26505.00    0.0
2018/11/05 01:34:00.000  -74.425541593  163.418483874    62.5328   5  12   0.6128   0.5283   1.6958  -0.1217  -0.3292  -0.5731 -26475.00    0.0
2018/11/05 01:34:30.000  -74.425537267  163.418482038    62.7710   5  12   0.6125   0.5282   1.6939  -0.1189  -0.3369  -0.5719 -26445.00    0.0
2018/11/05 01:35:00.000  -74.425536097  163.418468855    62.3455   5  12   0.6125   0.5283   1.6932  -0.1161  -0.3447  -0.5710 -26415.00    0.0
2018/11/05 01:35:30.000  -74.425539890  163.418480879    63.0702   5  12   0.6126   0.5287   1.6938  -0.1133  -0.3527  -0.5703 -26385.00    0.0
2018/11/05 01:36:00.000  -74.425538901  163.418479003    63.2609   5  12   0.6130   0.5294   1.6956  -0.1105  -0.3608  -0.5697 -26355.00    0.0
2018/11/05 01:36:30.000  -74.425538582  163.418482536    63.4098   5  12   0.6136   0.5303   1.6985  -0.1077  -0.3691  -0.5694 -26325.00    0.0
2018/11/05 01:37:00.000  -74.425539130  163.418477930    62.8951   5  12   0.6143   0.5315   1.7026  -0.1049  -0.3776  -0.5692 -26295.00    0.0
2018/11/05 01:37:30.000  -74.425536995  163.418472159    63.9004   5  12   0.6153   0.5329   1.7078  -0.1021  -0.3862  -0.5692 -26265.00    0.0
2018/11/05 01:38:00.000  -74.425539612  163.418475115    64.1269   5  12   0.6145   0.5323   1.7033  -0.0987  -0.3917  -0.5678 -26235.00    0.0
2018/11/05 01:38:30.000  -74.425537690  163.418478415    62.9683   5  12   0.6140   0.5319   1.7000  -0.0951  -0.3975  -0.5666 -26205.00    0.0
2018/11/05 01:39:00.000  -74.425539268  163.418471768    63.8000   5  12   0.6136   0.5318   1.6979  -0.0914  -0.4035  -0.5656 -26175.00    0.0
2018/11/05 01:39:30.000  -74.425537698  163.418482029    63.5579   5  12   0.6134   0.5319   1.6968  -0.0877  -0.4096  -0.5648 -26145.00    0.0
2018/11/05 01:40:00.000  -74.425538064  163.418475525    62.4699   5  12   0.6135   0.5322   1.6969  -0.0839  -0.4160  -0.5641 -26115.00    0.0
2018/11/05 01:40:30.000  -74.425539389  163.418474611    63.5841   5  12   0.6138   0.5328   1.6984  -0.0801  -0.4226  -0.5637 -26085.00    0.0
2018/11/05 01:41:00.000  -74.425540940  163.418472611    63.6978   5  12   0.6142   0.5337   1.7010  -0.0762  -0.4295  -0.5635 -26055.00    0.0
2018/11/05 01:41:30.000  -74.425539458  163.418478262    63.1404   5  12   0.6149   0.5348   1.7048  -0.0721  -0.4366  -0.5635 -26025.00    0.0
2018/11/05 01:42:00.000  -74.425537778  163.418475829    63.7386   5  12   0.6158   0.5362   1.7098  -0.0678  -0.4439  -0.5636 -25995.00    0.0
2018/11/05 01:42:30.000  -74.425538585  163.418472441    63.0693   5  12   0.6169   0.5378   1.7158  -0.0634  -0.4514  -0.5640 -25965.00    0.0
2018/11/05 01:43:00.000  -74.425535733  163.418471609    63.8168   5  12   0.6162   0.5374   1.7122  -0.0576  -0.4560  -0.5630 -25935.00    0.0
2018/11/05 01:43:30.000  -74.425538400  163.418474597    63.9665   5  12   0.6158   0.5372   1.7097  -0.0514  -0.4608  -0.5621 -25905.00    0.0
2018/11/05 01:44:00.000  -74.425539555  163.418475032    63.9735   5  12   0.6155   0.5372   1.7083  -0.0444  -0.4658  -0.5615 -25875.00    0.0
2018/11/05 01:44:30.000  -74.425537203  163.418478121    62.7458   5  12   0.6155   0.5375   1.7081  -0.0362  -0.4710  -0.5610 -25845.00    0.0
2018/11/05 01:45:00.000  -74.425538622  163.418472265    62.9549   5  12   0.6156   0.5380   1.7090  -0.0258  -0.4765  -0.5607 -25815.00    0.0
2018/11/05 01:45:30.000  -74.425538767  163.418468943    63.4662   5  12   0.6160   0.5388   1.7113  -0.0060  -0.4823  -0.5606 -25785.00    0.0
2018/11/05 01:46:00.000  -74.425536079  163.418475381    62.6625   5  12   0.6166   0.5399   1.7147   0.0242  -0.4884  -0.5608 -25755.00    0.0
2018/11/05 01:46:30.000  -74.425537961  163.418474310    63.4501   5  12   0.6174   0.5412   1.7193   0.0346  -0.4947  -0.5611 -25725.00    0.0
2018/11/05 01:47:00.000  -74.425541539  163.418480459    63.3161   5  12   0.6184   0.5427   1.7249   0.0425  -0.5012  -0.5616 -25695.00    0.0
2018/11/05 01:47:30.000  -74.425540329  163.418473955    63.2770   5  12   0.6196   0.5444   1.7317   0.0490  -0.5080  -0.5622 -25665.00    0.0
2018/11/05 01:48:00.000  -74.425540841  163.418471943    63.1397   5  12   0.6190   0.5442   1.7288   0.0556  -0.5119  -0.5616 -25635.00    0.0
2018/11/05 01:48:30.000  -74.425537362  163.418475206    62.5391   5  12   0.6187   0.5441   1.7271   0.0614  -0.5160  -0.5611 -25605.00    0.0
2018/11/05 01:49:00.000  -74.425535661  163.418481770    62.9442   5  12   0.6185   0.5443   1.7265   0.0666  -0.5203  -0.5608 -25575.00    0.0
2018/11/05 01:49:30.000  -74.425537023  163.418478450    62.4605   5  12   0.6186   0.5448   1.7271   0.0714  -0.5250  -0.5607 -25545.00    0.0
2018/11/05 01:50:00.000  -74.425540697  163.418479116    62.6054   5  12   0.6188   0.5454   1.7287   0.0759  -0.5298  -0.5608 -25515.00    0.0
2018/11/05 01:50:30.000  -74.425537485  163.418471304    63.2409   5  12   0.6193   0.5464   1.7317   0.0800  -0.5350  -0.5611 -25485.00    0.0
2018/11/05 01:51:00.000  -74.425537441  163.418479161    63.4785   5  12   0.6200   0.5475   1.7357   0.0838  -0.5404  -0.5615 -25455.00    0.0
2018/11/05 01:51:30.000  -74.425540623  163.418481096    62.5598   5  12   0.6209   0.5489   1.7408   0.0875  -0.5461  -0.5622 -25425.00    0.0
2018/11/05 01:52:00.000  -74.425538549  163.418482609    62.3076   5  12   0.6221   0.5506   1.7470   0.0909  -0.5520  -0.5630 -25395.00    0.0
2018/11/05 01:52:30.000  -74.425540457  163.418480674    62.4199   5  12   0.6234   0.5524   1.7542   0.0942  -0.5581  -0.5640 -25365.00    0.0
2018/11/05 01:53:00.000  -74.425540310  163.418479888    62.9602   5  12   0.6229   0.5523   1.7523   0.0979  -0.5615  -0.5637 -25335.00    0.0
2018/11/05 01:53:30.000  -74.425540089  163.418472704    62.8767   5  12   0.6227   0.5524   1.7512   0.1013  -0.5651  -0.5636 -25305.00    0.0
2018/11/05 01:54:00.000  -74.425539954  163.418482584    62.6103   5  12   0.6227   0.5527   1.7513   0.1046  -0.5689  -0.5637 -25275.00    0.0
2018/11/05 01:54:30.000  -74.425538860  163.418473191    63.2352   5  12   0.6228   0.5532   1.7524   0.1077  -0.5729  -0.5639 -25245.00    0.0
2018/11/05 01:55:00.000  -74.425541253  163.418474656    63.4024   5  12   0.6232   0.5539   1.7545   0.1107  -0.5772  -0.5644 -25215.00    0.0
2018/11/05 01:55:30.000  -74.425538917  163.418479336    62.9696   5  12   0.6238   0.5549   1.7580   0.1136  -0.5818  -0.5650 -25185.00    0.0
2018/11/05 01:56:00.000  -74.425541367  163.418475660    63.4224   5  12   0.6246   0.5562   1.7624   0.1164  -0.5866  -0.5658 -25155.00    0.0
2018/11/05 01:56:30.000  -74.425539010  163.418480316    62.7199   5  12   0.6257   0.5577   1.7679   0.1191  -0.5917  -0.5667 -25125.00    0.0
2018/11/05 01:57:00.000  -74.425540024  163.418485156    63.1329   5  12   0.6269   0.5593   1.7743   0.1218  -0.5970  -0.5679 -25095.00    0.0
2018/11/05 01:57:30.000  -74.425535862  163.418473603    63.1513   5  12   0.6284   0.5613   1.7816   0.1243  -0.6025  -0.5691 -25065.00    0.0
2018/11/05 01:58:00.000  -74.425538805  163.418480947    63.0345   5  12   0.6280   0.5612   1.7800   0.1271  -0.6052  -0.5692 -25035.00    0.0
2018/11/05 01:58:30.000  -74.425538902  163.418482149    62.4187   5  12   0.6279   0.5613   1.7795   0.1298  -0.6082  -0.5695 -25005.00    0.0
2018/11/05 01:59:00.000  -74.425537817  163.418468421    63.7904   5  12   0.6280   0.5616   1.7801   0.1324  -0.6115  -0.5700 -24975.00    0.0
2018/11/05 01:59:30.000  -74.425539103  163.418481258    62.3337   5  12   0.6283   0.5622   1.7816   0.1349  -0.6150  -0.5706 -24945.00    0.0
2018/11/05 02:00:00.000  -74.425539133  163.418482433    62.4799   5  12   0.6288   0.5629   1.7841   0.1374  -0.6187  -0.5713 -24915.00    0.0
2018/11/05 02:00:30.000  -74.425539531  163.418481830    62.8270   5  11   0.6605   0.5676   1.8243   0.1800  -0.6035  -0.5048 -24885.00    0.0
2018/11/05 02:01:00.000  -74.425538769  163.418472524    62.2839   5  11   0.6611   0.5688   1.8295   0.1814  -0.6078  -0.5055 -24855.00    0.0
2018/11/05 02:01:30.000  -74.425537048  163.418472090    62.5963   5  11   0.6620   0.5702   1.8357   0.1828  -0.6122  -0.5064 -24825.00    0.0
2018/11/05 02:02:00.000  -74.425542188  163.418482059    61.7059   5  10   0.6746   0.6310   2.0971   0.0303  -0.8046  -0.3653 -24795.00    0.0
2018/11/05 02:02:30.000  -74.425538409  163.418484670    61.8703   5  10   0.6758   0.6337   2.1113   0.0374  -0.8123  -0.3654 -24765.00    0.0
2018/11/05 02:03:00.000  -74.425537317  163.418474038    61.8458   5   9   0.7753   0.6865   2.6448   0.3211  -1.0415  -0.8614 -24735.00    0.0
2018/11/05 02:03:30.000  -74.425538583  163.418485217    61.4816   5   9   0.7748   0.6885   2.6609   0.3254  -1.0505  -0.8676 -24705.00    0.0
2018/11/05 02:04:00.000  -74.425540102  163.418494357    61.4119   5   9   0.7747   0.6909   2.6787   0.3298  -1.0601  -0.8741 -24675.00    0.0
2018/11/05 02:04:30.000  -74.425539451  163.418495109    61.1010   5   9   0.7748   0.6937   2.6984   0.3342  -1.0704  -0.8810 -24645.00    0.0
2018/11/05 02:05:00.000  -74.425535807  163.418487253    60.1029   5   9   0.7753   0.6967   2.7200   0.3388  -1.0813  -0.8884 -24615.00    0.0
2018/11/05 02:05:30.000  -74.425539550  163.418487087    60.9248   5   9   0.7762   0.7002   2.7437   0.3434  -1.0930  -0.8962 -24585.00    0.0
2018/11/05 02:06:00.000  -74.425542040  163.418488312    62.0132   5   9   0.7775   0.7041   2.7692   0.3482  -1.1054  -0.9044 -24555.00    0.0
2018/11/05 02:06:30.000  -74.425536552  163.418485397    60.3887   5   9   0.7790   0.7083   2.7966   0.3530  -1.1184  -0.9130 -24525.00    0.0
2018/11/05 02:07:00.000  -74.425536955  163.418495806    60.8899   5   9   0.7809   0.7129   2.8257   0.3580  -1.1320  -0.9220 -24495.00    0.0
2018/11/05 02:07:30.000  -74.425535636  163.418486238    61.1331   5   9   0.7831   0.7178   2.8565   0.3631  -1.1462  -0.9313 -24465.00    0.0
2018/11/05 02:08:00.000  -74.425538190  163.418486403    62.2814   5   9   0.7827   0.7193   2.8712   0.3670  -1.1538  -0.9378 -24435.00    0.0
2018/11/05 02:08:30.000  -74.425537560  163.418491083    60.7773   5   9   0.7825   0.7212   2.8875   0.3710  -1.1620  -0.9447 -24405.00    0.0
2018/11/05 02:09:00.000  -74.425535396  163.418493492    60.2737   5   9   0.7827   0.7234   2.9055   0.3751  -1.1707  -0.9519 -24375.00    0.0
2018/11/05 02:09:30.000  -74.425535172  163.418493836    60.0292   5   9   0.7833   0.7259   2.9250   0.3792  -1.1799  -0.9594 -24345.00    0.0
2018/11/05 02:10:00.000  -74.425538981  163.418489689    60.7735   5   9   0.7841   0.7288   2.9461   0.3835  -1.1897  -0.9672 -24315.00    0.0
2018/11/05 02:10:30.000  -74.425541318  163.418479820    62.8579   5   9   0.7853   0.7320   2.9689   0.3878  -1.2001  -0.9754 -24285.00    0.0
2018/11/05 02:11:00.000  -74.425536874  163.418483005    61.1724   5   9   0.7869   0.7354   2.9932   0.3921  -1.2109  -0.9839 -24255.00    0.0
2018/11/05 02:11:30.000  -74.425536065  163.418486504    60.6286   5   9   0.7888   0.7392   3.0188   0.3966  -1.2222  -0.9927 -24225.00    0.0
2018/11/05 02:12:00.000  -74.425537598  163.418485557    60.8804   5   9   0.7910   0.7433   3.0456   0.4011  -1.2340  -1.0018 -24195.00    0.0
2018/11/05 02:12:30.000  -74.425536358  163.418491557    59.7773   5   9   0.7935   0.7476   3.0736   0.4057  -1.2461  -1.0111 -24165.00    0.0
2018/11/05 02:13:00.000  -74.425536986  163.418477155    61.8135   5   9   0.7933   0.7484   3.0855   0.4090  -1.2514  -1.0173 -24135.00    0.0
2018/11/05 02:13:30.000  -74.425537752  163.418487319    60.4121   5   9   0.7935   0.7495   3.0986   0.4123  -1.2571  -1.0238 -24105.00    0.0
2018/11/05 02:14:00.000  -74.425536137  163.418487768    60.2358   5   9   0.7939   0.7508   3.1128   0.4156  -1.2630  -1.0305 -24075.00    0.0
2018/11/05 02:14:30.000  -74.425538113  163.418491784    60.3843   5   9   0.7946   0.7524   3.1281   0.4189  -1.2694  -1.0373 -24045.00    0.0
2018/11/05 02:15:00.000  -74.425541932  163.418490343    61.7769   5   8   0.9707   0.7720   4.0848   0.5195  -1.4344  -1.5939 -24015.00    0.0
2018/11/05 02:15:30.000  -74.425540618  163.418484855    62.6835   5   8   0.9779   0.7764   4.1448   0.5299  -1.4550  -1.6199 -23985.00    0.0
2018/11/05 02:16:00.000  -74.425541746  163.418487712    63.6360   5   9   0.7326   0.7333   2.9234   0.3383  -1.1681  -0.8466 -23955.00    0.0
2018/11/05 02:16:30.000  -74.425543855  163.418481601    64.2034   5   9   0.7341   0.7360   2.9514   0.3435  -1.1785  -0.8569 -23925.00    0.0
2018/11/05 02:17:00.000  -74.425544408  163.418478199    64.2204   5   9   0.7359   0.7389   2.9805   0.3488  -1.1892  -0.8674 -23895.00    0.0
2018/11/05 02:17:30.000  -74.425545534  163.418486783    63.8295   5   9   0.7380   0.7421   3.0108   0.3541  -1.2004  -0.8781 -23865.00    0.0
2018/11/05 02:18:00.000  -74.425545748  163.418473244    64.5440   5   9   0.7377   0.7420   3.0278   0.3587  -1.2058  -0.8875 -23835.00    0.0
2018/11/05 02:18:30.000  -74.425544948  163.418474068    64.3487   5   9   0.7377   0.7422   3.0457   0.3633  -1.2115  -0.8969 -23805.00    0.0
2018/11/05 02:19:00.000  -74.425546473  163.418477323    64.3717   5   9   0.7381   0.7426   3.0646   0.3679  -1.2175  -0.9065 -23775.00    0.0
2018/11/05 02:19:30.000  -74.425542111  163.418488578    62.5266   5   9   0.7387   0.7433   3.0845   0.3724  -1.2238  -0.9162 -23745.00    0.0
2018/11/05 02:20:00.000  -74.425544272  163.418482028    63.5658   5   9   0.7397   0.7442   3.1053   0.3769  -1.2304  -0.9260 -23715.00    0.0
2018/11/05 02:20:30.000  -74.425542470  163.418479720    64.2852   5   9   0.7410   0.7454   3.1272   0.3814  -1.2372  -0.9359 -23685.00    0.0
2018/11/05 02:21:00.000  -74.425544927  163.418472291    64.5519   5   9   0.7426   0.7469   3.1499   0.3859  -1.2443  -0.9459 -23655.00    0.0
2018/11/05 02:21:30.000  -74.425546063  163.418483160    64.7236   5   9   0.7446   0.7485   3.1733   0.3904  -1.2516  -0.9560 -23625.00    0.0
2018/11/05 02:22:00.000  -74.425542990  163.418485612    63.4203   5   9   0.7468   0.7504   3.1973   0.3949  -1.2590  -0.9663 -23595.00    0.0
2018/11/05 02:22:30.000  -74.425545221  163.418474122    64.6494   5   9   0.7494   0.7525   3.2219   0.3994  -1.2666  -0.9766 -23565.00    0.0
2018/11/05 02:23:00.000  -74.425544342  163.418471234    65.3521   5   9   0.7494   0.7513   3.2328   0.4028  -1.2682  -0.9849 -23535.00    0.0
2018/11/05 02:23:30.000  -74.425543818  163.418477040    64.3803   5   9   0.7498   0.7502   3.2442   0.4062  -1.2700  -0.9931 -23505.00    0.0
2018/11/05 02:24:00.000  -74.425545064  163.418475664    63.1767   5   9   0.7504   0.7493   3.2560   0.4095  -1.2718  -1.0013 -23475.00    0.0
2018/11/05 02:24:30.000  -74.425545257  163.418480489    63.2748   5   9   0.7514   0.7486   3.2682   0.4128  -1.2737  -1.0095 -23445.00    0.0
2018/11/05 02:25:00.000  -74.425544183  163.418481653    63.8982   5   9   0.7526   0.7481   3.2807   0.4160  -1.2756  -1.0176 -23415.00    0.0
2018/11/05 02:25:30.000  -74.425544519  163.418482474    63.8020   5   9   0.7542   0.7479   3.2939   0.4192  -1.2777  -1.0258 -23385.00    0.0
2018/11/05 02:26:00.000  -74.425545919  163.418477642    63.9081   5   9   0.7560   0.7478   3.3072   0.4224  -1.2798  -1.0339 -23355.00    0.0
2018/11/05 02:26:30.000  -74.425543577  163.418478251    63.0067   5   9   0.7582   0.7480   3.3208   0.4255  -1.2819  -1.0420 -23325.00    0.0
2018/11/05 02:27:00.000  -74.425544949  163.418477193    64.7705   5   9   0.7606   0.7483   3.3345   0.4286  -1.2840  -1.0501 -23295.00    0.0
2018/11/05 02:27:30.000  -74.425544350  163.418473841    64.3163   5   9   0.7633   0.7488   3.3483   0.4317  -1.2862  -1.0581 -23265.00    0.0
2018/11/05 02:28:00.000  -74.425541737  163.418489918    62.4558   5   9   0.7635   0.7459   3.3484   0.4334  -1.2823  -1.0635 -23235.00    0.0
2018/11/05 02:28:30.000  -74.425545393  163.418479054    63.8600   5   9   0.7638   0.7432   3.3486   0.4350  -1.2784  -1.0686 -23205.00    0.0
2018/11/05 02:29:00.000  -74.425545212  163.418467074    63.2617   5   9   0.7644   0.7407   3.3488   0.4366  -1.2745  -1.0737 -23175.00    0.0
2018/11/05 02:29:30.000  -74.425545524  163.418474731    64.8171   5   9   0.7653   0.7384   3.3492   0.4381  -1.2705  -1.0786 -23145.00    0.0
2018/11/05 02:30:00.000  -74.425544646  163.418476481    62.9702   5   9   0.7665   0.7363   3.3496   0.4396  -1.2666  -1.0835 -23115.00    0.0
2018/11/05 02:30:30.000  -74.425545412  163.418476925    63.3649   5   9   0.7680   0.7345   3.3504   0.4410  -1.2628  -1.0883 -23085.00    0.0
2018/11/05 02:31:00.000  -74.425546460  163.418471463    63.4799   5   9   0.7698   0.7328   3.3513   0.4425  -1.2590  -1.0930 -23055.00    0.0
2018/11/05 02:31:30.000  -74.425547656  163.418468671    65.1015   5   9   0.7718   0.7315   3.3522   0.4439  -1.2553  -1.0977 -23025.00    0.0
2018/11/05 02:32:00.000  -74.425547597  163.418470468    63.6601   5   9   0.7742   0.7303   3.3532   0.4454  -1.2515  -1.1023 -22995.00    0.0
2018/11/05 02:32:30.000  -74.425549411  163.418463860    65.4951   5   9   0.7768   0.7294   3.3543   0.4469  -1.2479  -1.1069 -22965.00    0.0
2018/11/05 02:33:00.000  -74.425550489  163.418452130    67.0454   5   9   0.7766   0.7251   3.3420   0.4466  -1.2383  -1.1083 -22935.00    0.0
2018/11/05 02:33:30.000  -74.425547310  163.418475487    66.0079   5   9   0.7766   0.7211   3.3300   0.4464  -1.2287  -1.1095 -22905.00    0.0
2018/11/05 02:34:00.000  -74.425547355  163.418467503    66.3362   5   9   0.7770   0.7173   3.3181   0.4461  -1.2193  -1.1106 -22875.00    0.0
2018/11/05 02:34:30.000  -74.425548398  163.418476133    65.9989   5   9   0.7776   0.7138   3.3065   0.4459  -1.2100  -1.1117 -22845.00    0.0
2018/11/05 02:35:00.000  -74.425546888  163.418464492    65.7085   5   9   0.7784   0.7106   3.2952   0.4457  -1.2008  -1.1128 -22815.00    0.0
2018/11/05 02:35:30.000  -74.425545362  163.418480551    63.8538   5   9   0.7796   0.7077   3.2845   0.4456  -1.1920  -1.1140 -22785.00    0.0
2018/11/05 02:36:00.000  -74.425546012  163.418474526    64.7032   5   9   0.7811   0.7052   3.2742   0.4455  -1.1834  -1.1151 -22755.00    0.0
2018/11/05 02:36:30.000  -74.425547340  163.418474828    65.5018   5   9   0.7829   0.7030   3.2642   0.4455  -1.1750  -1.1164 -22725.00    0.0
2018/11/05 02:37:00.000  -74.425544997  163.418483417    63.8735   5   9   0.7850   0.7011   3.2548   0.4456  -1.1668  -1.1177 -22695.00    0.0
2018/11/05 02:37:30.000  -74.425546793  163.418470713    64.9077   5   9   0.7874   0.6995   3.2458   0.4458  -1.1589  -1.1192 -22665.00    0.0
2018/11/05 02:38:00.000  -74.425545708  163.418469150    65.3779   5   9   0.7868   0.6947   3.2242   0.4441  -1.1453  -1.1169 -22635.00    0.0
2018/11/05 02:38:30.000  -74.425544868  163.418461535    64.6917   5   9   0.7865   0.6901   3.2031   0.4425  -1.1319  -1.1148 -22605.00    0.0
2018/11/05 02:39:00.000  -74.425544191  163.418478889    62.9672   5   9   0.7865   0.6860   3.1828   0.4409  -1.1189  -1.1127 -22575.00    0.0
2018/11/05 02:39:30.000  -74.425545730  163.418471489    64.5051   5   9   0.7868   0.6822   3.1631   0.4395  -1.1062  -1.1108 -22545.00    0.0
2018/11/05 02:40:00.000  -74.425546016  163.418470080    63.6153   5   9   0.7874   0.6788   3.1442   0.4382  -1.0940  -1.1090 -22515.00    0.0
2018/11/05 02:40:30.000  -74.425541815  163.418480978    62.4072   5   9   0.7883   0.6758   3.1265   0.4371  -1.0823  -1.1075 -22485.00    0.0
2018/11/05 02:41:00.000  -74.425545511  163.418471387    63.1512   5   9   0.7896   0.6732   3.1095   0.4362  -1.0710  -1.1062 -22455.00    0.0
2018/11/05 02:41:30.000  -74.425544215  163.418470398    64.0996   5   9   0.7912   0.6711   3.0935   0.4354  -1.0602  -1.1051 -22425.00    0.0
2018/11/05 02:42:00.000  -74.425542003  163.418475148    62.5826   5   9   0.7931   0.6693   3.0784   0.4347  -1.0499  -1.1044 -22395.00    0.0
2018/11/05 02:42:30.000  -74.425542378  163.418482336    63.0659   5   9   0.7954   0.6679   3.0642   0.4343  -1.0401  -1.1039 -22365.00    0.0
2018/11/05 02:43:00.000  -74.425545129  163.418476526    63.4283   5   9   0.7945   0.6633   3.0380   0.4318  -1.0246  -1.0994 -22335.00    0.0
2018/11/05 02:43:30.000  -74.425545588  163.418464764    64.8142   5   9   0.7940   0.6592   3.0130   0.4296  -1.0097  -1.0952 -22305.00    0.0
2018/11/05 02:44:00.000  -74.425545873  163.418472317    64.7961   5   9   0.7938   0.6554   2.9892   0.4275  -0.9954  -1.0914 -22275.00    0.0
2018/11/05 02:44:30.000  -74.425544835  163.418476403    63.4194   5   9   0.7939   0.6521   2.9664   0.4256  -0.9817  -1.0879 -22245.00    0.0
2018/11/05 02:45:00.000  -74.425548892  163.418467328    65.8482   5   9   0.7944   0.6493   2.9449   0.4239  -0.9685  -1.0847 -22215.00    0.0
2018/11/05 02:45:30.000  -74.425547304  163.418472234    65.7191   5   9   0.7952   0.6469   2.9248   0.4225  -0.9560  -1.0819 -22185.00    0.0
2018/11/05 02:46:00.000  -74.425548530  163.418476165    65.1997   5   9   0.7965   0.6449   2.9058   0.4213  -0.9441  -1.0795 -22155.00    0.0
2018/11/05 02:46:30.000  -74.425548368  163.418469960    65.5347   5   9   0.7981   0.6434   2.8882   0.4203  -0.9328  -1.0774 -22125.00    0.0
2018/11/05 02:47:00.000  -74.425549060  163.418474073    65.0533   5   8   0.8340   0.6527   3.4395   0.3854  -0.7936  -1.2663 -22095.00    0.0
2018/11/05 02:47:30.000  -74.425547148  163.418481964    65.4053   5   8   0.8372   0.6524   3.4304   0.3837  -0.7788  -1.2684 -22065.00    0.0
2018/11/05 02:48:00.000  -74.425547514  163.418472411    64.7814   5   8   0.8369   0.6491   3.4076   0.3801  -0.7589  -1.2654 -22035.00    0.0
2018/11/05 02:48:30.000  -74.425547481  163.418466303    65.8489   5   8   0.8369   0.6461   3.3857   0.3767  -0.7394  -1.2627 -22005.00    0.0
2018/11/05 02:49:00.000  -74.425549746  163.418469674    65.6700   5   8   0.8373   0.6436   3.3650   0.3734  -0.7202  -1.2603 -21975.00    0.0
2018/11/05 02:49:30.000  -74.425550036  163.418472144    65.4921   5   8   0.8381   0.6416   3.3456   0.3703  -0.7014  -1.2584 -21945.00    0.0
2018/11/05 02:50:00.000  -74.425547383  163.418470779    64.5037   5   8   0.8392   0.6401   3.3274   0.3675  -0.6830  -1.2569 -21915.00    0.0
2018/11/05 02:50:30.000  -74.425551574  163.418474681    66.2586   5   8   0.8408   0.6390   3.3109   0.3649  -0.6652  -1.2559 -21885.00    0.0
2018/11/05 02:51:00.000  -74.425547570  163.418483451    64.3799   5   8   0.8428   0.6384   3.2958   0.3626  -0.6477  -1.2555 -21855.00    0.0
2018/11/05 02:51:30.000  -74.425545171  163.418471160    64.5952   5   8   0.8451   0.6382   3.2820   0.3604  -0.6306  -1.2555 -21825.00    0.0
2018/11/05 02:52:00.000  -74.425548293  163.418465525    65.0806   5   8   0.8479   0.6385   3.2695   0.3585  -0.6139  -1.2561 -21795.00    0.0
2018/11/05 02:52:30.000  -74.425548885  163.418473827    66.0038   5   8   0.8511   0.6391   3.2585   0.3569  -0.5975  -1.2572 -21765.00    0.0
2018/11/05 02:53:00.000  -74.425544418  163.418477483    63.9804   5   9   0.8464   0.6367   2.9804   0.3516  -0.5909  -1.2945 -21735.00    0.0
2018/11/05 02:53:30.000  -74.425545209  163.418472887    64.5659   5   9   0.8459   0.6347   2.9674   0.3476  -0.5746  -1.2918 -21705.00    0.0
2018/11/05 02:54:00.000  -74.425546439  163.418471046    63.7536   5   9   0.8457   0.6332   2.9555   0.3437  -0.5586  -1.2897 -21675.00    0.0
2018/11/05 02:54:30.000  -74.425549311  163.418471776    66.1767   5   9   0.8458   0.6320   2.9447   0.3401  -0.5428  -1.2881 -21645.00    0.0
2018/11/05 02:55:00.000  -74.425548061  163.418464114    65.2179   5   9   0.8464   0.6313   2.9351   0.3367  -0.5273  -1.2870 -21615.00    0.0
2018/11/05 02:55:30.000  -74.425545649  163.418465107    64.7036   5   9   0.8474   0.6310   2.9269   0.3335  -0.5121  -1.2865 -21585.00    0.0
2018/11/05 02:56:00.000  -74.425546299  163.418466728    64.2235   5   8   0.8537   0.6604   3.1699   0.3563  -0.0851  -1.2421 -21555.00    0.0
2018/11/05 02:56:30.000  -74.425549510  163.418460654    64.6226   5   8   0.8551   0.6616   3.1685   0.3531   0.1107  -1.2441 -21525.00    0.0
2018/11/05 02:57:00.000  -74.425544887  163.418469476    64.2762   5   8   0.8569   0.6632   3.1684   0.3501   0.1774  -1.2466 -21495.00    0.0
2018/11/05 02:57:30.000  -74.425545441  163.418483690    65.4487   5   8   0.8591   0.6653   3.1697   0.3472   0.2248  -1.2498 -21465.00    0.0
2018/11/05 02:58:00.000  -74.425545551  163.418473458    64.8010   5   8   0.8576   0.6642   3.1566   0.3423   0.2655  -1.2471 -21435.00    0.0
2018/11/05 02:58:30.000  -74.425548029  163.418475386    64.8821   5   8   0.8565   0.6635   3.1445   0.3376   0.2996  -1.2449 -21405.00    0.0
2018/11/05 02:59:00.000  -74.425546494  163.418475988    65.7412   5   8   0.8557   0.6633   3.1337   0.3332   0.3295  -1.2433 -21375.00    0.0
2018/11/05 02:59:30.000  -74.425546509  163.418469405    65.0905   5   8   0.8554   0.6634   3.1243   0.3289   0.3562  -1.2421 -21345.00    0.0
2018/11/05 03:00:00.000  -74.425548897  163.418476614    65.3842   5   8   0.8555   0.6640   3.1161   0.3249   0.3806  -1.2416 -21315.00    0.0
2018/11/05 03:00:30.000  -74.425547254  163.418480941    64.4511   5   8   0.8561   0.6651   3.1098   0.3211   0.4030  -1.2417 -21285.00    0.0
2018/11/05 03:01:00.000  -74.425548645  163.418479848    66.3899   5   9   0.8111   0.6529   2.6073   0.2522   0.6375  -1.0377 -21255.00    0.0
2018/11/05 03:01:30.000  -74.425544634  163.418483308    65.1736   5   9   0.8132   0.6550   2.6133   0.2489   0.6477  -1.0425 -21225.00    0.0
2018/11/05 03:02:00.000  -74.425547182  163.418479185    65.6425   5   9   0.8155   0.6575   2.6204   0.2456   0.6582  -1.0478 -21195.00    0.0
2018/11/05 03:02:30.000  -74.425548371  163.418484237    66.4465   5   9   0.8183   0.6604   2.6286   0.2424   0.6688  -1.0536 -21165.00    0.0
2018/11/05 03:03:00.000  -74.425548415  163.418472976    66.1061   5   9   0.8178   0.6602   2.6254   0.2381   0.6759  -1.0550 -21135.00    0.0
2018/11/05 03:03:30.000  -74.425547835  163.418480200    66.3690   5   9   0.8176   0.6604   2.6231   0.2340   0.6830  -1.0568 -21105.00    0.0
2018/11/05 03:04:00.000  -74.425545313  163.418476111    65.3207   5   9   0.8177   0.6609   2.6218   0.2299   0.6902  -1.0590 -21075.00    0.0
2018/11/05 03:04:30.000  -74.425546904  163.418479585    65.7941   5   9   0.8183   0.6618   2.6215   0.2259   0.6975  -1.0617 -21045.00    0.0
2018/11/05 03:05:00.000  -74.425547349  163.418487769    66.1365   5   9   0.8193   0.6630   2.6223   0.2219   0.7050  -1.0648 -21015.00    0.0
2018/11/05 03:05:30.000  -74.425548554  163.418483566    66.3044   5   9   0.8207   0.6647   2.6245   0.2180   0.7128  -1.0684 -20985.00    0.0
2018/11/05 03:06:00.000  -74.425547062  163.418479914    65.6089   5   9   0.8225   0.6667   2.6280   0.2142   0.7208  -1.0725 -20955.00    0.0
2018/11/05 03:06:30.000  -74.425545598  163.418465337    65.5087   5   9   0.8247   0.6691   2.6326   0.2103   0.7290  -1.0770 -20925.00    0.0
2018/11/05 03:07:00.000  -74.425544972  163.418474038    65.5618   5   9   0.8272   0.6718   2.6385   0.2064   0.7375  -1.0821 -20895.00    0.0
2018/11/05 03:07:30.000  -74.425548383  163.418479340    66.4636   5   9   0.8302   0.6749   2.6456   0.2024   0.7463  -1.0876 -20865.00    0.0
2018/11/05 03:08:00.000  -74.425549524  163.418473002    65.7389   5   9   0.8298   0.6749   2.6400   0.1980   0.7507  -1.0884 -20835.00    0.0
2018/11/05 03:08:30.000  -74.425548388  163.418471945    65.7876   5   9   0.8297   0.6751   2.6354   0.1936   0.7553  -1.0896 -20805.00    0.0
2018/11/05 03:09:00.000  -74.425549635  163.418473144    66.1854   5   9   0.8300   0.6757   2.6319   0.1894   0.7600  -1.0912 -20775.00    0.0
2018/11/05 03:09:30.000  -74.425548575  163.418484801    66.3396   5   9   0.8307   0.6766   2.6295   0.1851   0.7649  -1.0932 -20745.00    0.0
2018/11/05 03:10:00.000  -74.425550021  163.418485110    66.4082   5   9   0.8317   0.6779   2.6283   0.1809   0.7702  -1.0958 -20715.00    0.0
2018/11/05 03:10:30.000  -74.425547761  163.418477240    65.8864   5   9   0.8333   0.6796   2.6288   0.1766   0.7758  -1.0989 -20685.00    0.0
2018/11/05 03:11:00.000  -74.425547027  163.418480384    66.2608   5   9   0.8352   0.6817   2.6306   0.1722   0.7818  -1.1025 -20655.00    0.0
2018/11/05 03:11:30.000  -74.425548605  163.418478501    65.9211   5   9   0.8375   0.6841   2.6336   0.1678   0.7881  -1.1066 -20625.00    0.0
2018/11/05 03:12:00.000  -74.425547960  163.418476420    66.3804   5   9   0.8402   0.6869   2.6379   0.1632   0.7948  -1.1112 -20595.00    0.0
2018/11/05 03:12:30.000  -74.425549141  163.418475109    66.4327   5   9   0.8433   0.6901   2.6436   0.1585   0.8019  -1.1163 -20565.00    0.0
2018/11/05 03:13:00.000  -74.425548076  163.418484863    65.7589   5   9   0.8429   0.6899   2.6353   0.1543   0.8036  -1.1163 -20535.00    0.0
2018/11/05 03:13:30.000  -74.425552583  163.418475039    66.7192   5   9   0.8428   0.6900   2.6284   0.1501   0.8058  -1.1167 -20505.00    0.0
2018/11/05 03:14:00.000  -74.425549319  163.418473815    66.4231   5   9   0.8432   0.6905   2.6227   0.1459   0.8082  -1.1176 -20475.00    0.0
2018/11/05 03:14:30.000  -74.425549360  163.418464387    65.0552   5   9   0.8440   0.6913   2.6183   0.1416   0.8109  -1.1190 -20445.00    0.0
2018/11/05 03:15:00.000  -74.425549635  163.418468459    65.9471   5   9   0.8451   0.6924   2.6151   0.1373   0.8140  -1.1209 -20415.00    0.0
2018/11/05 03:15:30.000  -74.425547784  163.418470059    66.1023   5   9   0.8467   0.6940   2.6137   0.1328   0.8176  -1.1234 -20385.00    0.0
2018/11/05 03:16:00.000  -74.425549634  163.418467778    66.5079   5   9   0.8486   0.6960   2.6136   0.1282   0.8217  -1.1264 -20355.00    0.0
2018/11/05 03:16:30.000  -74.425549580  163.418471410    65.2410   5   9   0.8510   0.6983   2.6148   0.1233   0.8261  -1.1298 -20325.00    0.0
2018/11/05 03:17:00.000  -74.425547723  163.418471775    66.0862   5   9   0.8537   0.7010   2.6173   0.1182   0.8309  -1.1338 -20295.00    0.0
2018/11/05 03:17:30.000  -74.425551045  163.418467361    66.1829   5   9   0.8568   0.7041   2.6212   0.1127   0.8362  -1.1383 -20265.00    0.0
2018/11/05 03:18:00.000  -74.425549833  163.418471533    66.9137   5   9   0.8564   0.7036   2.6108   0.1092   0.8357  -1.1375 -20235.00    0.0
2018/11/05 03:18:30.000  -74.425548418  163.418469798    65.6501   5   9   0.8564   0.7034   2.6018   0.1057   0.8356  -1.1372 -20205.00    0.0
2018/11/05 03:19:00.000  -74.425552923  163.418465994    66.4829   5  10   0.8427   0.5821   2.1513   0.2677   0.3543  -1.0339 -20175.00    0.0
2018/11/05 03:19:30.000  -74.425548784  163.418471943    66.3276   5  10   0.8435   0.5818   2.1488   0.2664   0.3572  -1.0356 -20145.00    0.0
2018/11/05 03:20:00.000  -74.425550440  163.418472743    66.6287   5  10   0.8447   0.5818   2.1474   0.2651   0.3602  -1.0376 -20115.00    0.0
2018/11/05 03:20:30.000  -74.425552973  163.418470046    66.1621   5  10   0.8464   0.5821   2.1472   0.2641   0.3633  -1.0402 -20085.00    0.0
2018/11/05 03:21:00.000  -74.425550674  163.418475712    66.1697   5  10   0.8484   0.5826   2.1481   0.2631   0.3664  -1.0432 -20055.00    0.0
2018/11/05 03:21:30.000  -74.425550108  163.418472053    66.2096   5  10   0.8508   0.5834   2.1500   0.2621   0.3696  -1.0466 -20025.00    0.0
2018/11/05 03:22:00.000  -74.425549878  163.418465505    66.6266   5  10   0.8535   0.5845   2.1529   0.2613   0.3729  -1.0504 -19995.00    0.0
2018/11/05 03:22:30.000  -74.425549015  163.418479547    65.6379   5  10   0.8565   0.5857   2.1568   0.2606   0.3764  -1.0546 -19965.00    0.0
2018/11/05 03:23:00.000  -74.425550736  163.418464672    66.2921   5  10   0.8564   0.5848   2.1511   0.2592   0.3778  -1.0548 -19935.00    0.0
2018/11/05 03:23:30.000  -74.425550840  163.418470663    66.4113   5  10   0.8566   0.5841   2.1464   0.2579   0.3792  -1.0555 -19905.00    0.0
2018/11/05 03:24:00.000  -74.425550357  163.418473345    66.0441   5  10   0.8572   0.5836   2.1427   0.2567   0.3806  -1.0565 -19875.00    0.0
