% program   : RTKLIB ver.2.4.3
% inp file  : _by_type/_obs/blake/20181113.18o
% inp file  : _by_type/_obs/base/20181113.18o
% inp file  : _by_type/_sp3+clk/igs20272.clk
% inp file  : _by_type/_sp3+clk/igs20272.sp3
% inp file  : _by_type/_nav/blake/20181113.18n
% obs start : 2018/11/13 00:00:00.0 GPST (week2027 172800.0s)
% obs end   : 2018/11/13 23:59:45.0 GPST (week2027 259185.0s)
% pos mode  : dgps
% freqs     : L1+L2
% solution  : combined
% elev mask : 15.0 deg
% dynamics  : off
% tidecorr  : off
% ionos opt : iono-free
% tropo opt : est ztd+grad
% ephemeris : precise
% navi sys  : gps glonass
% antenna1  :                       ( 0.0000  0.0000  0.0000)
% antenna2  :                       ( 0.0000  0.0000  0.0000)
% ref pos   : 90.000000000   0.000000000-6335367.6285
%
% (lat/lon/height=WGS84/ellipsoidal,Q=1:fix,2:float,3:sbas,4:dgps,5:single,6:ppp,ns=# of satellites)
%  GPST                  latitude(deg) longitude(deg)  height(m)   Q  ns   sdn(m)   sde(m)   sdu(m)  sdne(m)  sdeu(m)  sdun(m) age(s)  ratio
2018/11/13 00:00:00.000  -74.407225417  163.437627313    79.0726   5  10   0.6645   0.6327   2.4120  -0.3121   0.8392  -0.8000   0.00    0.0
2018/11/13 00:00:15.000  -74.407224665  163.437628670    79.2074   5  10   0.6651   0.6334   2.4190  -0.3134   0.8428  -0.8029   0.00    0.0
2018/11/13 00:00:30.000  -74.407223338  163.437623492    79.3773   5  10   0.6657   0.6342   2.4262  -0.3147   0.8465  -0.8060   0.00    0.0
2018/11/13 00:00:45.000  -74.407224702  163.437629872    80.3602   5  10   0.6663   0.6350   2.4337  -0.3161   0.8504  -0.8091   0.00    0.0
2018/11/13 00:01:00.000  -74.407223361  163.437623008    79.0358   5  10   0.6671   0.6360   2.4415  -0.3176   0.8544  -0.8123   0.00    0.0
2018/11/13 00:01:15.000  -74.407221495  163.437620246    78.1488   5  11   0.6552   0.6370   2.3539  -0.3178   0.8610  -0.8680   0.00    0.0
2018/11/13 00:01:30.000  -74.407224104  163.437621051    78.1384   5  11   0.6560   0.6382   2.3625  -0.3194   0.8651  -0.8714   0.00    0.0
2018/11/13 00:01:45.000  -74.407224062  163.437628844    79.1910   5  11   0.6569   0.6394   2.3715  -0.3211   0.8693  -0.8749   0.00    0.0
2018/11/13 00:02:00.000  -74.407222968  163.437611857    78.2413   5  11   0.6578   0.6407   2.3807  -0.3228   0.8736  -0.8785   0.00    0.0
2018/11/13 00:02:15.000  -74.407225726  163.437624800    79.5487   5  11   0.6589   0.6421   2.3902  -0.3246   0.8781  -0.8822   0.00    0.0
2018/11/13 00:02:30.000  -74.407225251  163.437622347    78.7889   5  11   0.6600   0.6436   2.3999  -0.3264   0.8826  -0.8860   0.00    0.0
2018/11/13 00:02:45.000  -74.407222083  163.437620078    78.0369   5  11   0.6598   0.6434   2.4039  -0.3271   0.8845  -0.8879   0.00    0.0
2018/11/13 00:03:00.000  -74.407222945  163.437625640    78.8586   5  11   0.6597   0.6432   2.4081  -0.3279   0.8865  -0.8898   0.00    0.0
2018/11/13 00:03:15.000  -74.407226775  163.437622628    79.1716   5  11   0.6596   0.6431   2.4126  -0.3286   0.8885  -0.8918   0.00    0.0
2018/11/13 00:03:30.000  -74.407224312  163.437627309    79.1093   5  11   0.6596   0.6431   2.4173  -0.3295   0.8906  -0.8939   0.00    0.0
2018/11/13 00:03:45.000  -74.407225093  163.437625782    79.3594   5  11   0.6597   0.6432   2.4222  -0.3303   0.8929  -0.8961   0.00    0.0
2018/11/13 00:04:00.000  -74.407223619  163.437617719    79.6246   5  11   0.6598   0.6434   2.4273  -0.3313   0.8952  -0.8983   0.00    0.0
2018/11/13 00:04:15.000  -74.407223257  163.437624491    78.6410   5  11   0.6600   0.6436   2.4327  -0.3323   0.8977  -0.9007   0.00    0.0
2018/11/13 00:04:30.000  -74.407223192  163.437618933    79.0462   5  11   0.6603   0.6439   2.4383  -0.3333   0.9002  -0.9031   0.00    0.0
2018/11/13 00:04:45.000  -74.407223054  163.437624371    78.3166   5  11   0.6607   0.6444   2.4442  -0.3344   0.9029  -0.9056   0.00    0.0
2018/11/13 00:05:00.000  -74.407221947  163.437625502    78.3127   5  11   0.6611   0.6449   2.4503  -0.3355   0.9057  -0.9082   0.00    0.0
2018/11/13 00:05:15.000  -74.407224187  163.437618164    78.4348   5  11   0.6617   0.6455   2.4568  -0.3367   0.9087  -0.9110   0.00    0.0
2018/11/13 00:05:30.000  -74.407224577  163.437628393    79.2165   5  11   0.6623   0.6462   2.4635  -0.3380   0.9117  -0.9139   0.00    0.0
2018/11/13 00:05:45.000  -74.407224571  163.437626547    78.7041   5  11   0.6630   0.6470   2.4705  -0.3393   0.9149  -0.9168   0.00    0.0
2018/11/13 00:06:00.000  -74.407223775  163.437624035    78.0218   5  11   0.6637   0.6479   2.4777  -0.3407   0.9182  -0.9198   0.00    0.0
2018/11/13 00:06:15.000  -74.407225291  163.437624250    79.1616   5  11   0.6645   0.6489   2.4851  -0.3421   0.9216  -0.9229   0.00    0.0
2018/11/13 00:06:30.000  -74.407222607  163.437630585    79.1595   5  11   0.6654   0.6500   2.4927  -0.3436   0.9250  -0.9261   0.00    0.0
2018/11/13 00:06:45.000  -74.407224021  163.437624407    78.1789   5  11   0.6664   0.6511   2.5005  -0.3450   0.9286  -0.9293   0.00    0.0
2018/11/13 00:07:00.000  -74.407223194  163.437625727    78.4454   5  11   0.6674   0.6523   2.5086  -0.3466   0.9322  -0.9326   0.00    0.0
2018/11/13 00:07:15.000  -74.407223689  163.437627480    79.0012   5  11   0.6685   0.6536   2.5168  -0.3482   0.9359  -0.9360   0.00    0.0
2018/11/13 00:07:30.000  -74.407221848  163.437625958    78.6339   5  11   0.6697   0.6550   2.5252  -0.3498   0.9397  -0.9395   0.00    0.0
2018/11/13 00:07:45.000  -74.407223736  163.437625436    78.8127   5  11   0.6695   0.6546   2.5276  -0.3502   0.9406  -0.9409   0.00    0.0
2018/11/13 00:08:00.000  -74.407224464  163.437628460    78.8502   5  11   0.6694   0.6543   2.5303  -0.3507   0.9418  -0.9423   0.00    0.0
2018/11/13 00:08:15.000  -74.407222184  163.437630778    78.4254   5  11   0.6693   0.6540   2.5332  -0.3513   0.9430  -0.9439   0.00    0.0
2018/11/13 00:08:30.000  -74.407221474  163.437626705    78.7959   5  11   0.6694   0.6539   2.5362  -0.3519   0.9442  -0.9455   0.00    0.0
2018/11/13 00:08:45.000  -74.407223586  163.437627822    78.8677   5  11   0.6695   0.6538   2.5395  -0.3525   0.9456  -0.9472   0.00    0.0
2018/11/13 00:09:00.000  -74.407223203  163.437627597    78.6010   5  11   0.6696   0.6538   2.5429  -0.3531   0.9470  -0.9490   0.00    0.0
2018/11/13 00:09:15.000  -74.407221525  163.437614612    77.4985   5  11   0.6699   0.6539   2.5465  -0.3538   0.9486  -0.9508   0.00    0.0
2018/11/13 00:09:30.000  -74.407221457  163.437631492    79.2453   5  11   0.6702   0.6540   2.5503  -0.3546   0.9501  -0.9527   0.00    0.0
2018/11/13 00:09:45.000  -74.407221505  163.437617767    77.9567   5  11   0.6705   0.6543   2.5542  -0.3554   0.9518  -0.9547   0.00    0.0
2018/11/13 00:10:00.000  -74.407220264  163.437618088    78.2198   5  11   0.6710   0.6546   2.5584  -0.3562   0.9535  -0.9567   0.00    0.0
2018/11/13 00:10:15.000  -74.407224531  163.437627934    79.5895   5  11   0.6715   0.6550   2.5628  -0.3571   0.9554  -0.9588   0.00    0.0
2018/11/13 00:10:30.000  -74.407222231  163.437623912    79.3354   5  11   0.6721   0.6555   2.5675  -0.3580   0.9574  -0.9610   0.00    0.0
2018/11/13 00:10:45.000  -74.407223153  163.437634607    78.4876   5  11   0.6727   0.6561   2.5723  -0.3589   0.9594  -0.9633   0.00    0.0
2018/11/13 00:11:00.000  -74.407222490  163.437625819    78.5687   5  11   0.6734   0.6567   2.5772  -0.3599   0.9615  -0.9655   0.00    0.0
2018/11/13 00:11:15.000  -74.407222754  163.437622528    78.6005   5  11   0.6742   0.6574   2.5823  -0.3609   0.9637  -0.9679   0.00    0.0
2018/11/13 00:11:30.000  -74.407221212  163.437619389    78.4380   5  11   0.6750   0.6582   2.5875  -0.3620   0.9659  -0.9703   0.00    0.0
2018/11/13 00:11:45.000  -74.407222818  163.437619464    78.7534   5  11   0.6759   0.6591   2.5929  -0.3630   0.9681  -0.9727   0.00    0.0
2018/11/13 00:12:00.000  -74.407222107  163.437620269    79.0829   5  11   0.6769   0.6600   2.5984  -0.3641   0.9704  -0.9752   0.00    0.0
2018/11/13 00:12:15.000  -74.407220778  163.437623110    78.3455   5  11   0.6779   0.6610   2.6041  -0.3652   0.9728  -0.9778   0.00    0.0
2018/11/13 00:12:30.000  -74.407223178  163.437622817    79.0300   5  11   0.6790   0.6620   2.6099  -0.3664   0.9752  -0.9803   0.00    0.0
2018/11/13 00:12:45.000  -74.407223413  163.437617578    77.6367   5  11   0.6788   0.6614   2.6097  -0.3664   0.9749  -0.9809   0.00    0.0
2018/11/13 00:13:00.000  -74.407223867  163.437621469    79.3478   5  11   0.6786   0.6608   2.6097  -0.3665   0.9747  -0.9815   0.00    0.0
2018/11/13 00:13:15.000  -74.407225346  163.437627562    79.3727   5  11   0.6785   0.6603   2.6099  -0.3666   0.9746  -0.9822   0.00    0.0
2018/11/13 00:13:30.000  -74.407224475  163.437628361    79.0496   5  11   0.6784   0.6598   2.6102  -0.3667   0.9745  -0.9829   0.00    0.0
2018/11/13 00:13:45.000  -74.407223104  163.437631456    78.9180   5  11   0.6784   0.6594   2.6106  -0.3669   0.9744  -0.9836   0.00    0.0
2018/11/13 00:14:00.000  -74.407227304  163.437626252    79.3339   5  11   0.6785   0.6591   2.6111  -0.3671   0.9745  -0.9844   0.00    0.0
2018/11/13 00:14:15.000  -74.407224784  163.437624321    79.8308   5  11   0.6786   0.6588   2.6118  -0.3673   0.9745  -0.9853   0.00    0.0
2018/11/13 00:14:30.000  -74.407223049  163.437622012    77.9866   5  11   0.6788   0.6587   2.6126  -0.3675   0.9746  -0.9861   0.00    0.0
2018/11/13 00:14:45.000  -74.407221215  163.437618772    77.9556   5  11   0.6790   0.6585   2.6135  -0.3678   0.9748  -0.9870   0.00    0.0
2018/11/13 00:15:00.000  -74.407222725  163.437619828    79.0680   5  11   0.6793   0.6585   2.6146  -0.3681   0.9750  -0.9880   0.00    0.0
2018/11/13 00:15:15.000  -74.407225335  163.437622228    78.0903   5  11   0.6797   0.6586   2.6159  -0.3684   0.9753  -0.9890   0.00    0.0
2018/11/13 00:15:30.000  -74.407223607  163.437617318    77.7067   5  11   0.6802   0.6587   2.6173  -0.3687   0.9757  -0.9901   0.00    0.0
2018/11/13 00:15:45.000  -74.407221972  163.437620976    77.5805   5  11   0.6807   0.6589   2.6189  -0.3691   0.9761  -0.9912   0.00    0.0
2018/11/13 00:16:00.000  -74.407223808  163.437610703    76.9268   5  11   0.6812   0.6591   2.6205  -0.3695   0.9765  -0.9923   0.00    0.0
2018/11/13 00:16:15.000  -74.407222464  163.437614673    76.4845   5  11   0.6818   0.6595   2.6223  -0.3699   0.9770  -0.9935   0.00    0.0
2018/11/13 00:16:30.000  -74.407222657  163.437619636    78.2901   5  11   0.6825   0.6598   2.6242  -0.3703   0.9775  -0.9947   0.00    0.0
2018/11/13 00:16:45.000  -74.407221924  163.437613825    76.6773   5  11   0.6832   0.6603   2.6261  -0.3708   0.9780  -0.9959   0.00    0.0
2018/11/13 00:17:00.000  -74.407221986  163.437608974    76.9538   5  11   0.6840   0.6608   2.6282  -0.3712   0.9785  -0.9971   0.00    0.0
2018/11/13 00:17:15.000  -74.407221821  163.437616656    77.9576   5  11   0.6848   0.6613   2.6303  -0.3717   0.9791  -0.9984   0.00    0.0
2018/11/13 00:17:30.000  -74.407222017  163.437625501    77.6788   5  11   0.6857   0.6619   2.6326  -0.3721   0.9797  -0.9997   0.00    0.0
2018/11/13 00:17:45.000  -74.407222378  163.437613240    77.4567   5  11   0.6853   0.6609   2.6292  -0.3717   0.9779  -0.9991   0.00    0.0
2018/11/13 00:18:00.000  -74.407222851  163.437617980    77.9544   5  11   0.6850   0.6600   2.6259  -0.3712   0.9760  -0.9985   0.00    0.0
2018/11/13 00:18:15.000  -74.407222362  163.437617663    77.7882   5  11   0.6847   0.6591   2.6226  -0.3707   0.9743  -0.9980   0.00    0.0
2018/11/13 00:18:30.000  -74.407224139  163.437617364    78.3725   5  11   0.6845   0.6582   2.6195  -0.3702   0.9725  -0.9975   0.00    0.0
2018/11/13 00:18:45.000  -74.407220513  163.437615645    77.8494   5  11   0.6843   0.6574   2.6165  -0.3698   0.9708  -0.9970   0.00    0.0
2018/11/13 00:19:00.000  -74.407223711  163.437611191    77.7688   5  11   0.6842   0.6567   2.6135  -0.3693   0.9691  -0.9965   0.00    0.0
2018/11/13 00:19:15.000  -74.407223913  163.437621785    78.7701   5  11   0.6841   0.6561   2.6107  -0.3689   0.9675  -0.9961   0.00    0.0
2018/11/13 00:19:30.000  -74.407224944  163.437620387    78.4613   5  11   0.6841   0.6555   2.6081  -0.3685   0.9659  -0.9957   0.00    0.0
2018/11/13 00:19:45.000  -74.407219757  163.437614573    77.2377   5  11   0.6841   0.6550   2.6055  -0.3681   0.9643  -0.9953   0.00    0.0
2018/11/13 00:20:00.000  -74.407220577  163.437623889    77.3046   5  11   0.6842   0.6545   2.6030  -0.3678   0.9628  -0.9950   0.00    0.0
2018/11/13 00:20:15.000  -74.407220946  163.437624928    77.4300   5  11   0.6844   0.6542   2.6008  -0.3675   0.9614  -0.9947   0.00    0.0
2018/11/13 00:20:30.000  -74.407220749  163.437617798    77.1312   5  11   0.6846   0.6539   2.5988  -0.3672   0.9600  -0.9945   0.00    0.0
2018/11/13 00:20:45.000  -74.407221226  163.437618325    77.7295   5  11   0.6849   0.6537   2.5968  -0.3669   0.9586  -0.9943   0.00    0.0
2018/11/13 00:21:00.000  -74.407219818  163.437612756    76.7467   5  11   0.6853   0.6535   2.5950  -0.3666   0.9573  -0.9941   0.00    0.0
2018/11/13 00:21:15.000  -74.407221469  163.437619307    77.4540   5  11   0.6857   0.6534   2.5933  -0.3663   0.9560  -0.9939   0.00    0.0
2018/11/13 00:21:30.000  -74.407220843  163.437622444    77.0370   5  11   0.6861   0.6534   2.5916  -0.3661   0.9547  -0.9938   0.00    0.0
2018/11/13 00:21:45.000  -74.407220785  163.437616728    77.2219   5  11   0.6866   0.6534   2.5901  -0.3658   0.9534  -0.9937   0.00    0.0
2018/11/13 00:22:00.000  -74.407223122  163.437619931    77.0107   5  11   0.6871   0.6535   2.5887  -0.3656   0.9522  -0.9936   0.00    0.0
2018/11/13 00:22:15.000  -74.407221587  163.437614125    77.0468   5  11   0.6877   0.6536   2.5874  -0.3653   0.9509  -0.9935   0.00    0.0
2018/11/13 00:22:30.000  -74.407221733  163.437625504    77.5422   5  11   0.6884   0.6538   2.5862  -0.3651   0.9497  -0.9934   0.00    0.0
2018/11/13 00:22:45.000  -74.407221436  163.437621022    77.5857   5  11   0.6878   0.6525   2.5796  -0.3640   0.9463  -0.9916   0.00    0.0
2018/11/13 00:23:00.000  -74.407220441  163.437616742    75.9609   5  11   0.6873   0.6512   2.5731  -0.3629   0.9430  -0.9899   0.00    0.0
2018/11/13 00:23:15.000  -74.407217875  163.437618242    76.6809   5  11   0.6868   0.6500   2.5667  -0.3619   0.9396  -0.9882   0.00    0.0
2018/11/13 00:23:30.000  -74.407219758  163.437614129    76.6504   5  11   0.6864   0.6488   2.5605  -0.3608   0.9364  -0.9865   0.00    0.0
2018/11/13 00:23:45.000  -74.407220631  163.437614715    77.0266   5  11   0.6860   0.6477   2.5544  -0.3598   0.9331  -0.9848   0.00    0.0
2018/11/13 00:24:00.000  -74.407222654  163.437614603    76.6207   5  11   0.6857   0.6467   2.5485  -0.3588   0.9299  -0.9832   0.00    0.0
2018/11/13 00:24:15.000  -74.407222988  163.437629047    77.8130   5  11   0.6855   0.6457   2.5427  -0.3578   0.9268  -0.9817   0.00    0.0
2018/11/13 00:24:30.000  -74.407222369  163.437619649    77.3871   5  11   0.6853   0.6448   2.5370  -0.3568   0.9237  -0.9801   0.00    0.0
2018/11/13 00:24:45.000  -74.407222522  163.437619400    77.7320   5  11   0.6851   0.6440   2.5315  -0.3558   0.9206  -0.9786   0.00    0.0
2018/11/13 00:25:00.000  -74.407219606  163.437617791    76.6846   5  11   0.6851   0.6433   2.5262  -0.3549   0.9176  -0.9771   0.00    0.0
2018/11/13 00:25:15.000  -74.407221218  163.437620130    77.3007   5  11   0.6850   0.6426   2.5211  -0.3540   0.9147  -0.9758   0.00    0.0
2018/11/13 00:25:30.000  -74.407222516  163.437625101    78.2173   5  11   0.6851   0.6420   2.5163  -0.3531   0.9118  -0.9744   0.00    0.0
2018/11/13 00:25:45.000  -74.407221777  163.437621028    77.9601   5  11   0.6852   0.6415   2.5115  -0.3522   0.9089  -0.9731   0.00    0.0
2018/11/13 00:26:00.000  -74.407218727  163.437617640    76.2634   5  10   0.9389   0.6740   3.5812  -0.5070   1.1635  -1.6079   0.00    0.0
2018/11/13 00:26:15.000  -74.407217291  163.437615197    75.1630   5  10   0.9388   0.6733   3.5754  -0.5057   1.1598  -1.6061   0.00    0.0
2018/11/13 00:26:30.000  -74.407218844  163.437611388    75.3672   5  10   0.9387   0.6727   3.5698  -0.5043   1.1561  -1.6044   0.00    0.0
2018/11/13 00:26:45.000  -74.407216979  163.437622634    75.3696   5  10   0.9387   0.6721   3.5643  -0.5029   1.1524  -1.6027   0.00    0.0
2018/11/13 00:27:00.000  -74.407217310  163.437613599    75.5318   5  10   0.9388   0.6715   3.5589  -0.5015   1.1487  -1.6010   0.00    0.0
2018/11/13 00:27:15.000  -74.407218120  163.437608142    75.1590   5  10   0.9389   0.6710   3.5536  -0.5001   1.1450  -1.5994   0.00    0.0
2018/11/13 00:27:30.000  -74.407216463  163.437617216    75.1333   5  10   0.9391   0.6706   3.5485  -0.4988   1.1413  -1.5978   0.00    0.0
2018/11/13 00:27:45.000  -74.407218551  163.437624545    76.1497   5  10   0.9369   0.6685   3.5333  -0.4959   1.1343  -1.5917   0.00    0.0
2018/11/13 00:28:00.000  -74.407219826  163.437621001    76.3355   5  10   0.9348   0.6665   3.5181  -0.4929   1.1274  -1.5857   0.00    0.0
2018/11/13 00:28:15.000  -74.407223365  163.437620581    77.1859   5  10   0.9328   0.6646   3.5032  -0.4901   1.1204  -1.5797   0.00    0.0
2018/11/13 00:28:30.000  -74.407218442  163.437622505    75.5047   5  10   0.9308   0.6627   3.4884  -0.4872   1.1136  -1.5738   0.00    0.0
2018/11/13 00:28:45.000  -74.407216526  163.437607067    74.0953   5  10   0.9289   0.6609   3.4738  -0.4843   1.1067  -1.5680   0.00    0.0
2018/11/13 00:29:00.000  -74.407219672  163.437620310    75.9836   5  10   0.9270   0.6591   3.4595  -0.4815   1.1000  -1.5623   0.00    0.0
2018/11/13 00:29:15.000  -74.407214604  163.437615870    75.0872   5  10   0.9253   0.6575   3.4453  -0.4787   1.0933  -1.5567   0.00    0.0
2018/11/13 00:29:30.000  -74.407222414  163.437620226    77.3422   5  10   0.9236   0.6559   3.4315  -0.4759   1.0866  -1.5511   0.00    0.0
2018/11/13 00:29:45.000  -74.407219664  163.437612841    75.3029   5   9   0.9261   0.6545   3.6690  -0.4722   1.0737  -1.5829   0.00    0.0
2018/11/13 00:30:00.000  -74.407216116  163.437617365    74.2391   5   9   0.9247   0.6530   3.6575  -0.4694   1.0671  -1.5781   0.00    0.0
2018/11/13 00:30:15.000  -74.407218112  163.437612792    74.7376   5   9   0.9234   0.6517   3.6466  -0.4667   1.0607  -1.5736   0.00    0.0
2018/11/13 00:30:30.000  -74.407218636  163.437617801    74.6091   5   9   0.9221   0.6505   3.6360  -0.4640   1.0542  -1.5692   0.00    0.0
2018/11/13 00:30:45.000  -74.407218175  163.437614941    75.1071   5   9   0.9210   0.6493   3.6258  -0.4614   1.0479  -1.5649   0.00    0.0
2018/11/13 00:31:00.000  -74.407215629  163.437610530    74.3070   5   9   0.9199   0.6482   3.6157  -0.4587   1.0415  -1.5608   0.00    0.0
2018/11/13 00:31:15.000  -74.407214849  163.437616130    73.9733   5   9   0.9190   0.6472   3.6060  -0.4561   1.0352  -1.5567   0.00    0.0
2018/11/13 00:31:30.000  -74.407219255  163.437612780    75.4682   5   9   0.9180   0.6463   3.5967  -0.4535   1.0289  -1.5527   0.00    0.0
2018/11/13 00:31:45.000  -74.407220529  163.437609588    75.1557   5   9   0.9172   0.6454   3.5876  -0.4509   1.0227  -1.5489   0.00    0.0
2018/11/13 00:32:00.000  -74.407217970  163.437612243    74.6701   5   9   0.9165   0.6446   3.5789  -0.4483   1.0165  -1.5451   0.00    0.0
2018/11/13 00:32:15.000  -74.407221493  163.437619060    75.5693   5   9   0.9158   0.6439   3.5705  -0.4458   1.0103  -1.5415   0.00    0.0
2018/11/13 00:32:30.000  -74.407217939  163.437616661    75.3251   5  10   0.7516   0.6391   2.6931  -0.3977   0.9151  -1.0712   0.00    0.0
2018/11/13 00:32:45.000  -74.407220219  163.437611780    77.1983   5  10   0.7505   0.6373   2.6850  -0.3959   0.9102  -1.0684   0.00    0.0
2018/11/13 00:33:00.000  -74.407219846  163.437620064    75.9544   5  10   0.7496   0.6356   2.6772  -0.3941   0.9054  -1.0656   0.00    0.0
2018/11/13 00:33:15.000  -74.407222628  163.437618138    77.1604   5  10   0.7487   0.6340   2.6697  -0.3924   0.9006  -1.0629   0.00    0.0
2018/11/13 00:33:30.000  -74.407219291  163.437616005    76.5185   5  10   0.7478   0.6324   2.6623  -0.3907   0.8959  -1.0603   0.00    0.0
2018/11/13 00:33:45.000  -74.407224213  163.437617994    77.3762   5  10   0.7471   0.6309   2.6552  -0.3890   0.8912  -1.0577   0.00    0.0
2018/11/13 00:34:00.000  -74.407222022  163.437614206    76.9955   5  10   0.7464   0.6295   2.6483  -0.3873   0.8866  -1.0552   0.00    0.0
2018/11/13 00:34:15.000  -74.407221391  163.437620934    76.9129   5  10   0.7457   0.6281   2.6416  -0.3857   0.8821  -1.0528   0.00    0.0
2018/11/13 00:34:30.000  -74.407221997  163.437619441    76.5839   5  10   0.7452   0.6269   2.6351  -0.3841   0.8776  -1.0504   0.00    0.0
2018/11/13 00:34:45.000  -74.407219228  163.437620313    76.1255   5  10   0.7447   0.6257   2.6289  -0.3825   0.8731  -1.0481   0.00    0.0
2018/11/13 00:35:00.000  -74.407223472  163.437626915    78.1056   5  10   0.7442   0.6245   2.6229  -0.3810   0.8687  -1.0459   0.00    0.0
2018/11/13 00:35:15.000  -74.407218288  163.437613476    75.5250   5  10   0.7439   0.6235   2.6174  -0.3795   0.8645  -1.0438   0.00    0.0
2018/11/13 00:35:30.000  -74.407220204  163.437621085    77.4325   5  10   0.7437   0.6226   2.6121  -0.3781   0.8603  -1.0417   0.00    0.0
2018/11/13 00:35:45.000  -74.407225330  163.437627906    78.4114   5  10   0.7435   0.6217   2.6071  -0.3767   0.8561  -1.0398   0.00    0.0
2018/11/13 00:36:00.000  -74.407224182  163.437626951    77.0495   5  10   0.7433   0.6209   2.6024  -0.3753   0.8520  -1.0379   0.00    0.0
2018/11/13 00:36:15.000  -74.407224494  163.437627392    78.4082   5  10   0.7433   0.6202   2.5980  -0.3740   0.8480  -1.0361   0.00    0.0
2018/11/13 00:36:30.000  -74.407225239  163.437630630    77.5844   5  10   0.7433   0.6196   2.5938  -0.3727   0.8440  -1.0343   0.00    0.0
2018/11/13 00:36:45.000  -74.407222723  163.437627659    76.2246   5  10   0.7434   0.6190   2.5899  -0.3714   0.8401  -1.0327   0.00    0.0
2018/11/13 00:37:00.000  -74.407223333  163.437625512    76.6350   5  10   0.7435   0.6185   2.5864  -0.3701   0.8363  -1.0311   0.00    0.0
2018/11/13 00:37:15.000  -74.407224398  163.437621866    77.1620   5  10   0.7437   0.6181   2.5830  -0.3689   0.8324  -1.0296   0.00    0.0
2018/11/13 00:37:30.000  -74.407224597  163.437623376    77.6072   5  10   0.7440   0.6177   2.5800  -0.3677   0.8287  -1.0282   0.00    0.0
2018/11/13 00:37:45.000  -74.407224712  163.437627182    77.4614   5  10   0.7429   0.6160   2.5702  -0.3656   0.8229  -1.0246   0.00    0.0
2018/11/13 00:38:00.000  -74.407225084  163.437622232    77.5401   5  10   0.7419   0.6143   2.5606  -0.3635   0.8172  -1.0212   0.00    0.0
2018/11/13 00:38:15.000  -74.407222783  163.437623959    76.9249   5  10   0.7409   0.6127   2.5513  -0.3614   0.8115  -1.0178   0.00    0.0
2018/11/13 00:38:30.000  -74.407225371  163.437630492    77.7156   5  10   0.7400   0.6112   2.5423  -0.3594   0.8060  -1.0145   0.00    0.0
2018/11/13 00:38:45.000  -74.407227875  163.437630968    78.6870   5  10   0.7391   0.6097   2.5335  -0.3575   0.8005  -1.0113   0.00    0.0
2018/11/13 00:39:00.000  -74.407224689  163.437624985    78.1419   5  10   0.7384   0.6084   2.5251  -0.3555   0.7950  -1.0081   0.00    0.0
2018/11/13 00:39:15.000  -74.407223363  163.437627192    78.0421   5  10   0.7377   0.6071   2.5170  -0.3537   0.7897  -1.0051   0.00    0.0
2018/11/13 00:39:30.000  -74.407221802  163.437626357    77.8857   5  10   0.7371   0.6059   2.5092  -0.3518   0.7844  -1.0021   0.00    0.0
2018/11/13 00:39:45.000  -74.407223386  163.437627969    78.3526   5  10   0.7365   0.6047   2.5017  -0.3500   0.7792  -0.9993   0.00    0.0
2018/11/13 00:40:00.000  -74.407226433  163.437629939    78.3686   5  10   0.7360   0.6037   2.4945  -0.3482   0.7741  -0.9965   0.00    0.0
2018/11/13 00:40:15.000  -74.407221791  163.437618077    77.4302   5  10   0.7357   0.6028   2.4879  -0.3465   0.7691  -0.9939   0.00    0.0
2018/11/13 00:40:30.000  -74.407224159  163.437627621    78.7478   5  10   0.7354   0.6019   2.4816  -0.3448   0.7641  -0.9914   0.00    0.0
2018/11/13 00:40:45.000  -74.407223343  163.437614145    77.6213   5  10   0.7351   0.6011   2.4757  -0.3431   0.7593  -0.9890   0.00    0.0
2018/11/13 00:41:00.000  -74.407223437  163.437614306    77.6361   5  10   0.7350   0.6004   2.4701  -0.3415   0.7545  -0.9867   0.00    0.0
2018/11/13 00:41:15.000  -74.407223222  163.437627064    79.0479   5  10   0.7349   0.5998   2.4648  -0.3400   0.7497  -0.9845   0.00    0.0
2018/11/13 00:41:30.000  -74.407225185  163.437616491    78.7597   5  10   0.7349   0.5992   2.4599  -0.3384   0.7450  -0.9824   0.00    0.0
2018/11/13 00:41:45.000  -74.407222442  163.437622942    77.8210   5  10   0.7349   0.5988   2.4553  -0.3369   0.7404  -0.9803   0.00    0.0
2018/11/13 00:42:00.000  -74.407221451  163.437617723    77.6547   5  10   0.7351   0.5984   2.4511  -0.3354   0.7359  -0.9784   0.00    0.0
2018/11/13 00:42:15.000  -74.407223688  163.437611232    78.1729   5  10   0.7353   0.5980   2.4472  -0.3340   0.7314  -0.9766   0.00    0.0
2018/11/13 00:42:30.000  -74.407224908  163.437627329    78.7707   5  10   0.7355   0.5978   2.4436  -0.3325   0.7269  -0.9748   0.00    0.0
2018/11/13 00:42:45.000  -74.407221789  163.437620683    77.4524   5  10   0.7344   0.5962   2.4333  -0.3303   0.7207  -0.9711   0.00    0.0
2018/11/13 00:43:00.000  -74.407222383  163.437617642    77.6171   5  10   0.7334   0.5947   2.4231  -0.3281   0.7146  -0.9673   0.00    0.0
2018/11/13 00:43:15.000  -74.407223689  163.437618592    78.0294   5  10   0.7325   0.5933   2.4133  -0.3260   0.7085  -0.9637   0.00    0.0
2018/11/13 00:43:30.000  -74.407223312  163.437633374    78.9789   5  10   0.7316   0.5920   2.4039  -0.3239   0.7025  -0.9602   0.00    0.0
2018/11/13 00:43:45.000  -74.407223134  163.437623736    78.2859   5  10   0.7308   0.5908   2.3948  -0.3218   0.6966  -0.9568   0.00    0.0
2018/11/13 00:44:00.000  -74.407224307  163.437631003    77.2790   5  10   0.7301   0.5896   2.3860  -0.3198   0.6908  -0.9536   0.00    0.0
2018/11/13 00:44:15.000  -74.407221589  163.437628041    77.2161   5  10   0.7295   0.5885   2.3776  -0.3178   0.6851  -0.9504   0.00    0.0
2018/11/13 00:44:30.000  -74.407225264  163.437624290    77.7609   5  10   0.7289   0.5875   2.3696  -0.3158   0.6794  -0.9473   0.00    0.0
2018/11/13 00:44:45.000  -74.407224918  163.437632246    77.0509   5  10   0.7284   0.5866   2.3620  -0.3139   0.6738  -0.9444   0.00    0.0
2018/11/13 00:45:00.000  -74.407220588  163.437620632    77.5072   5  10   0.7280   0.5857   2.3547  -0.3120   0.6683  -0.9415   0.00    0.0
2018/11/13 00:45:15.000  -74.407221843  163.437632231    77.5296   5  10   0.7277   0.5850   2.3481  -0.3102   0.6629  -0.9388   0.00    0.0
2018/11/13 00:45:30.000  -74.407222262  163.437626807    77.7981   5  10   0.7274   0.5844   2.3418  -0.3084   0.6575  -0.9362   0.00    0.0
2018/11/13 00:45:45.000  -74.407225592  163.437622115    78.2601   5  10   0.7272   0.5838   2.3359  -0.3067   0.6522  -0.9338   0.00    0.0
2018/11/13 00:46:00.000  -74.407224064  163.437624184    77.5972   5  10   0.7271   0.5833   2.3304  -0.3050   0.6470  -0.9314   0.00    0.0
2018/11/13 00:46:15.000  -74.407223117  163.437634149    77.7344   5  10   0.7271   0.5828   2.3253  -0.3033   0.6418  -0.9292   0.00    0.0
2018/11/13 00:46:30.000  -74.407223275  163.437636202    78.9467   5  10   0.7272   0.5825   2.3205  -0.3017   0.6367  -0.9270   0.00    0.0
2018/11/13 00:46:45.000  -74.407224075  163.437622849    77.0351   5  10   0.7273   0.5822   2.3161  -0.3000   0.6316  -0.9250   0.00    0.0
2018/11/13 00:47:00.000  -74.407222199  163.437625929    77.7311   5  10   0.7275   0.5820   2.3121  -0.2985   0.6266  -0.9230   0.00    0.0
2018/11/13 00:47:15.000  -74.407221520  163.437630792    76.6721   5  10   0.7277   0.5819   2.3085  -0.2969   0.6216  -0.9212   0.00    0.0
2018/11/13 00:47:30.000  -74.407226445  163.437626537    78.6502   5  10   0.7281   0.5818   2.3052  -0.2954   0.6166  -0.9195   0.00    0.0
2018/11/13 00:47:45.000  -74.407222739  163.437628243    77.6783   5  10   0.7271   0.5806   2.2950  -0.2931   0.6103  -0.9158   0.00    0.0
2018/11/13 00:48:00.000  -74.407223271  163.437630614    76.2747   5  10   0.7262   0.5793   2.2852  -0.2910   0.6039  -0.9122   0.00    0.0
2018/11/13 00:48:15.000  -74.407224457  163.437624321    77.4191   5  10   0.7254   0.5782   2.2758  -0.2888   0.5977  -0.9087   0.00    0.0
2018/11/13 00:48:30.000  -74.407224941  163.437632830    77.7850   5  10   0.7246   0.5771   2.2668  -0.2867   0.5915  -0.9054   0.00    0.0
2018/11/13 00:48:45.000  -74.407222873  163.437624254    76.6154   5  10   0.7239   0.5762   2.2582  -0.2846   0.5854  -0.9022   0.00    0.0
2018/11/13 00:49:00.000  -74.407226045  163.437629773    78.6103   5  10   0.7233   0.5752   2.2500  -0.2826   0.5794  -0.8990   0.00    0.0
2018/11/13 00:49:15.000  -74.407226272  163.437627078    78.7062   5  10   0.7228   0.5744   2.2422  -0.2806   0.5734  -0.8960   0.00    0.0
2018/11/13 00:49:30.000  -74.407221149  163.437625999    76.3329   5  10   0.7223   0.5737   2.2348  -0.2786   0.5675  -0.8932   0.00    0.0
2018/11/13 00:49:45.000  -74.407222941  163.437625019    76.8076   5  10   0.7219   0.5730   2.2277  -0.2767   0.5616  -0.8904   0.00    0.0
2018/11/13 00:50:00.000  -74.407221649  163.437626556    76.4544   5  10   0.7216   0.5724   2.2211  -0.2748   0.5557  -0.8877   0.00    0.0
2018/11/13 00:50:15.000  -74.407221989  163.437623783    76.8456   5  10   0.7214   0.5719   2.2151  -0.2730   0.5500  -0.8852   0.00    0.0
2018/11/13 00:50:30.000  -74.407224505  163.437629848    78.7898   5  10   0.7213   0.5715   2.2094  -0.2712   0.5443  -0.8828   0.00    0.0
2018/11/13 00:50:45.000  -74.407223879  163.437627015    78.2229   5  10   0.7212   0.5712   2.2042  -0.2694   0.5386  -0.8805   0.00    0.0
2018/11/13 00:51:00.000  -74.407222964  163.437625619    78.1406   5  10   0.7212   0.5709   2.1993  -0.2676   0.5329  -0.8784   0.00    0.0
2018/11/13 00:51:15.000  -74.407223015  163.437629542    77.9570   5  10   0.7213   0.5707   2.1948  -0.2659   0.5273  -0.8763   0.00    0.0
2018/11/13 00:51:30.000  -74.407222610  163.437629956    77.3313   5  10   0.7215   0.5706   2.1907  -0.2642   0.5217  -0.8743   0.00    0.0
2018/11/13 00:51:45.000  -74.407224478  163.437628948    77.2384   5  10   0.7217   0.5706   2.1870  -0.2626   0.5161  -0.8725   0.00    0.0
2018/11/13 00:52:00.000  -74.407223386  163.437629010    76.7905   5  10   0.7220   0.5707   2.1836  -0.2609   0.5105  -0.8707   0.00    0.0
2018/11/13 00:52:15.000  -74.407223929  163.437626291    78.0180   5  10   0.7224   0.5708   2.1807  -0.2593   0.5049  -0.8691   0.00    0.0
2018/11/13 00:52:30.000  -74.407223615  163.437628630    77.7172   5  10   0.7228   0.5710   2.1780  -0.2577   0.4993  -0.8675   0.00    0.0
2018/11/13 00:52:45.000  -74.407222988  163.437633970    77.3914   5  10   0.7220   0.5700   2.1689  -0.2556   0.4928  -0.8642   0.00    0.0
2018/11/13 00:53:00.000  -74.407224680  163.437626018    78.5231   5  10   0.7212   0.5690   2.1601  -0.2534   0.4862  -0.8610   0.00    0.0
2018/11/13 00:53:15.000  -74.407222755  163.437630323    78.0744   5  10   0.7205   0.5682   2.1516  -0.2513   0.4797  -0.8578   0.00    0.0
2018/11/13 00:53:30.000  -74.407226002  163.437631734    78.4123   5  11   0.6204   0.5502   1.7988  -0.1069   0.2492  -0.5522   0.00    0.0
2018/11/13 00:53:45.000  -74.407225550  163.437626885    77.9046   5  11   0.6202   0.5497   1.7952  -0.1046   0.2422  -0.5512   0.00    0.0
2018/11/13 00:54:00.000  -74.407226528  163.437620983    79.0564   5  11   0.6200   0.5494   1.7919  -0.1024   0.2350  -0.5503   0.00    0.0
2018/11/13 00:54:15.000  -74.407226337  163.437623285    78.3852   5  11   0.6198   0.5491   1.7890  -0.1000   0.2276  -0.5495   0.00    0.0
2018/11/13 00:54:30.000  -74.407225238  163.437626912    78.3437   5  11   0.6197   0.5489   1.7863  -0.0976   0.2199  -0.5486   0.00    0.0
2018/11/13 00:54:45.000  -74.407223027  163.437623812    77.7959   5  11   0.6197   0.5487   1.7839  -0.0952   0.2120  -0.5478   0.00    0.0
2018/11/13 00:55:00.000  -74.407223438  163.437630500    78.3374   5  11   0.6197   0.5486   1.7818  -0.0927   0.2037  -0.5471   0.00    0.0
2018/11/13 00:55:15.000  -74.407225179  163.437632896    78.3168   5  11   0.6198   0.5487   1.7802  -0.0902   0.1951  -0.5463   0.00    0.0
2018/11/13 00:55:30.000  -74.407225192  163.437619849    78.3836   5  11   0.6200   0.5488   1.7788  -0.0876   0.1860  -0.5457   0.00    0.0
2018/11/13 00:55:45.000  -74.407225574  163.437628594    78.5425   5  11   0.6202   0.5489   1.7778  -0.0849   0.1764  -0.5450   0.00    0.0
2018/11/13 00:56:00.000  -74.407223885  163.437623685    77.9961   5  11   0.6204   0.5491   1.7771  -0.0821   0.1662  -0.5444   0.00    0.0
2018/11/13 00:56:15.000  -74.407224642  163.437628864    77.8140   5  11   0.6207   0.5494   1.7766  -0.0793   0.1553  -0.5439   0.00    0.0
2018/11/13 00:56:30.000  -74.407226903  163.437618685    78.0251   5  11   0.6211   0.5498   1.7765  -0.0763   0.1435  -0.5434   0.00    0.0
2018/11/13 00:56:45.000  -74.407224239  163.437631042    78.1287   5  11   0.6215   0.5502   1.7767  -0.0732   0.1305  -0.5429   0.00    0.0
2018/11/13 00:57:00.000  -74.407226866  163.437630006    78.7877   5  11   0.6220   0.5507   1.7771  -0.0700   0.1160  -0.5425   0.00    0.0
2018/11/13 00:57:15.000  -74.407224155  163.437625054    77.5369   5  12   0.6150   0.5284   1.7101  -0.1399  -0.2579  -0.5837   0.00    0.0
2018/11/13 00:57:30.000  -74.407224608  163.437625116    77.8574   5  12   0.6154   0.5289   1.7122  -0.1388  -0.2641  -0.5835   0.00    0.0
2018/11/13 00:57:45.000  -74.407227989  163.437625822    78.0010   5  12   0.6149   0.5284   1.7093  -0.1374  -0.2684  -0.5825   0.00    0.0
2018/11/13 00:58:00.000  -74.407223604  163.437628525    77.9691   5  12   0.6145   0.5280   1.7066  -0.1361  -0.2728  -0.5816   0.00    0.0
2018/11/13 00:58:15.000  -74.407225181  163.437631246    77.9140   5  12   0.6141   0.5276   1.7042  -0.1347  -0.2771  -0.5808   0.00    0.0
2018/11/13 00:58:30.000  -74.407226894  163.437625840    77.5529   5  12   0.6137   0.5273   1.7021  -0.1334  -0.2814  -0.5800   0.00    0.0
2018/11/13 00:58:45.000  -74.407226331  163.437629713    77.5986   5  12   0.6134   0.5271   1.7003  -0.1320  -0.2857  -0.5793   0.00    0.0
2018/11/13 00:59:00.000  -74.407228480  163.437626152    77.8189   5  12   0.6132   0.5269   1.6987  -0.1307  -0.2901  -0.5786   0.00    0.0
2018/11/13 00:59:15.000  -74.407223316  163.437635433    77.8523   5  12   0.6130   0.5267   1.6974  -0.1293  -0.2944  -0.5779   0.00    0.0
2018/11/13 00:59:30.000  -74.407225920  163.437626821    77.9239   5  12   0.6129   0.5267   1.6964  -0.1280  -0.2988  -0.5773   0.00    0.0
2018/11/13 00:59:45.000  -74.407227254  163.437622536    78.6792   5  12   0.6128   0.5266   1.6956  -0.1267  -0.3031  -0.5767   0.00    0.0
2018/11/13 01:00:00.000  -74.407225254  163.437628526    77.7571   5  12   0.6127   0.5267   1.6951  -0.1253  -0.3075  -0.5762   0.00    0.0
2018/11/13 01:00:15.000  -74.407225044  163.437623139    77.8562   5  12   0.6128   0.5268   1.6951  -0.1240  -0.3120  -0.5757   0.00    0.0
2018/11/13 01:00:30.000  -74.407227621  163.437622368    78.1659   5  12   0.6128   0.5270   1.6954  -0.1227  -0.3165  -0.5753   0.00    0.0
2018/11/13 01:00:45.000  -74.407226334  163.437623383    78.4666   5  12   0.6130   0.5273   1.6959  -0.1215  -0.3210  -0.5749   0.00    0.0
2018/11/13 01:01:00.000  -74.407227598  163.437628199    78.4425   5  12   0.6132   0.5276   1.6968  -0.1202  -0.3255  -0.5746   0.00    0.0
2018/11/13 01:01:15.000  -74.407226778  163.437626954    78.2410   5  12   0.6134   0.5280   1.6979  -0.1189  -0.3301  -0.5743   0.00    0.0
2018/11/13 01:01:30.000  -74.407225127  163.437625237    77.9568   5  12   0.6137   0.5285   1.6993  -0.1176  -0.3346  -0.5741   0.00    0.0
2018/11/13 01:01:45.000  -74.407227835  163.437627002    79.2881   5  12   0.6140   0.5290   1.7010  -0.1163  -0.3392  -0.5739   0.00    0.0
2018/11/13 01:02:00.000  -74.407227825  163.437635476    77.8360   5  12   0.6144   0.5296   1.7029  -0.1150  -0.3439  -0.5738   0.00    0.0
2018/11/13 01:02:15.000  -74.407226626  163.437630908    78.0126   5  12   0.6148   0.5302   1.7052  -0.1137  -0.3485  -0.5737   0.00    0.0
2018/11/13 01:02:30.000  -74.407226890  163.437625637    78.4563   5  12   0.6153   0.5309   1.7077  -0.1124  -0.3532  -0.5736   0.00    0.0
2018/11/13 01:02:45.000  -74.407228177  163.437627097    78.3621   5  12   0.6149   0.5305   1.7051  -0.1108  -0.3563  -0.5728   0.00    0.0
2018/11/13 01:03:00.000  -74.407226620  163.437625984    78.8426   5  12   0.6145   0.5302   1.7028  -0.1092  -0.3594  -0.5721   0.00    0.0
2018/11/13 01:03:15.000  -74.407225797  163.437626330    77.8837   5  12   0.6142   0.5299   1.7008  -0.1075  -0.3625  -0.5714   0.00    0.0
2018/11/13 01:03:30.000  -74.407225414  163.437621763    78.1964   5  12   0.6139   0.5297   1.6990  -0.1059  -0.3657  -0.5707   0.00    0.0
2018/11/13 01:03:45.000  -74.407227097  163.437634473    78.4035   5  12   0.6136   0.5295   1.6976  -0.1043  -0.3689  -0.5701   0.00    0.0
2018/11/13 01:04:00.000  -74.407226814  163.437628974    78.6180   5  12   0.6134   0.5295   1.6964  -0.1026  -0.3722  -0.5696   0.00    0.0
2018/11/13 01:04:15.000  -74.407226290  163.437630124    78.3027   5  12   0.6133   0.5294   1.6955  -0.1009  -0.3755  -0.5691   0.00    0.0
2018/11/13 01:04:30.000  -74.407227636  163.437630082    78.6958   5  12   0.6132   0.5295   1.6949  -0.0993  -0.3789  -0.5686   0.00    0.0
2018/11/13 01:04:45.000  -74.407225930  163.437628226    78.1507   5  12   0.6132   0.5296   1.6945  -0.0976  -0.3823  -0.5682   0.00    0.0
2018/11/13 01:05:00.000  -74.407226053  163.437629720    77.5595   5  12   0.6132   0.5297   1.6945  -0.0959  -0.3857  -0.5678   0.00    0.0
2018/11/13 01:05:15.000  -74.407228628  163.437628259    79.1471   5  12   0.6133   0.5300   1.6949  -0.0942  -0.3893  -0.5675   0.00    0.0
2018/11/13 01:05:30.000  -74.407226675  163.437631926    77.9363   5  12   0.6134   0.5303   1.6956  -0.0926  -0.3929  -0.5673   0.00    0.0
2018/11/13 01:05:45.000  -74.407224236  163.437628112    78.1816   5  12   0.6136   0.5307   1.6966  -0.0908  -0.3965  -0.5670   0.00    0.0
2018/11/13 01:06:00.000  -74.407227042  163.437622354    78.4134   5  12   0.6138   0.5311   1.6978  -0.0891  -0.4002  -0.5669   0.00    0.0
2018/11/13 01:06:15.000  -74.407225945  163.437627654    78.0963   5  12   0.6141   0.5316   1.6994  -0.0874  -0.4040  -0.5668   0.00    0.0
2018/11/13 01:06:30.000  -74.407226366  163.437622070    78.2384   5  12   0.6145   0.5321   1.7012  -0.0856  -0.4078  -0.5667   0.00    0.0
2018/11/13 01:06:45.000  -74.407225213  163.437626777    78.4464   5  12   0.6149   0.5328   1.7034  -0.0839  -0.4116  -0.5666   0.00    0.0
2018/11/13 01:07:00.000  -74.407224645  163.437630670    78.6164   5  12   0.6153   0.5334   1.7058  -0.0820  -0.4155  -0.5667   0.00    0.0
2018/11/13 01:07:15.000  -74.407224675  163.437627644    78.0339   5  12   0.6158   0.5342   1.7085  -0.0802  -0.4195  -0.5667   0.00    0.0
2018/11/13 01:07:30.000  -74.407224589  163.437626131    78.1249   5  12   0.6163   0.5350   1.7115  -0.0784  -0.4235  -0.5668   0.00    0.0
2018/11/13 01:07:45.000  -74.407225759  163.437622774    78.7651   5  12   0.6159   0.5347   1.7093  -0.0761  -0.4259  -0.5662   0.00    0.0
2018/11/13 01:08:00.000  -74.407226450  163.437625034    78.2917   5  12   0.6156   0.5345   1.7074  -0.0738  -0.4284  -0.5656   0.00    0.0
2018/11/13 01:08:15.000  -74.407227016  163.437622462    78.4815   5  12   0.6153   0.5343   1.7058  -0.0714  -0.4309  -0.5651   0.00    0.0
2018/11/13 01:08:30.000  -74.407227289  163.437625763    78.4526   5  12   0.6151   0.5342   1.7044  -0.0690  -0.4335  -0.5646   0.00    0.0
2018/11/13 01:08:45.000  -74.407226962  163.437629424    78.7513   5  12   0.6149   0.5341   1.7034  -0.0665  -0.4362  -0.5642   0.00    0.0
2018/11/13 01:09:00.000  -74.407225725  163.437627157    78.7171   5  12   0.6148   0.5342   1.7026  -0.0639  -0.4389  -0.5638   0.00    0.0
2018/11/13 01:09:15.000  -74.407229220  163.437633990    79.0826   5  12   0.6147   0.5342   1.7021  -0.0613  -0.4416  -0.5635   0.00    0.0
2018/11/13 01:09:30.000  -74.407228734  163.437637392    78.8341   5  12   0.6147   0.5344   1.7019  -0.0585  -0.4444  -0.5632   0.00    0.0
2018/11/13 01:09:45.000  -74.407227668  163.437625463    79.0920   5  12   0.6147   0.5346   1.7019  -0.0557  -0.4473  -0.5629   0.00    0.0
2018/11/13 01:10:00.000  -74.407226370  163.437632207    78.0421   5  12   0.6148   0.5348   1.7023  -0.0527  -0.4502  -0.5627   0.00    0.0
2018/11/13 01:10:15.000  -74.407226869  163.437634129    78.3325   5  12   0.6149   0.5352   1.7031  -0.0496  -0.4533  -0.5626   0.00    0.0
2018/11/13 01:10:30.000  -74.407227570  163.437629484    79.1741   5  12   0.6151   0.5356   1.7043  -0.0463  -0.4564  -0.5625   0.00    0.0
2018/11/13 01:10:45.000  -74.407228350  163.437629156    78.1612   5  12   0.6154   0.5360   1.7057  -0.0428  -0.4595  -0.5624   0.00    0.0
2018/11/13 01:11:00.000  -74.407226081  163.437637601    78.1450   5  12   0.6156   0.5366   1.7073  -0.0390  -0.4628  -0.5624   0.00    0.0
2018/11/13 01:11:15.000  -74.407228707  163.437634843    78.3576   5  12   0.6160   0.5371   1.7093  -0.0348  -0.4661  -0.5625   0.00    0.0
2018/11/13 01:11:30.000  -74.407229462  163.437628910    77.9777   5  12   0.6164   0.5378   1.7116  -0.0301  -0.4694  -0.5626   0.00    0.0
2018/11/13 01:11:45.000  -74.407226756  163.437629848    77.9505   5  12   0.6168   0.5385   1.7141  -0.0245  -0.4728  -0.5627   0.00    0.0
2018/11/13 01:12:00.000  -74.407229154  163.437628892    78.5991   5  12   0.6173   0.5393   1.7169  -0.0172  -0.4763  -0.5629   0.00    0.0
2018/11/13 01:12:15.000  -74.407227185  163.437630018    78.4452   5  12   0.6179   0.5401   1.7200   0.0020  -0.4798  -0.5631   0.00    0.0
2018/11/13 01:12:30.000  -74.407226468  163.437627585    78.0682   5  12   0.6185   0.5410   1.7234   0.0174  -0.4834  -0.5634   0.00    0.0
2018/11/13 01:12:45.000  -74.407230345  163.437632472    79.5180   5  12   0.6181   0.5407   1.7216   0.0255  -0.4854  -0.5630   0.00    0.0
2018/11/13 01:13:00.000  -74.407228621  163.437630987    78.0014   5  12   0.6179   0.5406   1.7201   0.0315  -0.4875  -0.5626   0.00    0.0
2018/11/13 01:13:15.000  -74.407227314  163.437633404    78.5812   5  12   0.6176   0.5405   1.7188   0.0365  -0.4896  -0.5622   0.00    0.0
2018/11/13 01:13:30.000  -74.407227666  163.437628918    78.8948   5  12   0.6175   0.5405   1.7179   0.0409  -0.4918  -0.5619   0.00    0.0
2018/11/13 01:13:45.000  -74.407227722  163.437628970    78.3614   5  12   0.6173   0.5405   1.7172   0.0448  -0.4941  -0.5617   0.00    0.0
2018/11/13 01:14:00.000  -74.407228760  163.437622768    79.4920   5  12   0.6173   0.5406   1.7168   0.0483  -0.4964  -0.5615   0.00    0.0
2018/11/13 01:14:15.000  -74.407228170  163.437627500    78.5344   5  12   0.6172   0.5408   1.7167   0.0516  -0.4988  -0.5613   0.00    0.0
2018/11/13 01:14:30.000  -74.407228028  163.437631860    78.4889   5  12   0.6173   0.5410   1.7169   0.0547  -0.5012  -0.5612   0.00    0.0
2018/11/13 01:14:45.000  -74.407227992  163.437630467    78.5172   5  12   0.6173   0.5413   1.7174   0.0576  -0.5037  -0.5611   0.00    0.0
2018/11/13 01:15:00.000  -74.407226342  163.437630774    78.6572   5  12   0.6175   0.5416   1.7181   0.0604  -0.5063  -0.5611   0.00    0.0
2018/11/13 01:15:15.000  -74.407225884  163.437624495    79.3158   5  12   0.6177   0.5420   1.7193   0.0630  -0.5090  -0.5611   0.00    0.0
2018/11/13 01:15:30.000  -74.407228902  163.437631245    78.6319   5  12   0.6179   0.5425   1.7208   0.0655  -0.5117  -0.5612   0.00    0.0
2018/11/13 01:15:45.000  -74.407227138  163.437629817    78.3661   5  12   0.6182   0.5431   1.7225   0.0678  -0.5146  -0.5613   0.00    0.0
2018/11/13 01:16:00.000  -74.407227857  163.437629632    79.0337   5  12   0.6185   0.5437   1.7246   0.0701  -0.5174  -0.5615   0.00    0.0
2018/11/13 01:16:15.000  -74.407228218  163.437621609    78.6379   5  12   0.6189   0.5443   1.7269   0.0723  -0.5204  -0.5617   0.00    0.0
2018/11/13 01:16:30.000  -74.407226473  163.437628587    78.3109   5  12   0.6194   0.5450   1.7295   0.0744  -0.5234  -0.5620   0.00    0.0
2018/11/13 01:16:45.000  -74.407227179  163.437627705    78.2147   5  12   0.6199   0.5458   1.7323   0.0765  -0.5265  -0.5623   0.00    0.0
2018/11/13 01:17:00.000  -74.407227634  163.437634327    78.8731   5  12   0.6205   0.5466   1.7354   0.0785  -0.5296  -0.5626   0.00    0.0
2018/11/13 01:17:15.000  -74.407226015  163.437634712    77.9717   5  12   0.6211   0.5475   1.7388   0.0804  -0.5328  -0.5630   0.00    0.0
2018/11/13 01:17:30.000  -74.407228181  163.437626086    78.7215   5  12   0.6217   0.5485   1.7424   0.0823  -0.5360  -0.5635   0.00    0.0
2018/11/13 01:17:45.000  -74.407225662  163.437629267    78.2896   5  12   0.6215   0.5483   1.7411   0.0843  -0.5377  -0.5632   0.00    0.0
2018/11/13 01:18:00.000  -74.407224876  163.437629639    78.1064   5  12   0.6212   0.5483   1.7399   0.0863  -0.5395  -0.5630   0.00    0.0
2018/11/13 01:18:15.000  -74.407224548  163.437625564    78.3049   5  12   0.6211   0.5483   1.7391   0.0883  -0.5414  -0.5629   0.00    0.0
2018/11/13 01:18:30.000  -74.407226730  163.437632437    78.1377   5  12   0.6209   0.5483   1.7385   0.0902  -0.5433  -0.5627   0.00    0.0
2018/11/13 01:18:45.000  -74.407226617  163.437627424    78.7848   5  12   0.6209   0.5484   1.7382   0.0920  -0.5452  -0.5627   0.00    0.0
2018/11/13 01:19:00.000  -74.407227447  163.437634946    78.5033   5  12   0.6208   0.5485   1.7381   0.0938  -0.5473  -0.5626   0.00    0.0
2018/11/13 01:19:15.000  -74.407228773  163.437635514    78.5002   5  12   0.6209   0.5488   1.7384   0.0956  -0.5493  -0.5627   0.00    0.0
2018/11/13 01:19:30.000  -74.407229656  163.437628459    79.3477   5  12   0.6209   0.5490   1.7389   0.0973  -0.5515  -0.5627   0.00    0.0
2018/11/13 01:19:45.000  -74.407226470  163.437634453    78.5387   5  12   0.6211   0.5494   1.7397   0.0990  -0.5537  -0.5628   0.00    0.0
2018/11/13 01:20:00.000  -74.407227382  163.437639863    78.3279   5  12   0.6213   0.5497   1.7407   0.1006  -0.5560  -0.5630   0.00    0.0
2018/11/13 01:20:15.000  -74.407228164  163.437643290    78.3485   5  12   0.6215   0.5502   1.7422   0.1022  -0.5584  -0.5632   0.00    0.0
2018/11/13 01:20:30.000  -74.407227484  163.437635965    78.0268   5  12   0.6218   0.5507   1.7440   0.1038  -0.5609  -0.5635   0.00    0.0
2018/11/13 01:20:45.000  -74.407226827  163.437626638    78.3311   5  12   0.6222   0.5513   1.7460   0.1053  -0.5634  -0.5638   0.00    0.0
2018/11/13 01:21:00.000  -74.407226894  163.437626205    78.5626   5  12   0.6226   0.5520   1.7482   0.1068  -0.5660  -0.5641   0.00    0.0
2018/11/13 01:21:15.000  -74.407227269  163.437642821    77.6195   5  12   0.6231   0.5527   1.7508   0.1083  -0.5686  -0.5645   0.00    0.0
2018/11/13 01:21:30.000  -74.407229206  163.437635887    79.2267   5  12   0.6236   0.5534   1.7536   0.1098  -0.5713  -0.5649   0.00    0.0
2018/11/13 01:21:45.000  -74.407228342  163.437631944    79.0239   5  12   0.6241   0.5543   1.7566   0.1112  -0.5741  -0.5654   0.00    0.0
2018/11/13 01:22:00.000  -74.407228742  163.437633855    78.4871   5  12   0.6248   0.5551   1.7599   0.1126  -0.5769  -0.5659   0.00    0.0
2018/11/13 01:22:15.000  -74.407229918  163.437632016    79.1346   5  12   0.6254   0.5561   1.7634   0.1140  -0.5797  -0.5664   0.00    0.0
2018/11/13 01:22:30.000  -74.407228249  163.437639394    78.1678   5  12   0.6261   0.5570   1.7672   0.1154  -0.5827  -0.5670   0.00    0.0
2018/11/13 01:22:45.000  -74.407227620  163.437632398    78.6755   5  12   0.6259   0.5570   1.7661   0.1169  -0.5841  -0.5669   0.00    0.0
2018/11/13 01:23:00.000  -74.407228338  163.437627457    78.4528   5  12   0.6257   0.5569   1.7653   0.1183  -0.5856  -0.5669   0.00    0.0
2018/11/13 01:23:15.000  -74.407227276  163.437633976    77.7527   5  12   0.6256   0.5569   1.7648   0.1198  -0.5872  -0.5670   0.00    0.0
2018/11/13 01:23:30.000  -74.407227624  163.437634806    77.9803   5  12   0.6256   0.5570   1.7645   0.1212  -0.5889  -0.5670   0.00    0.0
2018/11/13 01:23:45.000  -74.407229563  163.437629129    78.5288   5  12   0.6255   0.5572   1.7645   0.1226  -0.5906  -0.5671   0.00    0.0
2018/11/13 01:24:00.000  -74.407227394  163.437637298    78.8257   5  12   0.6256   0.5573   1.7647   0.1239  -0.5923  -0.5673   0.00    0.0
2018/11/13 01:24:15.000  -74.407226831  163.437633081    77.7645   5  12   0.6257   0.5576   1.7652   0.1253  -0.5941  -0.5675   0.00    0.0
2018/11/13 01:24:30.000  -74.407227671  163.437633387    78.2602   5  12   0.6258   0.5579   1.7659   0.1266  -0.5960  -0.5678   0.00    0.0
2018/11/13 01:24:45.000  -74.407226783  163.437636538    78.0873   5  12   0.6260   0.5582   1.7670   0.1279  -0.5979  -0.5680   0.00    0.0
2018/11/13 01:25:00.000  -74.407227204  163.437625528    78.0975   5  12   0.6262   0.5586   1.7682   0.1292  -0.5999  -0.5684   0.00    0.0
2018/11/13 01:25:15.000  -74.407224962  163.437634386    77.8387   5  12   0.6266   0.5591   1.7699   0.1305  -0.6020  -0.5687   0.00    0.0
2018/11/13 01:25:30.000  -74.407227420  163.437630986    78.8518   5  12   0.6269   0.5597   1.7718   0.1317  -0.6042  -0.5692   0.00    0.0
2018/11/13 01:25:45.000  -74.407228558  163.437624041    78.7188   5  12   0.6273   0.5603   1.7739   0.1330  -0.6064  -0.5696   0.00    0.0
2018/11/13 01:26:00.000  -74.407227182  163.437630636    78.5186   5  12   0.6278   0.5610   1.7763   0.1342  -0.6087  -0.5701   0.00    0.0
2018/11/13 01:26:15.000  -74.407226421  163.437639894    78.6934   5  12   0.6283   0.5617   1.7789   0.1354  -0.6110  -0.5706   0.00    0.0
2018/11/13 01:26:30.000  -74.407226625  163.437635509    78.3228   5  12   0.6289   0.5625   1.7817   0.1366  -0.6134  -0.5712   0.00    0.0
2018/11/13 01:26:45.000  -74.407228915  163.437628831    79.1450   5  12   0.6296   0.5633   1.7847   0.1378  -0.6158  -0.5718   0.00    0.0
2018/11/13 01:27:00.000  -74.407228684  163.437636994    78.1984   5  12   0.6302   0.5642   1.7880   0.1389  -0.6183  -0.5724   0.00    0.0
2018/11/13 01:27:15.000  -74.407227083  163.437635420    78.1886   5  11   0.6625   0.5689   1.8281   0.1811  -0.6013  -0.5050   0.00    0.0
2018/11/13 01:27:30.000  -74.407227271  163.437634411    78.1723   5  11   0.6631   0.5698   1.8322   0.1818  -0.6039  -0.5054   0.00    0.0
2018/11/13 01:27:45.000  -74.407229980  163.437628874    79.3677   5  11   0.6628   0.5697   1.8317   0.1825  -0.6052  -0.5056   0.00    0.0
2018/11/13 01:28:00.000  -74.407226361  163.437628219    78.7914   5  11   0.6624   0.5696   1.8314   0.1831  -0.6065  -0.5059   0.00    0.0
2018/11/13 01:28:15.000  -74.407226291  163.437633391    78.8593   5  11   0.6622   0.5696   1.8313   0.1838  -0.6079  -0.5062   0.00    0.0
2018/11/13 01:28:30.000  -74.407227234  163.437628906    78.7499   5  11   0.6619   0.5697   1.8314   0.1845  -0.6093  -0.5065   0.00    0.0
2018/11/13 01:28:45.000  -74.407228853  163.437628280    78.9299   5  11   0.6618   0.5698   1.8318   0.1852  -0.6108  -0.5069   0.00    0.0
2018/11/13 01:29:00.000  -74.407229691  163.437633894    78.4781   5  10   0.6730   0.6281   2.0818   0.0457  -0.7973  -0.3686   0.00    0.0
2018/11/13 01:29:15.000  -74.407227553  163.437631452    78.6884   5  10   0.6728   0.6286   2.0849   0.0501  -0.7997  -0.3695   0.00    0.0
2018/11/13 01:29:30.000  -74.407229471  163.437630421    78.9310   5  10   0.6726   0.6291   2.0883   0.0540  -0.8021  -0.3704   0.00    0.0
2018/11/13 01:29:45.000  -74.407228376  163.437641741    77.3335   5  10   0.6726   0.6296   2.0920   0.0575  -0.8047  -0.3712   0.00    0.0
2018/11/13 01:30:00.000  -74.407227579  163.437633266    78.8857   5  10   0.6726   0.6303   2.0960   0.0608  -0.8073  -0.3720   0.00    0.0
2018/11/13 01:30:15.000  -74.407225471  163.437648130    76.8388   5   9   0.7732   0.6833   2.6257   0.3225  -1.0341  -0.8599   0.00    0.0
2018/11/13 01:30:30.000  -74.407225945  163.437646991    76.7047   5   9   0.7736   0.6851   2.6374   0.3249  -1.0401  -0.8636   0.00    0.0
2018/11/13 01:30:45.000  -74.407226565  163.437649030    76.6786   5   9   0.7740   0.6870   2.6495   0.3272  -1.0462  -0.8674   0.00    0.0
2018/11/13 01:31:00.000  -74.407226834  163.437641145    76.9589   5   9   0.7746   0.6889   2.6622   0.3296  -1.0525  -0.8713   0.00    0.0
2018/11/13 01:31:15.000  -74.407227050  163.437638239    76.9894   5   9   0.7753   0.6910   2.6753   0.3321  -1.0590  -0.8753   0.00    0.0
2018/11/13 01:31:30.000  -74.407227886  163.437645158    76.7793   5   9   0.7760   0.6931   2.6889   0.3345  -1.0657  -0.8794   0.00    0.0
2018/11/13 01:31:45.000  -74.407225053  163.437651550    76.9326   5   9   0.7768   0.6954   2.7030   0.3370  -1.0725  -0.8836   0.00    0.0
2018/11/13 01:32:00.000  -74.407228869  163.437645168    76.5628   5   9   0.7777   0.6977   2.7175   0.3395  -1.0795  -0.8879   0.00    0.0
2018/11/13 01:32:15.000  -74.407227575  163.437642651    76.4339   5   9   0.7786   0.7001   2.7325   0.3420  -1.0867  -0.8923   0.00    0.0
2018/11/13 01:32:30.000  -74.407225696  163.437642897    75.2582   5   9   0.7797   0.7026   2.7479   0.3446  -1.0940  -0.8968   0.00    0.0
2018/11/13 01:32:45.000  -74.407226241  163.437645131    76.8493   5   9   0.7794   0.7034   2.7548   0.3466  -1.0978  -0.8999   0.00    0.0
2018/11/13 01:33:00.000  -74.407225648  163.437646704    76.2851   5   9   0.7791   0.7042   2.7622   0.3486  -1.1019  -0.9031   0.00    0.0
2018/11/13 01:33:15.000  -74.407225609  163.437648720    75.1988   5   9   0.7789   0.7052   2.7700   0.3506  -1.1060  -0.9063   0.00    0.0
2018/11/13 01:33:30.000  -74.407225232  163.437645112    75.8593   5   9   0.7789   0.7062   2.7782   0.3527  -1.1103  -0.9096   0.00    0.0
2018/11/13 01:33:45.000  -74.407228517  163.437640023    76.6745   5   9   0.7788   0.7073   2.7869   0.3548  -1.1148  -0.9130   0.00    0.0
2018/11/13 01:34:00.000  -74.407229192  163.437646568    76.3646   5   9   0.7789   0.7085   2.7960   0.3569  -1.1194  -0.9166   0.00    0.0
2018/11/13 01:34:15.000  -74.407228208  163.437638449    77.5875   5   9   0.7791   0.7098   2.8055   0.3590  -1.1242  -0.9202   0.00    0.0
2018/11/13 01:34:30.000  -74.407228140  163.437636671    76.5502   5   9   0.7793   0.7111   2.8155   0.3611  -1.1291  -0.9239   0.00    0.0
2018/11/13 01:34:45.000  -74.407225051  163.437641854    75.6807   5   9   0.7796   0.7126   2.8259   0.3633  -1.1342  -0.9276   0.00    0.0
2018/11/13 01:35:00.000  -74.407227312  163.437640248    76.1687   5   9   0.7800   0.7141   2.8367   0.3655  -1.1394  -0.9315   0.00    0.0
2018/11/13 01:35:15.000  -74.407228157  163.437634159    76.7166   5   9   0.7805   0.7157   2.8482   0.3677  -1.1448  -0.9355   0.00    0.0
2018/11/13 01:35:30.000  -74.407227976  163.437648430    76.0140   5   9   0.7811   0.7175   2.8601   0.3700  -1.1505  -0.9396   0.00    0.0
2018/11/13 01:35:45.000  -74.407225142  163.437643574    75.9272   5   9   0.7817   0.7193   2.8725   0.3722  -1.1562  -0.9437   0.00    0.0
2018/11/13 01:36:00.000  -74.407228199  163.437642622    76.0472   5   9   0.7825   0.7212   2.8852   0.3745  -1.1621  -0.9480   0.00    0.0
2018/11/13 01:36:15.000  -74.407226382  163.437642615    77.2075   5   9   0.7833   0.7232   2.8983   0.3768  -1.1682  -0.9523   0.00    0.0
2018/11/13 01:36:30.000  -74.407225119  163.437645756    75.5808   5   9   0.7842   0.7253   2.9118   0.3792  -1.1744  -0.9568   0.00    0.0
2018/11/13 01:36:45.000  -74.407225044  163.437651903    75.4311   5   9   0.7852   0.7274   2.9257   0.3816  -1.1807  -0.9613   0.00    0.0
2018/11/13 01:37:00.000  -74.407224625  163.437642246    76.5260   5   9   0.7863   0.7296   2.9399   0.3839  -1.1871  -0.9659   0.00    0.0
2018/11/13 01:37:15.000  -74.407226232  163.437642827    76.3631   5   9   0.7874   0.7319   2.9545   0.3864  -1.1937  -0.9705   0.00    0.0
2018/11/13 01:37:30.000  -74.407225801  163.437653068    76.0567   5   9   0.7887   0.7343   2.9695   0.3888  -1.2004  -0.9753   0.00    0.0
2018/11/13 01:37:45.000  -74.407226437  163.437640387    77.1736   5   9   0.7885   0.7349   2.9759   0.3905  -1.2035  -0.9785   0.00    0.0
2018/11/13 01:38:00.000  -74.407227159  163.437649524    76.2264   5   9   0.7884   0.7355   2.9827   0.3923  -1.2067  -0.9817   0.00    0.0
2018/11/13 01:38:15.000  -74.407226947  163.437647645    76.6746   5   9   0.7884   0.7362   2.9898   0.3941  -1.2100  -0.9850   0.00    0.0
2018/11/13 01:38:30.000  -74.407227137  163.437650431    75.8078   5   9   0.7884   0.7370   2.9972   0.3959  -1.2135  -0.9884   0.00    0.0
2018/11/13 01:38:45.000  -74.407226575  163.437646420    76.0340   5   9   0.7886   0.7378   3.0050   0.3977  -1.2170  -0.9919   0.00    0.0
2018/11/13 01:39:00.000  -74.407228816  163.437643449    77.7626   5   9   0.7888   0.7387   3.0131   0.3996  -1.2207  -0.9954   0.00    0.0
2018/11/13 01:39:15.000  -74.407230331  163.437634026    77.4132   5   9   0.7891   0.7397   3.0215   0.4014  -1.2245  -0.9990   0.00    0.0
2018/11/13 01:39:30.000  -74.407227486  163.437639794    76.3978   5   9   0.7895   0.7407   3.0302   0.4033  -1.2284  -1.0026   0.00    0.0
2018/11/13 01:39:45.000  -74.407228925  163.437636770    77.6983   5   9   0.7899   0.7418   3.0393   0.4052  -1.2324  -1.0063   0.00    0.0
2018/11/13 01:40:00.000  -74.407223693  163.437655995    75.3273   5   9   0.7904   0.7430   3.0487   0.4071  -1.2364  -1.0101   0.00    0.0
2018/11/13 01:40:15.000  -74.407227672  163.437645434    76.5715   5   9   0.7911   0.7443   3.0586   0.4090  -1.2407  -1.0139   0.00    0.0
2018/11/13 01:40:30.000  -74.407228469  163.437651411    76.3737   5   9   0.7918   0.7457   3.0688   0.4109  -1.2451  -1.0178   0.00    0.0
2018/11/13 01:40:45.000  -74.407227880  163.437634167    77.4576   5   9   0.7926   0.7471   3.0793   0.4128  -1.2496  -1.0218   0.00    0.0
2018/11/13 01:41:00.000  -74.407229933  163.437633350    78.0730   5   9   0.7935   0.7486   3.0900   0.4148  -1.2541  -1.0258   0.00    0.0
2018/11/13 01:41:15.000  -74.407226520  163.437643877    76.8664   5   9   0.7944   0.7501   3.1010   0.4167  -1.2588  -1.0299   0.00    0.0
2018/11/13 01:41:30.000  -74.407225922  163.437640318    76.9806   5   9   0.7955   0.7517   3.1122   0.4187  -1.2634  -1.0339   0.00    0.0
2018/11/13 01:41:45.000  -74.407227022  163.437634371    77.3731   5   9   0.7966   0.7534   3.1237   0.4207  -1.2682  -1.0381   0.00    0.0
2018/11/13 01:42:00.000  -74.407228680  163.437639191    77.2011   5   9   0.7978   0.7551   3.1353   0.4227  -1.2730  -1.0422   0.00    0.0
2018/11/13 01:42:15.000  -74.407228238  163.437637973    78.4620   5   8   0.9740   0.7744   4.0845   0.5211  -1.4350  -1.5954   0.00    0.0
2018/11/13 01:42:30.000  -74.407230718  163.437634355    78.9439   5   8   0.9785   0.7775   4.1193   0.5267  -1.4470  -1.6100   0.00    0.0
2018/11/13 01:42:45.000  -74.407232622  163.437630984    79.2355   5   9   0.7338   0.7337   2.9017   0.3356  -1.1603  -0.8382   0.00    0.0
2018/11/13 01:43:00.000  -74.407232954  163.437632743    79.7731   5   9   0.7336   0.7338   2.9107   0.3380  -1.1635  -0.8428   0.00    0.0
2018/11/13 01:43:15.000  -74.407232499  163.437628476    79.6216   5   9   0.7335   0.7340   2.9199   0.3405  -1.1668  -0.8475   0.00    0.0
2018/11/13 01:43:30.000  -74.407233538  163.437631429    79.6973   5   9   0.7334   0.7343   2.9295   0.3429  -1.1702  -0.8522   0.00    0.0
2018/11/13 01:43:45.000  -74.407233752  163.437622148    80.9618   5   9   0.7335   0.7347   2.9393   0.3453  -1.1736  -0.8570   0.00    0.0
2018/11/13 01:44:00.000  -74.407234902  163.437626393    81.6846   5   9   0.7336   0.7351   2.9495   0.3477  -1.1772  -0.8618   0.00    0.0
2018/11/13 01:44:15.000  -74.407236003  163.437620340    82.2675   5   9   0.7338   0.7356   2.9599   0.3502  -1.1808  -0.8666   0.00    0.0
