% program   : RTKLIB ver.2.4.3
% inp file  : _by_type/_obs/hillary/20181107_20181109.18o
% inp file  : _by_type/_obs/base/20181107.18o
% inp file  : _by_type/_sp3+clk/igs20263.clk
% inp file  : _by_type/_sp3+clk/igs20263.sp3
% inp file  : _by_type/_nav/hillary/20181107_20181109.18n
% obs start : 2018/11/07 00:00:00.0 GPST (week2026 259200.0s)
% obs end   : 2018/11/09 23:59:45.0 GPST (week2026 518385.0s)
% pos mode  : dgps
% freqs     : L1+L2
% solution  : combined
% elev mask : 15.0 deg
% dynamics  : off
% tidecorr  : off
% ionos opt : iono-free
% tropo opt : est ztd+grad
% ephemeris : precise
% navi sys  : gps glonass
% antenna1  :                       ( 0.0000  0.0000  0.0000)
% antenna2  :                       ( 0.0000  0.0000  0.0000)
% ref pos   : 90.000000000   0.000000000-6335367.6285
%
% (lat/lon/height=WGS84/ellipsoidal,Q=1:fix,2:float,3:sbas,4:dgps,5:single,6:ppp,ns=# of satellites)
%  GPST                  latitude(deg) longitude(deg)  height(m)   Q  ns   sdn(m)   sde(m)   sdu(m)  sdne(m)  sdeu(m)  sdun(m) age(s)  ratio
2018/11/07 00:00:00.000  -74.393398611  163.452922187    96.3214   5   9   0.6829   0.6135   2.0791  -0.1730   0.3624  -0.7388   0.00    0.0
2018/11/07 00:00:15.000  -74.393402891  163.452929958    97.4106   5   9   0.6826   0.6135   2.0837  -0.1737   0.3667  -0.7397   0.00    0.0
2018/11/07 00:00:30.000  -74.393401473  163.452923203    96.9957   5   9   0.6824   0.6136   2.0886  -0.1745   0.3710  -0.7406   0.00    0.0
2018/11/07 00:00:45.000  -74.393401690  163.452927872    97.1852   5   9   0.6823   0.6137   2.0937  -0.1754   0.3754  -0.7417   0.00    0.0
2018/11/07 00:01:00.000  -74.393398168  163.452933808    96.7312   5   9   0.6822   0.6140   2.0992  -0.1763   0.3798  -0.7429   0.00    0.0
2018/11/07 00:01:15.000  -74.393402014  163.452933949    97.4442   5   9   0.6823   0.6144   2.1049  -0.1773   0.3844  -0.7441   0.00    0.0
2018/11/07 00:01:30.000  -74.393402837  163.452930566    96.9157   5   9   0.6824   0.6148   2.1109  -0.1783   0.3890  -0.7455   0.00    0.0
2018/11/07 00:01:45.000  -74.393402120  163.452926186    98.2359   5   9   0.6825   0.6153   2.1172  -0.1794   0.3937  -0.7469   0.00    0.0
2018/11/07 00:02:00.000  -74.393396580  163.452945829    96.4844   5   9   0.6828   0.6159   2.1238  -0.1806   0.3985  -0.7484   0.00    0.0
2018/11/07 00:02:15.000  -74.393398122  163.452934028    95.8026   5   9   0.6831   0.6166   2.1307  -0.1818   0.4034  -0.7501   0.00    0.0
2018/11/07 00:02:30.000  -74.393400612  163.452933766    97.5203   5   9   0.6835   0.6174   2.1379  -0.1830   0.4084  -0.7518   0.00    0.0
2018/11/07 00:02:45.000  -74.393397534  163.452930834    96.9267   5   9   0.6826   0.6166   2.1401  -0.1834   0.4118  -0.7521   0.00    0.0
2018/11/07 00:03:00.000  -74.393399362  163.452928794    97.7482   5   9   0.6817   0.6159   2.1427  -0.1839   0.4154  -0.7525   0.00    0.0
2018/11/07 00:03:15.000  -74.393400675  163.452934854    97.4361   5   9   0.6810   0.6153   2.1456  -0.1844   0.4190  -0.7530   0.00    0.0
2018/11/07 00:03:30.000  -74.393403545  163.452924035    98.1886   5   9   0.6803   0.6148   2.1487  -0.1850   0.4227  -0.7536   0.00    0.0
2018/11/07 00:03:45.000  -74.393401307  163.452937292    97.3605   5   9   0.6797   0.6143   2.1521  -0.1857   0.4264  -0.7542   0.00    0.0
2018/11/07 00:04:00.000  -74.393403301  163.452935760    97.5880   5   9   0.6791   0.6140   2.1558  -0.1864   0.4303  -0.7550   0.00    0.0
2018/11/07 00:04:15.000  -74.393399574  163.452932467    98.0585   5   9   0.6786   0.6137   2.1597  -0.1871   0.4342  -0.7558   0.00    0.0
2018/11/07 00:04:30.000  -74.393401252  163.452935468    97.2701   5   9   0.6782   0.6135   2.1639  -0.1879   0.4381  -0.7568   0.00    0.0
2018/11/07 00:04:45.000  -74.393401115  163.452933035    97.4954   5   9   0.6779   0.6134   2.1685  -0.1888   0.4422  -0.7578   0.00    0.0
2018/11/07 00:05:00.000  -74.393402380  163.452932483    98.0705   5   9   0.6777   0.6134   2.1733  -0.1897   0.4464  -0.7589   0.00    0.0
2018/11/07 00:05:15.000  -74.393400630  163.452924069    96.5463   5   9   0.6775   0.6136   2.1785  -0.1906   0.4506  -0.7602   0.00    0.0
2018/11/07 00:05:30.000  -74.393401523  163.452937725    98.1647   5   9   0.6775   0.6138   2.1841  -0.1916   0.4550  -0.7616   0.00    0.0
2018/11/07 00:05:45.000  -74.393400369  163.452927870    98.1655   5   9   0.6775   0.6141   2.1899  -0.1927   0.4594  -0.7630   0.00    0.0
2018/11/07 00:06:00.000  -74.393402420  163.452938272    98.1668   5   9   0.6776   0.6145   2.1960  -0.1938   0.4639  -0.7646   0.00    0.0
2018/11/07 00:06:15.000  -74.393401060  163.452920300    97.8165   5   9   0.6778   0.6150   2.2025  -0.1950   0.4686  -0.7663   0.00    0.0
2018/11/07 00:06:30.000  -74.393401608  163.452925945    98.5936   5   9   0.6780   0.6155   2.2092  -0.1962   0.4733  -0.7680   0.00    0.0
2018/11/07 00:06:45.000  -74.393403080  163.452924965    97.9696   5   9   0.6783   0.6162   2.2163  -0.1975   0.4781  -0.7699   0.00    0.0
2018/11/07 00:07:00.000  -74.393398740  163.452930903    97.2426   5   9   0.6787   0.6170   2.2237  -0.1989   0.4831  -0.7718   0.00    0.0
2018/11/07 00:07:15.000  -74.393401571  163.452924027    97.6988   5   9   0.6792   0.6178   2.2314  -0.2003   0.4881  -0.7739   0.00    0.0
2018/11/07 00:07:30.000  -74.393401318  163.452933637    96.6694   5   9   0.6797   0.6187   2.2393  -0.2018   0.4933  -0.7761   0.00    0.0
2018/11/07 00:07:45.000  -74.393401575  163.452927781    97.6203   5   9   0.6790   0.6181   2.2421  -0.2024   0.4967  -0.7767   0.00    0.0
2018/11/07 00:08:00.000  -74.393401082  163.452939596    97.1988   5   9   0.6783   0.6175   2.2451  -0.2031   0.5001  -0.7774   0.00    0.0
2018/11/07 00:08:15.000  -74.393404102  163.452938802    96.8496   5   9   0.6776   0.6170   2.2484  -0.2037   0.5037  -0.7783   0.00    0.0
2018/11/07 00:08:30.000  -74.393404084  163.452945403    98.2932   5   9   0.6771   0.6166   2.2520  -0.2045   0.5073  -0.7792   0.00    0.0
2018/11/07 00:08:45.000  -74.393402699  163.452941550    96.9009   5   9   0.6766   0.6163   2.2559  -0.2053   0.5110  -0.7802   0.00    0.0
2018/11/07 00:09:00.000  -74.393403047  163.452940688    97.0933   5   9   0.6762   0.6161   2.2600  -0.2061   0.5148  -0.7813   0.00    0.0
2018/11/07 00:09:15.000  -74.393402246  163.452933944    97.8192   5   9   0.6758   0.6160   2.2645  -0.2070   0.5187  -0.7825   0.00    0.0
2018/11/07 00:09:30.000  -74.393404301  163.452930361    98.3471   5   9   0.6756   0.6159   2.2692  -0.2080   0.5227  -0.7838   0.00    0.0
2018/11/07 00:09:45.000  -74.393403465  163.452934593    97.8807   5   9   0.6754   0.6160   2.2743  -0.2090   0.5268  -0.7851   0.00    0.0
2018/11/07 00:10:00.000  -74.393403228  163.452933260    98.5712   5   9   0.6753   0.6161   2.2796  -0.2101   0.5310  -0.7866   0.00    0.0
2018/11/07 00:10:15.000  -74.393403876  163.452942874    98.5628   5   9   0.6753   0.6164   2.2854  -0.2112   0.5353  -0.7883   0.00    0.0
2018/11/07 00:10:30.000  -74.393405281  163.452939708    98.6769   5   9   0.6754   0.6168   2.2916  -0.2124   0.5397  -0.7900   0.00    0.0
2018/11/07 00:10:45.000  -74.393402560  163.452937646    98.1674   5   9   0.6756   0.6172   2.2980  -0.2137   0.5443  -0.7919   0.00    0.0
2018/11/07 00:11:00.000  -74.393405723  163.452940200    98.4932   5   9   0.6758   0.6178   2.3047  -0.2150   0.5489  -0.7938   0.00    0.0
2018/11/07 00:11:15.000  -74.393406146  163.452940520    97.9107   5   9   0.6761   0.6184   2.3118  -0.2164   0.5537  -0.7959   0.00    0.0
2018/11/07 00:11:30.000  -74.393404154  163.452939894    98.3509   5   9   0.6765   0.6192   2.3192  -0.2178   0.5586  -0.7981   0.00    0.0
2018/11/07 00:11:45.000  -74.393405200  163.452939245    98.6672   5  10   0.6541   0.6106   2.0758  -0.2587   0.6566  -0.6761   0.00    0.0
2018/11/07 00:12:00.000  -74.393404276  163.452932860    97.7478   5  10   0.6547   0.6115   2.0838  -0.2600   0.6610  -0.6786   0.00    0.0
2018/11/07 00:12:15.000  -74.393404680  163.452944595    97.8221   5  10   0.6553   0.6126   2.0921  -0.2614   0.6656  -0.6812   0.00    0.0
2018/11/07 00:12:30.000  -74.393405062  163.452938690    97.6523   5  10   0.6560   0.6137   2.1007  -0.2628   0.6703  -0.6839   0.00    0.0
2018/11/07 00:12:45.000  -74.393402913  163.452940962    97.4977   5  10   0.6554   0.6133   2.1043  -0.2631   0.6726  -0.6852   0.00    0.0
2018/11/07 00:13:00.000  -74.393401558  163.452938957    96.1742   5  10   0.6549   0.6129   2.1083  -0.2636   0.6752  -0.6867   0.00    0.0
2018/11/07 00:13:15.000  -74.393401018  163.452939259    96.2901   5  10   0.6544   0.6126   2.1125  -0.2642   0.6779  -0.6882   0.00    0.0
2018/11/07 00:13:30.000  -74.393403997  163.452942630    97.3089   5  10   0.6541   0.6124   2.1171  -0.2648   0.6807  -0.6899   0.00    0.0
2018/11/07 00:13:45.000  -74.393404974  163.452941121    98.0189   5  10   0.6538   0.6123   2.1219  -0.2654   0.6836  -0.6916   0.00    0.0
2018/11/07 00:14:00.000  -74.393401609  163.452941401    96.8367   5  10   0.6536   0.6123   2.1269  -0.2661   0.6866  -0.6934   0.00    0.0
2018/11/07 00:14:15.000  -74.393404734  163.452936842    97.1775   5  10   0.6534   0.6124   2.1323  -0.2669   0.6898  -0.6954   0.00    0.0
2018/11/07 00:14:30.000  -74.393402360  163.452937807    97.0824   5  10   0.6533   0.6126   2.1379  -0.2677   0.6931  -0.6974   0.00    0.0
2018/11/07 00:14:45.000  -74.393404001  163.452937953    97.7308   5  10   0.6533   0.6128   2.1439  -0.2686   0.6965  -0.6995   0.00    0.0
2018/11/07 00:15:00.000  -74.393402691  163.452931011    96.7752   5  10   0.6534   0.6132   2.1501  -0.2696   0.7001  -0.7017   0.00    0.0
2018/11/07 00:15:15.000  -74.393404419  163.452943469    97.6491   5  10   0.6536   0.6137   2.1568  -0.2706   0.7038  -0.7040   0.00    0.0
2018/11/07 00:15:30.000  -74.393405426  163.452943050    98.6215   5  10   0.6539   0.6142   2.1637  -0.2717   0.7076  -0.7064   0.00    0.0
2018/11/07 00:15:45.000  -74.393402686  163.452936360    97.1610   5  10   0.6542   0.6149   2.1710  -0.2729   0.7116  -0.7089   0.00    0.0
2018/11/07 00:16:00.000  -74.393401343  163.452931626    97.0348   5  10   0.6546   0.6157   2.1785  -0.2741   0.7157  -0.7115   0.00    0.0
2018/11/07 00:16:15.000  -74.393402558  163.452938439    97.8112   5  10   0.6551   0.6165   2.1864  -0.2754   0.7199  -0.7143   0.00    0.0
2018/11/07 00:16:30.000  -74.393403048  163.452939401    97.2548   5  10   0.6557   0.6175   2.1946  -0.2768   0.7243  -0.7171   0.00    0.0
2018/11/07 00:16:45.000  -74.393401420  163.452937192    97.0164   5  10   0.6564   0.6185   2.2030  -0.2782   0.7288  -0.7200   0.00    0.0
2018/11/07 00:17:00.000  -74.393402191  163.452939882    97.5945   5  10   0.6571   0.6196   2.2118  -0.2797   0.7334  -0.7230   0.00    0.0
2018/11/07 00:17:15.000  -74.393402844  163.452945186    96.3941   5  10   0.6579   0.6209   2.2209  -0.2812   0.7382  -0.7262   0.00    0.0
2018/11/07 00:17:30.000  -74.393403948  163.452931998    97.0835   5  10   0.6588   0.6222   2.2303  -0.2828   0.7431  -0.7294   0.00    0.0
2018/11/07 00:17:45.000  -74.393403609  163.452942347    97.7867   5  10   0.6583   0.6219   2.2345  -0.2834   0.7457  -0.7312   0.00    0.0
2018/11/07 00:18:00.000  -74.393404310  163.452936053    97.2246   5  10   0.6580   0.6217   2.2389  -0.2840   0.7483  -0.7331   0.00    0.0
2018/11/07 00:18:15.000  -74.393403013  163.452934140    97.2596   5  10   0.6577   0.6215   2.2435  -0.2847   0.7510  -0.7350   0.00    0.0
2018/11/07 00:18:30.000  -74.393402448  163.452942518    97.1389   5  10   0.6575   0.6214   2.2484  -0.2855   0.7538  -0.7370   0.00    0.0
2018/11/07 00:18:45.000  -74.393401123  163.452946499    96.6623   5  10   0.6574   0.6214   2.2536  -0.2863   0.7568  -0.7391   0.00    0.0
2018/11/07 00:19:00.000  -74.393402151  163.452932236    96.8735   5  10   0.6573   0.6216   2.2590  -0.2872   0.7599  -0.7413   0.00    0.0
2018/11/07 00:19:15.000  -74.393403909  163.452937346    97.0545   5  10   0.6573   0.6218   2.2648  -0.2881   0.7631  -0.7436   0.00    0.0
2018/11/07 00:19:30.000  -74.393406006  163.452940759    97.6848   5  10   0.6574   0.6221   2.2709  -0.2891   0.7664  -0.7460   0.00    0.0
2018/11/07 00:19:45.000  -74.393402595  163.452947501    96.9773   5  10   0.6576   0.6224   2.2772  -0.2901   0.7699  -0.7485   0.00    0.0
2018/11/07 00:20:00.000  -74.393404509  163.452946829    97.9450   5  10   0.6578   0.6229   2.2838  -0.2912   0.7735  -0.7511   0.00    0.0
2018/11/07 00:20:15.000  -74.393404990  163.452939190    97.0775   5  10   0.6582   0.6235   2.2909  -0.2924   0.7773  -0.7539   0.00    0.0
2018/11/07 00:20:30.000  -74.393406357  163.452941238    98.4252   5  10   0.6586   0.6243   2.2983  -0.2937   0.7812  -0.7567   0.00    0.0
2018/11/07 00:20:45.000  -74.393402634  163.452939190    97.3538   5  10   0.6592   0.6251   2.3059  -0.2950   0.7852  -0.7596   0.00    0.0
2018/11/07 00:21:00.000  -74.393406010  163.452935379    98.1857   5  10   0.6598   0.6260   2.3139  -0.2964   0.7894  -0.7626   0.00    0.0
2018/11/07 00:21:15.000  -74.393402943  163.452939508    97.3792   5  10   0.6604   0.6270   2.3221  -0.2979   0.7937  -0.7658   0.00    0.0
2018/11/07 00:21:30.000  -74.393405143  163.452943265    98.2719   5  10   0.6612   0.6280   2.3307  -0.2994   0.7981  -0.7690   0.00    0.0
2018/11/07 00:21:45.000  -74.393402082  163.452949377    97.7027   5  10   0.6620   0.6292   2.3395  -0.3009   0.8026  -0.7723   0.00    0.0
2018/11/07 00:22:00.000  -74.393404963  163.452946770    98.4310   5  10   0.6629   0.6305   2.3487  -0.3026   0.8073  -0.7758   0.00    0.0
2018/11/07 00:22:15.000  -74.393404901  163.452939057    98.0132   5  10   0.6639   0.6319   2.3581  -0.3043   0.8121  -0.7793   0.00    0.0
2018/11/07 00:22:30.000  -74.393402944  163.452940808    97.6404   5  10   0.6650   0.6333   2.3678  -0.3060   0.8170  -0.7829   0.00    0.0
2018/11/07 00:22:45.000  -74.393404737  163.452945468    97.2538   5  10   0.6647   0.6330   2.3718  -0.3067   0.8193  -0.7849   0.00    0.0
2018/11/07 00:23:00.000  -74.393402635  163.452943691    98.1501   5  10   0.6645   0.6329   2.3761  -0.3074   0.8218  -0.7870   0.00    0.0
2018/11/07 00:23:15.000  -74.393403217  163.452946634    97.9717   5  10   0.6644   0.6328   2.3807  -0.3082   0.8244  -0.7891   0.00    0.0
2018/11/07 00:23:30.000  -74.393403992  163.452938073    97.4502   5  10   0.6643   0.6328   2.3855  -0.3090   0.8270  -0.7914   0.00    0.0
2018/11/07 00:23:45.000  -74.393403209  163.452935972    97.1910   5  10   0.6644   0.6329   2.3906  -0.3099   0.8298  -0.7937   0.00    0.0
2018/11/07 00:24:00.000  -74.393403097  163.452934004    96.2005   5  10   0.6645   0.6331   2.3959  -0.3109   0.8328  -0.7962   0.00    0.0
2018/11/07 00:24:15.000  -74.393404342  163.452930480    97.3120   5  10   0.6646   0.6334   2.4016  -0.3119   0.8358  -0.7987   0.00    0.0
2018/11/07 00:24:30.000  -74.393403748  163.452923561    96.8628   5  10   0.6649   0.6338   2.4075  -0.3130   0.8389  -0.8013   0.00    0.0
2018/11/07 00:24:45.000  -74.393405356  163.452941696    97.8243   5  10   0.6652   0.6342   2.4136  -0.3141   0.8422  -0.8040   0.00    0.0
2018/11/07 00:25:00.000  -74.393402523  163.452931859    97.0499   5  10   0.6657   0.6348   2.4201  -0.3153   0.8456  -0.8068   0.00    0.0
2018/11/07 00:25:15.000  -74.393403615  163.452927667    96.4612   5  10   0.6662   0.6354   2.4269  -0.3166   0.8491  -0.8097   0.00    0.0
2018/11/07 00:25:30.000  -74.393403499  163.452929793    96.4785   5  10   0.6668   0.6362   2.4340  -0.3179   0.8528  -0.8128   0.00    0.0
2018/11/07 00:25:45.000  -74.393402810  163.452938757    97.4353   5  10   0.6675   0.6371   2.4414  -0.3193   0.8566  -0.8159   0.00    0.0
2018/11/07 00:26:00.000  -74.393404684  163.452935707    96.5031   5  11   0.6555   0.6380   2.3545  -0.3194   0.8630  -0.8707   0.00    0.0
2018/11/07 00:26:15.000  -74.393401144  163.452930365    95.8862   5  11   0.6563   0.6390   2.3628  -0.3209   0.8669  -0.8740   0.00    0.0
2018/11/07 00:26:30.000  -74.393403718  163.452939053    96.1208   5  11   0.6571   0.6402   2.3713  -0.3225   0.8710  -0.8774   0.00    0.0
2018/11/07 00:26:45.000  -74.393402861  163.452935926    96.3077   5  11   0.6580   0.6414   2.3801  -0.3242   0.8751  -0.8809   0.00    0.0
2018/11/07 00:27:00.000  -74.393403202  163.452928947    96.0054   5  11   0.6590   0.6427   2.3892  -0.3259   0.8794  -0.8845   0.00    0.0
2018/11/07 00:27:15.000  -74.393404498  163.452936079    96.6778   5  11   0.6600   0.6441   2.3985  -0.3276   0.8837  -0.8881   0.00    0.0
2018/11/07 00:27:30.000  -74.393401536  163.452939124    96.8862   5  11   0.6611   0.6456   2.4081  -0.3295   0.8882  -0.8919   0.00    0.0
2018/11/07 00:27:45.000  -74.393401253  163.452927615    95.7326   5  11   0.6609   0.6453   2.4120  -0.3301   0.8900  -0.8936   0.00    0.0
2018/11/07 00:28:00.000  -74.393405575  163.452937749    96.5618   5  11   0.6608   0.6452   2.4161  -0.3309   0.8919  -0.8955   0.00    0.0
2018/11/07 00:28:15.000  -74.393402680  163.452943347    96.3337   5  11   0.6607   0.6451   2.4204  -0.3317   0.8939  -0.8975   0.00    0.0
2018/11/07 00:28:30.000  -74.393402489  163.452938238    96.5815   5  11   0.6608   0.6451   2.4250  -0.3325   0.8960  -0.8996   0.00    0.0
2018/11/07 00:28:45.000  -74.393404145  163.452946371    95.3327   5  11   0.6608   0.6451   2.4298  -0.3334   0.8982  -0.9017   0.00    0.0
2018/11/07 00:29:00.000  -74.393405132  163.452937933    96.2342   5  11   0.6610   0.6453   2.4349  -0.3343   0.9005  -0.9039   0.00    0.0
2018/11/07 00:29:15.000  -74.393402232  163.452932749    95.2617   5  11   0.6612   0.6456   2.4402  -0.3353   0.9029  -0.9063   0.00    0.0
2018/11/07 00:29:30.000  -74.393405312  163.452944192    96.5165   5  11   0.6615   0.6459   2.4457  -0.3363   0.9054  -0.9087   0.00    0.0
2018/11/07 00:29:45.000  -74.393407065  163.452941004    96.4141   5  11   0.6619   0.6463   2.4514  -0.3374   0.9081  -0.9112   0.00    0.0
2018/11/07 00:30:00.000  -74.393403787  163.452937574    97.0159   5  11   0.6623   0.6468   2.4574  -0.3385   0.9108  -0.9137   0.00    0.0
2018/11/07 00:30:15.000  -74.393406110  163.452930028    96.9161   5  11   0.6629   0.6474   2.4636  -0.3397   0.9136  -0.9164   0.00    0.0
2018/11/07 00:30:30.000  -74.393405617  163.452938303    96.5906   5  11   0.6635   0.6481   2.4701  -0.3410   0.9166  -0.9192   0.00    0.0
2018/11/07 00:30:45.000  -74.393406530  163.452942869    96.8198   5  11   0.6641   0.6489   2.4769  -0.3422   0.9196  -0.9220   0.00    0.0
2018/11/07 00:31:00.000  -74.393407750  163.452944427    97.6760   5  11   0.6649   0.6498   2.4838  -0.3435   0.9228  -0.9249   0.00    0.0
2018/11/07 00:31:15.000  -74.393405075  163.452944353    98.2205   5  11   0.6657   0.6507   2.4910  -0.3449   0.9260  -0.9279   0.00    0.0
2018/11/07 00:31:30.000  -74.393406630  163.452943265    97.0593   5  11   0.6666   0.6518   2.4983  -0.3463   0.9293  -0.9310   0.00    0.0
2018/11/07 00:31:45.000  -74.393407909  163.452943729    96.9443   5  11   0.6675   0.6529   2.5059  -0.3478   0.9327  -0.9342   0.00    0.0
2018/11/07 00:32:00.000  -74.393409306  163.452944572    97.9420   5  11   0.6685   0.6541   2.5136  -0.3492   0.9362  -0.9374   0.00    0.0
2018/11/07 00:32:15.000  -74.393408081  163.452948590    97.2626   5  11   0.6696   0.6553   2.5216  -0.3508   0.9398  -0.9407   0.00    0.0
2018/11/07 00:32:30.000  -74.393406811  163.452947331    96.4174   5  11   0.6708   0.6567   2.5297  -0.3523   0.9434  -0.9440   0.00    0.0
2018/11/07 00:32:45.000  -74.393407875  163.452949731    97.1910   5  11   0.6706   0.6563   2.5320  -0.3528   0.9443  -0.9454   0.00    0.0
2018/11/07 00:33:00.000  -74.393407486  163.452942299    96.7566   5  11   0.6705   0.6559   2.5345  -0.3533   0.9454  -0.9468   0.00    0.0
2018/11/07 00:33:15.000  -74.393407410  163.452932919    96.4078   5  11   0.6704   0.6557   2.5372  -0.3538   0.9465  -0.9483   0.00    0.0
2018/11/07 00:33:30.000  -74.393407061  163.452948569    96.9177   5  11   0.6705   0.6555   2.5401  -0.3544   0.9477  -0.9499   0.00    0.0
2018/11/07 00:33:45.000  -74.393405447  163.452940607    95.7639   5  11   0.6706   0.6554   2.5431  -0.3550   0.9490  -0.9515   0.00    0.0
2018/11/07 00:34:00.000  -74.393406145  163.452939822    96.6668   5  11   0.6707   0.6554   2.5463  -0.3556   0.9503  -0.9532   0.00    0.0
2018/11/07 00:34:15.000  -74.393406401  163.452940140    96.7300   5  11   0.6710   0.6555   2.5497  -0.3563   0.9517  -0.9549   0.00    0.0
2018/11/07 00:34:30.000  -74.393408740  163.452939632    96.4414   5  11   0.6712   0.6556   2.5532  -0.3570   0.9532  -0.9567   0.00    0.0
2018/11/07 00:34:45.000  -74.393406551  163.452935072    95.8265   5  11   0.6716   0.6558   2.5569  -0.3578   0.9548  -0.9586   0.00    0.0
2018/11/07 00:35:00.000  -74.393406884  163.452942977    97.0847   5  11   0.6720   0.6561   2.5608  -0.3585   0.9564  -0.9605   0.00    0.0
2018/11/07 00:35:15.000  -74.393404943  163.452925489    95.0429   5  11   0.6725   0.6565   2.5650  -0.3594   0.9582  -0.9625   0.00    0.0
2018/11/07 00:35:30.000  -74.393408729  163.452942614    96.7070   5  11   0.6731   0.6569   2.5693  -0.3602   0.9600  -0.9646   0.00    0.0
2018/11/07 00:35:45.000  -74.393403910  163.452933397    94.9173   5  11   0.6737   0.6575   2.5737  -0.3611   0.9618  -0.9667   0.00    0.0
2018/11/07 00:36:00.000  -74.393406356  163.452923882    95.6383   5  11   0.6744   0.6581   2.5783  -0.3620   0.9637  -0.9689   0.00    0.0
2018/11/07 00:36:15.000  -74.393405806  163.452937841    95.9913   5  11   0.6752   0.6588   2.5831  -0.3630   0.9657  -0.9711   0.00    0.0
2018/11/07 00:36:30.000  -74.393403633  163.452927111    94.6040   5  11   0.6760   0.6595   2.5880  -0.3639   0.9677  -0.9734   0.00    0.0
2018/11/07 00:36:45.000  -74.393406610  163.452937282    96.5184   5  11   0.6769   0.6603   2.5930  -0.3649   0.9698  -0.9757   0.00    0.0
2018/11/07 00:37:00.000  -74.393404525  163.452928127    95.4930   5  11   0.6778   0.6612   2.5982  -0.3660   0.9719  -0.9780   0.00    0.0
2018/11/07 00:37:15.000  -74.393405133  163.452930300    96.3679   5  11   0.6788   0.6622   2.6034  -0.3670   0.9741  -0.9804   0.00    0.0
2018/11/07 00:37:30.000  -74.393404461  163.452927997    95.4865   5  11   0.6798   0.6632   2.6089  -0.3681   0.9763  -0.9828   0.00    0.0
2018/11/07 00:37:45.000  -74.393406361  163.452941387    95.9864   5  11   0.6796   0.6625   2.6085  -0.3681   0.9759  -0.9833   0.00    0.0
2018/11/07 00:38:00.000  -74.393403778  163.452931907    95.8965   5  11   0.6794   0.6618   2.6082  -0.3681   0.9756  -0.9838   0.00    0.0
2018/11/07 00:38:15.000  -74.393408989  163.452937295    96.2186   5  11   0.6793   0.6613   2.6081  -0.3682   0.9753  -0.9844   0.00    0.0
2018/11/07 00:38:30.000  -74.393404119  163.452938143    95.0165   5  11   0.6792   0.6608   2.6081  -0.3683   0.9751  -0.9850   0.00    0.0
2018/11/07 00:38:45.000  -74.393405536  163.452941429    95.8531   5  11   0.6792   0.6604   2.6082  -0.3684   0.9750  -0.9856   0.00    0.0
2018/11/07 00:39:00.000  -74.393403362  163.452937319    94.5778   5  11   0.6792   0.6600   2.6085  -0.3685   0.9749  -0.9863   0.00    0.0
2018/11/07 00:39:15.000  -74.393403240  163.452938985    95.8184   5  11   0.6793   0.6598   2.6089  -0.3687   0.9748  -0.9870   0.00    0.0
2018/11/07 00:39:30.000  -74.393403478  163.452936032    94.4854   5  11   0.6795   0.6596   2.6094  -0.3689   0.9748  -0.9878   0.00    0.0
2018/11/07 00:39:45.000  -74.393403768  163.452937313    95.3410   5  11   0.6797   0.6594   2.6100  -0.3691   0.9748  -0.9886   0.00    0.0
2018/11/07 00:40:00.000  -74.393403693  163.452938483    96.2076   5  11   0.6800   0.6593   2.6107  -0.3694   0.9749  -0.9894   0.00    0.0
2018/11/07 00:40:15.000  -74.393406106  163.452941772    97.0194   5  11   0.6804   0.6593   2.6117  -0.3696   0.9750  -0.9903   0.00    0.0
2018/11/07 00:40:30.000  -74.393405948  163.452951251    97.6589   5  11   0.6808   0.6594   2.6128  -0.3699   0.9752  -0.9912   0.00    0.0
2018/11/07 00:40:45.000  -74.393404527  163.452951905    95.6062   5  11   0.6813   0.6596   2.6139  -0.3702   0.9754  -0.9921   0.00    0.0
2018/11/07 00:41:00.000  -74.393401894  163.452942556    95.7903   5  11   0.6818   0.6598   2.6152  -0.3705   0.9756  -0.9931   0.00    0.0
2018/11/07 00:41:15.000  -74.393403880  163.452945363    96.2355   5  11   0.6824   0.6601   2.6166  -0.3708   0.9759  -0.9941   0.00    0.0
2018/11/07 00:41:30.000  -74.393400958  163.452948339    95.8510   5  11   0.6830   0.6604   2.6181  -0.3712   0.9762  -0.9952   0.00    0.0
2018/11/07 00:41:45.000  -74.393403284  163.452945154    96.4837   5  11   0.6837   0.6608   2.6197  -0.3715   0.9765  -0.9962   0.00    0.0
2018/11/07 00:42:00.000  -74.393406682  163.452948536    97.0980   5  11   0.6844   0.6612   2.6214  -0.3719   0.9769  -0.9973   0.00    0.0
2018/11/07 00:42:15.000  -74.393403306  163.452951094    96.4155   5  11   0.6852   0.6617   2.6232  -0.3723   0.9773  -0.9984   0.00    0.0
2018/11/07 00:42:30.000  -74.393404396  163.452944546    96.1772   5  11   0.6861   0.6623   2.6250  -0.3727   0.9777  -0.9995   0.00    0.0
2018/11/07 00:42:45.000  -74.393403352  163.452953772    97.4988   5  11   0.6857   0.6613   2.6214  -0.3722   0.9757  -0.9989   0.00    0.0
2018/11/07 00:43:00.000  -74.393404945  163.452948487    96.4553   5  11   0.6853   0.6603   2.6177  -0.3716   0.9738  -0.9982   0.00    0.0
2018/11/07 00:43:15.000  -74.393402091  163.452940562    96.0512   5  11   0.6850   0.6594   2.6142  -0.3711   0.9719  -0.9975   0.00    0.0
2018/11/07 00:43:30.000  -74.393403335  163.452951667    96.9856   5  11   0.6847   0.6585   2.6108  -0.3706   0.9700  -0.9969   0.00    0.0
2018/11/07 00:43:45.000  -74.393400859  163.452939109    95.5641   5  11   0.6845   0.6577   2.6075  -0.3701   0.9682  -0.9963   0.00    0.0
2018/11/07 00:44:00.000  -74.393403251  163.452940856    96.3602   5  11   0.6844   0.6569   2.6043  -0.3696   0.9664  -0.9957   0.00    0.0
2018/11/07 00:44:15.000  -74.393402726  163.452952671    97.0975   5  11   0.6843   0.6563   2.6013  -0.3691   0.9646  -0.9951   0.00    0.0
2018/11/07 00:44:30.000  -74.393404634  163.452940847    97.6304   5  11   0.6843   0.6557   2.5983  -0.3687   0.9629  -0.9946   0.00    0.0
2018/11/07 00:44:45.000  -74.393406987  163.452956131    99.0512   5  11   0.6843   0.6551   2.5955  -0.3683   0.9612  -0.9941   0.00    0.0
2018/11/07 00:45:00.000  -74.393403581  163.452939982    96.8320   5  11   0.6844   0.6546   2.5928  -0.3679   0.9595  -0.9937   0.00    0.0
2018/11/07 00:45:15.000  -74.393403521  163.452937580    96.8784   5  11   0.6845   0.6542   2.5903  -0.3675   0.9579  -0.9933   0.00    0.0
2018/11/07 00:45:30.000  -74.393403662  163.452937842    98.1544   5  11   0.6847   0.6539   2.5879  -0.3671   0.9563  -0.9929   0.00    0.0
2018/11/07 00:45:45.000  -74.393404103  163.452941427    97.3065   5  11   0.6850   0.6537   2.5856  -0.3668   0.9548  -0.9926   0.00    0.0
2018/11/07 00:46:00.000  -74.393401013  163.452945614    97.5750   5  11   0.6853   0.6535   2.5835  -0.3664   0.9533  -0.9922   0.00    0.0
2018/11/07 00:46:15.000  -74.393401291  163.452940113    95.7952   5  11   0.6857   0.6533   2.5814  -0.3661   0.9518  -0.9920   0.00    0.0
2018/11/07 00:46:30.000  -74.393404872  163.452943332    97.3112   5  11   0.6861   0.6533   2.5795  -0.3657   0.9504  -0.9917   0.00    0.0
2018/11/07 00:46:45.000  -74.393402337  163.452942472    96.7410   5  11   0.6865   0.6533   2.5777  -0.3654   0.9490  -0.9914   0.00    0.0
2018/11/07 00:47:00.000  -74.393404536  163.452953533    96.8843   5  11   0.6871   0.6533   2.5760  -0.3651   0.9476  -0.9912   0.00    0.0
2018/11/07 00:47:15.000  -74.393402679  163.452939101    96.1988   5  11   0.6876   0.6534   2.5744  -0.3648   0.9462  -0.9910   0.00    0.0
2018/11/07 00:47:30.000  -74.393399265  163.452942387    95.8360   5  11   0.6883   0.6536   2.5730  -0.3645   0.9449  -0.9908   0.00    0.0
2018/11/07 00:47:45.000  -74.393402380  163.452946148    97.0622   5  11   0.6877   0.6522   2.5662  -0.3634   0.9414  -0.9890   0.00    0.0
2018/11/07 00:48:00.000  -74.393402037  163.452945661    96.8734   5  11   0.6871   0.6509   2.5595  -0.3623   0.9379  -0.9871   0.00    0.0
2018/11/07 00:48:15.000  -74.393401584  163.452943374    96.2058   5  11   0.6866   0.6496   2.5529  -0.3612   0.9345  -0.9853   0.00    0.0
2018/11/07 00:48:30.000  -74.393404215  163.452959273    98.1665   5  11   0.6862   0.6485   2.5465  -0.3601   0.9311  -0.9835   0.00    0.0
2018/11/07 00:48:45.000  -74.393404348  163.452955147    98.6700   5  11   0.6858   0.6473   2.5403  -0.3590   0.9278  -0.9818   0.00    0.0
2018/11/07 00:49:00.000  -74.393399627  163.452937444    96.2462   5  11   0.6855   0.6463   2.5341  -0.3580   0.9245  -0.9801   0.00    0.0
2018/11/07 00:49:15.000  -74.393402107  163.452944584    96.4410   5  11   0.6852   0.6453   2.5282  -0.3569   0.9212  -0.9784   0.00    0.0
2018/11/07 00:49:30.000  -74.393401221  163.452952441    97.4341   5  11   0.6850   0.6444   2.5224  -0.3559   0.9180  -0.9768   0.00    0.0
2018/11/07 00:49:45.000  -74.393399085  163.452943770    95.7788   5  11   0.6849   0.6436   2.5167  -0.3549   0.9149  -0.9752   0.00    0.0
2018/11/07 00:50:00.000  -74.393401939  163.452946827    96.2556   5  11   0.6848   0.6428   2.5112  -0.3539   0.9117  -0.9737   0.00    0.0
2018/11/07 00:50:15.000  -74.393400265  163.452943643    96.6037   5  11   0.6847   0.6421   2.5060  -0.3530   0.9087  -0.9722   0.00    0.0
2018/11/07 00:50:30.000  -74.393402289  163.452942826    97.3375   5  11   0.6848   0.6415   2.5009  -0.3520   0.9057  -0.9707   0.00    0.0
2018/11/07 00:50:45.000  -74.393395781  163.452941009    93.6844   5  10   0.9361   0.6733   3.5559  -0.5049   1.1564  -1.5987   0.00    0.0
2018/11/07 00:51:00.000  -74.393395346  163.452935046    93.6947   5  10   0.9359   0.6725   3.5494  -0.5034   1.1525  -1.5966   0.00    0.0
2018/11/07 00:51:15.000  -74.393395429  163.452933522    93.7605   5  10   0.9357   0.6718   3.5430  -0.5019   1.1485  -1.5945   0.00    0.0
2018/11/07 00:51:30.000  -74.393395110  163.452939600    93.6114   5  10   0.9355   0.6711   3.5368  -0.5004   1.1446  -1.5925   0.00    0.0
2018/11/07 00:51:45.000  -74.393396568  163.452937873    93.5444   5  10   0.9354   0.6704   3.5307  -0.4989   1.1406  -1.5905   0.00    0.0
2018/11/07 00:52:00.000  -74.393395615  163.452938598    93.5890   5  10   0.9354   0.6699   3.5247  -0.4974   1.1367  -1.5885   0.00    0.0
2018/11/07 00:52:15.000  -74.393396280  163.452939878    93.6433   5  10   0.9354   0.6693   3.5189  -0.4959   1.1328  -1.5866   0.00    0.0
2018/11/07 00:52:30.000  -74.393398105  163.452930543    93.7531   5  10   0.9355   0.6689   3.5132  -0.4944   1.1288  -1.5847   0.00    0.0
2018/11/07 00:52:45.000  -74.393394212  163.452928948    93.2725   5  10   0.9332   0.6668   3.4976  -0.4914   1.1217  -1.5785   0.00    0.0
2018/11/07 00:53:00.000  -74.393395401  163.452940756    93.7701   5  10   0.9311   0.6647   3.4822  -0.4884   1.1146  -1.5723   0.00    0.0
2018/11/07 00:53:15.000  -74.393396634  163.452928661    93.5880   5  10   0.9289   0.6628   3.4670  -0.4855   1.1076  -1.5661   0.00    0.0
2018/11/07 00:53:30.000  -74.393397734  163.452939968    95.1619   5  10   0.9269   0.6609   3.4520  -0.4826   1.1006  -1.5601   0.00    0.0
2018/11/07 00:53:45.000  -74.393399488  163.452944422    95.1257   5  10   0.9250   0.6591   3.4372  -0.4797   1.0937  -1.5542   0.00    0.0
2018/11/07 00:54:00.000  -74.393400070  163.452940595    95.8385   5  10   0.9231   0.6573   3.4227  -0.4768   1.0868  -1.5483   0.00    0.0
2018/11/07 00:54:15.000  -74.393397238  163.452939991    94.7682   5   9   0.9253   0.6558   3.6581  -0.4730   1.0737  -1.5794   0.00    0.0
2018/11/07 00:54:30.000  -74.393401729  163.452947410    95.8854   5   9   0.9237   0.6542   3.6458  -0.4701   1.0669  -1.5743   0.00    0.0
2018/11/07 00:54:45.000  -74.393395699  163.452938841    94.6862   5   9   0.9221   0.6527   3.6338  -0.4673   1.0602  -1.5693   0.00    0.0
2018/11/07 00:55:00.000  -74.393395759  163.452944040    93.8910   5   9   0.9207   0.6512   3.6220  -0.4645   1.0535  -1.5644   0.00    0.0
2018/11/07 00:55:15.000  -74.393398076  163.452942130    95.1500   5   9   0.9193   0.6499   3.6107  -0.4617   1.0469  -1.5597   0.00    0.0
2018/11/07 00:55:30.000  -74.393399364  163.452946231    94.7611   5   9   0.9180   0.6487   3.5998  -0.4589   1.0403  -1.5551   0.00    0.0
2018/11/07 00:55:45.000  -74.393400881  163.452939176    95.5214   5   9   0.9168   0.6475   3.5891  -0.4562   1.0338  -1.5507   0.00    0.0
2018/11/07 00:56:00.000  -74.393394370  163.452941637    94.4049   5   9   0.9157   0.6464   3.5787  -0.4535   1.0273  -1.5463   0.00    0.0
2018/11/07 00:56:15.000  -74.393401924  163.452943458    95.1993   5   9   0.9147   0.6454   3.5687  -0.4508   1.0208  -1.5421   0.00    0.0
2018/11/07 00:56:30.000  -74.393391362  163.452932794    92.5469   5   9   0.9137   0.6445   3.5590  -0.4482   1.0145  -1.5380   0.00    0.0
2018/11/07 00:56:45.000  -74.393396934  163.452943087    95.4165   5   9   0.9129   0.6436   3.5496  -0.4455   1.0081  -1.5340   0.00    0.0
2018/11/07 00:57:00.000  -74.393401265  163.452942896    96.1229   5  10   0.7500   0.6387   2.6817  -0.3978   0.9135  -1.0682   0.00    0.0
2018/11/07 00:57:15.000  -74.393399609  163.452941697    95.8009   5  10   0.7503   0.6383   2.6800  -0.3969   0.9107  -1.0674   0.00    0.0
2018/11/07 00:57:30.000  -74.393403669  163.452941080    96.9491   5  10   0.7507   0.6380   2.6784  -0.3960   0.9079  -1.0667   0.00    0.0
2018/11/07 00:57:45.000  -74.393401822  163.452940443    96.3536   5  10   0.7496   0.6362   2.6704  -0.3942   0.9030  -1.0639   0.00    0.0
2018/11/07 00:58:00.000  -74.393402035  163.452948149    95.9388   5  10   0.7487   0.6345   2.6625  -0.3924   0.8981  -1.0611   0.00    0.0
2018/11/07 00:58:15.000  -74.393398200  163.452943478    95.5358   5  10   0.7478   0.6328   2.6549  -0.3906   0.8932  -1.0583   0.00    0.0
2018/11/07 00:58:30.000  -74.393400513  163.452947911    95.8892   5  10   0.7469   0.6313   2.6474  -0.3889   0.8884  -1.0556   0.00    0.0
2018/11/07 00:58:45.000  -74.393405581  163.452949954    96.8612   5  10   0.7462   0.6298   2.6402  -0.3872   0.8837  -1.0530   0.00    0.0
2018/11/07 00:59:00.000  -74.393403433  163.452948086    97.2350   5  10   0.7455   0.6284   2.6332  -0.3855   0.8790  -1.0505   0.00    0.0
2018/11/07 00:59:15.000  -74.393400416  163.452946297    97.2312   5  10   0.7448   0.6270   2.6264  -0.3839   0.8744  -1.0480   0.00    0.0
2018/11/07 00:59:30.000  -74.393401492  163.452939531    95.6137   5  10   0.7442   0.6257   2.6199  -0.3823   0.8699  -1.0456   0.00    0.0
2018/11/07 00:59:45.000  -74.393402557  163.452941549    96.0845   5  10   0.7437   0.6246   2.6136  -0.3807   0.8654  -1.0432   0.00    0.0
2018/11/07 01:00:00.000  -74.393398466  163.452944518    96.0938   5  10   0.7433   0.6234   2.6075  -0.3792   0.8609  -1.0409   0.00    0.0
2018/11/07 01:00:15.000  -74.393399877  163.452945167    95.5020   5  10   0.7430   0.6224   2.6019  -0.3777   0.8566  -1.0388   0.00    0.0
2018/11/07 01:00:30.000  -74.393401242  163.452946640    95.2876   5  10   0.7427   0.6215   2.5965  -0.3762   0.8523  -1.0367   0.00    0.0
2018/11/07 01:00:45.000  -74.393404502  163.452946314    96.4821   5  10   0.7425   0.6206   2.5915  -0.3748   0.8481  -1.0347   0.00    0.0
2018/11/07 01:01:00.000  -74.393402460  163.452946557    96.0201   5  10   0.7424   0.6198   2.5867  -0.3734   0.8440  -1.0327   0.00    0.0
2018/11/07 01:01:15.000  -74.393402966  163.452954853    96.7498   5  10   0.7423   0.6191   2.5821  -0.3720   0.8399  -1.0309   0.00    0.0
2018/11/07 01:01:30.000  -74.393400083  163.452950190    95.6599   5  10   0.7423   0.6185   2.5779  -0.3707   0.8358  -1.0291   0.00    0.0
2018/11/07 01:01:45.000  -74.393399163  163.452937681    94.5320   5  10   0.7424   0.6179   2.5739  -0.3694   0.8319  -1.0274   0.00    0.0
2018/11/07 01:02:00.000  -74.393401121  163.452941325    96.0069   5  10   0.7425   0.6174   2.5703  -0.3681   0.8279  -1.0258   0.00    0.0
2018/11/07 01:02:15.000  -74.393402364  163.452952069    95.4315   5  10   0.7427   0.6170   2.5669  -0.3668   0.8241  -1.0243   0.00    0.0
2018/11/07 01:02:30.000  -74.393399665  163.452952940    96.6557   5  10   0.7430   0.6166   2.5639  -0.3656   0.8203  -1.0228   0.00    0.0
2018/11/07 01:02:45.000  -74.393400063  163.452940327    95.5608   5  10   0.7419   0.6149   2.5541  -0.3635   0.8145  -1.0193   0.00    0.0
2018/11/07 01:03:00.000  -74.393398439  163.452949511    96.0794   5  10   0.7408   0.6132   2.5445  -0.3614   0.8087  -1.0158   0.00    0.0
2018/11/07 01:03:15.000  -74.393401074  163.452941519    96.4168   5  10   0.7399   0.6116   2.5352  -0.3594   0.8030  -1.0124   0.00    0.0
2018/11/07 01:03:30.000  -74.393402720  163.452947494    95.7368   5  10   0.7390   0.6101   2.5261  -0.3574   0.7974  -1.0091   0.00    0.0
2018/11/07 01:03:45.000  -74.393404553  163.452942420    96.7449   5  10   0.7381   0.6087   2.5174  -0.3554   0.7919  -1.0058   0.00    0.0
2018/11/07 01:04:00.000  -74.393400184  163.452942799    95.8917   5  10   0.7374   0.6073   2.5090  -0.3535   0.7865  -1.0027   0.00    0.0
2018/11/07 01:04:15.000  -74.393402987  163.452941192    96.7065   5  10   0.7367   0.6061   2.5009  -0.3516   0.7811  -0.9997   0.00    0.0
2018/11/07 01:04:30.000  -74.393400863  163.452945810    96.2807   5  10   0.7361   0.6049   2.4932  -0.3498   0.7758  -0.9967   0.00    0.0
2018/11/07 01:04:45.000  -74.393399934  163.452935597    94.8272   5  10   0.7355   0.6038   2.4857  -0.3479   0.7706  -0.9939   0.00    0.0
2018/11/07 01:05:00.000  -74.393401447  163.452938421    96.2079   5  10   0.7351   0.6027   2.4786  -0.3462   0.7654  -0.9911   0.00    0.0
2018/11/07 01:05:15.000  -74.393401591  163.452943732    96.2171   5  10   0.7347   0.6018   2.4720  -0.3444   0.7604  -0.9885   0.00    0.0
2018/11/07 01:05:30.000  -74.393401213  163.452941063    96.1236   5  10   0.7344   0.6010   2.4657  -0.3428   0.7554  -0.9860   0.00    0.0
2018/11/07 01:05:45.000  -74.393401523  163.452939120    95.5755   5  10   0.7342   0.6002   2.4598  -0.3411   0.7505  -0.9836   0.00    0.0
2018/11/07 01:06:00.000  -74.393398343  163.452936587    95.7036   5  10   0.7340   0.5995   2.4542  -0.3395   0.7457  -0.9812   0.00    0.0
2018/11/07 01:06:15.000  -74.393399166  163.452947375    95.6260   5  10   0.7339   0.5989   2.4489  -0.3379   0.7409  -0.9790   0.00    0.0
2018/11/07 01:06:30.000  -74.393400451  163.452935563    95.6209   5  10   0.7339   0.5984   2.4440  -0.3363   0.7362  -0.9769   0.00    0.0
2018/11/07 01:06:45.000  -74.393400018  163.452946432    95.0844   5  10   0.7340   0.5979   2.4395  -0.3348   0.7316  -0.9749   0.00    0.0
2018/11/07 01:07:00.000  -74.393398357  163.452937898    94.2576   5  10   0.7341   0.5975   2.4353  -0.3333   0.7270  -0.9730   0.00    0.0
2018/11/07 01:07:15.000  -74.393400981  163.452942995    95.5340   5  10   0.7343   0.5972   2.4314  -0.3319   0.7225  -0.9711   0.00    0.0
2018/11/07 01:07:30.000  -74.393400929  163.452950293    95.5239   5  10   0.7346   0.5970   2.4279  -0.3305   0.7180  -0.9694   0.00    0.0
2018/11/07 01:07:45.000  -74.393397683  163.452946110    94.4974   5  10   0.7335   0.5954   2.4175  -0.3283   0.7118  -0.9656   0.00    0.0
2018/11/07 01:08:00.000  -74.393399849  163.452948186    96.1346   5  10   0.7325   0.5940   2.4074  -0.3261   0.7057  -0.9619   0.00    0.0
2018/11/07 01:08:15.000  -74.393403130  163.452947984    97.1370   5  10   0.7316   0.5926   2.3977  -0.3240   0.6996  -0.9583   0.00    0.0
2018/11/07 01:08:30.000  -74.393398264  163.452943655    95.0704   5  10   0.7307   0.5913   2.3883  -0.3219   0.6936  -0.9549   0.00    0.0
2018/11/07 01:08:45.000  -74.393402775  163.452952823    97.0448   5  10   0.7300   0.5900   2.3794  -0.3198   0.6877  -0.9515   0.00    0.0
2018/11/07 01:09:00.000  -74.393404022  163.452950438    96.8295   5  10   0.7292   0.5889   2.3707  -0.3178   0.6819  -0.9482   0.00    0.0
2018/11/07 01:09:15.000  -74.393401174  163.452943040    96.0399   5  10   0.7286   0.5878   2.3625  -0.3158   0.6762  -0.9451   0.00    0.0
2018/11/07 01:09:30.000  -74.393403081  163.452947801    97.1070   5  10   0.7281   0.5868   2.3546  -0.3139   0.6705  -0.9420   0.00    0.0
2018/11/07 01:09:45.000  -74.393399018  163.452941304    96.3423   5  10   0.7276   0.5859   2.3471  -0.3120   0.6649  -0.9391   0.00    0.0
2018/11/07 01:10:00.000  -74.393399555  163.452947312    96.3611   5  10   0.7272   0.5851   2.3400  -0.3101   0.6593  -0.9363   0.00    0.0
2018/11/07 01:10:15.000  -74.393396968  163.452935109    95.0201   5  10   0.7269   0.5844   2.3334  -0.3083   0.6539  -0.9336   0.00    0.0
2018/11/07 01:10:30.000  -74.393402970  163.452946540    96.8479   5  10   0.7266   0.5837   2.3272  -0.3065   0.6485  -0.9311   0.00    0.0
2018/11/07 01:10:45.000  -74.393404592  163.452943377    97.2114   5  10   0.7265   0.5832   2.3213  -0.3048   0.6432  -0.9286   0.00    0.0
2018/11/07 01:11:00.000  -74.393402862  163.452946928    96.3831   5  10   0.7264   0.5827   2.3159  -0.3031   0.6380  -0.9263   0.00    0.0
2018/11/07 01:11:15.000  -74.393399893  163.452948355    94.9459   5  10   0.7264   0.5823   2.3108  -0.3014   0.6328  -0.9241   0.00    0.0
2018/11/07 01:11:30.000  -74.393400386  163.452947075    95.5163   5  10   0.7264   0.5820   2.3061  -0.2998   0.6277  -0.9219   0.00    0.0
2018/11/07 01:11:45.000  -74.393399890  163.452950163    96.2499   5  10   0.7265   0.5817   2.3017  -0.2982   0.6226  -0.9199   0.00    0.0
2018/11/07 01:12:00.000  -74.393398766  163.452947578    95.4487   5  10   0.7267   0.5815   2.2978  -0.2966   0.6175  -0.9180   0.00    0.0
2018/11/07 01:12:15.000  -74.393398104  163.452938275    96.3947   5  10   0.7270   0.5814   2.2942  -0.2950   0.6125  -0.9162   0.00    0.0
2018/11/07 01:12:30.000  -74.393399535  163.452948662    96.5606   5  10   0.7274   0.5814   2.2910  -0.2935   0.6076  -0.9145   0.00    0.0
2018/11/07 01:12:45.000  -74.393401140  163.452936985    97.1812   5  10   0.7264   0.5801   2.2810  -0.2913   0.6012  -0.9108   0.00    0.0
2018/11/07 01:13:00.000  -74.393399865  163.452951983    95.2183   5  10   0.7255   0.5789   2.2714  -0.2892   0.5948  -0.9073   0.00    0.0
2018/11/07 01:13:15.000  -74.393398262  163.452947634    94.9713   5  10   0.7247   0.5778   2.2621  -0.2870   0.5886  -0.9039   0.00    0.0
2018/11/07 01:13:30.000  -74.393400848  163.452950979    95.9595   5  10   0.7239   0.5767   2.2533  -0.2849   0.5824  -0.9005   0.00    0.0
2018/11/07 01:13:45.000  -74.393399381  163.452947905    96.2791   5  10   0.7233   0.5758   2.2449  -0.2829   0.5763  -0.8974   0.00    0.0
2018/11/07 01:14:00.000  -74.393403209  163.452946972    96.5998   5  10   0.7227   0.5749   2.2368  -0.2808   0.5702  -0.8943   0.00    0.0
2018/11/07 01:14:15.000  -74.393398004  163.452944916    96.0966   5  10   0.7222   0.5741   2.2291  -0.2789   0.5642  -0.8913   0.00    0.0
2018/11/07 01:14:30.000  -74.393401215  163.452951810    96.8104   5  10   0.7217   0.5734   2.2218  -0.2769   0.5583  -0.8885   0.00    0.0
2018/11/07 01:14:45.000  -74.393400862  163.452939522    96.4538   5  10   0.7214   0.5727   2.2150  -0.2750   0.5524  -0.8857   0.00    0.0
2018/11/07 01:15:00.000  -74.393401227  163.452940851    95.8152   5  10   0.7211   0.5721   2.2085  -0.2731   0.5465  -0.8831   0.00    0.0
2018/11/07 01:15:15.000  -74.393402668  163.452943203    96.7645   5  10   0.7209   0.5717   2.2025  -0.2713   0.5407  -0.8806   0.00    0.0
2018/11/07 01:15:30.000  -74.393400762  163.452942637    95.9051   5  10   0.7207   0.5713   2.1970  -0.2695   0.5350  -0.8783   0.00    0.0
2018/11/07 01:15:45.000  -74.393400918  163.452939695    95.7752   5  10   0.7207   0.5710   2.1918  -0.2677   0.5293  -0.8760   0.00    0.0
2018/11/07 01:16:00.000  -74.393401164  163.452933899    96.4133   5  10   0.7207   0.5707   2.1870  -0.2660   0.5236  -0.8739   0.00    0.0
2018/11/07 01:16:15.000  -74.393401496  163.452952678    97.3344   5  10   0.7208   0.5706   2.1826  -0.2643   0.5179  -0.8718   0.00    0.0
2018/11/07 01:16:30.000  -74.393403303  163.452949798    96.6072   5  10   0.7210   0.5705   2.1786  -0.2626   0.5123  -0.8699   0.00    0.0
2018/11/07 01:16:45.000  -74.393399993  163.452943382    96.1959   5  10   0.7212   0.5705   2.1749  -0.2610   0.5067  -0.8681   0.00    0.0
2018/11/07 01:17:00.000  -74.393401599  163.452937770    95.4609   5  10   0.7215   0.5705   2.1717  -0.2593   0.5011  -0.8664   0.00    0.0
2018/11/07 01:17:15.000  -74.393401224  163.452946033    95.8369   5  10   0.7219   0.5706   2.1688  -0.2577   0.4955  -0.8647   0.00    0.0
2018/11/07 01:17:30.000  -74.393400300  163.452942963    96.6253   5  10   0.7223   0.5709   2.1662  -0.2562   0.4898  -0.8632   0.00    0.0
2018/11/07 01:17:45.000  -74.393401940  163.452936527    95.8219   5  10   0.7215   0.5699   2.1572  -0.2540   0.4832  -0.8599   0.00    0.0
2018/11/07 01:18:00.000  -74.393399764  163.452941222    96.5349   5  11   0.6209   0.5514   1.8017  -0.1100   0.2510  -0.5528   0.00    0.0
2018/11/07 01:18:15.000  -74.393402577  163.452951870    97.1526   5  11   0.6206   0.5509   1.7977  -0.1078   0.2440  -0.5518   0.00    0.0
2018/11/07 01:18:30.000  -74.393403027  163.452940732    97.2526   5  11   0.6203   0.5504   1.7939  -0.1056   0.2369  -0.5508   0.00    0.0
2018/11/07 01:18:45.000  -74.393402874  163.452943898    96.4579   5  11   0.6201   0.5500   1.7905  -0.1033   0.2295  -0.5499   0.00    0.0
2018/11/07 01:19:00.000  -74.393403242  163.452943331    95.6822   5  11   0.6199   0.5496   1.7873  -0.1010   0.2219  -0.5490   0.00    0.0
2018/11/07 01:19:15.000  -74.393402007  163.452950978    96.0402   5  11   0.6197   0.5494   1.7844  -0.0987   0.2141  -0.5481   0.00    0.0
2018/11/07 01:19:30.000  -74.393402777  163.452951640    95.9278   5  11   0.6197   0.5492   1.7818  -0.0963   0.2059  -0.5473   0.00    0.0
2018/11/07 01:19:45.000  -74.393399774  163.452945407    96.4156   5  11   0.6196   0.5490   1.7795  -0.0938   0.1974  -0.5466   0.00    0.0
2018/11/07 01:20:00.000  -74.393400553  163.452951006    96.9700   5  11   0.6197   0.5490   1.7776  -0.0913   0.1885  -0.5458   0.00    0.0
2018/11/07 01:20:15.000  -74.393401263  163.452939247    96.1706   5  11   0.6198   0.5490   1.7760  -0.0887   0.1792  -0.5451   0.00    0.0
2018/11/07 01:20:30.000  -74.393401115  163.452948439    96.4401   5  11   0.6199   0.5491   1.7747  -0.0861   0.1693  -0.5445   0.00    0.0
2018/11/07 01:20:45.000  -74.393401799  163.452941278    96.1060   5  11   0.6201   0.5492   1.7737  -0.0833   0.1588  -0.5439   0.00    0.0
2018/11/07 01:21:00.000  -74.393402840  163.452944246    97.4964   5  11   0.6204   0.5495   1.7730  -0.0805   0.1474  -0.5433   0.00    0.0
2018/11/07 01:21:15.000  -74.393400300  163.452951868    96.3715   5  11   0.6207   0.5498   1.7726  -0.0776   0.1350  -0.5428   0.00    0.0
2018/11/07 01:21:30.000  -74.393403532  163.452955307    96.4183   5  11   0.6211   0.5501   1.7725  -0.0746   0.1213  -0.5423   0.00    0.0
2018/11/07 01:21:45.000  -74.393404564  163.452950616    96.5750   5  11   0.6215   0.5506   1.7727  -0.0714   0.1057  -0.5418   0.00    0.0
2018/11/07 01:22:00.000  -74.393405549  163.452943338    97.6251   5  11   0.6220   0.5511   1.7732  -0.0681   0.0873  -0.5414   0.00    0.0
2018/11/07 01:22:15.000  -74.393403938  163.452942002    96.3809   5  12   0.6149   0.5289   1.7077  -0.1392  -0.2669  -0.5825   0.00    0.0
2018/11/07 01:22:30.000  -74.393404364  163.452950020    95.6365   5  12   0.6153   0.5295   1.7098  -0.1381  -0.2728  -0.5824   0.00    0.0
2018/11/07 01:22:45.000  -74.393406456  163.452946865    96.2697   5  12   0.6148   0.5290   1.7070  -0.1368  -0.2771  -0.5814   0.00    0.0
2018/11/07 01:23:00.000  -74.393403481  163.452936903    96.1805   5  12   0.6144   0.5286   1.7044  -0.1354  -0.2813  -0.5806   0.00    0.0
2018/11/07 01:23:15.000  -74.393404982  163.452946995    96.5480   5  12   0.6140   0.5282   1.7021  -0.1341  -0.2855  -0.5798   0.00    0.0
2018/11/07 01:23:30.000  -74.393406270  163.452950562    97.0885   5  12   0.6137   0.5279   1.7001  -0.1327  -0.2897  -0.5790   0.00    0.0
2018/11/07 01:23:45.000  -74.393404139  163.452944517    96.4242   5  12   0.6134   0.5276   1.6983  -0.1314  -0.2939  -0.5782   0.00    0.0
2018/11/07 01:24:00.000  -74.393401926  163.452942073    96.7154   5  12   0.6131   0.5274   1.6968  -0.1300  -0.2981  -0.5776   0.00    0.0
2018/11/07 01:24:15.000  -74.393405036  163.452949256    96.4881   5  12   0.6129   0.5273   1.6956  -0.1287  -0.3024  -0.5769   0.00    0.0
2018/11/07 01:24:30.000  -74.393403247  163.452953680    96.4155   5  12   0.6128   0.5273   1.6947  -0.1274  -0.3066  -0.5763   0.00    0.0
2018/11/07 01:24:45.000  -74.393404937  163.452948427    95.8250   5  12   0.6127   0.5273   1.6940  -0.1260  -0.3109  -0.5758   0.00    0.0
2018/11/07 01:25:00.000  -74.393403900  163.452950244    96.4277   5  12   0.6127   0.5273   1.6936  -0.1247  -0.3152  -0.5753   0.00    0.0
2018/11/07 01:25:15.000  -74.393402903  163.452944136    96.5136   5  12   0.6127   0.5275   1.6936  -0.1234  -0.3195  -0.5748   0.00    0.0
2018/11/07 01:25:30.000  -74.393405666  163.452942746    96.4312   5  12   0.6128   0.5277   1.6939  -0.1221  -0.3239  -0.5744   0.00    0.0
2018/11/07 01:25:45.000  -74.393403678  163.452942646    96.0850   5  12   0.6130   0.5280   1.6945  -0.1208  -0.3283  -0.5741   0.00    0.0
2018/11/07 01:26:00.000  -74.393404749  163.452951557    96.4042   5  12   0.6131   0.5283   1.6954  -0.1195  -0.3327  -0.5737   0.00    0.0
2018/11/07 01:26:15.000  -74.393402311  163.452943100    96.2103   5  12   0.6134   0.5287   1.6965  -0.1182  -0.3372  -0.5735   0.00    0.0
2018/11/07 01:26:30.000  -74.393405001  163.452943982    96.3656   5  12   0.6137   0.5291   1.6979  -0.1169  -0.3417  -0.5733   0.00    0.0
2018/11/07 01:26:45.000  -74.393404220  163.452947067    96.2398   5  12   0.6140   0.5297   1.6996  -0.1156  -0.3462  -0.5731   0.00    0.0
2018/11/07 01:27:00.000  -74.393403796  163.452945643    95.8870   5  12   0.6144   0.5302   1.7016  -0.1143  -0.3507  -0.5730   0.00    0.0
2018/11/07 01:27:15.000  -74.393404405  163.452941389    96.5138   5  12   0.6148   0.5309   1.7039  -0.1130  -0.3553  -0.5729   0.00    0.0
2018/11/07 01:27:30.000  -74.393401852  163.452948712    96.5446   5  12   0.6153   0.5316   1.7065  -0.1117  -0.3599  -0.5729   0.00    0.0
2018/11/07 01:27:45.000  -74.393403159  163.452953286    95.9303   5  12   0.6149   0.5312   1.7041  -0.1101  -0.3629  -0.5721   0.00    0.0
2018/11/07 01:28:00.000  -74.393405615  163.452950443    95.8376   5  12   0.6145   0.5309   1.7019  -0.1085  -0.3660  -0.5714   0.00    0.0
2018/11/07 01:28:15.000  -74.393404862  163.452947865    96.2184   5  12   0.6142   0.5306   1.6999  -0.1068  -0.3691  -0.5707   0.00    0.0
2018/11/07 01:28:30.000  -74.393400189  163.452945694    96.4631   5  12   0.6139   0.5304   1.6983  -0.1052  -0.3722  -0.5701   0.00    0.0
2018/11/07 01:28:45.000  -74.393404273  163.452953814    96.5380   5  12   0.6137   0.5303   1.6969  -0.1035  -0.3754  -0.5695   0.00    0.0
2018/11/07 01:29:00.000  -74.393406355  163.452951255    96.1186   5  12   0.6135   0.5302   1.6957  -0.1019  -0.3786  -0.5689   0.00    0.0
2018/11/07 01:29:15.000  -74.393401470  163.452942196    95.9530   5  12   0.6134   0.5302   1.6949  -0.1002  -0.3819  -0.5685   0.00    0.0
2018/11/07 01:29:30.000  -74.393403638  163.452947640    97.0641   5  12   0.6133   0.5302   1.6944  -0.0985  -0.3852  -0.5680   0.00    0.0
2018/11/07 01:29:45.000  -74.393404869  163.452940383    96.4560   5  12   0.6133   0.5303   1.6941  -0.0968  -0.3886  -0.5676   0.00    0.0
2018/11/07 01:30:00.000  -74.393402456  163.452942661    96.1730   5  12   0.6133   0.5305   1.6941  -0.0951  -0.3920  -0.5673   0.00    0.0
2018/11/07 01:30:15.000  -74.393405789  163.452944082    95.7259   5  12   0.6134   0.5308   1.6946  -0.0935  -0.3955  -0.5670   0.00    0.0
2018/11/07 01:30:30.000  -74.393406383  163.452946203    96.9277   5  12   0.6135   0.5311   1.6953  -0.0918  -0.3990  -0.5667   0.00    0.0
2018/11/07 01:30:45.000  -74.393404420  163.452944578    96.7318   5  12   0.6137   0.5314   1.6963  -0.0900  -0.4026  -0.5665   0.00    0.0
2018/11/07 01:31:00.000  -74.393404710  163.452954578    96.2926   5  12   0.6140   0.5319   1.6977  -0.0883  -0.4063  -0.5664   0.00    0.0
2018/11/07 01:31:15.000  -74.393405051  163.452950380    95.6032   5  12   0.6143   0.5324   1.6993  -0.0866  -0.4100  -0.5663   0.00    0.0
2018/11/07 01:31:30.000  -74.393403883  163.452942809    95.7151   5  12   0.6146   0.5329   1.7011  -0.0848  -0.4137  -0.5662   0.00    0.0
2018/11/07 01:31:45.000  -74.393406570  163.452945353    95.6930   5  12   0.6150   0.5336   1.7033  -0.0830  -0.4175  -0.5662   0.00    0.0
2018/11/07 01:32:00.000  -74.393403313  163.452944050    95.9491   5  12   0.6154   0.5342   1.7058  -0.0812  -0.4214  -0.5663   0.00    0.0
2018/11/07 01:32:15.000  -74.393403407  163.452943847    95.9038   5  12   0.6159   0.5350   1.7085  -0.0793  -0.4253  -0.5664   0.00    0.0
2018/11/07 01:32:30.000  -74.393402656  163.452947314    95.3538   5  12   0.6165   0.5358   1.7116  -0.0775  -0.4292  -0.5665   0.00    0.0
2018/11/07 01:32:45.000  -74.393404310  163.452946253    95.9625   5  12   0.6161   0.5355   1.7094  -0.0751  -0.4316  -0.5659   0.00    0.0
2018/11/07 01:33:00.000  -74.393404989  163.452951043    96.4004   5  12   0.6158   0.5353   1.7075  -0.0728  -0.4341  -0.5653   0.00    0.0
2018/11/07 01:33:15.000  -74.393405911  163.452942697    96.0709   5  12   0.6155   0.5351   1.7060  -0.0704  -0.4366  -0.5648   0.00    0.0
2018/11/07 01:33:30.000  -74.393405654  163.452944407    96.3056   5  12   0.6153   0.5350   1.7047  -0.0679  -0.4391  -0.5644   0.00    0.0
2018/11/07 01:33:45.000  -74.393403557  163.452951624    96.1276   5  12   0.6151   0.5350   1.7037  -0.0654  -0.4418  -0.5639   0.00    0.0
2018/11/07 01:34:00.000  -74.393402056  163.452945133    95.7377   5  12   0.6150   0.5350   1.7030  -0.0627  -0.4444  -0.5636   0.00    0.0
2018/11/07 01:34:15.000  -74.393404609  163.452949034    97.0123   5  12   0.6149   0.5351   1.7026  -0.0600  -0.4472  -0.5633   0.00    0.0
2018/11/07 01:34:30.000  -74.393404359  163.452953051    94.9206   5  12   0.6149   0.5352   1.7025  -0.0572  -0.4500  -0.5630   0.00    0.0
2018/11/07 01:34:45.000  -74.393402394  163.452941407    96.3947   5  12   0.6149   0.5354   1.7027  -0.0543  -0.4528  -0.5628   0.00    0.0
2018/11/07 01:35:00.000  -74.393402136  163.452949311    95.8950   5  12   0.6150   0.5357   1.7031  -0.0512  -0.4557  -0.5626   0.00    0.0
2018/11/07 01:35:15.000  -74.393405014  163.452956317    95.9752   5  12   0.6152   0.5360   1.7040  -0.0480  -0.4587  -0.5625   0.00    0.0
2018/11/07 01:35:30.000  -74.393403828  163.452948152    96.1565   5  12   0.6153   0.5365   1.7051  -0.0446  -0.4618  -0.5624   0.00    0.0
2018/11/07 01:35:45.000  -74.393405504  163.452935846    96.3872   5  12   0.6156   0.5369   1.7065  -0.0410  -0.4649  -0.5624   0.00    0.0
2018/11/07 01:36:00.000  -74.393404130  163.452944303    96.6304   5  12   0.6159   0.5374   1.7083  -0.0370  -0.4681  -0.5624   0.00    0.0
2018/11/07 01:36:15.000  -74.393404987  163.452946290    96.7898   5  12   0.6162   0.5380   1.7103  -0.0325  -0.4714  -0.5625   0.00    0.0
2018/11/07 01:36:30.000  -74.393404039  163.452952295    96.0852   5  12   0.6166   0.5387   1.7125  -0.0274  -0.4747  -0.5626   0.00    0.0
2018/11/07 01:36:45.000  -74.393403270  163.452946085    95.8794   5  12   0.6171   0.5394   1.7151  -0.0211  -0.4780  -0.5627   0.00    0.0
2018/11/07 01:37:00.000  -74.393405081  163.452944553    96.0565   5  12   0.6176   0.5402   1.7179  -0.0120  -0.4815  -0.5629   0.00    0.0
2018/11/07 01:37:15.000  -74.393405291  163.452945582    96.2390   5  12   0.6181   0.5410   1.7211   0.0125  -0.4850  -0.5632   0.00    0.0
2018/11/07 01:37:30.000  -74.393405285  163.452955747    96.2061   5  12   0.6187   0.5419   1.7245   0.0214  -0.4885  -0.5635   0.00    0.0
2018/11/07 01:37:45.000  -74.393404620  163.452948460    96.2333   5  12   0.6184   0.5417   1.7227   0.0283  -0.4905  -0.5631   0.00    0.0
2018/11/07 01:38:00.000  -74.393405773  163.452943639    96.6845   5  12   0.6181   0.5415   1.7213   0.0339  -0.4926  -0.5627   0.00    0.0
2018/11/07 01:38:15.000  -74.393404294  163.452949936    95.4538   5  12   0.6179   0.5415   1.7202   0.0386  -0.4947  -0.5624   0.00    0.0
2018/11/07 01:38:30.000  -74.393403162  163.452956527    95.8794   5  12   0.6178   0.5415   1.7193   0.0427  -0.4969  -0.5621   0.00    0.0
2018/11/07 01:38:45.000  -74.393400729  163.452946052    96.0208   5  12   0.6176   0.5415   1.7187   0.0465  -0.4991  -0.5618   0.00    0.0
2018/11/07 01:39:00.000  -74.393403404  163.452945886    95.3712   5  12   0.6176   0.5416   1.7184   0.0500  -0.5014  -0.5617   0.00    0.0
2018/11/07 01:39:15.000  -74.393404074  163.452938029    95.7721   5  12   0.6176   0.5418   1.7184   0.0532  -0.5038  -0.5615   0.00    0.0
2018/11/07 01:39:30.000  -74.393403328  163.452948689    96.1418   5  12   0.6176   0.5420   1.7187   0.0562  -0.5063  -0.5614   0.00    0.0
2018/11/07 01:39:45.000  -74.393403180  163.452949268    95.7043   5  12   0.6177   0.5423   1.7192   0.0591  -0.5088  -0.5614   0.00    0.0
2018/11/07 01:40:00.000  -74.393402941  163.452942232    96.1452   5  12   0.6178   0.5426   1.7201   0.0618  -0.5113  -0.5614   0.00    0.0
2018/11/07 01:40:15.000  -74.393404370  163.452954937    96.0631   5  12   0.6180   0.5430   1.7213   0.0643  -0.5140  -0.5614   0.00    0.0
2018/11/07 01:40:30.000  -74.393404814  163.452945165    96.4071   5  12   0.6183   0.5435   1.7228   0.0667  -0.5167  -0.5615   0.00    0.0
2018/11/07 01:40:45.000  -74.393406282  163.452945518    96.1886   5  12   0.6186   0.5440   1.7246   0.0691  -0.5195  -0.5617   0.00    0.0
2018/11/07 01:41:00.000  -74.393404063  163.452958317    95.1094   5  12   0.6189   0.5446   1.7266   0.0713  -0.5224  -0.5619   0.00    0.0
2018/11/07 01:41:15.000  -74.393404124  163.452943818    96.2616   5  12   0.6193   0.5453   1.7289   0.0735  -0.5253  -0.5621   0.00    0.0
2018/11/07 01:41:30.000  -74.393404212  163.452949158    95.7988   5  12   0.6198   0.5460   1.7315   0.0756  -0.5283  -0.5624   0.00    0.0
2018/11/07 01:41:45.000  -74.393405442  163.452961236    95.1684   5  12   0.6203   0.5468   1.7344   0.0776  -0.5313  -0.5627   0.00    0.0
2018/11/07 01:42:00.000  -74.393405920  163.452952927    95.8153   5  12   0.6208   0.5476   1.7375   0.0796  -0.5344  -0.5631   0.00    0.0
2018/11/07 01:42:15.000  -74.393406661  163.452952228    95.2022   5  12   0.6215   0.5485   1.7409   0.0815  -0.5375  -0.5635   0.00    0.0
2018/11/07 01:42:30.000  -74.393405293  163.452947624    96.1285   5  12   0.6221   0.5495   1.7446   0.0833  -0.5408  -0.5640   0.00    0.0
2018/11/07 01:42:45.000  -74.393405962  163.452958126    95.7653   5  12   0.6219   0.5493   1.7432   0.0854  -0.5425  -0.5637   0.00    0.0
2018/11/07 01:43:00.000  -74.393405460  163.452952543    95.8164   5  12   0.6216   0.5493   1.7422   0.0874  -0.5442  -0.5636   0.00    0.0
2018/11/07 01:43:15.000  -74.393402700  163.452949840    94.7441   5  12   0.6215   0.5492   1.7414   0.0894  -0.5461  -0.5634   0.00    0.0
2018/11/07 01:43:30.000  -74.393404151  163.452950655    95.8629   5  12   0.6214   0.5493   1.7409   0.0912  -0.5480  -0.5633   0.00    0.0
2018/11/07 01:43:45.000  -74.393404306  163.452952608    95.1132   5  12   0.6213   0.5494   1.7407   0.0931  -0.5499  -0.5633   0.00    0.0
2018/11/07 01:44:00.000  -74.393405003  163.452936787    95.6663   5  12   0.6213   0.5496   1.7407   0.0949  -0.5520  -0.5633   0.00    0.0
2018/11/07 01:44:15.000  -74.393404984  163.452942527    95.8547   5  12   0.6213   0.5498   1.7411   0.0966  -0.5541  -0.5633   0.00    0.0
