% program   : RTKLIB ver.2.4.3
% inp file  : _by_type/_obs/hillary/20181112_20181114.18o
% inp file  : _by_type/_obs/base/20181111.18o
% inp file  : _by_type/_sp3+clk/igs20271.clk
% inp file  : _by_type/_sp3+clk/igs20271.sp3
% inp file  : _by_type/_nav/hillary/20181112_20181114.18n
% obs start : 2018/11/12 00:00:00.0 GPST (week2027  86400.0s)
% obs end   : 2018/11/14 23:59:45.0 GPST (week2027 345585.0s)
% pos mode  : dgps
% freqs     : L1+L2
% solution  : combined
% elev mask : 15.0 deg
% dynamics  : off
% tidecorr  : off
% ionos opt : iono-free
% tropo opt : est ztd+grad
% ephemeris : precise
% navi sys  : gps glonass
% antenna1  :                       ( 0.0000  0.0000  0.0000)
% antenna2  :                       ( 0.0000  0.0000  0.0000)
% ref pos   : 90.000000000   0.000000000-6335367.6285
%
% (lat/lon/height=WGS84/ellipsoidal,Q=1:fix,2:float,3:sbas,4:dgps,5:single,6:ppp,ns=# of satellites)
%  GPST                  latitude(deg) longitude(deg)  height(m)   Q  ns   sdn(m)   sde(m)   sdu(m)  sdne(m)  sdeu(m)  sdun(m) age(s)  ratio
2018/11/12 00:00:00.000  -74.393416628  163.452913425    95.6032   5  10   0.6583   0.6231   2.2987  -0.2928   0.7798  -0.7548  15.00    0.0
2018/11/12 00:00:15.000  -74.393417743  163.452916390    95.6606   5  10   0.6587   0.6238   2.3058  -0.2940   0.7836  -0.7576  30.00    0.0
2018/11/12 00:00:30.000  -74.393418569  163.452916671    97.2665   5  10   0.6592   0.6245   2.3133  -0.2953   0.7876  -0.7605  45.00    0.0
2018/11/12 00:00:45.000  -74.393417817  163.452924088    96.1730   5  10   0.6597   0.6253   2.3210  -0.2966   0.7916  -0.7635  60.00    0.0
2018/11/12 00:01:00.000  -74.393417723  163.452912617    94.6569   5  10   0.6603   0.6262   2.3290  -0.2980   0.7958  -0.7666  75.00    0.0
2018/11/12 00:01:15.000  -74.393417072  163.452916051    96.0483   5  10   0.6610   0.6272   2.3373  -0.2995   0.8001  -0.7698  90.00    0.0
2018/11/12 00:01:30.000  -74.393418829  163.452923246    95.9927   5  10   0.6618   0.6283   2.3459  -0.3010   0.8045  -0.7730 105.00    0.0
2018/11/12 00:01:45.000  -74.393415150  163.452915183    96.4403   5  10   0.6626   0.6295   2.3548  -0.3026   0.8091  -0.7764 120.00    0.0
2018/11/12 00:02:00.000  -74.393416214  163.452917649    96.0993   5  10   0.6636   0.6308   2.3640  -0.3042   0.8138  -0.7799 135.00    0.0
2018/11/12 00:02:15.000  -74.393416159  163.452918346    97.2312   5  10   0.6646   0.6321   2.3735  -0.3059   0.8186  -0.7835 150.00    0.0
2018/11/12 00:02:30.000  -74.393418005  163.452914033    95.6982   5  10   0.6657   0.6336   2.3833  -0.3077   0.8235  -0.7872 165.00    0.0
2018/11/12 00:02:45.000  -74.393415519  163.452922069    96.5606   5  10   0.6654   0.6333   2.3871  -0.3083   0.8257  -0.7890 180.00    0.0
2018/11/12 00:03:00.000  -74.393413953  163.452921727    95.7653   5  10   0.6652   0.6332   2.3914  -0.3091   0.8281  -0.7912 195.00    0.0
2018/11/12 00:03:15.000  -74.393414812  163.452915749    96.2364   5  10   0.6651   0.6331   2.3959  -0.3098   0.8307  -0.7934 210.00    0.0
2018/11/12 00:03:30.000  -74.393415367  163.452910615    95.2968   5  10   0.6651   0.6331   2.4007  -0.3107   0.8333  -0.7956 225.00    0.0
2018/11/12 00:03:45.000  -74.393414856  163.452916310    95.7728   5  10   0.6651   0.6332   2.4058  -0.3116   0.8361  -0.7980 240.00    0.0
2018/11/12 00:04:00.000  -74.393413853  163.452914739    95.8759   5  10   0.6652   0.6334   2.4112  -0.3125   0.8390  -0.8005 255.00    0.0
2018/11/12 00:04:15.000  -74.393416112  163.452916920    95.8305   5  10   0.6654   0.6337   2.4168  -0.3135   0.8420  -0.8030 270.00    0.0
2018/11/12 00:04:30.000  -74.393414982  163.452914167    95.4577   5  10   0.6657   0.6341   2.4226  -0.3146   0.8451  -0.8057 285.00    0.0
2018/11/12 00:04:45.000  -74.393414961  163.452911440    94.8879   5  10   0.6661   0.6345   2.4288  -0.3157   0.8483  -0.8084 300.00    0.0
2018/11/12 00:05:00.000  -74.393415520  163.452911458    95.9316   5  10   0.6665   0.6351   2.4352  -0.3169   0.8517  -0.8112 315.00    0.0
2018/11/12 00:05:15.000  -74.393414569  163.452909443    96.0847   5  10   0.6670   0.6358   2.4420  -0.3182   0.8552  -0.8142 330.00    0.0
2018/11/12 00:05:30.000  -74.393415037  163.452916446    94.9959   5  11   0.6549   0.6365   2.3540  -0.3182   0.8613  -0.8692 345.00    0.0
2018/11/12 00:05:45.000  -74.393415482  163.452913002    95.1584   5  11   0.6555   0.6374   2.3617  -0.3197   0.8650  -0.8723 360.00    0.0
2018/11/12 00:06:00.000  -74.393414447  163.452912378    95.2312   5  11   0.6562   0.6383   2.3697  -0.3212   0.8687  -0.8755 375.00    0.0
2018/11/12 00:06:15.000  -74.393415837  163.452914724    95.5343   5  11   0.6570   0.6394   2.3780  -0.3227   0.8726  -0.8788 390.00    0.0
2018/11/12 00:06:30.000  -74.393414045  163.452912204    94.8978   5  11   0.6578   0.6405   2.3865  -0.3243   0.8766  -0.8822 405.00    0.0
2018/11/12 00:06:45.000  -74.393416874  163.452914596    95.9940   5  11   0.6587   0.6417   2.3953  -0.3259   0.8807  -0.8856 420.00    0.0
2018/11/12 00:07:00.000  -74.393410961  163.452911667    93.8259   5  11   0.6597   0.6430   2.4043  -0.3276   0.8850  -0.8892 435.00    0.0
2018/11/12 00:07:15.000  -74.393412779  163.452904391    94.5640   5  11   0.6608   0.6444   2.4136  -0.3294   0.8893  -0.8929 450.00    0.0
2018/11/12 00:07:30.000  -74.393415160  163.452917619    95.7580   5  11   0.6619   0.6459   2.4232  -0.3312   0.8937  -0.8967 465.00    0.0
2018/11/12 00:07:45.000  -74.393414776  163.452909858    95.2081   5  11   0.6618   0.6458   2.4275  -0.3320   0.8958  -0.8987 480.00    0.0
2018/11/12 00:08:00.000  -74.393414527  163.452908574    94.8459   5  11   0.6616   0.6456   2.4315  -0.3327   0.8976  -0.9006 495.00    0.0
2018/11/12 00:08:15.000  -74.393414595  163.452915184    95.3869   5  11   0.6616   0.6455   2.4357  -0.3335   0.8995  -0.9025 510.00    0.0
2018/11/12 00:08:30.000  -74.393414441  163.452913619    95.3754   5  11   0.6616   0.6454   2.4402  -0.3343   0.9015  -0.9045 525.00    0.0
2018/11/12 00:08:45.000  -74.393417966  163.452920431    96.4133   5  11   0.6617   0.6455   2.4449  -0.3351   0.9037  -0.9066 540.00    0.0
2018/11/12 00:09:00.000  -74.393415665  163.452913487    95.5993   5  11   0.6619   0.6456   2.4498  -0.3360   0.9059  -0.9088 555.00    0.0
2018/11/12 00:09:15.000  -74.393414462  163.452912117    95.1141   5  11   0.6621   0.6459   2.4549  -0.3370   0.9082  -0.9111 570.00    0.0
2018/11/12 00:09:30.000  -74.393416584  163.452910857    95.6684   5  11   0.6624   0.6462   2.4603  -0.3379   0.9106  -0.9135 585.00    0.0
2018/11/12 00:09:45.000  -74.393415086  163.452915313    95.8802   5  11   0.6628   0.6466   2.4659  -0.3390   0.9131  -0.9159 600.00    0.0
2018/11/12 00:10:00.000  -74.393415245  163.452911827    95.7267   5  11   0.6632   0.6470   2.4717  -0.3401   0.9157  -0.9184 615.00    0.0
2018/11/12 00:10:15.000  -74.393413116  163.452904871    95.1602   5  11   0.6637   0.6476   2.4779  -0.3413   0.9186  -0.9211 630.00    0.0
2018/11/12 00:10:30.000  -74.393416478  163.452908061    95.1965   5  11   0.6644   0.6484   2.4844  -0.3425   0.9215  -0.9239 645.00    0.0
2018/11/12 00:10:45.000  -74.393416009  163.452913637    96.0606   5  11   0.6651   0.6491   2.4910  -0.3438   0.9245  -0.9268 660.00    0.0
2018/11/12 00:11:00.000  -74.393417230  163.452916131    95.9270   5  11   0.6658   0.6500   2.4979  -0.3451   0.9276  -0.9297 675.00    0.0
2018/11/12 00:11:15.000  -74.393415374  163.452909098    95.6585   5  11   0.6666   0.6510   2.5050  -0.3464   0.9308  -0.9327 690.00    0.0
2018/11/12 00:11:30.000  -74.393417279  163.452921882    97.1034   5  11   0.6675   0.6520   2.5123  -0.3478   0.9341  -0.9358 705.00    0.0
2018/11/12 00:11:45.000  -74.393416703  163.452915258    96.0402   5  11   0.6685   0.6531   2.5197  -0.3493   0.9374  -0.9389 720.00    0.0
2018/11/12 00:12:00.000  -74.393417984  163.452913655    96.3174   5  11   0.6695   0.6543   2.5274  -0.3508   0.9409  -0.9421 735.00    0.0
2018/11/12 00:12:15.000  -74.393415589  163.452915892    95.2969   5  11   0.6706   0.6555   2.5353  -0.3523   0.9444  -0.9454 750.00    0.0
2018/11/12 00:12:30.000  -74.393416019  163.452903687    95.6573   5  11   0.6717   0.6568   2.5433  -0.3538   0.9480  -0.9487 765.00    0.0
2018/11/12 00:12:45.000  -74.393416425  163.452910159    94.8750   5  11   0.6716   0.6564   2.5454  -0.3542   0.9488  -0.9500 780.00    0.0
2018/11/12 00:13:00.000  -74.393415649  163.452910169    95.3954   5  11   0.6715   0.6560   2.5476  -0.3546   0.9497  -0.9514 795.00    0.0
2018/11/12 00:13:15.000  -74.393417451  163.452913449    95.5082   5  11   0.6714   0.6558   2.5501  -0.3551   0.9506  -0.9528 810.00    0.0
2018/11/12 00:13:30.000  -74.393417866  163.452908116    96.5004   5  11   0.6715   0.6556   2.5527  -0.3556   0.9517  -0.9543 825.00    0.0
2018/11/12 00:13:45.000  -74.393418429  163.452910224    96.6176   5  11   0.6715   0.6554   2.5555  -0.3562   0.9528  -0.9558 840.00    0.0
2018/11/12 00:14:00.000  -74.393414256  163.452910895    94.6821   5  11   0.6717   0.6554   2.5584  -0.3568   0.9540  -0.9574 855.00    0.0
2018/11/12 00:14:15.000  -74.393415003  163.452902474    94.8798   5  11   0.6719   0.6554   2.5615  -0.3574   0.9553  -0.9591 870.00    0.0
2018/11/12 00:14:30.000  -74.393419784  163.452914285    95.3715   5  11   0.6722   0.6555   2.5648  -0.3581   0.9566  -0.9608 885.00    0.0
2018/11/12 00:14:45.000  -74.393416279  163.452909288    94.7321   5  11   0.6725   0.6557   2.5683  -0.3587   0.9580  -0.9626 900.00    0.0
2018/11/12 00:15:00.000  -74.393418342  163.452915399    96.1620   5  11   0.6729   0.6559   2.5719  -0.3595   0.9595  -0.9644 915.00    0.0
2018/11/12 00:15:15.000  -74.393417863  163.452906965    95.1142   5  11   0.6735   0.6563   2.5758  -0.3603   0.9612  -0.9664 930.00    0.0
2018/11/12 00:15:30.000  -74.393417153  163.452912307    94.4850   5  11   0.6740   0.6567   2.5800  -0.3611   0.9629  -0.9684 945.00    0.0
2018/11/12 00:15:45.000  -74.393415715  163.452903135    93.5565   5  11   0.6747   0.6573   2.5842  -0.3620   0.9646  -0.9705 960.00    0.0
2018/11/12 00:16:00.000  -74.393416553  163.452907897    95.0684   5  11   0.6754   0.6578   2.5887  -0.3629   0.9665  -0.9726 975.00    0.0
2018/11/12 00:16:15.000  -74.393415371  163.452904958    94.4063   5  11   0.6761   0.6585   2.5932  -0.3638   0.9683  -0.9748 990.00    0.0
2018/11/12 00:16:30.000  -74.393417468  163.452909425    95.1584   5  11   0.6769   0.6592   2.5979  -0.3647   0.9703  -0.9770 1005.00    0.0
2018/11/12 00:16:45.000  -74.393415450  163.452895434    93.9876   5  11   0.6778   0.6600   2.6027  -0.3657   0.9722  -0.9792 1020.00    0.0
2018/11/12 00:17:00.000  -74.393413190  163.452901807    94.3607   5  11   0.6787   0.6609   2.6077  -0.3667   0.9743  -0.9815 1035.00    0.0
2018/11/12 00:17:15.000  -74.393414006  163.452900291    93.9322   5  11   0.6797   0.6618   2.6127  -0.3677   0.9763  -0.9839 1050.00    0.0
2018/11/12 00:17:30.000  -74.393417723  163.452916991    95.4805   5  11   0.6808   0.6628   2.6179  -0.3687   0.9784  -0.9862 1065.00    0.0
2018/11/12 00:17:45.000  -74.393417151  163.452912443    94.9316   5  11   0.6805   0.6620   2.6172  -0.3687   0.9779  -0.9866 1080.00    0.0
2018/11/12 00:18:00.000  -74.393415036  163.452915333    94.4841   5  11   0.6803   0.6614   2.6166  -0.3687   0.9774  -0.9870 1095.00    0.0
2018/11/12 00:18:15.000  -74.393414419  163.452913368    94.9264   5  11   0.6802   0.6608   2.6161  -0.3687   0.9769  -0.9874 1110.00    0.0
2018/11/12 00:18:30.000  -74.393417208  163.452909265    95.2352   5  11   0.6801   0.6603   2.6158  -0.3687   0.9765  -0.9879 1125.00    0.0
2018/11/12 00:18:45.000  -74.393415970  163.452913456    95.2658   5  11   0.6801   0.6598   2.6156  -0.3687   0.9762  -0.9884 1140.00    0.0
2018/11/12 00:19:00.000  -74.393415710  163.452913753    94.7977   5  11   0.6801   0.6594   2.6155  -0.3688   0.9759  -0.9890 1155.00    0.0
2018/11/12 00:19:15.000  -74.393420414  163.452922478    96.3303   5  11   0.6802   0.6591   2.6155  -0.3689   0.9756  -0.9896 1170.00    0.0
2018/11/12 00:19:30.000  -74.393414917  163.452917211    95.2682   5  11   0.6803   0.6588   2.6157  -0.3690   0.9754  -0.9902 1185.00    0.0
2018/11/12 00:19:45.000  -74.393418089  163.452914444    95.5228   5  11   0.6805   0.6586   2.6160  -0.3691   0.9753  -0.9909 1200.00    0.0
2018/11/12 00:20:00.000  -74.393416459  163.452913196    95.2732   5  11   0.6808   0.6585   2.6164  -0.3693   0.9751  -0.9916 1215.00    0.0
2018/11/12 00:20:15.000  -74.393415553  163.452920506    95.3066   5  11   0.6811   0.6585   2.6170  -0.3695   0.9752  -0.9924 1230.00    0.0
2018/11/12 00:20:30.000  -74.393418294  163.452917519    95.6743   5  11   0.6816   0.6585   2.6178  -0.3698   0.9752  -0.9932 1245.00    0.0
2018/11/12 00:20:45.000  -74.393417206  163.452913404    95.3646   5  11   0.6820   0.6587   2.6188  -0.3700   0.9753  -0.9941 1260.00    0.0
2018/11/12 00:21:00.000  -74.393418588  163.452909392    96.2366   5  11   0.6825   0.6588   2.6198  -0.3703   0.9754  -0.9950 1275.00    0.0
2018/11/12 00:21:15.000  -74.393418849  163.452914616    95.6585   5  11   0.6831   0.6591   2.6209  -0.3706   0.9756  -0.9959 1290.00    0.0
2018/11/12 00:21:30.000  -74.393419092  163.452913330    96.6559   5  11   0.6837   0.6594   2.6221  -0.3709   0.9757  -0.9969 1305.00    0.0
2018/11/12 00:21:45.000  -74.393417140  163.452919747    96.4139   5  11   0.6844   0.6598   2.6234  -0.3712   0.9759  -0.9979 1320.00    0.0
2018/11/12 00:22:00.000  -74.393414700  163.452913005    94.7643   5  11   0.6852   0.6602   2.6248  -0.3715   0.9761  -0.9988 1335.00    0.0
2018/11/12 00:22:15.000  -74.393417368  163.452913722    94.9349   5  11   0.6859   0.6607   2.6263  -0.3719   0.9764  -0.9999 1350.00    0.0
2018/11/12 00:22:30.000  -74.393419155  163.452920509    96.0081   5  11   0.6868   0.6612   2.6279  -0.3722   0.9766  -1.0009 1365.00    0.0
2018/11/12 00:22:45.000  -74.393418476  163.452916528    95.7736   5  11   0.6863   0.6601   2.6239  -0.3716   0.9745  -1.0001 1380.00    0.0
2018/11/12 00:23:00.000  -74.393418270  163.452904660    95.2233   5  11   0.6860   0.6591   2.6199  -0.3710   0.9724  -0.9992 1395.00    0.0
2018/11/12 00:23:15.000  -74.393416010  163.452920319    95.1508   5  11   0.6856   0.6581   2.6160  -0.3704   0.9703  -0.9985 1410.00    0.0
2018/11/12 00:23:30.000  -74.393418497  163.452914064    95.1123   5  11   0.6854   0.6572   2.6122  -0.3698   0.9682  -0.9977 1425.00    0.0
2018/11/12 00:23:45.000  -74.393417168  163.452906829    95.0806   5  11   0.6852   0.6563   2.6086  -0.3692   0.9662  -0.9970 1440.00    0.0
2018/11/12 00:24:00.000  -74.393419665  163.452909075    94.9602   5  11   0.6850   0.6556   2.6051  -0.3687   0.9642  -0.9963 1455.00    0.0
2018/11/12 00:24:15.000  -74.393414939  163.452908994    94.5448   5  11   0.6849   0.6548   2.6016  -0.3681   0.9622  -0.9956 1470.00    0.0
2018/11/12 00:24:30.000  -74.393417018  163.452910748    94.8565   5  11   0.6848   0.6542   2.5983  -0.3676   0.9603  -0.9950 1485.00    0.0
2018/11/12 00:24:45.000  -74.393416151  163.452911604    94.8077   5  11   0.6848   0.6536   2.5952  -0.3671   0.9585  -0.9944 1500.00    0.0
2018/11/12 00:25:00.000  -74.393417650  163.452914899    95.4880   5  11   0.6849   0.6531   2.5921  -0.3666   0.9566  -0.9938 1515.00    0.0
2018/11/12 00:25:15.000  -74.393419028  163.452914480    95.4580   5  11   0.6850   0.6527   2.5893  -0.3662   0.9549  -0.9933 1530.00    0.0
2018/11/12 00:25:30.000  -74.393417796  163.452913975    95.8675   5  11   0.6852   0.6523   2.5867  -0.3658   0.9532  -0.9928 1545.00    0.0
2018/11/12 00:25:45.000  -74.393417157  163.452909232    95.6172   5  11   0.6855   0.6520   2.5842  -0.3654   0.9515  -0.9924 1560.00    0.0
2018/11/12 00:26:00.000  -74.393416555  163.452914895    95.3806   5  11   0.6858   0.6518   2.5817  -0.3650   0.9499  -0.9920 1575.00    0.0
2018/11/12 00:26:15.000  -74.393417883  163.452916690    95.3358   5  11   0.6861   0.6517   2.5794  -0.3646   0.9483  -0.9916 1590.00    0.0
2018/11/12 00:26:30.000  -74.393418315  163.452915808    95.9677   5  11   0.6865   0.6516   2.5773  -0.3643   0.9467  -0.9912 1605.00    0.0
2018/11/12 00:26:45.000  -74.393415963  163.452915690    95.0335   5  11   0.6870   0.6515   2.5752  -0.3639   0.9452  -0.9909 1620.00    0.0
2018/11/12 00:27:00.000  -74.393416839  163.452908627    93.9449   5  11   0.6875   0.6516   2.5732  -0.3635   0.9437  -0.9906 1635.00    0.0
2018/11/12 00:27:15.000  -74.393413845  163.452903679    94.1197   5  11   0.6881   0.6516   2.5714  -0.3632   0.9422  -0.9903 1650.00    0.0
2018/11/12 00:27:30.000  -74.393416778  163.452907929    95.4337   5  11   0.6887   0.6518   2.5697  -0.3629   0.9407  -0.9900 1665.00    0.0
2018/11/12 00:27:45.000  -74.393417813  163.452914374    95.3999   5  11   0.6881   0.6504   2.5626  -0.3617   0.9371  -0.9881 1680.00    0.0
2018/11/12 00:28:00.000  -74.393416224  163.452911630    94.9864   5  11   0.6875   0.6490   2.5556  -0.3605   0.9334  -0.9861 1695.00    0.0
2018/11/12 00:28:15.000  -74.393415450  163.452920346    95.5892   5  11   0.6870   0.6478   2.5487  -0.3593   0.9299  -0.9842 1710.00    0.0
2018/11/12 00:28:30.000  -74.393414959  163.452914613    94.8973   5  11   0.6866   0.6465   2.5421  -0.3582   0.9263  -0.9823 1725.00    0.0
2018/11/12 00:28:45.000  -74.393417810  163.452911143    95.5163   5  11   0.6862   0.6454   2.5355  -0.3570   0.9228  -0.9805 1740.00    0.0
2018/11/12 00:29:00.000  -74.393415797  163.452917183    95.5412   5  11   0.6858   0.6443   2.5291  -0.3559   0.9194  -0.9787 1755.00    0.0
2018/11/12 00:29:15.000  -74.393415841  163.452914753    94.6828   5  11   0.6856   0.6433   2.5229  -0.3548   0.9160  -0.9769 1770.00    0.0
2018/11/12 00:29:30.000  -74.393416728  163.452919137    95.1211   5  11   0.6853   0.6424   2.5168  -0.3537   0.9127  -0.9752 1785.00    0.0
2018/11/12 00:29:45.000  -74.393414886  163.452914000    94.6108   5  11   0.6852   0.6415   2.5109  -0.3527   0.9094  -0.9735 1800.00    0.0
2018/11/12 00:30:00.000  -74.393407663  163.452906582    91.4384   5  10   0.9383   0.6737   3.5764  -0.5071   1.1630  -1.6066 1815.00    0.0
2018/11/12 00:30:15.000  -74.393413087  163.452915119    93.6753   5  10   0.9378   0.6727   3.5688  -0.5055   1.1587  -1.6040 1830.00    0.0
2018/11/12 00:30:30.000  -74.393413249  163.452911974    92.9899   5  10   0.9373   0.6717   3.5613  -0.5038   1.1544  -1.6015 1845.00    0.0
2018/11/12 00:30:45.000  -74.393414695  163.452919771    94.1920   5  10   0.9369   0.6708   3.5540  -0.5022   1.1502  -1.5990 1860.00    0.0
2018/11/12 00:31:00.000  -74.393411167  163.452912929    92.3234   5  10   0.9365   0.6699   3.5467  -0.5006   1.1459  -1.5965 1875.00    0.0
2018/11/12 00:31:15.000  -74.393408382  163.452900776    90.3851   5  10   0.9362   0.6691   3.5396  -0.4989   1.1416  -1.5940 1890.00    0.0
2018/11/12 00:31:30.000  -74.393409869  163.452912121    92.0751   5  10   0.9359   0.6684   3.5326  -0.4973   1.1374  -1.5916 1905.00    0.0
2018/11/12 00:31:45.000  -74.393411429  163.452911467    92.0975   5  10   0.9357   0.6677   3.5258  -0.4957   1.1332  -1.5893 1920.00    0.0
2018/11/12 00:32:00.000  -74.393412661  163.452912902    92.3139   5  10   0.9355   0.6671   3.5191  -0.4940   1.1289  -1.5870 1935.00    0.0
2018/11/12 00:32:15.000  -74.393412578  163.452911544    93.4522   5  10   0.9355   0.6665   3.5126  -0.4924   1.1247  -1.5848 1950.00    0.0
2018/11/12 00:32:30.000  -74.393413436  163.452912078    93.3069   5  10   0.9354   0.6660   3.5062  -0.4907   1.1205  -1.5826 1965.00    0.0
2018/11/12 00:32:45.000  -74.393413517  163.452910365    93.7629   5  10   0.9330   0.6639   3.4898  -0.4876   1.1131  -1.5759 1980.00    0.0
2018/11/12 00:33:00.000  -74.393413455  163.452912409    94.3161   5  10   0.9308   0.6618   3.4736  -0.4845   1.1057  -1.5694 1995.00    0.0
2018/11/12 00:33:15.000  -74.393413617  163.452919779    94.1164   5  10   0.9285   0.6598   3.4577  -0.4814   1.0984  -1.5629 2010.00    0.0
2018/11/12 00:33:30.000  -74.393415292  163.452915935    94.7400   5  10   0.9264   0.6579   3.4420  -0.4783   1.0911  -1.5566 2025.00    0.0
2018/11/12 00:33:45.000  -74.393415275  163.452914543    93.6813   5   9   0.9285   0.6561   3.6775  -0.4743   1.0777  -1.5875 2040.00    0.0
2018/11/12 00:34:00.000  -74.393414830  163.452914839    93.7990   5   9   0.9266   0.6544   3.6639  -0.4713   1.0705  -1.5819 2055.00    0.0
2018/11/12 00:34:15.000  -74.393414134  163.452908733    93.1142   5   9   0.9248   0.6527   3.6506  -0.4683   1.0634  -1.5764 2070.00    0.0
2018/11/12 00:34:30.000  -74.393413473  163.452914681    94.1903   5   9   0.9230   0.6511   3.6375  -0.4653   1.0563  -1.5709 2085.00    0.0
2018/11/12 00:34:45.000  -74.393413165  163.452915437    93.2274   5   9   0.9214   0.6495   3.6246  -0.4623   1.0492  -1.5656 2100.00    0.0
2018/11/12 00:35:00.000  -74.393411418  163.452907402    93.2779   5   9   0.9198   0.6481   3.6121  -0.4594   1.0422  -1.5604 2115.00    0.0
2018/11/12 00:35:15.000  -74.393417113  163.452911275    94.4541   5   9   0.9183   0.6468   3.6002  -0.4565   1.0354  -1.5554 2130.00    0.0
2018/11/12 00:35:30.000  -74.393416321  163.452912252    94.9263   5   9   0.9170   0.6455   3.5886  -0.4537   1.0286  -1.5506 2145.00    0.0
2018/11/12 00:35:45.000  -74.393416372  163.452911132    94.5832   5   9   0.9157   0.6444   3.5773  -0.4509   1.0218  -1.5458 2160.00    0.0
2018/11/12 00:36:00.000  -74.393414939  163.452911657    93.8976   5   9   0.9145   0.6433   3.5663  -0.4481   1.0151  -1.5412 2175.00    0.0
2018/11/12 00:36:15.000  -74.393412725  163.452909127    92.4217   5   9   0.9134   0.6423   3.5557  -0.4453   1.0085  -1.5367 2190.00    0.0
2018/11/12 00:36:30.000  -74.393414226  163.452901689    92.7116   5  10   0.7495   0.6371   2.6822  -0.3969   0.9126  -1.0686 2205.00    0.0
2018/11/12 00:36:45.000  -74.393414068  163.452906280    93.6378   5  10   0.7497   0.6366   2.6798  -0.3959   0.9096  -1.0676 2220.00    0.0
2018/11/12 00:37:00.000  -74.393420487  163.452921671    95.2538   5  10   0.7499   0.6361   2.6776  -0.3950   0.9067  -1.0666 2235.00    0.0
2018/11/12 00:37:15.000  -74.393414145  163.452930371    94.3209   5  10   0.7503   0.6357   2.6757  -0.3940   0.9037  -1.0657 2250.00    0.0
2018/11/12 00:37:30.000  -74.393414414  163.452915145    93.9370   5  10   0.7506   0.6354   2.6739  -0.3931   0.9008  -1.0649 2265.00    0.0
2018/11/12 00:37:45.000  -74.393415146  163.452909928    94.1834   5  10   0.7496   0.6336   2.6656  -0.3913   0.8957  -1.0619 2280.00    0.0
2018/11/12 00:38:00.000  -74.393413311  163.452915685    93.3832   5  10   0.7486   0.6319   2.6574  -0.3894   0.8907  -1.0590 2295.00    0.0
2018/11/12 00:38:15.000  -74.393418782  163.452921774    95.2131   5  10   0.7477   0.6302   2.6494  -0.3876   0.8857  -1.0562 2310.00    0.0
2018/11/12 00:38:30.000  -74.393417170  163.452917342    95.0301   5  10   0.7468   0.6286   2.6417  -0.3858   0.8808  -1.0534 2325.00    0.0
2018/11/12 00:38:45.000  -74.393418632  163.452917693    95.2614   5  10   0.7460   0.6271   2.6342  -0.3841   0.8760  -1.0506 2340.00    0.0
2018/11/12 00:39:00.000  -74.393416297  163.452918804    94.8272   5  10   0.7453   0.6257   2.6269  -0.3823   0.8712  -1.0480 2355.00    0.0
2018/11/12 00:39:15.000  -74.393419109  163.452917906    95.4803   5  10   0.7446   0.6244   2.6199  -0.3807   0.8664  -1.0454 2370.00    0.0
2018/11/12 00:39:30.000  -74.393413940  163.452916911    93.7500   5  10   0.7441   0.6231   2.6131  -0.3790   0.8618  -1.0429 2385.00    0.0
2018/11/12 00:39:45.000  -74.393414401  163.452918866    94.0948   5  10   0.7435   0.6219   2.6065  -0.3774   0.8571  -1.0404 2400.00    0.0
2018/11/12 00:40:00.000  -74.393416335  163.452921159    95.5168   5  10   0.7431   0.6208   2.6003  -0.3758   0.8526  -1.0381 2415.00    0.0
2018/11/12 00:40:15.000  -74.393416969  163.452924106    95.7441   5  10   0.7428   0.6198   2.5945  -0.3743   0.8482  -1.0358 2430.00    0.0
2018/11/12 00:40:30.000  -74.393414928  163.452916522    94.3679   5  10   0.7425   0.6188   2.5889  -0.3728   0.8438  -1.0337 2445.00    0.0
2018/11/12 00:40:45.000  -74.393418279  163.452926398    95.3696   5  10   0.7423   0.6180   2.5837  -0.3713   0.8395  -1.0316 2460.00    0.0
2018/11/12 00:41:00.000  -74.393416970  163.452924583    95.0192   5  10   0.7421   0.6172   2.5787  -0.3699   0.8352  -1.0296 2475.00    0.0
2018/11/12 00:41:15.000  -74.393416054  163.452915505    94.7856   5  10   0.7421   0.6165   2.5741  -0.3685   0.8311  -1.0277 2490.00    0.0
2018/11/12 00:41:30.000  -74.393414783  163.452915336    93.3200   5  10   0.7421   0.6158   2.5697  -0.3671   0.8269  -1.0259 2505.00    0.0
2018/11/12 00:41:45.000  -74.393413443  163.452923886    94.2904   5  10   0.7421   0.6153   2.5656  -0.3657   0.8229  -1.0241 2520.00    0.0
2018/11/12 00:42:00.000  -74.393412310  163.452921733    93.4111   5  10   0.7423   0.6148   2.5618  -0.3644   0.8188  -1.0224 2535.00    0.0
2018/11/12 00:42:15.000  -74.393412680  163.452927954    94.1476   5  10   0.7425   0.6144   2.5584  -0.3631   0.8149  -1.0209 2550.00    0.0
2018/11/12 00:42:30.000  -74.393416686  163.452920540    94.7271   5  10   0.7427   0.6140   2.5552  -0.3619   0.8110  -1.0194 2565.00    0.0
2018/11/12 00:42:45.000  -74.393417471  163.452921606    94.7466   5  10   0.7416   0.6123   2.5450  -0.3598   0.8051  -1.0157 2580.00    0.0
2018/11/12 00:43:00.000  -74.393412798  163.452919356    94.2986   5  10   0.7406   0.6106   2.5353  -0.3576   0.7993  -1.0121 2595.00    0.0
2018/11/12 00:43:15.000  -74.393414193  163.452919571    93.9920   5  10   0.7396   0.6090   2.5258  -0.3556   0.7935  -1.0087 2610.00    0.0
2018/11/12 00:43:30.000  -74.393416182  163.452915421    93.4962   5  10   0.7387   0.6076   2.5166  -0.3535   0.7879  -1.0053 2625.00    0.0
2018/11/12 00:43:45.000  -74.393414223  163.452912981    93.8732   5  10   0.7378   0.6061   2.5078  -0.3515   0.7823  -1.0020 2640.00    0.0
2018/11/12 00:44:00.000  -74.393416175  163.452910676    94.1491   5  10   0.7371   0.6048   2.4993  -0.3496   0.7768  -0.9988 2655.00    0.0
2018/11/12 00:44:15.000  -74.393416050  163.452916162    94.0347   5  10   0.7364   0.6036   2.4910  -0.3477   0.7713  -0.9958 2670.00    0.0
2018/11/12 00:44:30.000  -74.393416329  163.452915684    94.9114   5  10   0.7358   0.6024   2.4832  -0.3458   0.7659  -0.9928 2685.00    0.0
2018/11/12 00:44:45.000  -74.393417332  163.452916188    94.0189   5  10   0.7352   0.6013   2.4756  -0.3439   0.7607  -0.9899 2700.00    0.0
2018/11/12 00:45:00.000  -74.393416257  163.452908510    93.8212   5  10   0.7347   0.6003   2.4684  -0.3421   0.7554  -0.9871 2715.00    0.0
2018/11/12 00:45:15.000  -74.393416678  163.452917138    94.6223   5  10   0.7344   0.5994   2.4617  -0.3404   0.7503  -0.9844 2730.00    0.0
2018/11/12 00:45:30.000  -74.393421460  163.452917790    95.6574   5  10   0.7341   0.5985   2.4554  -0.3387   0.7453  -0.9819 2745.00    0.0
2018/11/12 00:45:45.000  -74.393416194  163.452916095    94.4030   5  10   0.7339   0.5978   2.4493  -0.3370   0.7403  -0.9794 2760.00    0.0
2018/11/12 00:46:00.000  -74.393414604  163.452916484    95.4456   5  10   0.7337   0.5971   2.4437  -0.3354   0.7354  -0.9771 2775.00    0.0
2018/11/12 00:46:15.000  -74.393416596  163.452911082    94.7066   5  10   0.7336   0.5965   2.4384  -0.3338   0.7306  -0.9748 2790.00    0.0
2018/11/12 00:46:30.000  -74.393416245  163.452907829    94.4147   5  10   0.7336   0.5960   2.4334  -0.3322   0.7259  -0.9727 2805.00    0.0
2018/11/12 00:46:45.000  -74.393417326  163.452909318    94.3111   5  10   0.7337   0.5955   2.4288  -0.3307   0.7211  -0.9706 2820.00    0.0
2018/11/12 00:47:00.000  -74.393417549  163.452909860    94.9948   5  10   0.7338   0.5952   2.4245  -0.3291   0.7165  -0.9687 2835.00    0.0
2018/11/12 00:47:15.000  -74.393417530  163.452915610    93.6424   5  10   0.7340   0.5949   2.4206  -0.3277   0.7119  -0.9668 2850.00    0.0
2018/11/12 00:47:30.000  -74.393413992  163.452909363    93.5759   5  10   0.7343   0.5947   2.4171  -0.3262   0.7074  -0.9651 2865.00    0.0
2018/11/12 00:47:45.000  -74.393416445  163.452919971    93.5391   5  10   0.7332   0.5932   2.4066  -0.3240   0.7011  -0.9613 2880.00    0.0
2018/11/12 00:48:00.000  -74.393418551  163.452916915    94.7732   5  10   0.7322   0.5917   2.3965  -0.3218   0.6950  -0.9576 2895.00    0.0
2018/11/12 00:48:15.000  -74.393417356  163.452921330    94.9952   5  10   0.7313   0.5904   2.3868  -0.3197   0.6889  -0.9540 2910.00    0.0
2018/11/12 00:48:30.000  -74.393417805  163.452923229    95.7609   5  10   0.7304   0.5891   2.3774  -0.3175   0.6828  -0.9505 2925.00    0.0
2018/11/12 00:48:45.000  -74.393419652  163.452915961    95.9217   5  10   0.7297   0.5879   2.3684  -0.3155   0.6769  -0.9471 2940.00    0.0
2018/11/12 00:49:00.000  -74.393418196  163.452920539    94.5516   5  10   0.7290   0.5868   2.3597  -0.3134   0.6710  -0.9438 2955.00    0.0
2018/11/12 00:49:15.000  -74.393415545  163.452914941    94.0782   5  10   0.7283   0.5857   2.3515  -0.3114   0.6653  -0.9407 2970.00    0.0
2018/11/12 00:49:30.000  -74.393414475  163.452907104    93.9933   5  10   0.7278   0.5847   2.3436  -0.3095   0.6595  -0.9376 2985.00    0.0
2018/11/12 00:49:45.000  -74.393415913  163.452916261    94.2006   5  10   0.7273   0.5839   2.3360  -0.3076   0.6539  -0.9347 3000.00    0.0
2018/11/12 00:50:00.000  -74.393419236  163.452914165    93.8074   5  10   0.7269   0.5831   2.3289  -0.3057   0.6483  -0.9319 3015.00    0.0
2018/11/12 00:50:15.000  -74.393417703  163.452919333    95.3626   5  10   0.7266   0.5824   2.3223  -0.3039   0.6428  -0.9292 3030.00    0.0
2018/11/12 00:50:30.000  -74.393418466  163.452930203    94.9622   5  10   0.7264   0.5818   2.3161  -0.3021   0.6374  -0.9266 3045.00    0.0
2018/11/12 00:50:45.000  -74.393421127  163.452921788    94.4475   5  10   0.7262   0.5812   2.3103  -0.3003   0.6321  -0.9242 3060.00    0.0
2018/11/12 00:51:00.000  -74.393419522  163.452922708    95.2459   5  10   0.7261   0.5808   2.3048  -0.2986   0.6268  -0.9218 3075.00    0.0
2018/11/12 00:51:15.000  -74.393421310  163.452922994    95.6648   5  10   0.7261   0.5804   2.2997  -0.2969   0.6215  -0.9196 3090.00    0.0
2018/11/12 00:51:30.000  -74.393415932  163.452918099    95.0197   5  10   0.7262   0.5801   2.2950  -0.2952   0.6163  -0.9175 3105.00    0.0
2018/11/12 00:51:45.000  -74.393414099  163.452921577    95.1268   5  10   0.7263   0.5798   2.2907  -0.2936   0.6112  -0.9155 3120.00    0.0
2018/11/12 00:52:00.000  -74.393419487  163.452921375    96.1508   5  10   0.7265   0.5797   2.2867  -0.2920   0.6061  -0.9135 3135.00    0.0
2018/11/12 00:52:15.000  -74.393418719  163.452920082    95.3569   5  10   0.7268   0.5796   2.2832  -0.2905   0.6010  -0.9117 3150.00    0.0
2018/11/12 00:52:30.000  -74.393418023  163.452914437    94.2156   5  10   0.7271   0.5796   2.2800  -0.2889   0.5960  -0.9100 3165.00    0.0
2018/11/12 00:52:45.000  -74.393417947  163.452921313    95.0591   5  10   0.7262   0.5784   2.2700  -0.2867   0.5896  -0.9064 3180.00    0.0
2018/11/12 00:53:00.000  -74.393420694  163.452919809    96.5278   5  10   0.7253   0.5772   2.2604  -0.2845   0.5832  -0.9029 3195.00    0.0
2018/11/12 00:53:15.000  -74.393414846  163.452914923    94.9772   5  10   0.7245   0.5761   2.2512  -0.2824   0.5769  -0.8994 3210.00    0.0
2018/11/12 00:53:30.000  -74.393418075  163.452930514    96.0587   5  10   0.7238   0.5751   2.2424  -0.2803   0.5707  -0.8962 3225.00    0.0
2018/11/12 00:53:45.000  -74.393418062  163.452918880    95.6351   5  10   0.7231   0.5742   2.2340  -0.2782   0.5646  -0.8930 3240.00    0.0
2018/11/12 00:54:00.000  -74.393417508  163.452919611    95.8966   5  10   0.7225   0.5733   2.2260  -0.2762   0.5585  -0.8899 3255.00    0.0
2018/11/12 00:54:15.000  -74.393417886  163.452923573    94.6944   5  10   0.7220   0.5725   2.2183  -0.2742   0.5524  -0.8870 3270.00    0.0
2018/11/12 00:54:30.000  -74.393416135  163.452925071    95.8091   5  10   0.7216   0.5718   2.2111  -0.2722   0.5464  -0.8841 3285.00    0.0
2018/11/12 00:54:45.000  -74.393419205  163.452921416    95.4838   5  10   0.7212   0.5712   2.2043  -0.2703   0.5405  -0.8814 3300.00    0.0
2018/11/12 00:55:00.000  -74.393417115  163.452917646    95.8479   5  10   0.7209   0.5706   2.1978  -0.2684   0.5346  -0.8788 3315.00    0.0
2018/11/12 00:55:15.000  -74.393416564  163.452914470    94.4429   5  10   0.7208   0.5702   2.1919  -0.2666   0.5288  -0.8764 3330.00    0.0
2018/11/12 00:55:30.000  -74.393417975  163.452914332    94.4848   5  10   0.7206   0.5698   2.1864  -0.2647   0.5229  -0.8740 3345.00    0.0
2018/11/12 00:55:45.000  -74.393416398  163.452921334    94.5914   5  10   0.7206   0.5696   2.1813  -0.2630   0.5172  -0.8718 3360.00    0.0
2018/11/12 00:56:00.000  -74.393420641  163.452918114    95.6874   5  10   0.7206   0.5694   2.1765  -0.2612   0.5114  -0.8696 3375.00    0.0
2018/11/12 00:56:15.000  -74.393420501  163.452920365    95.8577   5  10   0.7207   0.5692   2.1722  -0.2595   0.5057  -0.8676 3390.00    0.0
2018/11/12 00:56:30.000  -74.393419305  163.452921635    94.9920   5  10   0.7209   0.5692   2.1682  -0.2578   0.4999  -0.8657 3405.00    0.0
2018/11/12 00:56:45.000  -74.393416330  163.452924061    96.5373   5  10   0.7212   0.5692   2.1646  -0.2561   0.4942  -0.8639 3420.00    0.0
2018/11/12 00:57:00.000  -74.393416178  163.452918840    95.4778   5  10   0.7215   0.5693   2.1614  -0.2545   0.4885  -0.8622 3435.00    0.0
2018/11/12 00:57:15.000  -74.393416468  163.452915767    95.7192   5  10   0.7218   0.5694   2.1585  -0.2528   0.4828  -0.8606 3450.00    0.0
2018/11/12 00:57:30.000  -74.393417524  163.452922511    95.3131   5  11   0.6221   0.5522   1.8075  -0.1083   0.2510  -0.5537 3465.00    0.0
2018/11/12 00:57:45.000  -74.393417419  163.452919659    94.3463   5  11   0.6216   0.5515   1.8030  -0.1061   0.2441  -0.5526 3480.00    0.0
2018/11/12 00:58:00.000  -74.393418376  163.452922256    94.7650   5  11   0.6212   0.5509   1.7987  -0.1038   0.2369  -0.5516 3495.00    0.0
2018/11/12 00:58:15.000  -74.393416983  163.452924920    95.2197   5  11   0.6209   0.5504   1.7947  -0.1014   0.2296  -0.5506 3510.00    0.0
2018/11/12 00:58:30.000  -74.393421397  163.452930865    96.8653   5  11   0.6206   0.5500   1.7910  -0.0990   0.2221  -0.5497 3525.00    0.0
2018/11/12 00:58:45.000  -74.393418232  163.452925528    95.7017   5  11   0.6204   0.5496   1.7875  -0.0966   0.2143  -0.5488 3540.00    0.0
2018/11/12 00:59:00.000  -74.393417918  163.452928317    95.1552   5  11   0.6202   0.5492   1.7844  -0.0941   0.2062  -0.5479 3555.00    0.0
2018/11/12 00:59:15.000  -74.393420188  163.452926912    96.1489   5  11   0.6201   0.5490   1.7815  -0.0916   0.1977  -0.5471 3570.00    0.0
2018/11/12 00:59:30.000  -74.393417567  163.452922311    95.3811   5  11   0.6200   0.5488   1.7790  -0.0890   0.1890  -0.5463 3585.00    0.0
2018/11/12 00:59:45.000  -74.393420124  163.452928446    96.8716   5  11   0.6200   0.5487   1.7767  -0.0863   0.1797  -0.5455 3600.00    0.0
2018/11/12 01:00:00.000  -74.393418592  163.452925860    96.4520   5  11   0.6200   0.5486   1.7747  -0.0836   0.1700  -0.5448 3615.00    0.0
2018/11/12 01:00:15.000  -74.393418773  163.452924218    95.4299   5  11   0.6201   0.5487   1.7732  -0.0807   0.1596  -0.5442 3630.00    0.0
2018/11/12 01:00:30.000  -74.393418242  163.452923831    95.8133   5  11   0.6203   0.5488   1.7719  -0.0778   0.1484  -0.5435 3645.00    0.0
2018/11/12 01:00:45.000  -74.393418766  163.452928106    96.2482   5  11   0.6205   0.5490   1.7710  -0.0748   0.1362  -0.5430 3660.00    0.0
2018/11/12 01:01:00.000  -74.393416427  163.452921007    95.7187   5  11   0.6208   0.5492   1.7703  -0.0716   0.1228  -0.5424 3675.00    0.0
2018/11/12 01:01:15.000  -74.393419352  163.452925824    95.4219   5  11   0.6211   0.5495   1.7699  -0.0683   0.1076  -0.5419 3690.00    0.0
2018/11/12 01:01:30.000  -74.393421173  163.452926592    96.2563   5  12   0.6140   0.5272   1.7032  -0.1388  -0.2593  -0.5827 3705.00    0.0
2018/11/12 01:01:45.000  -74.393421708  163.452925800    95.2375   5  12   0.6142   0.5276   1.7045  -0.1377  -0.2651  -0.5824 3720.00    0.0
2018/11/12 01:02:00.000  -74.393419975  163.452918542    95.0827   5  12   0.6146   0.5281   1.7060  -0.1366  -0.2709  -0.5821 3735.00    0.0
2018/11/12 01:02:15.000  -74.393419563  163.452918787    95.6813   5  12   0.6150   0.5286   1.7079  -0.1356  -0.2767  -0.5819 3750.00    0.0
2018/11/12 01:02:30.000  -74.393419940  163.452920088    96.0338   5  12   0.6154   0.5292   1.7100  -0.1345  -0.2825  -0.5818 3765.00    0.0
2018/11/12 01:02:45.000  -74.393419864  163.452925509    95.4570   5  12   0.6149   0.5287   1.7072  -0.1330  -0.2865  -0.5809 3780.00    0.0
2018/11/12 01:03:00.000  -74.393419475  163.452924468    95.6231   5  12   0.6145   0.5283   1.7047  -0.1316  -0.2906  -0.5800 3795.00    0.0
2018/11/12 01:03:15.000  -74.393418036  163.452927386    95.6829   5  12   0.6141   0.5280   1.7024  -0.1303  -0.2946  -0.5792 3810.00    0.0
2018/11/12 01:03:30.000  -74.393417767  163.452926091    95.5484   5  12   0.6138   0.5277   1.7003  -0.1289  -0.2987  -0.5784 3825.00    0.0
2018/11/12 01:03:45.000  -74.393419564  163.452919513    95.7998   5  12   0.6135   0.5274   1.6986  -0.1275  -0.3027  -0.5777 3840.00    0.0
2018/11/12 01:04:00.000  -74.393420763  163.452924354    95.4818   5  12   0.6133   0.5273   1.6971  -0.1261  -0.3068  -0.5770 3855.00    0.0
2018/11/12 01:04:15.000  -74.393421527  163.452921129    95.8479   5  12   0.6131   0.5271   1.6959  -0.1247  -0.3109  -0.5764 3870.00    0.0
2018/11/12 01:04:30.000  -74.393422548  163.452931193    95.3966   5  12   0.6129   0.5271   1.6950  -0.1234  -0.3150  -0.5758 3885.00    0.0
2018/11/12 01:04:45.000  -74.393420034  163.452917600    95.8420   5  12   0.6129   0.5271   1.6943  -0.1220  -0.3192  -0.5752 3900.00    0.0
2018/11/12 01:05:00.000  -74.393420162  163.452919894    95.4992   5  12   0.6128   0.5272   1.6940  -0.1206  -0.3233  -0.5747 3915.00    0.0
2018/11/12 01:05:15.000  -74.393420843  163.452921678    95.2482   5  12   0.6129   0.5273   1.6940  -0.1193  -0.3276  -0.5743 3930.00    0.0
2018/11/12 01:05:30.000  -74.393420916  163.452920714    95.4550   5  12   0.6130   0.5276   1.6943  -0.1179  -0.3318  -0.5739 3945.00    0.0
2018/11/12 01:05:45.000  -74.393419379  163.452919402    96.1539   5  12   0.6131   0.5279   1.6949  -0.1166  -0.3361  -0.5736 3960.00    0.0
2018/11/12 01:06:00.000  -74.393421165  163.452918904    95.3104   5  12   0.6133   0.5282   1.6958  -0.1152  -0.3404  -0.5733 3975.00    0.0
2018/11/12 01:06:15.000  -74.393420053  163.452916724    95.6927   5  12   0.6135   0.5286   1.6970  -0.1139  -0.3448  -0.5730 3990.00    0.0
2018/11/12 01:06:30.000  -74.393421886  163.452921423    95.9001   5  12   0.6138   0.5291   1.6985  -0.1125  -0.3492  -0.5728 4005.00    0.0
2018/11/12 01:06:45.000  -74.393421754  163.452919054    96.3287   5  12   0.6142   0.5296   1.7002  -0.1112  -0.3536  -0.5727 4020.00    0.0
2018/11/12 01:07:00.000  -74.393421396  163.452924112    95.7687   5  12   0.6146   0.5302   1.7022  -0.1098  -0.3581  -0.5726 4035.00    0.0
2018/11/12 01:07:15.000  -74.393420559  163.452921731    96.2319   5  12   0.6150   0.5308   1.7046  -0.1084  -0.3626  -0.5725 4050.00    0.0
2018/11/12 01:07:30.000  -74.393424050  163.452925647    95.5396   5  12   0.6155   0.5315   1.7072  -0.1071  -0.3671  -0.5725 4065.00    0.0
2018/11/12 01:07:45.000  -74.393421636  163.452931107    95.2710   5  12   0.6151   0.5312   1.7047  -0.1054  -0.3700  -0.5717 4080.00    0.0
2018/11/12 01:08:00.000  -74.393422191  163.452919112    96.8191   5  12   0.6147   0.5309   1.7025  -0.1037  -0.3730  -0.5710 4095.00    0.0
2018/11/12 01:08:15.000  -74.393420732  163.452922296    96.6773   5  12   0.6144   0.5306   1.7005  -0.1020  -0.3760  -0.5703 4110.00    0.0
2018/11/12 01:08:30.000  -74.393419904  163.452914415    95.7434   5  12   0.6141   0.5305   1.6989  -0.1003  -0.3791  -0.5697 4125.00    0.0
2018/11/12 01:08:45.000  -74.393421546  163.452920194    95.6930   5  12   0.6139   0.5303   1.6975  -0.0986  -0.3822  -0.5692 4140.00    0.0
2018/11/12 01:09:00.000  -74.393420673  163.452921989    96.5933   5  12   0.6137   0.5303   1.6964  -0.0968  -0.3853  -0.5686 4155.00    0.0
2018/11/12 01:09:15.000  -74.393421610  163.452921842    96.1465   5  12   0.6136   0.5303   1.6956  -0.0951  -0.3885  -0.5681 4170.00    0.0
2018/11/12 01:09:30.000  -74.393421527  163.452917268    96.2044   5  12   0.6135   0.5303   1.6951  -0.0933  -0.3917  -0.5677 4185.00    0.0
2018/11/12 01:09:45.000  -74.393418818  163.452922935    95.7355   5  12   0.6135   0.5304   1.6949  -0.0915  -0.3950  -0.5673 4200.00    0.0
2018/11/12 01:10:00.000  -74.393422188  163.452919103    95.4438   5  12   0.6135   0.5306   1.6949  -0.0897  -0.3984  -0.5670 4215.00    0.0
2018/11/12 01:10:15.000  -74.393422123  163.452917373    95.6068   5  12   0.6136   0.5309   1.6954  -0.0879  -0.4018  -0.5667 4230.00    0.0
2018/11/12 01:10:30.000  -74.393422199  163.452930136    95.3706   5  12   0.6137   0.5312   1.6962  -0.0861  -0.4053  -0.5665 4245.00    0.0
2018/11/12 01:10:45.000  -74.393421571  163.452923871    95.5796   5  12   0.6139   0.5316   1.6972  -0.0843  -0.4088  -0.5663 4260.00    0.0
2018/11/12 01:11:00.000  -74.393421128  163.452929073    95.5275   5  12   0.6142   0.5320   1.6985  -0.0824  -0.4124  -0.5662 4275.00    0.0
2018/11/12 01:11:15.000  -74.393421726  163.452913496    96.6968   5  12   0.6145   0.5326   1.7002  -0.0805  -0.4161  -0.5661 4290.00    0.0
2018/11/12 01:11:30.000  -74.393420855  163.452916060    95.3918   5  12   0.6148   0.5331   1.7021  -0.0786  -0.4198  -0.5660 4305.00    0.0
2018/11/12 01:11:45.000  -74.393420619  163.452921375    95.8103   5  12   0.6152   0.5338   1.7043  -0.0766  -0.4235  -0.5660 4320.00    0.0
2018/11/12 01:12:00.000  -74.393420613  163.452922314    95.6025   5  12   0.6157   0.5344   1.7067  -0.0746  -0.4273  -0.5661 4335.00    0.0
2018/11/12 01:12:15.000  -74.393422740  163.452921106    95.3187   5  12   0.6162   0.5352   1.7095  -0.0726  -0.4312  -0.5662 4350.00    0.0
2018/11/12 01:12:30.000  -74.393422460  163.452916819    95.9933   5  12   0.6167   0.5360   1.7126  -0.0705  -0.4351  -0.5663 4365.00    0.0
2018/11/12 01:12:45.000  -74.393423995  163.452923698    96.3948   5  12   0.6164   0.5357   1.7104  -0.0680  -0.4374  -0.5658 4380.00    0.0
2018/11/12 01:13:00.000  -74.393422531  163.452926843    95.5735   5  12   0.6160   0.5355   1.7086  -0.0654  -0.4398  -0.5652 4395.00    0.0
2018/11/12 01:13:15.000  -74.393422820  163.452921039    96.2958   5  12   0.6158   0.5354   1.7070  -0.0627  -0.4423  -0.5647 4410.00    0.0
2018/11/12 01:13:30.000  -74.393420765  163.452918427    96.2858   5  12   0.6155   0.5353   1.7058  -0.0600  -0.4448  -0.5643 4425.00    0.0
2018/11/12 01:13:45.000  -74.393423685  163.452917803    95.7542   5  12   0.6154   0.5353   1.7048  -0.0571  -0.4474  -0.5638 4440.00    0.0
2018/11/12 01:14:00.000  -74.393420875  163.452927424    95.5945   5  12   0.6153   0.5353   1.7042  -0.0541  -0.4500  -0.5635 4455.00    0.0
2018/11/12 01:14:15.000  -74.393421724  163.452926529    95.4174   5  12   0.6152   0.5354   1.7038  -0.0510  -0.4527  -0.5632 4470.00    0.0
2018/11/12 01:14:30.000  -74.393425039  163.452920859    96.6914   5  12   0.6152   0.5355   1.7037  -0.0476  -0.4554  -0.5629 4485.00    0.0
2018/11/12 01:14:45.000  -74.393421500  163.452921585    96.0379   5  12   0.6152   0.5358   1.7039  -0.0441  -0.4582  -0.5627 4500.00    0.0
2018/11/12 01:15:00.000  -74.393423155  163.452917935    96.2177   5  12   0.6153   0.5360   1.7043  -0.0403  -0.4611  -0.5625 4515.00    0.0
2018/11/12 01:15:15.000  -74.393421413  163.452912895    95.7662   5  12   0.6154   0.5364   1.7052  -0.0361  -0.4641  -0.5624 4530.00    0.0
2018/11/12 01:15:30.000  -74.393419033  163.452917259    96.0066   5  12   0.6156   0.5368   1.7064  -0.0313  -0.4671  -0.5624 4545.00    0.0
2018/11/12 01:15:45.000  -74.393421314  163.452925005    96.0003   5  12   0.6159   0.5373   1.7078  -0.0258  -0.4702  -0.5624 4560.00    0.0
2018/11/12 01:16:00.000  -74.393421431  163.452919879    96.2621   5  12   0.6162   0.5378   1.7095  -0.0188  -0.4733  -0.5624 4575.00    0.0
2018/11/12 01:16:15.000  -74.393420515  163.452920633    95.2577   5  12   0.6165   0.5384   1.7115  -0.0065  -0.4765  -0.5625 4590.00    0.0
2018/11/12 01:16:30.000  -74.393422959  163.452912415    95.5950   5  12   0.6169   0.5391   1.7138   0.0163  -0.4798  -0.5626 4605.00    0.0
2018/11/12 01:16:45.000  -74.393423200  163.452913773    95.7649   5  12   0.6174   0.5398   1.7164   0.0240  -0.4831  -0.5628 4620.00    0.0
2018/11/12 01:17:00.000  -74.393421282  163.452917062    96.6651   5  12   0.6179   0.5406   1.7193   0.0297  -0.4865  -0.5630 4635.00    0.0
2018/11/12 01:17:15.000  -74.393421232  163.452929815    95.3080   5  12   0.6185   0.5414   1.7224   0.0344  -0.4900  -0.5633 4650.00    0.0
2018/11/12 01:17:30.000  -74.393423649  163.452921328    95.8001   5  12   0.6191   0.5423   1.7258   0.0386  -0.4935  -0.5636 4665.00    0.0
2018/11/12 01:17:45.000  -74.393421988  163.452917153    96.2160   5  12   0.6187   0.5421   1.7241   0.0428  -0.4955  -0.5632 4680.00    0.0
2018/11/12 01:18:00.000  -74.393420650  163.452932356    96.1059   5  12   0.6185   0.5420   1.7227   0.0466  -0.4975  -0.5628 4695.00    0.0
2018/11/12 01:18:15.000  -74.393421961  163.452915978    95.9791   5  12   0.6183   0.5419   1.7216   0.0501  -0.4996  -0.5625 4710.00    0.0
2018/11/12 01:18:30.000  -74.393421925  163.452923161    95.3255   5  12   0.6181   0.5419   1.7207   0.0534  -0.5017  -0.5622 4725.00    0.0
2018/11/12 01:18:45.000  -74.393423593  163.452928355    96.2635   5  12   0.6180   0.5420   1.7202   0.0564  -0.5039  -0.5620 4740.00    0.0
2018/11/12 01:19:00.000  -74.393421438  163.452926029    95.2679   5  12   0.6179   0.5421   1.7199   0.0593  -0.5062  -0.5618 4755.00    0.0
2018/11/12 01:19:15.000  -74.393422182  163.452929171    94.9195   5  12   0.6179   0.5422   1.7199   0.0620  -0.5085  -0.5617 4770.00    0.0
2018/11/12 01:19:30.000  -74.393419846  163.452925113    95.5891   5  12   0.6180   0.5425   1.7202   0.0646  -0.5109  -0.5616 4785.00    0.0
2018/11/12 01:19:45.000  -74.393422348  163.452917379    95.8613   5  12   0.6180   0.5428   1.7207   0.0671  -0.5134  -0.5616 4800.00    0.0
2018/11/12 01:20:00.000  -74.393420966  163.452919920    96.2307   5  12   0.6182   0.5431   1.7216   0.0695  -0.5159  -0.5616 4815.00    0.0
2018/11/12 01:20:15.000  -74.393420771  163.452929110    94.9793   5  12   0.6184   0.5435   1.7228   0.0718  -0.5186  -0.5617 4830.00    0.0
2018/11/12 01:20:30.000  -74.393423073  163.452912438    95.8837   5  12   0.6186   0.5440   1.7243   0.0740  -0.5213  -0.5618 4845.00    0.0
2018/11/12 01:20:45.000  -74.393423691  163.452921349    96.1880   5  12   0.6189   0.5446   1.7261   0.0761  -0.5240  -0.5619 4860.00    0.0
2018/11/12 01:21:00.000  -74.393423610  163.452921996    96.2126   5  12   0.6193   0.5452   1.7281   0.0782  -0.5268  -0.5621 4875.00    0.0
2018/11/12 01:21:15.000  -74.393421697  163.452923935    95.7474   5  12   0.6197   0.5458   1.7305   0.0802  -0.5297  -0.5624 4890.00    0.0
2018/11/12 01:21:30.000  -74.393421912  163.452918981    95.9975   5  12   0.6202   0.5466   1.7331   0.0821  -0.5327  -0.5627 4905.00    0.0
2018/11/12 01:21:45.000  -74.393423271  163.452924638    96.0520   5  12   0.6207   0.5474   1.7359   0.0840  -0.5357  -0.5630 4920.00    0.0
2018/11/12 01:22:00.000  -74.393424146  163.452918025    96.0146   5  12   0.6212   0.5482   1.7391   0.0858  -0.5387  -0.5634 4935.00    0.0
2018/11/12 01:22:15.000  -74.393421962  163.452919686    96.5042   5  12   0.6219   0.5491   1.7425   0.0876  -0.5419  -0.5638 4950.00    0.0
2018/11/12 01:22:30.000  -74.393420762  163.452918465    96.3746   5  12   0.6225   0.5500   1.7461   0.0894  -0.5450  -0.5643 4965.00    0.0
2018/11/12 01:22:45.000  -74.393423645  163.452919608    95.8089   5  12   0.6223   0.5499   1.7449   0.0912  -0.5467  -0.5641 4980.00    0.0
2018/11/12 01:23:00.000  -74.393422748  163.452916302    96.2308   5  12   0.6221   0.5498   1.7438   0.0931  -0.5485  -0.5639 4995.00    0.0
2018/11/12 01:23:15.000  -74.393421246  163.452916819    96.3591   5  12   0.6219   0.5498   1.7431   0.0949  -0.5503  -0.5638 5010.00    0.0
2018/11/12 01:23:30.000  -74.393421989  163.452921480    95.9112   5  12   0.6218   0.5499   1.7426   0.0967  -0.5521  -0.5637 5025.00    0.0
2018/11/12 01:23:45.000  -74.393426480  163.452922335    96.3167   5  12   0.6217   0.5500   1.7423   0.0984  -0.5540  -0.5637 5040.00    0.0
2018/11/12 01:24:00.000  -74.393425825  163.452927883    95.8881   5  12   0.6217   0.5502   1.7424   0.1001  -0.5560  -0.5637 5055.00    0.0
2018/11/12 01:24:15.000  -74.393425198  163.452916225    96.5848   5  12   0.6218   0.5504   1.7427   0.1017  -0.5581  -0.5637 5070.00    0.0
2018/11/12 01:24:30.000  -74.393422445  163.452916893    96.2227   5  12   0.6219   0.5507   1.7433   0.1034  -0.5602  -0.5638 5085.00    0.0
2018/11/12 01:24:45.000  -74.393421706  163.452925412    95.7386   5  12   0.6220   0.5510   1.7442   0.1049  -0.5624  -0.5640 5100.00    0.0
2018/11/12 01:25:00.000  -74.393425923  163.452918864    95.8798   5  12   0.6222   0.5514   1.7453   0.1065  -0.5646  -0.5642 5115.00    0.0
2018/11/12 01:25:15.000  -74.393425395  163.452925057    95.6351   5  12   0.6225   0.5519   1.7468   0.1080  -0.5670  -0.5644 5130.00    0.0
2018/11/12 01:25:30.000  -74.393427079  163.452925120    96.1647   5  12   0.6228   0.5524   1.7486   0.1095  -0.5694  -0.5647 5145.00    0.0
2018/11/12 01:25:45.000  -74.393425875  163.452922057    96.0727   5  12   0.6231   0.5530   1.7506   0.1110  -0.5718  -0.5650 5160.00    0.0
2018/11/12 01:26:00.000  -74.393426813  163.452919276    96.7932   5  12   0.6236   0.5537   1.7529   0.1124  -0.5743  -0.5654 5175.00    0.0
2018/11/12 01:26:15.000  -74.393426206  163.452931327    95.4598   5  12   0.6240   0.5544   1.7554   0.1139  -0.5769  -0.5658 5190.00    0.0
2018/11/12 01:26:30.000  -74.393426116  163.452931853    95.2637   5  12   0.6245   0.5551   1.7582   0.1153  -0.5796  -0.5663 5205.00    0.0
2018/11/12 01:26:45.000  -74.393424424  163.452930411    95.5122   5  12   0.6251   0.5559   1.7612   0.1166  -0.5822  -0.5667 5220.00    0.0
2018/11/12 01:27:00.000  -74.393426246  163.452926847    95.4782   5  12   0.6257   0.5568   1.7645   0.1180  -0.5850  -0.5673 5235.00    0.0
2018/11/12 01:27:15.000  -74.393425688  163.452922314    95.8992   5  12   0.6264   0.5577   1.7680   0.1193  -0.5878  -0.5678 5250.00    0.0
2018/11/12 01:27:30.000  -74.393425464  163.452921690    95.5533   5  12   0.6272   0.5587   1.7718   0.1206  -0.5907  -0.5684 5265.00    0.0
2018/11/12 01:27:45.000  -74.393423946  163.452924022    95.6207   5  12   0.6270   0.5587   1.7708   0.1221  -0.5921  -0.5684 5280.00    0.0
2018/11/12 01:28:00.000  -74.393425289  163.452927376    95.8678   5  12   0.6268   0.5586   1.7700   0.1235  -0.5936  -0.5685 5295.00    0.0
2018/11/12 01:28:15.000  -74.393424212  163.452928573    94.5935   5  12   0.6267   0.5587   1.7696   0.1249  -0.5951  -0.5685 5310.00    0.0
2018/11/12 01:28:30.000  -74.393424774  163.452924349    95.7406   5  12   0.6266   0.5587   1.7694   0.1262  -0.5967  -0.5686 5325.00    0.0
2018/11/12 01:28:45.000  -74.393424971  163.452923011    95.9918   5  12   0.6266   0.5589   1.7694   0.1276  -0.5983  -0.5688 5340.00    0.0
2018/11/12 01:29:00.000  -74.393425517  163.452926537    96.1351   5  12   0.6267   0.5591   1.7698   0.1289  -0.6001  -0.5690 5355.00    0.0
2018/11/12 01:29:15.000  -74.393426437  163.452922000    96.0329   5  12   0.6268   0.5593   1.7703   0.1302  -0.6018  -0.5692 5370.00    0.0
2018/11/12 01:29:30.000  -74.393423002  163.452922286    95.4867   5  12   0.6269   0.5596   1.7711   0.1315  -0.6037  -0.5695 5385.00    0.0
2018/11/12 01:29:45.000  -74.393424055  163.452927503    95.3075   5  12   0.6271   0.5600   1.7722   0.1327  -0.6056  -0.5698 5400.00    0.0
2018/11/12 01:30:00.000  -74.393426473  163.452925196    96.0361   5  12   0.6274   0.5604   1.7735   0.1340  -0.6075  -0.5702 5415.00    0.0
2018/11/12 01:30:15.000  -74.393424409  163.452924250    95.7932   5  12   0.6277   0.5609   1.7752   0.1352  -0.6096  -0.5706 5430.00    0.0
2018/11/12 01:30:30.000  -74.393426956  163.452919073    96.1013   5  12   0.6281   0.5614   1.7770   0.1364  -0.6116  -0.5710 5445.00    0.0
2018/11/12 01:30:45.000  -74.393426069  163.452921308    95.7446   5  12   0.6285   0.5620   1.7792   0.1376  -0.6138  -0.5715 5460.00    0.0
2018/11/12 01:31:00.000  -74.393423966  163.452923778    95.2711   5  12   0.6290   0.5627   1.7815   0.1388  -0.6160  -0.5720 5475.00    0.0
2018/11/12 01:31:15.000  -74.393424251  163.452924391    95.6933   5  12   0.6296   0.5634   1.7841   0.1400  -0.6182  -0.5726 5490.00    0.0
2018/11/12 01:31:30.000  -74.393427075  163.452919000    96.1110   5  11   0.6614   0.5679   1.8233   0.1816  -0.6013  -0.5057 5505.00    0.0
2018/11/12 01:31:45.000  -74.393427407  163.452928413    95.9277   5  11   0.6619   0.5687   1.8267   0.1823  -0.6036  -0.5061 5520.00    0.0
2018/11/12 01:32:00.000  -74.393426225  163.452927975    94.9455   5  11   0.6624   0.5696   1.8304   0.1830  -0.6060  -0.5065 5535.00    0.0
2018/11/12 01:32:15.000  -74.393425754  163.452933386    94.5537   5  11   0.6631   0.5705   1.8342   0.1837  -0.6085  -0.5069 5550.00    0.0
2018/11/12 01:32:30.000  -74.393427103  163.452925674    96.1227   5  11   0.6637   0.5714   1.8383   0.1844  -0.6110  -0.5073 5565.00    0.0
2018/11/12 01:32:45.000  -74.393427278  163.452932379    95.8513   5  11   0.6634   0.5713   1.8378   0.1851  -0.6122  -0.5076 5580.00    0.0
2018/11/12 01:33:00.000  -74.393426877  163.452924386    95.1303   5  11   0.6630   0.5712   1.8375   0.1857  -0.6134  -0.5079 5595.00    0.0
2018/11/12 01:33:15.000  -74.393428456  163.452939315    94.8091   5  10   0.6741   0.6299   2.0895   0.0465  -0.8013  -0.3691 5610.00    0.0
2018/11/12 01:33:30.000  -74.393425299  163.452930006    94.9030   5  10   0.6737   0.6301   2.0918   0.0512  -0.8033  -0.3702 5625.00    0.0
2018/11/12 01:33:45.000  -74.393425633  163.452937679    93.4401   5  10   0.6734   0.6304   2.0943   0.0553  -0.8054  -0.3712 5640.00    0.0
2018/11/12 01:34:00.000  -74.393426667  163.452935052    93.9004   5  10   0.6731   0.6308   2.0972   0.0591  -0.8076  -0.3723 5655.00    0.0
2018/11/12 01:34:15.000  -74.393427045  163.452928175    94.6006   5  10   0.6729   0.6312   2.1003   0.0626  -0.8100  -0.3733 5670.00    0.0
2018/11/12 01:34:30.000  -74.393423320  163.452933256    94.1131   5   9   0.7738   0.6847   2.6336   0.3244  -1.0384  -0.8634 5685.00    0.0
2018/11/12 01:34:45.000  -74.393423665  163.452944998    93.4603   5   9   0.7740   0.6862   2.6438   0.3267  -1.0438  -0.8669 5700.00    0.0
2018/11/12 01:35:00.000  -74.393423498  163.452934333    93.1257   5   9   0.7742   0.6877   2.6545   0.3290  -1.0493  -0.8705 5715.00    0.0
2018/11/12 01:35:15.000  -74.393423530  163.452937874    93.1998   5   9   0.7746   0.6894   2.6658   0.3313  -1.0551  -0.8742 5730.00    0.0
2018/11/12 01:35:30.000  -74.393425612  163.452940687    93.2020   5   9   0.7750   0.6912   2.6776   0.3336  -1.0610  -0.8780 5745.00    0.0
2018/11/12 01:35:45.000  -74.393421878  163.452946981    92.2312   5   9   0.7755   0.6931   2.6899   0.3360  -1.0671  -0.8819 5760.00    0.0
2018/11/12 01:36:00.000  -74.393419665  163.452943871    91.9953   5   9   0.7761   0.6950   2.7026   0.3384  -1.0734  -0.8859 5775.00    0.0
2018/11/12 01:36:15.000  -74.393424668  163.452936013    93.5615   5   9   0.7768   0.6971   2.7158   0.3408  -1.0798  -0.8900 5790.00    0.0
2018/11/12 01:36:30.000  -74.393426002  163.452931014    93.6446   5   9   0.7775   0.6992   2.7295   0.3433  -1.0864  -0.8942 5805.00    0.0
2018/11/12 01:36:45.000  -74.393422737  163.452930957    93.4528   5   9   0.7784   0.7015   2.7436   0.3458  -1.0932  -0.8985 5820.00    0.0
2018/11/12 01:37:00.000  -74.393426422  163.452928072    93.5734   5   9   0.7793   0.7038   2.7581   0.3483  -1.1001  -0.9029 5835.00    0.0
2018/11/12 01:37:15.000  -74.393423482  163.452942087    92.0473   5   9   0.7803   0.7062   2.7732   0.3508  -1.1072  -0.9074 5850.00    0.0
2018/11/12 01:37:30.000  -74.393421787  163.452935443    91.9361   5   9   0.7814   0.7087   2.7886   0.3534  -1.1145  -0.9120 5865.00    0.0
2018/11/12 01:37:45.000  -74.393419458  163.452944062    91.1648   5   9   0.7811   0.7095   2.7958   0.3554  -1.1184  -0.9152 5880.00    0.0
2018/11/12 01:38:00.000  -74.393422205  163.452934533    93.2439   5   9   0.7809   0.7104   2.8033   0.3573  -1.1223  -0.9184 5895.00    0.0
2018/11/12 01:38:15.000  -74.393423291  163.452926954    94.2407   5   9   0.7808   0.7113   2.8111   0.3594  -1.1265  -0.9217 5910.00    0.0
2018/11/12 01:38:30.000  -74.393423242  163.452932348    93.3838   5   9   0.7807   0.7123   2.8194   0.3614  -1.1307  -0.9251 5925.00    0.0
2018/11/12 01:38:45.000  -74.393424407  163.452933087    93.9756   5   9   0.7808   0.7134   2.8282   0.3634  -1.1351  -0.9286 5940.00    0.0
2018/11/12 01:39:00.000  -74.393425362  163.452928980    94.1339   5   9   0.7809   0.7146   2.8373   0.3655  -1.1397  -0.9321 5955.00    0.0
2018/11/12 01:39:15.000  -74.393421226  163.452921128    94.3227   5   9   0.7810   0.7158   2.8469   0.3676  -1.1443  -0.9358 5970.00    0.0
2018/11/12 01:39:30.000  -74.393423029  163.452946716    92.1257   5   9   0.7813   0.7172   2.8568   0.3697  -1.1492  -0.9395 5985.00    0.0
2018/11/12 01:39:45.000  -74.393419902  163.452938088    92.6130   5   9   0.7817   0.7186   2.8672   0.3718  -1.1542  -0.9433 6000.00    0.0
2018/11/12 01:40:00.000  -74.393423649  163.452930287    93.0526   5   9   0.7821   0.7201   2.8780   0.3740  -1.1593  -0.9473 6015.00    0.0
2018/11/12 01:40:15.000  -74.393422894  163.452928223    94.4913   5   9   0.7826   0.7217   2.8894   0.3762  -1.1646  -0.9513 6030.00    0.0
2018/11/12 01:40:30.000  -74.393422058  163.452933592    93.6249   5   9   0.7832   0.7234   2.9011   0.3784  -1.1701  -0.9554 6045.00    0.0
2018/11/12 01:40:45.000  -74.393422163  163.452935425    93.4210   5   9   0.7839   0.7252   2.9133   0.3807  -1.1757  -0.9596 6060.00    0.0
2018/11/12 01:41:00.000  -74.393421462  163.452934153    92.9377   5   9   0.7847   0.7270   2.9258   0.3829  -1.1814  -0.9639 6075.00    0.0
2018/11/12 01:41:15.000  -74.393422093  163.452936943    92.1306   5   9   0.7856   0.7290   2.9387   0.3852  -1.1873  -0.9683 6090.00    0.0
2018/11/12 01:41:30.000  -74.393422692  163.452937616    92.9853   5   9   0.7865   0.7310   2.9520   0.3875  -1.1933  -0.9727 6105.00    0.0
2018/11/12 01:41:45.000  -74.393421169  163.452936000    92.8886   5   9   0.7875   0.7331   2.9656   0.3899  -1.1994  -0.9772 6120.00    0.0
2018/11/12 01:42:00.000  -74.393420404  163.452934346    92.7824   5   9   0.7886   0.7352   2.9796   0.3922  -1.2056  -0.9818 6135.00    0.0
2018/11/12 01:42:15.000  -74.393422714  163.452924536    93.9787   5   9   0.7898   0.7375   2.9939   0.3946  -1.2119  -0.9865 6150.00    0.0
2018/11/12 01:42:30.000  -74.393424588  163.452934812    92.8669   5   9   0.7911   0.7398   3.0085   0.3970  -1.2184  -0.9912 6165.00    0.0
2018/11/12 01:42:45.000  -74.393418095  163.452954486    90.9172   5   9   0.7909   0.7403   3.0146   0.3987  -1.2213  -0.9944 6180.00    0.0
2018/11/12 01:43:00.000  -74.393419160  163.452955521    91.4781   5   9   0.7908   0.7408   3.0211   0.4004  -1.2243  -0.9976 6195.00    0.0
2018/11/12 01:43:15.000  -74.393422144  163.452940532    92.9920   5   9   0.7909   0.7415   3.0280   0.4021  -1.2274  -1.0009 6210.00    0.0
2018/11/12 01:43:30.000  -74.393421327  163.452943939    93.2273   5   9   0.7909   0.7422   3.0351   0.4039  -1.2307  -1.0042 6225.00    0.0
