% program   : RTKLIB ver.2.4.3
% inp file  : _by_type/_obs/tuati/20181114.18o
% inp file  : _by_type/_obs/base/20181113.18o
% inp file  : _by_type/_sp3+clk/igs20273.clk
% inp file  : _by_type/_sp3+clk/igs20273.sp3
% inp file  : _by_type/_nav/tuati/20181114.18n
% obs start : 2018/11/14 00:00:00.0 GPST (week2027 259200.0s)
% obs end   : 2018/11/14 23:59:30.0 GPST (week2027 345570.0s)
% pos mode  : dgps
% freqs     : L1+L2
% solution  : combined
% elev mask : 15.0 deg
% dynamics  : off
% tidecorr  : off
% ionos opt : iono-free
% tropo opt : est ztd+grad
% ephemeris : precise
% navi sys  : gps glonass
% antenna1  :                       ( 0.0000  0.0000  0.0000)
% antenna2  :                       ( 0.0000  0.0000  0.0000)
% ref pos   : 90.000000000   0.000000000-6335367.6285
%
% (lat/lon/height=WGS84/ellipsoidal,Q=1:fix,2:float,3:sbas,4:dgps,5:single,6:ppp,ns=# of satellites)
%  GPST                  latitude(deg) longitude(deg)  height(m)   Q  ns   sdn(m)   sde(m)   sdu(m)  sdne(m)  sdeu(m)  sdun(m) age(s)  ratio
2018/11/14 00:00:00.000  -74.425556451  163.418427407    62.5007   5  11   0.6590   0.6426   2.4280  -0.3307   0.8951  -0.8976  15.00    0.0
2018/11/14 00:00:30.000  -74.425555795  163.418432817    61.9168   5  11   0.6601   0.6440   2.4418  -0.3333   0.9015  -0.9034  45.00    0.0
2018/11/14 00:01:00.000  -74.425555584  163.418431180    61.9619   5  11   0.6616   0.6458   2.4565  -0.3360   0.9082  -0.9095  75.00    0.0
2018/11/14 00:01:30.000  -74.425553947  163.418431297    61.4631   5  11   0.6633   0.6478   2.4721  -0.3390   0.9153  -0.9159 105.00    0.0
2018/11/14 00:02:00.000  -74.425554201  163.418430111    61.6478   5  11   0.6652   0.6502   2.4885  -0.3421   0.9228  -0.9227 135.00    0.0
2018/11/14 00:02:30.000  -74.425557412  163.418434147    62.3287   5  11   0.6675   0.6530   2.5059  -0.3454   0.9307  -0.9297 165.00    0.0
2018/11/14 00:03:00.000  -74.425554503  163.418433490    61.3529   5  11   0.6672   0.6524   2.5118  -0.3465   0.9332  -0.9329 195.00    0.0
2018/11/14 00:03:30.000  -74.425556136  163.418431099    62.2409   5  11   0.6672   0.6521   2.5185  -0.3477   0.9361  -0.9363 225.00    0.0
2018/11/14 00:04:00.000  -74.425555210  163.418434210    61.3349   5  11   0.6675   0.6521   2.5260  -0.3492   0.9393  -0.9400 255.00    0.0
2018/11/14 00:04:30.000  -74.425556532  163.418438181    62.3373   5  11   0.6680   0.6524   2.5342  -0.3508   0.9429  -0.9439 285.00    0.0
2018/11/14 00:05:00.000  -74.425557966  163.418439425    62.1409   5  11   0.6688   0.6530   2.5432  -0.3525   0.9467  -0.9482 315.00    0.0
2018/11/14 00:05:30.000  -74.425554527  163.418429799    60.9788   5  11   0.6700   0.6541   2.5533  -0.3545   0.9511  -0.9528 345.00    0.0
2018/11/14 00:06:00.000  -74.425554755  163.418429223    61.1064   5  11   0.6714   0.6554   2.5641  -0.3566   0.9557  -0.9578 375.00    0.0
2018/11/14 00:06:30.000  -74.425555632  163.418436061    62.0790   5  11   0.6730   0.6570   2.5755  -0.3588   0.9606  -0.9629 405.00    0.0
2018/11/14 00:07:00.000  -74.425556606  163.418440347    62.0887   5  11   0.6750   0.6589   2.5875  -0.3612   0.9657  -0.9682 435.00    0.0
2018/11/14 00:07:30.000  -74.425554947  163.418425714    61.3199   5  11   0.6771   0.6611   2.6001  -0.3636   0.9711  -0.9737 465.00    0.0
2018/11/14 00:08:00.000  -74.425555785  163.418429096    62.5025   5  11   0.6767   0.6600   2.6010  -0.3639   0.9711  -0.9752 495.00    0.0
2018/11/14 00:08:30.000  -74.425551524  163.418425360    60.5144   5  11   0.6766   0.6591   2.6026  -0.3643   0.9715  -0.9770 525.00    0.0
2018/11/14 00:09:00.000  -74.425554623  163.418428870    62.1567   5  11   0.6767   0.6586   2.6048  -0.3649   0.9720  -0.9790 555.00    0.0
2018/11/14 00:09:30.000  -74.425551364  163.418428463    61.0216   5  11   0.6771   0.6583   2.6074  -0.3655   0.9728  -0.9811 585.00    0.0
2018/11/14 00:10:00.000  -74.425553071  163.418432916    62.2768   5  11   0.6777   0.6583   2.6106  -0.3663   0.9738  -0.9834 615.00    0.0
2018/11/14 00:10:30.000  -74.425554424  163.418439103    61.2908   5  11   0.6786   0.6586   2.6147  -0.3672   0.9751  -0.9860 645.00    0.0
2018/11/14 00:11:00.000  -74.425556507  163.418432344    61.8304   5  11   0.6797   0.6592   2.6192  -0.3682   0.9766  -0.9887 675.00    0.0
2018/11/14 00:11:30.000  -74.425556392  163.418430455    61.8999   5  11   0.6811   0.6600   2.6241  -0.3693   0.9782  -0.9915 705.00    0.0
2018/11/14 00:12:00.000  -74.425555817  163.418434967    61.2820   5  11   0.6826   0.6611   2.6295  -0.3704   0.9799  -0.9945 735.00    0.0
2018/11/14 00:12:30.000  -74.425554358  163.418429302    62.0296   5  11   0.6844   0.6625   2.6352  -0.3716   0.9818  -0.9976 765.00    0.0
2018/11/14 00:13:00.000  -74.425553874  163.418433446    61.4530   5  11   0.6838   0.6606   2.6296  -0.3708   0.9787  -0.9968 795.00    0.0
2018/11/14 00:13:30.000  -74.425553620  163.418434970    61.3551   5  11   0.6833   0.6590   2.6245  -0.3701   0.9758  -0.9962 825.00    0.0
2018/11/14 00:14:00.000  -74.425553428  163.418443738    61.8548   5  11   0.6831   0.6577   2.6199  -0.3695   0.9730  -0.9957 855.00    0.0
2018/11/14 00:14:30.000  -74.425552469  163.418429083    60.7301   5  11   0.6831   0.6566   2.6157  -0.3689   0.9704  -0.9954 885.00    0.0
2018/11/14 00:15:00.000  -74.425554664  163.418437147    61.2541   5  11   0.6833   0.6558   2.6119  -0.3684   0.9679  -0.9951 915.00    0.0
2018/11/14 00:15:30.000  -74.425554075  163.418427658    60.7449   5  11   0.6838   0.6553   2.6089  -0.3680   0.9657  -0.9951 945.00    0.0
2018/11/14 00:16:00.000  -74.425552666  163.418423324    60.6288   5  11   0.6845   0.6551   2.6063  -0.3677   0.9636  -0.9952 975.00    0.0
2018/11/14 00:16:30.000  -74.425554712  163.418434875    61.6266   5  11   0.6854   0.6551   2.6041  -0.3674   0.9617  -0.9954 1005.00    0.0
2018/11/14 00:17:00.000  -74.425551173  163.418425589    60.0339   5  11   0.6866   0.6553   2.6023  -0.3671   0.9598  -0.9956 1035.00    0.0
2018/11/14 00:17:30.000  -74.425552960  163.418422919    61.0872   5  11   0.6879   0.6558   2.6009  -0.3669   0.9579  -0.9960 1065.00    0.0
2018/11/14 00:18:00.000  -74.425554553  163.418434868    61.7701   5  11   0.6869   0.6532   2.5889  -0.3649   0.9517  -0.9929 1095.00    0.0
2018/11/14 00:18:30.000  -74.425554579  163.418425711    61.1522   5  11   0.6860   0.6509   2.5773  -0.3630   0.9456  -0.9898 1125.00    0.0
2018/11/14 00:19:00.000  -74.425553896  163.418426194    61.1413   5  11   0.6854   0.6489   2.5663  -0.3612   0.9397  -0.9870 1155.00    0.0
2018/11/14 00:19:30.000  -74.425555520  163.418437581    62.0590   5  11   0.6850   0.6472   2.5558  -0.3594   0.9339  -0.9842 1185.00    0.0
2018/11/14 00:20:00.000  -74.425554941  163.418430418    61.2526   5  11   0.6849   0.6457   2.5458  -0.3577   0.9283  -0.9816 1215.00    0.0
2018/11/14 00:20:30.000  -74.425556669  163.418433525    62.5088   5  11   0.6850   0.6445   2.5367  -0.3561   0.9230  -0.9792 1245.00    0.0
2018/11/14 00:21:00.000  -74.425556030  163.418429886    61.6527   5  11   0.6853   0.6436   2.5282  -0.3545   0.9178  -0.9770 1275.00    0.0
2018/11/14 00:21:30.000  -74.425555720  163.418428864    60.9021   5  11   0.6858   0.6430   2.5203  -0.3530   0.9127  -0.9749 1305.00    0.0
2018/11/14 00:22:00.000  -74.425553377  163.418428061    60.4619   5  10   0.9410   0.6757   3.5936  -0.5080   1.1666  -1.6123 1335.00    0.0
2018/11/14 00:22:30.000  -74.425552384  163.418427062    59.8631   5  10   0.9417   0.6750   3.5858  -0.5058   1.1603  -1.6104 1365.00    0.0
2018/11/14 00:23:00.000  -74.425552161  163.418433788    60.4592   5  10   0.9379   0.6710   3.5579  -0.5004   1.1473  -1.5995 1395.00    0.0
2018/11/14 00:23:30.000  -74.425556719  163.418425006    60.8351   5  10   0.9343   0.6673   3.5306  -0.4951   1.1344  -1.5888 1425.00    0.0
2018/11/14 00:24:00.000  -74.425546608  163.418422126    57.7543   5  10   0.9309   0.6639   3.5040  -0.4899   1.1217  -1.5783 1455.00    0.0
2018/11/14 00:24:30.000  -74.425552421  163.418426997    61.1481   5  10   0.9278   0.6607   3.4781  -0.4847   1.1092  -1.5682 1485.00    0.0
2018/11/14 00:25:00.000  -74.425555289  163.418434039    60.5299   5  10   0.9250   0.6578   3.4531  -0.4796   1.0968  -1.5584 1515.00    0.0
2018/11/14 00:25:30.000  -74.425552108  163.418430359    60.3578   5  10   0.9225   0.6553   3.4294  -0.4746   1.0847  -1.5491 1545.00    0.0
2018/11/14 00:26:00.000  -74.425553238  163.418435683    59.5816   5   9   0.9246   0.6532   3.6615  -0.4687   1.0666  -1.5783 1575.00    0.0
2018/11/14 00:26:30.000  -74.425552374  163.418429470    59.0690   5   9   0.9230   0.6512   3.6442  -0.4638   1.0548  -1.5712 1605.00    0.0
2018/11/14 00:27:00.000  -74.425557414  163.418443724    61.6881   5   9   0.9217   0.6496   3.6281  -0.4589   1.0430  -1.5644 1635.00    0.0
2018/11/14 00:27:30.000  -74.425556486  163.418433034    60.4545   5   9   0.9207   0.6482   3.6131  -0.4541   1.0314  -1.5580 1665.00    0.0
2018/11/14 00:28:00.000  -74.425554495  163.418438990    59.3609   5   9   0.9153   0.6440   3.5759  -0.4467   1.0140  -1.5426 1695.00    0.0
2018/11/14 00:28:30.000  -74.425554400  163.418436115    60.8815   5  10   0.7486   0.6361   2.6816  -0.3951   0.9102  -1.0665 1725.00    0.0
2018/11/14 00:29:00.000  -74.425553978  163.418434029    60.5559   5  10   0.7472   0.6332   2.6684  -0.3919   0.9014  -1.0618 1755.00    0.0
2018/11/14 00:29:30.000  -74.425552882  163.418437363    59.6093   5  10   0.7461   0.6306   2.6561  -0.3889   0.8928  -1.0573 1785.00    0.0
2018/11/14 00:30:00.000  -74.425554357  163.418439836    60.8711   5  10   0.7452   0.6283   2.6447  -0.3859   0.8843  -1.0530 1815.00    0.0
2018/11/14 00:30:30.000  -74.425554767  163.418435315    60.9408   5  10   0.7447   0.6264   2.6345  -0.3831   0.8762  -1.0492 1845.00    0.0
2018/11/14 00:31:00.000  -74.425554594  163.418424698    60.4710   5  10   0.7444   0.6247   2.6252  -0.3805   0.8683  -1.0455 1875.00    0.0
2018/11/14 00:31:30.000  -74.425554991  163.418434675    61.2446   5  10   0.7444   0.6233   2.6171  -0.3779   0.8606  -1.0422 1905.00    0.0
2018/11/14 00:32:00.000  -74.425554047  163.418441246    60.0835   5  10   0.7446   0.6222   2.6100  -0.3755   0.8531  -1.0392 1935.00    0.0
2018/11/14 00:32:30.000  -74.425551971  163.418431399    59.4313   5  10   0.7451   0.6214   2.6040  -0.3731   0.8459  -1.0365 1965.00    0.0
2018/11/14 00:33:00.000  -74.425554439  163.418438599    60.4278   5  10   0.7430   0.6180   2.5850  -0.3691   0.8347  -1.0297 1995.00    0.0
2018/11/14 00:33:30.000  -74.425555469  163.418431102    60.6066   5  10   0.7411   0.6148   2.5672  -0.3651   0.8237  -1.0232 2025.00    0.0
2018/11/14 00:34:00.000  -74.425554516  163.418437521    60.5456   5  10   0.7395   0.6120   2.5504  -0.3613   0.8130  -1.0170 2055.00    0.0
2018/11/14 00:34:30.000  -74.425555958  163.418435055    61.6757   5  10   0.7382   0.6095   2.5349  -0.3576   0.8026  -1.0112 2085.00    0.0
2018/11/14 00:35:00.000  -74.425556599  163.418441900    61.2445   5  10   0.7372   0.6072   2.5206  -0.3541   0.7925  -1.0057 2115.00    0.0
2018/11/14 00:35:30.000  -74.425555338  163.418434254    61.1711   5  10   0.7365   0.6054   2.5078  -0.3507   0.7827  -1.0007 2145.00    0.0
2018/11/14 00:36:00.000  -74.425558318  163.418442368    60.6916   5  10   0.7362   0.6039   2.4962  -0.3475   0.7732  -0.9960 2175.00    0.0
2018/11/14 00:36:30.000  -74.425556736  163.418445127    61.8522   5  10   0.7361   0.6026   2.4861  -0.3445   0.7640  -0.9917 2205.00    0.0
2018/11/14 00:37:00.000  -74.425558183  163.418439824    61.8751   5  10   0.7362   0.6017   2.4772  -0.3415   0.7550  -0.9878 2235.00    0.0
2018/11/14 00:37:30.000  -74.425560722  163.418441505    62.4801   5  10   0.7367   0.6010   2.4697  -0.3387   0.7462  -0.9843 2265.00    0.0
2018/11/14 00:38:00.000  -74.425558491  163.418437778    62.0189   5  10   0.7346   0.5979   2.4492  -0.3343   0.7340  -0.9768 2295.00    0.0
2018/11/14 00:38:30.000  -74.425555672  163.418436820    61.3031   5  10   0.7328   0.5951   2.4300  -0.3301   0.7221  -0.9698 2325.00    0.0
2018/11/14 00:39:00.000  -74.425554883  163.418437522    61.1087   5  10   0.7312   0.5926   2.4122  -0.3260   0.7105  -0.9631 2355.00    0.0
2018/11/14 00:39:30.000  -74.425557762  163.418440819    62.1296   5  10   0.7300   0.5904   2.3959  -0.3221   0.6992  -0.9569 2385.00    0.0
2018/11/14 00:40:00.000  -74.425556324  163.418439957    61.0788   5  10   0.7290   0.5886   2.3811  -0.3183   0.6882  -0.9511 2415.00    0.0
2018/11/14 00:40:30.000  -74.425562602  163.418442040    62.9868   5  10   0.7284   0.5871   2.3679  -0.3147   0.6775  -0.9458 2445.00    0.0
2018/11/14 00:41:00.000  -74.425558615  163.418438291    63.1983   5  10   0.7281   0.5859   2.3562  -0.3113   0.6671  -0.9409 2475.00    0.0
2018/11/14 00:41:30.000  -74.425558510  163.418441675    62.9530   5  10   0.7281   0.5851   2.3459  -0.3080   0.6569  -0.9364 2505.00    0.0
2018/11/14 00:42:00.000  -74.425556638  163.418439086    61.8786   5  10   0.7284   0.5845   2.3372  -0.3048   0.6470  -0.9324 2535.00    0.0
2018/11/14 00:42:30.000  -74.425556193  163.418437298    62.2083   5  10   0.7290   0.5843   2.3299  -0.3018   0.6372  -0.9288 2565.00    0.0
2018/11/14 00:43:00.000  -74.425559143  163.418443587    62.3708   5  10   0.7271   0.5817   2.3099  -0.2973   0.6245  -0.9215 2595.00    0.0
2018/11/14 00:43:30.000  -74.425557478  163.418444016    61.0457   5  10   0.7254   0.5794   2.2914  -0.2931   0.6122  -0.9146 2625.00    0.0
2018/11/14 00:44:00.000  -74.425558510  163.418436595    62.6025   5  10   0.7241   0.5774   2.2744  -0.2890   0.6001  -0.9082 2655.00    0.0
2018/11/14 00:44:30.000  -74.425558693  163.418439754    62.4081   5  10   0.7231   0.5757   2.2590  -0.2850   0.5883  -0.9022 2685.00    0.0
2018/11/14 00:45:00.000  -74.425560503  163.418439990    62.5023   5  10   0.7223   0.5744   2.2451  -0.2812   0.5767  -0.8967 2715.00    0.0
2018/11/14 00:45:30.000  -74.425558771  163.418439990    61.8419   5  10   0.7219   0.5734   2.2330  -0.2775   0.5654  -0.8917 2745.00    0.0
2018/11/14 00:46:00.000  -74.425558212  163.418440917    62.7495   5  10   0.7218   0.5727   2.2225  -0.2740   0.5542  -0.8871 2775.00    0.0
2018/11/14 00:46:30.000  -74.425557408  163.418442440    62.5467   5  10   0.7220   0.5723   2.2134  -0.2706   0.5431  -0.8830 2805.00    0.0
2018/11/14 00:47:00.000  -74.425557447  163.418435526    62.0860   5  10   0.7225   0.5722   2.2059  -0.2673   0.5322  -0.8793 2835.00    0.0
2018/11/14 00:47:30.000  -74.425559018  163.418436611    61.5757   5  10   0.7233   0.5724   2.1999  -0.2641   0.5213  -0.8759 2865.00    0.0
2018/11/14 00:48:00.000  -74.425557021  163.418440586    62.5697   5  10   0.7217   0.5704   2.1817  -0.2598   0.5083  -0.8693 2895.00    0.0
2018/11/14 00:48:30.000  -74.425557915  163.418441764    62.7550   5  10   0.7203   0.5686   2.1649  -0.2556   0.4954  -0.8630 2925.00    0.0
2018/11/14 00:49:00.000  -74.425560319  163.418432947    63.0756   5  10   0.7193   0.5672   2.1497  -0.2515   0.4827  -0.8572 2955.00    0.0
2018/11/14 00:49:30.000  -74.425556464  163.418447858    61.9108   5  11   0.6195   0.5491   1.7939  -0.1055   0.2474  -0.5510 2985.00    0.0
2018/11/14 00:50:00.000  -74.425558730  163.418440480    62.4641   5  11   0.6194   0.5488   1.7893  -0.1010   0.2330  -0.5494 3015.00    0.0
2018/11/14 00:50:30.000  -74.425561308  163.418440448    62.5937   5  11   0.6196   0.5488   1.7861  -0.0963   0.2175  -0.5479 3045.00    0.0
2018/11/14 00:51:00.000  -74.425558239  163.418434585    62.3852   5  11   0.6201   0.5491   1.7840  -0.0914   0.2008  -0.5466 3075.00    0.0
2018/11/14 00:51:30.000  -74.425561041  163.418434285    62.3174   5  11   0.6207   0.5497   1.7831  -0.0862   0.1825  -0.5454 3105.00    0.0
2018/11/14 00:52:00.000  -74.425559040  163.418440692    62.5150   5  11   0.6216   0.5505   1.7834  -0.0806   0.1618  -0.5444 3135.00    0.0
2018/11/14 00:52:30.000  -74.425558806  163.418434821    61.9040   5  11   0.6226   0.5516   1.7849  -0.0747   0.1378  -0.5436 3165.00    0.0
2018/11/14 00:53:00.000  -74.425559603  163.418432237    62.0255   5  12   0.6145   0.5277   1.7083  -0.1403  -0.2533  -0.5833 3195.00    0.0
2018/11/14 00:53:30.000  -74.425559249  163.418437786    62.3123   5  12   0.6137   0.5270   1.7038  -0.1377  -0.2627  -0.5816 3225.00    0.0
2018/11/14 00:54:00.000  -74.425560753  163.418436512    62.2084   5  12   0.6131   0.5265   1.7004  -0.1351  -0.2721  -0.5801 3255.00    0.0
2018/11/14 00:54:30.000  -74.425560091  163.418435649    62.1442   5  12   0.6128   0.5263   1.6980  -0.1325  -0.2815  -0.5788 3285.00    0.0
2018/11/14 00:55:00.000  -74.425558595  163.418435376    61.7719   5  12   0.6126   0.5263   1.6967  -0.1299  -0.2908  -0.5776 3315.00    0.0
2018/11/14 00:55:30.000  -74.425560050  163.418433284    61.8073   5  12   0.6127   0.5266   1.6967  -0.1274  -0.3002  -0.5767 3345.00    0.0
2018/11/14 00:56:00.000  -74.425562860  163.418437218    62.3390   5  12   0.6130   0.5271   1.6978  -0.1249  -0.3097  -0.5759 3375.00    0.0
2018/11/14 00:56:30.000  -74.425561182  163.418439636    61.7111   5  12   0.6135   0.5279   1.7000  -0.1224  -0.3192  -0.5754 3405.00    0.0
2018/11/14 00:57:00.000  -74.425559724  163.418434670    62.0110   5  12   0.6142   0.5289   1.7034  -0.1199  -0.3287  -0.5750 3435.00    0.0
2018/11/14 00:57:30.000  -74.425563315  163.418441288    61.2228   5  12   0.6151   0.5302   1.7079  -0.1175  -0.3384  -0.5748 3465.00    0.0
2018/11/14 00:58:00.000  -74.425561291  163.418434986    61.8755   5  12   0.6143   0.5295   1.7030  -0.1144  -0.3450  -0.5732 3495.00    0.0
2018/11/14 00:58:30.000  -74.425561132  163.418441355    62.1762   5  12   0.6136   0.5290   1.6992  -0.1113  -0.3516  -0.5718 3525.00    0.0
2018/11/14 00:59:00.000  -74.425561037  163.418432905    61.4168   5  12   0.6132   0.5287   1.6965  -0.1081  -0.3585  -0.5706 3555.00    0.0
2018/11/14 00:59:30.000  -74.425561109  163.418431780    61.7481   5  12   0.6129   0.5287   1.6949  -0.1050  -0.3654  -0.5695 3585.00    0.0
2018/11/14 01:00:00.000  -74.425560399  163.418435485    61.6427   5  12   0.6129   0.5289   1.6945  -0.1018  -0.3726  -0.5687 3615.00    0.0
2018/11/14 01:00:30.000  -74.425561569  163.418435038    62.3469   5  12   0.6131   0.5294   1.6953  -0.0986  -0.3800  -0.5680 3645.00    0.0
2018/11/14 01:01:00.000  -74.425562137  163.418434999    63.0439   5  12   0.6135   0.5302   1.6973  -0.0954  -0.3875  -0.5676 3675.00    0.0
2018/11/14 01:01:30.000  -74.425559327  163.418435393    62.0273   5  12   0.6141   0.5312   1.7004  -0.0922  -0.3952  -0.5673 3705.00    0.0
2018/11/14 01:02:00.000  -74.425561319  163.418433274    62.0467   5  12   0.6149   0.5325   1.7047  -0.0889  -0.4032  -0.5673 3735.00    0.0
2018/11/14 01:02:30.000  -74.425561081  163.418437686    61.8436   5  12   0.6159   0.5339   1.7101  -0.0855  -0.4113  -0.5674 3765.00    0.0
2018/11/14 01:03:00.000  -74.425561931  163.418430245    61.8230   5  12   0.6152   0.5334   1.7060  -0.0813  -0.4164  -0.5661 3795.00    0.0
2018/11/14 01:03:30.000  -74.425561809  163.418434411    61.9657   5  12   0.6147   0.5331   1.7030  -0.0770  -0.4217  -0.5650 3825.00    0.0
2018/11/14 01:04:00.000  -74.425563269  163.418432784    61.8918   5  12   0.6143   0.5330   1.7011  -0.0725  -0.4273  -0.5641 3855.00    0.0
2018/11/14 01:04:30.000  -74.425561893  163.418430591    62.8607   5  12   0.6142   0.5332   1.7003  -0.0678  -0.4331  -0.5634 3885.00    0.0
2018/11/14 01:05:00.000  -74.425562914  163.418438024    62.1435   5  12   0.6143   0.5336   1.7007  -0.0628  -0.4391  -0.5629 3915.00    0.0
2018/11/14 01:05:30.000  -74.425561754  163.418438194    62.3789   5  12   0.6146   0.5344   1.7024  -0.0576  -0.4453  -0.5626 3945.00    0.0
2018/11/14 01:06:00.000  -74.425561232  163.418430698    62.2536   5  12   0.6151   0.5353   1.7052  -0.0519  -0.4518  -0.5625 3975.00    0.0
2018/11/14 01:06:30.000  -74.425561019  163.418431358    62.1042   5  12   0.6158   0.5365   1.7092  -0.0457  -0.4585  -0.5626 4005.00    0.0
2018/11/14 01:07:00.000  -74.425561936  163.418430868    62.6826   5  12   0.6167   0.5379   1.7143  -0.0385  -0.4655  -0.5628 4035.00    0.0
2018/11/14 01:07:30.000  -74.425564049  163.418440828    62.0157   5  12   0.6178   0.5396   1.7206  -0.0298  -0.4727  -0.5633 4065.00    0.0
2018/11/14 01:08:00.000  -74.425561691  163.418443447    62.0420   5  12   0.6172   0.5392   1.7172  -0.0142  -0.4770  -0.5624 4095.00    0.0
2018/11/14 01:08:30.000  -74.425564000  163.418436086    62.3602   5  12   0.6168   0.5391   1.7149   0.0218  -0.4815  -0.5617 4125.00    0.0
2018/11/14 01:09:00.000  -74.425562024  163.418435809    62.5934   5  12   0.6166   0.5392   1.7138   0.0338  -0.4862  -0.5611 4155.00    0.0
2018/11/14 01:09:30.000  -74.425562135  163.418437623    62.2894   5  12   0.6166   0.5396   1.7139   0.0424  -0.4912  -0.5608 4185.00    0.0
2018/11/14 01:10:00.000  -74.425562428  163.418435637    62.3697   5  12   0.6167   0.5402   1.7150   0.0495  -0.4964  -0.5606 4215.00    0.0
2018/11/14 01:10:30.000  -74.425559830  163.418432044    62.7015   5  12   0.6172   0.5410   1.7175   0.0555  -0.5019  -0.5607 4245.00    0.0
2018/11/14 01:11:00.000  -74.425561990  163.418436944    61.8492   5  12   0.6178   0.5421   1.7210   0.0609  -0.5077  -0.5609 4275.00    0.0
2018/11/14 01:11:30.000  -74.425562091  163.418436729    63.0253   5  12   0.6186   0.5435   1.7257   0.0658  -0.5137  -0.5613 4305.00    0.0
2018/11/14 01:12:00.000  -74.425562278  163.418439116    62.4942   5  12   0.6196   0.5451   1.7315   0.0703  -0.5200  -0.5619 4335.00    0.0
2018/11/14 01:12:30.000  -74.425564085  163.418434159    62.7238   5  12   0.6209   0.5469   1.7383   0.0745  -0.5265  -0.5627 4365.00    0.0
2018/11/14 01:13:00.000  -74.425563295  163.418435043    62.5675   5  12   0.6204   0.5467   1.7358   0.0790  -0.5302  -0.5621 4395.00    0.0
2018/11/14 01:13:30.000  -74.425562038  163.418442731    62.1080   5  12   0.6201   0.5467   1.7343   0.0831  -0.5340  -0.5618 4425.00    0.0
2018/11/14 01:14:00.000  -74.425561769  163.418439564    62.1900   5  12   0.6200   0.5469   1.7339   0.0871  -0.5382  -0.5616 4455.00    0.0
2018/11/14 01:14:30.000  -74.425559661  163.418439953    61.8342   5  12   0.6200   0.5474   1.7346   0.0908  -0.5426  -0.5616 4485.00    0.0
2018/11/14 01:15:00.000  -74.425559793  163.418436331    62.7812   5  12   0.6203   0.5481   1.7365   0.0943  -0.5472  -0.5618 4515.00    0.0
2018/11/14 01:15:30.000  -74.425562346  163.418427731    62.7698   5  12   0.6209   0.5491   1.7395   0.0977  -0.5521  -0.5622 4545.00    0.0
2018/11/14 01:16:00.000  -74.425561905  163.418442344    62.5299   5  12   0.6216   0.5503   1.7436   0.1009  -0.5573  -0.5628 4575.00    0.0
2018/11/14 01:16:30.000  -74.425562978  163.418439628    62.4278   5  12   0.6226   0.5517   1.7488   0.1040  -0.5627  -0.5635 4605.00    0.0
2018/11/14 01:17:00.000  -74.425561909  163.418441017    61.4413   5  12   0.6237   0.5534   1.7549   0.1069  -0.5684  -0.5644 4635.00    0.0
2018/11/14 01:17:30.000  -74.425560998  163.418431259    61.6761   5  12   0.6251   0.5553   1.7621   0.1098  -0.5742  -0.5655 4665.00    0.0
2018/11/14 01:18:00.000  -74.425563493  163.418430842    62.6034   5  12   0.6247   0.5552   1.7603   0.1129  -0.5774  -0.5654 4695.00    0.0
2018/11/14 01:18:30.000  -74.425562612  163.418430758    62.6844   5  12   0.6245   0.5553   1.7594   0.1159  -0.5807  -0.5654 4725.00    0.0
2018/11/14 01:19:00.000  -74.425562794  163.418432798    61.9022   5  12   0.6245   0.5556   1.7596   0.1187  -0.5843  -0.5656 4755.00    0.0
2018/11/14 01:19:30.000  -74.425562819  163.418436364    62.4789   5  12   0.6247   0.5561   1.7609   0.1215  -0.5881  -0.5660 4785.00    0.0
2018/11/14 01:20:00.000  -74.425562385  163.418440023    62.4435   5  12   0.6251   0.5569   1.7631   0.1242  -0.5921  -0.5665 4815.00    0.0
2018/11/14 01:20:30.000  -74.425560378  163.418434927    62.1218   5  12   0.6257   0.5579   1.7666   0.1268  -0.5965  -0.5673 4845.00    0.0
2018/11/14 01:21:00.000  -74.425563603  163.418434729    62.1404   5  12   0.6266   0.5592   1.7710   0.1293  -0.6011  -0.5681 4875.00    0.0
2018/11/14 01:21:30.000  -74.425560124  163.418430977    62.3873   5  12   0.6277   0.5607   1.7763   0.1318  -0.6058  -0.5692 4905.00    0.0
2018/11/14 01:22:00.000  -74.425564297  163.418433336    62.5076   5  12   0.6290   0.5624   1.7826   0.1342  -0.6108  -0.5704 4935.00    0.0
2018/11/14 01:22:30.000  -74.425563172  163.418425813    62.4644   5  12   0.6305   0.5643   1.7897   0.1366  -0.6160  -0.5717 4965.00    0.0
2018/11/14 01:23:00.000  -74.425561976  163.418428009    62.2355   5  12   0.6302   0.5642   1.7885   0.1391  -0.6186  -0.5720 4995.00    0.0
2018/11/14 01:23:30.000  -74.425561634  163.418434594    61.5129   5  11   0.6613   0.5680   1.8248   0.1819  -0.6020  -0.5045 5025.00    0.0
2018/11/14 01:24:00.000  -74.425561483  163.418430382    61.5899   5  11   0.6610   0.5683   1.8258   0.1832  -0.6051  -0.5051 5055.00    0.0
2018/11/14 01:24:30.000  -74.425564076  163.418429771    61.9307   5  11   0.6609   0.5688   1.8279   0.1846  -0.6085  -0.5058 5085.00    0.0
2018/11/14 01:25:00.000  -74.425565673  163.418448655    61.5784   5  10   0.6724   0.6276   2.0806   0.0474  -0.7969  -0.3680 5115.00    0.0
2018/11/14 01:25:30.000  -74.425564749  163.418451117    61.0951   5  10   0.6726   0.6291   2.0899   0.0543  -0.8027  -0.3692 5145.00    0.0
2018/11/14 01:26:00.000  -74.425565809  163.418447160    61.7256   5   9   0.7732   0.6828   2.6220   0.3208  -1.0315  -0.8569 5175.00    0.0
2018/11/14 01:26:30.000  -74.425567076  163.418439377    62.1074   5   9   0.7744   0.6870   2.6483   0.3256  -1.0446  -0.8648 5205.00    0.0
2018/11/14 01:27:00.000  -74.425567492  163.418437828    62.1187   5   9   0.7761   0.6915   2.6764   0.3306  -1.0584  -0.8730 5235.00    0.0
2018/11/14 01:27:30.000  -74.425567149  163.418428051    63.7189   5   9   0.7780   0.6964   2.7064   0.3357  -1.0728  -0.8817 5265.00    0.0
2018/11/14 01:28:00.000  -74.425562717  163.418433058    62.4873   5   9   0.7774   0.6980   2.7205   0.3397  -1.0807  -0.8878 5295.00    0.0
2018/11/14 01:28:30.000  -74.425564022  163.418427855    61.9125   5   9   0.7770   0.7000   2.7366   0.3439  -1.0894  -0.8942 5325.00    0.0
2018/11/14 01:29:00.000  -74.425567650  163.418439252    62.0786   5   9   0.7770   0.7023   2.7545   0.3481  -1.0987  -0.9010 5355.00    0.0
2018/11/14 01:29:30.000  -74.425564078  163.418440260    60.6607   5   9   0.7773   0.7050   2.7741   0.3523  -1.1086  -0.9081 5385.00    0.0
2018/11/14 01:30:00.000  -74.425563370  163.418438552    61.5181   5   9   0.7779   0.7080   2.7955   0.3567  -1.1191  -0.9156 5415.00    0.0
2018/11/14 01:30:30.000  -74.425566649  163.418439052    62.0126   5   9   0.7790   0.7114   2.8188   0.3612  -1.1303  -0.9236 5445.00    0.0
2018/11/14 01:31:00.000  -74.425564154  163.418443144    60.2668   5   9   0.7803   0.7152   2.8438   0.3659  -1.1422  -0.9319 5475.00    0.0
2018/11/14 01:31:30.000  -74.425566314  163.418444927    61.6795   5   9   0.7820   0.7193   2.8705   0.3706  -1.1546  -0.9406 5505.00    0.0
2018/11/14 01:32:00.000  -74.425565486  163.418443447    62.0955   5   9   0.7840   0.7237   2.8988   0.3754  -1.1676  -0.9496 5535.00    0.0
2018/11/14 01:32:30.000  -74.425561922  163.418434181    61.2296   5   9   0.7863   0.7284   2.9286   0.3803  -1.1811  -0.9590 5565.00    0.0
2018/11/14 01:33:00.000  -74.425567561  163.418441493    62.1354   5   9   0.7860   0.7298   2.9423   0.3839  -1.1879  -0.9654 5595.00    0.0
2018/11/14 01:33:30.000  -74.425563836  163.418435276    61.8831   5   9   0.7859   0.7314   2.9575   0.3876  -1.1951  -0.9722 5625.00    0.0
2018/11/14 01:34:00.000  -74.425566651  163.418436178    62.5460   5   9   0.7862   0.7333   2.9741   0.3914  -1.2029  -0.9792 5655.00    0.0
2018/11/14 01:34:30.000  -74.425561151  163.418439813    60.8916   5   9   0.7868   0.7355   2.9921   0.3952  -1.2111  -0.9865 5685.00    0.0
2018/11/14 01:35:00.000  -74.425565092  163.418437416    61.2033   5   9   0.7878   0.7380   3.0115   0.3991  -1.2197  -0.9941 5715.00    0.0
2018/11/14 01:35:30.000  -74.425566419  163.418430441    61.6536   5   9   0.7891   0.7408   3.0324   0.4031  -1.2289  -1.0020 5745.00    0.0
2018/11/14 01:36:00.000  -74.425562669  163.418424699    62.7773   5   9   0.7907   0.7439   3.0544   0.4072  -1.2385  -1.0101 5775.00    0.0
2018/11/14 01:36:30.000  -74.425566693  163.418441000    62.8400   5   9   0.7927   0.7472   3.0776   0.4113  -1.2484  -1.0185 5805.00    0.0
2018/11/14 01:37:00.000  -74.425564434  163.418445136    60.5248   5   9   0.7949   0.7508   3.1017   0.4154  -1.2587  -1.0270 5835.00    0.0
2018/11/14 01:37:30.000  -74.425566387  163.418444969    61.1733   5   9   0.7975   0.7547   3.1267   0.4196  -1.2692  -1.0357 5865.00    0.0
2018/11/14 01:38:00.000  -74.425567319  163.418432472    62.7433   5   8   0.9696   0.7716   4.0571   0.5160  -1.4249  -1.5826 5895.00    0.0
2018/11/14 01:38:30.000  -74.425566274  163.418436800    61.9167   5   8   0.9747   0.7742   4.1044   0.5250  -1.4411  -1.6043 5925.00    0.0
2018/11/14 01:39:00.000  -74.425568228  163.418429675    63.4168   5   9   0.7317   0.7316   2.9053   0.3379  -1.1605  -0.8421 5955.00    0.0
2018/11/14 01:39:30.000  -74.425568752  163.418437699    63.0864   5   9   0.7321   0.7328   2.9270   0.3428  -1.1683  -0.8517 5985.00    0.0
2018/11/14 01:40:00.000  -74.425569793  163.418436832    62.9283   5   9   0.7327   0.7342   2.9499   0.3477  -1.1765  -0.8615 6015.00    0.0
2018/11/14 01:40:30.000  -74.425570607  163.418421542    62.9879   5   9   0.7338   0.7360   2.9742   0.3527  -1.1852  -0.8715 6045.00    0.0
2018/11/14 01:41:00.000  -74.425567388  163.418432640    61.7950   5   9   0.7351   0.7381   2.9996   0.3577  -1.1942  -0.8817 6075.00    0.0
2018/11/14 01:41:30.000  -74.425569411  163.418426137    64.3510   5   9   0.7368   0.7404   3.0261   0.3627  -1.2036  -0.8921 6105.00    0.0
2018/11/14 01:42:00.000  -74.425569213  163.418431369    63.0798   5   9   0.7388   0.7430   3.0536   0.3677  -1.2132  -0.9027 6135.00    0.0
2018/11/14 01:42:30.000  -74.425564297  163.418440471    61.3230   5   9   0.7411   0.7458   3.0820   0.3728  -1.2231  -0.9134 6165.00    0.0
2018/11/14 01:43:00.000  -74.425570238  163.418430545    63.4362   5   9   0.7410   0.7454   3.0970   0.3769  -1.2273  -0.9225 6195.00    0.0
2018/11/14 01:43:30.000  -74.425570568  163.418428340    62.5456   5   9   0.7412   0.7451   3.1127   0.3811  -1.2316  -0.9316 6225.00    0.0
2018/11/14 01:44:00.000  -74.425571860  163.418420552    64.9210   5   9   0.7417   0.7451   3.1293   0.3851  -1.2362  -0.9408 6255.00    0.0
2018/11/14 01:44:30.000  -74.425570678  163.418426099    64.3906   5   9   0.7425   0.7453   3.1466   0.3892  -1.2409  -0.9501 6285.00    0.0
2018/11/14 01:45:00.000  -74.425569266  163.418427952    64.0416   5   9   0.7435   0.7457   3.1646   0.3932  -1.2458  -0.9594 6315.00    0.0
2018/11/14 01:45:30.000  -74.425570029  163.418411251    65.8404   5   9   0.7450   0.7464   3.1835   0.3973  -1.2510  -0.9689 6345.00    0.0
2018/11/14 01:46:00.000  -74.425569433  163.418425082    62.6194   5   9   0.7468   0.7474   3.2030   0.4013  -1.2564  -0.9784 6375.00    0.0
2018/11/14 01:46:30.000  -74.425568383  163.418420211    63.5388   5   9   0.7488   0.7485   3.2230   0.4054  -1.2618  -0.9880 6405.00    0.0
2018/11/14 01:47:00.000  -74.425574563  163.418426431    65.0304   5   9   0.7512   0.7498   3.2434   0.4094  -1.2674  -0.9976 6435.00    0.0
2018/11/14 01:47:30.000  -74.425569311  163.418419869    62.8074   5   9   0.7539   0.7514   3.2642   0.4134  -1.2730  -1.0072 6465.00    0.0
2018/11/14 01:48:00.000  -74.425569417  163.418432578    63.1031   5   9   0.7540   0.7495   3.2713   0.4162  -1.2727  -1.0145 6495.00    0.0
2018/11/14 01:48:30.000  -74.425569769  163.418433912    63.4589   5   9   0.7544   0.7478   3.2786   0.4189  -1.2723  -1.0217 6525.00    0.0
2018/11/14 01:49:00.000  -74.425568310  163.418440941    63.0111   5   9   0.7551   0.7463   3.2863   0.4215  -1.2720  -1.0289 6555.00    0.0
2018/11/14 01:49:30.000  -74.425570976  163.418423375    64.7124   5   9   0.7560   0.7450   3.2942   0.4241  -1.2717  -1.0360 6585.00    0.0
2018/11/14 01:50:00.000  -74.425570694  163.418428412    63.5935   5   9   0.7573   0.7439   3.3024   0.4267  -1.2715  -1.0430 6615.00    0.0
2018/11/14 01:50:30.000  -74.425569883  163.418434452    63.7483   5   9   0.7589   0.7431   3.3110   0.4293  -1.2714  -1.0500 6645.00    0.0
2018/11/14 01:51:00.000  -74.425570626  163.418421621    63.8461   5   9   0.7607   0.7424   3.3198   0.4318  -1.2713  -1.0570 6675.00    0.0
2018/11/14 01:51:30.000  -74.425570324  163.418419395    64.5634   5   9   0.7629   0.7420   3.3286   0.4344  -1.2712  -1.0640 6705.00    0.0
2018/11/14 01:52:00.000  -74.425569853  163.418430105    62.3334   5   9   0.7654   0.7418   3.3376   0.4369  -1.2712  -1.0709 6735.00    0.0
2018/11/14 01:52:30.000  -74.425572684  163.418425161    63.9683   5   9   0.7681   0.7417   3.3466   0.4394  -1.2711  -1.0778 6765.00    0.0
2018/11/14 01:53:00.000  -74.425572001  163.418430191    65.0706   5   9   0.7681   0.7383   3.3420   0.4403  -1.2650  -1.0816 6795.00    0.0
2018/11/14 01:53:30.000  -74.425574906  163.418419788    65.6295   5   9   0.7684   0.7350   3.3375   0.4412  -1.2588  -1.0853 6825.00    0.0
2018/11/14 01:54:00.000  -74.425573621  163.418420844    65.0518   5   9   0.7689   0.7319   3.3331   0.4420  -1.2527  -1.0889 6855.00    0.0
2018/11/14 01:54:30.000  -74.425573434  163.418416500    64.8019   5   9   0.7698   0.7291   3.3289   0.4428  -1.2467  -1.0924 6885.00    0.0
2018/11/14 01:55:00.000  -74.425572380  163.418419469    65.8755   5   9   0.7708   0.7265   3.3247   0.4436  -1.2407  -1.0959 6915.00    0.0
2018/11/14 01:55:30.000  -74.425571730  163.418427257    65.0597   5   9   0.7723   0.7243   3.3210   0.4445  -1.2349  -1.0993 6945.00    0.0
2018/11/14 01:56:00.000  -74.425573409  163.418419047    65.4038   5   9   0.7740   0.7223   3.3175   0.4453  -1.2292  -1.1028 6975.00    0.0
2018/11/14 01:56:30.000  -74.425571531  163.418425976    63.5832   5   9   0.7760   0.7205   3.3141   0.4462  -1.2236  -1.1062 7005.00    0.0
2018/11/14 01:57:00.000  -74.425573014  163.418429357    65.4459   5   9   0.7782   0.7191   3.3110   0.4472  -1.2181  -1.1096 7035.00    0.0
2018/11/14 01:57:30.000  -74.425575554  163.418426794    65.3021   5   9   0.7808   0.7179   3.3080   0.4482  -1.2127  -1.1131 7065.00    0.0
2018/11/14 01:58:00.000  -74.425575752  163.418420198    65.9587   5   9   0.7805   0.7133   3.2921   0.4473  -1.2015  -1.1130 7095.00    0.0
2018/11/14 01:58:30.000  -74.425572977  163.418426497    65.2260   5   9   0.7804   0.7090   3.2764   0.4465  -1.1903  -1.1129 7125.00    0.0
2018/11/14 01:59:00.000  -74.425575013  163.418421767    66.3841   5   9   0.7806   0.7050   3.2611   0.4457  -1.1794  -1.1127 7155.00    0.0
2018/11/14 01:59:30.000  -74.425574209  163.418432118    64.7936   5   9   0.7811   0.7013   3.2462   0.4449  -1.1687  -1.1126 7185.00    0.0
2018/11/14 02:00:00.000  -74.425572872  163.418425270    65.2968   5   9   0.7819   0.6980   3.2318   0.4442  -1.1582  -1.1126 7215.00    0.0
2018/11/14 02:00:30.000  -74.425571175  163.418431235    63.6969   5   9   0.7830   0.6951   3.2182   0.4437  -1.1482  -1.1127 7245.00    0.0
2018/11/14 02:01:00.000  -74.425575470  163.418415801    66.3921   5   9   0.7845   0.6925   3.2052   0.4433  -1.1385  -1.1130 7275.00    0.0
2018/11/14 02:01:30.000  -74.425571876  163.418423368    64.8304   5   9   0.7862   0.6903   3.1927   0.4430  -1.1291  -1.1133 7305.00    0.0
2018/11/14 02:02:00.000  -74.425571018  163.418421540    65.0268   5   9   0.7883   0.6884   3.1809   0.4428  -1.1201  -1.1139 7335.00    0.0
2018/11/14 02:02:30.000  -74.425574792  163.418419526    65.8975   5   9   0.7907   0.6869   3.1698   0.4428  -1.1114  -1.1146 7365.00    0.0
2018/11/14 02:03:00.000  -74.425574583  163.418426232    65.3902   5   9   0.7900   0.6821   3.1463   0.4407  -1.0969  -1.1114 7395.00    0.0
2018/11/14 02:03:30.000  -74.425573198  163.418421844    64.7201   5   9   0.7896   0.6777   3.1236   0.4387  -1.0829  -1.1085 7425.00    0.0
2018/11/14 02:04:00.000  -74.425576290  163.418418166    65.5531   5   9   0.7895   0.6737   3.1018   0.4369  -1.0693  -1.1057 7455.00    0.0
2018/11/14 02:04:30.000  -74.425573623  163.418430324    64.2533   5   9   0.7897   0.6700   3.0809   0.4353  -1.0561  -1.1031 7485.00    0.0
2018/11/14 02:05:00.000  -74.425572966  163.418421863    64.9464   5   9   0.7902   0.6668   3.0609   0.4338  -1.0435  -1.1007 7515.00    0.0
2018/11/14 02:05:30.000  -74.425571336  163.418425668    64.4000   5   9   0.7912   0.6641   3.0422   0.4325  -1.0314  -1.0987 7545.00    0.0
2018/11/14 02:06:00.000  -74.425577442  163.418419914    66.8993   5   9   0.7924   0.6617   3.0244   0.4315  -1.0199  -1.0970 7575.00    0.0
2018/11/14 02:06:30.000  -74.425570926  163.418419909    63.9564   5   9   0.7941   0.6598   3.0077   0.4306  -1.0089  -1.0956 7605.00    0.0
2018/11/14 02:07:00.000  -74.425573497  163.418420876    65.1496   5   9   0.7960   0.6583   2.9920   0.4300  -0.9984  -1.0946 7635.00    0.0
2018/11/14 02:07:30.000  -74.425575727  163.418420215    66.7204   5   9   0.7983   0.6572   2.9774   0.4295  -0.9885  -1.0938 7665.00    0.0
2018/11/14 02:08:00.000  -74.425575254  163.418427971    66.1017   5   9   0.7975   0.6529   2.9513   0.4269  -0.9731  -1.0891 7695.00    0.0
2018/11/14 02:08:30.000  -74.425575705  163.418439013    64.4562   5   9   0.7969   0.6491   2.9263   0.4246  -0.9583  -1.0846 7725.00    0.0
2018/11/14 02:09:00.000  -74.425574870  163.418421992    65.9914   5   9   0.7967   0.6457   2.9026   0.4224  -0.9440  -1.0806 7755.00    0.0
2018/11/14 02:09:30.000  -74.425576957  163.418429298    66.3615   5   8   0.8313   0.6524   3.4512   0.3876  -0.8076  -1.2688 7785.00    0.0
2018/11/14 02:10:00.000  -74.425578137  163.418420233    66.8825   5   8   0.8325   0.6502   3.4352   0.3849  -0.7903  -1.2684 7815.00    0.0
2018/11/14 02:10:30.000  -74.425577170  163.418419716    66.4715   5   8   0.8342   0.6485   3.4206   0.3824  -0.7735  -1.2684 7845.00    0.0
2018/11/14 02:11:00.000  -74.425574891  163.418430651    66.6395   5   8   0.8363   0.6473   3.4071   0.3801  -0.7571  -1.2688 7875.00    0.0
2018/11/14 02:11:30.000  -74.425575758  163.418426526    66.0610   5   8   0.8387   0.6466   3.3948   0.3779  -0.7410  -1.2696 7905.00    0.0
2018/11/14 02:12:00.000  -74.425578010  163.418429754    67.0856   5   8   0.8416   0.6463   3.3837   0.3760  -0.7253  -1.2709 7935.00    0.0
2018/11/14 02:12:30.000  -74.425575954  163.418427578    65.7481   5   8   0.8448   0.6464   3.3738   0.3743  -0.7099  -1.2727 7965.00    0.0
2018/11/14 02:13:00.000  -74.425576981  163.418430071    65.8682   5   8   0.8444   0.6434   3.3501   0.3706  -0.6895  -1.2691 7995.00    0.0
2018/11/14 02:13:30.000  -74.425577650  163.418430304    67.2237   5   8   0.8444   0.6409   3.3276   0.3671  -0.6695  -1.2659 8025.00    0.0
2018/11/14 02:14:00.000  -74.425574985  163.418431511    65.4161   5   8   0.8448   0.6389   3.3063   0.3638  -0.6498  -1.2631 8055.00    0.0
2018/11/14 02:14:30.000  -74.425577859  163.418426575    65.8890   5   8   0.8455   0.6373   3.2865   0.3608  -0.6305  -1.2608 8085.00    0.0
2018/11/14 02:15:00.000  -74.425574403  163.418425902    66.2101   5   8   0.8467   0.6361   3.2679   0.3579  -0.6116  -1.2590 8115.00    0.0
2018/11/14 02:15:30.000  -74.425575030  163.418419730    67.0362   5   8   0.8483   0.6355   3.2511   0.3554  -0.5932  -1.2578 8145.00    0.0
2018/11/14 02:16:00.000  -74.425577187  163.418424313    65.9368   5   8   0.8503   0.6353   3.2357   0.3531  -0.5751  -1.2571 8175.00    0.0
2018/11/14 02:16:30.000  -74.425577827  163.418417534    66.0274   5   9   0.8486   0.6353   2.9729   0.3491  -0.5756  -1.2977 8205.00    0.0
2018/11/14 02:17:00.000  -74.425576194  163.418422536    66.0732   5   9   0.8510   0.6358   2.9697   0.3466  -0.5627  -1.2997 8235.00    0.0
2018/11/14 02:17:30.000  -74.425579255  163.418426379    66.4183   5   9   0.8537   0.6367   2.9677   0.3443  -0.5500  -1.3022 8265.00    0.0
2018/11/14 02:18:00.000  -74.425576775  163.418423803    67.0977   5   9   0.8527   0.6346   2.9529   0.3400  -0.5327  -1.2987 8295.00    0.0
2018/11/14 02:18:30.000  -74.425577452  163.418429814    66.2710   5   9   0.8521   0.6329   2.9393   0.3360  -0.5155  -1.2957 8325.00    0.0
2018/11/14 02:19:00.000  -74.425577625  163.418428132    66.6820   5   8   0.8566   0.6612   3.1761   0.3578  -0.0867  -1.2491 8355.00    0.0
2018/11/14 02:19:30.000  -74.425577848  163.418417907    66.5917   5   8   0.8564   0.6609   3.1686   0.3536   0.1128  -1.2487 8385.00    0.0
2018/11/14 02:20:00.000  -74.425578729  163.418434465    66.4813   5   8   0.8565   0.6611   3.1623   0.3496   0.1803  -1.2488 8415.00    0.0
2018/11/14 02:20:30.000  -74.425577653  163.418426942    66.3907   5   8   0.8571   0.6617   3.1575   0.3459   0.2276  -1.2495 8445.00    0.0
2018/11/14 02:21:00.000  -74.425577763  163.418431086    66.3516   5   8   0.8582   0.6628   3.1540   0.3423   0.2660  -1.2508 8475.00    0.0
2018/11/14 02:21:30.000  -74.425575454  163.418428664    66.0374   5   8   0.8596   0.6643   3.1519   0.3390   0.2991  -1.2526 8505.00    0.0
2018/11/14 02:22:00.000  -74.425574564  163.418430948    65.9842   5   8   0.8615   0.6663   3.1511   0.3358   0.3286  -1.2550 8535.00    0.0
2018/11/14 02:22:30.000  -74.425573910  163.418424816    65.8904   5   8   0.8638   0.6686   3.1518   0.3328   0.3555  -1.2580 8565.00    0.0
2018/11/14 02:23:00.000  -74.425576399  163.418427088    65.8295   5   8   0.8623   0.6678   3.1378   0.3279   0.3803  -1.2551 8595.00    0.0
2018/11/14 02:23:30.000  -74.425574458  163.418432169    66.2757   5   8   0.8612   0.6674   3.1250   0.3232   0.4030  -1.2526 8625.00    0.0
2018/11/14 02:24:00.000  -74.425578915  163.418419220    67.4784   5   9   0.8136   0.6537   2.6123   0.2529   0.6383  -1.0439 8655.00    0.0
2018/11/14 02:24:30.000  -74.425577026  163.418429687    66.6726   5   9   0.8141   0.6544   2.6133   0.2490   0.6472  -1.0469 8685.00    0.0
2018/11/14 02:25:00.000  -74.425578450  163.418431304    66.8410   5   9   0.8150   0.6555   2.6154   0.2452   0.6561  -1.0504 8715.00    0.0
2018/11/14 02:25:30.000  -74.425577504  163.418437419    67.8576   5   9   0.8164   0.6571   2.6187   0.2416   0.6652  -1.0543 8745.00    0.0
2018/11/14 02:26:00.000  -74.425577417  163.418426679    67.2727   5   9   0.8181   0.6590   2.6232   0.2380   0.6745  -1.0587 8775.00    0.0
2018/11/14 02:26:30.000  -74.425580592  163.418427079    67.8054   5   9   0.8202   0.6613   2.6287   0.2344   0.6839  -1.0635 8805.00    0.0
2018/11/14 02:27:00.000  -74.425578421  163.418428839    67.1596   5   9   0.8227   0.6639   2.6354   0.2309   0.6935  -1.0688 8835.00    0.0
2018/11/14 02:27:30.000  -74.425575854  163.418435664    66.3139   5   9   0.8256   0.6669   2.6434   0.2273   0.7034  -1.0746 8865.00    0.0
2018/11/14 02:28:00.000  -74.425577450  163.418429194    66.4530   5   9   0.8251   0.6668   2.6393   0.2229   0.7094  -1.0758 8895.00    0.0
2018/11/14 02:28:30.000  -74.425580622  163.418434215    67.9027   5   9   0.8250   0.6670   2.6363   0.2186   0.7155  -1.0774 8925.00    0.0
2018/11/14 02:29:00.000  -74.425575673  163.418422083    66.3225   5   9   0.8253   0.6676   2.6343   0.2144   0.7217  -1.0795 8955.00    0.0
2018/11/14 02:29:30.000  -74.425577968  163.418426149    67.5028   5   9   0.8259   0.6685   2.6334   0.2101   0.7281  -1.0820 8985.00    0.0
2018/11/14 02:30:00.000  -74.425578469  163.418420927    66.5129   5   9   0.8270   0.6697   2.6336   0.2060   0.7347  -1.0849 9015.00    0.0
2018/11/14 02:30:30.000  -74.425580035  163.418430251    66.5967   5   9   0.8285   0.6715   2.6352   0.2019   0.7416  -1.0884 9045.00    0.0
2018/11/14 02:31:00.000  -74.425577969  163.418416179    66.3330   5   9   0.8303   0.6735   2.6380   0.1978   0.7488  -1.0923 9075.00    0.0
2018/11/14 02:31:30.000  -74.425578670  163.418426262    66.5226   5   9   0.8326   0.6760   2.6420   0.1936   0.7562  -1.0968 9105.00    0.0
2018/11/14 02:32:00.000  -74.425576662  163.418426268    66.4498   5   9   0.8353   0.6788   2.6473   0.1894   0.7640  -1.1017 9135.00    0.0
2018/11/14 02:32:30.000  -74.425581585  163.418436199    68.2875   5   9   0.8383   0.6820   2.6538   0.1851   0.7721  -1.1072 9165.00    0.0
2018/11/14 02:33:00.000  -74.425576978  163.418433371    66.1048   5   9   0.8379   0.6818   2.6472   0.1807   0.7754  -1.1076 9195.00    0.0
2018/11/14 02:33:30.000  -74.425578340  163.418423914    66.9277   5   9   0.8379   0.6820   2.6419   0.1763   0.7790  -1.1085 9225.00    0.0
2018/11/14 02:34:00.000  -74.425577687  163.418426375    67.2758   5   9   0.8382   0.6826   2.6376   0.1719   0.7829  -1.1099 9255.00    0.0
2018/11/14 02:34:30.000  -74.425575502  163.418422020    66.3198   5   9   0.8390   0.6835   2.6346   0.1675   0.7870  -1.1117 9285.00    0.0
2018/11/14 02:35:00.000  -74.425576876  163.418429514    67.1867   5   9   0.8401   0.6847   2.6328   0.1630   0.7914  -1.1140 9315.00    0.0
2018/11/14 02:35:30.000  -74.425578390  163.418432775    67.5642   5   9   0.8417   0.6864   2.6324   0.1586   0.7962  -1.1169 9345.00    0.0
2018/11/14 02:36:00.000  -74.425576921  163.418425767    66.9659   5   9   0.8436   0.6885   2.6334   0.1541   0.8013  -1.1203 9375.00    0.0
2018/11/14 02:36:30.000  -74.425576378  163.418417231    66.4961   5   9   0.8460   0.6909   2.6356   0.1495   0.8068  -1.1242 9405.00    0.0
2018/11/14 02:37:00.000  -74.425574589  163.418422206    67.2225   5   9   0.8487   0.6937   2.6391   0.1447   0.8127  -1.1286 9435.00    0.0
2018/11/14 02:37:30.000  -74.425577318  163.418421017    65.9968   5   9   0.8518   0.6968   2.6440   0.1396   0.8190  -1.1334 9465.00    0.0
2018/11/14 02:38:00.000  -74.425578781  163.418425332    67.1664   5   9   0.8514   0.6965   2.6351   0.1355   0.8200  -1.1331 9495.00    0.0
2018/11/14 02:38:30.000  -74.425572613  163.418428197    66.4237   5   9   0.8514   0.6966   2.6274   0.1314   0.8212  -1.1332 9525.00    0.0
2018/11/14 02:39:00.000  -74.425575696  163.418423855    66.6249   5   9   0.8518   0.6969   2.6210   0.1272   0.8228  -1.1338 9555.00    0.0
2018/11/14 02:39:30.000  -74.425578892  163.418419349    66.7504   5   9   0.8525   0.6976   2.6158   0.1230   0.8247  -1.1349 9585.00    0.0
2018/11/14 02:40:00.000  -74.425577894  163.418417185    66.1877   5   9   0.8537   0.6987   2.6120   0.1186   0.8270  -1.1365 9615.00    0.0
2018/11/14 02:40:30.000  -74.425576579  163.418412083    65.4564   5   9   0.8552   0.7002   2.6097   0.1142   0.8297  -1.1386 9645.00    0.0
2018/11/14 02:41:00.000  -74.425577024  163.418430812    65.5739   5   9   0.8572   0.7021   2.6087   0.1095   0.8329  -1.1413 9675.00    0.0
2018/11/14 02:41:30.000  -74.425575644  163.418415749    66.2940   5   9   0.8595   0.7044   2.6091   0.1046   0.8366  -1.1444 9705.00    0.0
2018/11/14 02:42:00.000  -74.425579484  163.418420432    66.3199   5   9   0.8622   0.7070   2.6107   0.0993   0.8407  -1.1481 9735.00    0.0
2018/11/14 02:42:30.000  -74.425572461  163.418424442    64.8982   5   9   0.8653   0.7100   2.6137   0.0935   0.8452  -1.1523 9765.00    0.0
2018/11/14 02:43:00.000  -74.425574126  163.418417847    66.1787   5  10   0.8502   0.5853   2.1575   0.2682   0.3585  -1.0458 9795.00    0.0
2018/11/14 02:43:30.000  -74.425574325  163.418416072    65.9933   5  10   0.8503   0.5845   2.1529   0.2667   0.3608  -1.0464 9825.00    0.0
2018/11/14 02:44:00.000  -74.425572816  163.418419419    65.2547   5  10   0.8508   0.5840   2.1493   0.2654   0.3631  -1.0475 9855.00    0.0
2018/11/14 02:44:30.000  -74.425574849  163.418417082    65.4211   5  10   0.8517   0.5837   2.1467   0.2642   0.3654  -1.0490 9885.00    0.0
2018/11/14 02:45:00.000  -74.425574240  163.418418084    65.4251   5  10   0.8529   0.5837   2.1452   0.2631   0.3677  -1.0510 9915.00    0.0
2018/11/14 02:45:30.000  -74.425576472  163.418432407    65.7447   5  10   0.8546   0.5840   2.1448   0.2621   0.3701  -1.0534 9945.00    0.0
2018/11/14 02:46:00.000  -74.425572336  163.418417946    65.1031   5  10   0.8566   0.5846   2.1455   0.2612   0.3726  -1.0563 9975.00    0.0
2018/11/14 02:46:30.000  -74.425574999  163.418420924    65.1889   5  10   0.8590   0.5854   2.1472   0.2604   0.3753  -1.0596 10005.00    0.0
2018/11/14 02:47:00.000  -74.425577702  163.418423547    66.1571   5  10   0.8617   0.5864   2.1499   0.2597   0.3781  -1.0633 10035.00    0.0
2018/11/14 02:47:30.000  -74.425579455  163.418416080    66.3441   5  10   0.8648   0.5877   2.1536   0.2590   0.3810  -1.0674 10065.00    0.0
2018/11/14 02:48:00.000  -74.425580089  163.418419923    65.7319   5  10   0.8646   0.5867   2.1478   0.2577   0.3817  -1.0674 10095.00    0.0
2018/11/14 02:48:30.000  -74.425576369  163.418426390    65.9962   5  10   0.8648   0.5860   2.1430   0.2566   0.3825  -1.0679 10125.00    0.0
2018/11/14 02:49:00.000  -74.425581052  163.418424476    66.8254   5  10   0.8654   0.5855   2.1392   0.2556   0.3833  -1.0688 10155.00    0.0
2018/11/14 02:49:30.000  -74.425579028  163.418425074    66.4288   5  10   0.8663   0.5853   2.1364   0.2547   0.3843  -1.0701 10185.00    0.0
2018/11/14 02:50:00.000  -74.425578130  163.418423355    66.1959   5  10   0.8676   0.5853   2.1346   0.2538   0.3854  -1.0718 10215.00    0.0
2018/11/14 02:50:30.000  -74.425580105  163.418423300    66.5824   5  10   0.8692   0.5856   2.1340   0.2531   0.3867  -1.0740 10245.00    0.0
2018/11/14 02:51:00.000  -74.425578298  163.418425562    66.0161   5  10   0.8712   0.5862   2.1344   0.2524   0.3882  -1.0765 10275.00    0.0
2018/11/14 02:51:30.000  -74.425576941  163.418430439    65.9436   5  10   0.8736   0.5870   2.1358   0.2517   0.3899  -1.0795 10305.00    0.0
2018/11/14 02:52:00.000  -74.425576892  163.418431435    65.7576   5  10   0.8763   0.5881   2.1382   0.2511   0.3919  -1.0829 10335.00    0.0
2018/11/14 02:52:30.000  -74.425577512  163.418420102    66.0219   5  10   0.8793   0.5894   2.1416   0.2506   0.3942  -1.0866 10365.00    0.0
2018/11/14 02:53:00.000  -74.425577033  163.418428754    66.4127   5  10   0.8792   0.5884   2.1356   0.2498   0.3934  -1.0865 10395.00    0.0
2018/11/14 02:53:30.000  -74.425577359  163.418416673    65.5611   5  10   0.8794   0.5877   2.1306   0.2490   0.3928  -1.0867 10425.00    0.0
2018/11/14 02:54:00.000  -74.425577548  163.418426397    66.1882   5  10   0.8799   0.5872   2.1266   0.2483   0.3925  -1.0873 10455.00    0.0
2018/11/14 02:54:30.000  -74.425575592  163.418426313    65.4754   5  10   0.8808   0.5870   2.1235   0.2477   0.3923  -1.0883 10485.00    0.0
2018/11/14 02:55:00.000  -74.425578730  163.418425896    65.7867   5  10   0.8821   0.5870   2.1215   0.2472   0.3924  -1.0897 10515.00    0.0
2018/11/14 02:55:30.000  -74.425578777  163.418422503    65.6158   5  10   0.8837   0.5873   2.1206   0.2467   0.3928  -1.0915 10545.00    0.0
2018/11/14 02:56:00.000  -74.425578314  163.418428457    65.4639   5  11   0.8402   0.5720   1.9431   0.1503   0.5199  -0.9790 10575.00    0.0
2018/11/14 02:56:30.000  -74.425572485  163.418416817    65.0202   5  11   0.8427   0.5726   1.9461   0.1487   0.5210  -0.9826 10605.00    0.0
2018/11/14 02:57:00.000  -74.425573312  163.418423367    64.6397   5  11   0.8455   0.5734   1.9500   0.1470   0.5224  -0.9865 10635.00    0.0
2018/11/14 02:57:30.000  -74.425573354  163.418413006    64.8444   5  11   0.8486   0.5745   1.9547   0.1452   0.5242  -0.9907 10665.00    0.0
2018/11/14 02:58:00.000  -74.425575526  163.418414943    65.5081   5  11   0.8489   0.5733   1.9512   0.1444   0.5224  -0.9918 10695.00    0.0
2018/11/14 02:58:30.000  -74.425575520  163.418421657    65.1753   5  11   0.8494   0.5723   1.9485   0.1436   0.5208  -0.9932 10725.00    0.0
2018/11/14 02:59:00.000  -74.425574109  163.418426028    65.3551   5  12   0.8247   0.5688   1.9357   0.0935   0.5083  -1.0162 10755.00    0.0
2018/11/14 02:59:30.000  -74.425574343  163.418424568    65.3783   5  12   0.8254   0.5683   1.9355   0.0916   0.5077  -1.0177 10785.00    0.0
2018/11/14 03:00:00.000  -74.425572771  163.418416481    65.1865   5  12   0.8263   0.5681   1.9361   0.0895   0.5075  -1.0196 10815.00    0.0
2018/11/14 03:00:30.000  -74.425573875  163.418420121    64.7583   5  12   0.8276   0.5681   1.9377   0.0872   0.5076  -1.0218 10845.00    0.0
2018/11/14 03:01:00.000  -74.425574183  163.418428973    65.2356   5  12   0.8291   0.5684   1.9403   0.0845   0.5081  -1.0243 10875.00    0.0
2018/11/14 03:01:30.000  -74.425572709  163.418428784    64.6447   5  12   0.8309   0.5690   1.9436   0.0815   0.5090  -1.0272 10905.00    0.0
2018/11/14 03:02:00.000  -74.425571341  163.418423842    64.8723   5  12   0.8330   0.5698   1.9478   0.0782   0.5101  -1.0303 10935.00    0.0
2018/11/14 03:02:30.000  -74.425573866  163.418423443    64.9876   5  12   0.8353   0.5708   1.9528   0.0744   0.5117  -1.0337 10965.00    0.0
2018/11/14 03:03:00.000  -74.425573319  163.418420592    65.4338   5  12   0.8350   0.5695   1.9494   0.0741   0.5093  -1.0339 10995.00    0.0
2018/11/14 03:03:30.000  -74.425569532  163.418423956    64.3426   5  12   0.8350   0.5685   1.9471   0.0737   0.5074  -1.0344 11025.00    0.0
2018/11/14 03:04:00.000  -74.425571006  163.418420887    64.9581   5  12   0.8353   0.5677   1.9456   0.0730   0.5057  -1.0352 11055.00    0.0
2018/11/14 03:04:30.000  -74.425570945  163.418418758    64.5886   5  12   0.8358   0.5672   1.9449   0.0721   0.5044  -1.0363 11085.00    0.0
2018/11/14 03:05:00.000  -74.425574191  163.418424262    65.4625   5  12   0.8366   0.5669   1.9450   0.0708   0.5035  -1.0377 11115.00    0.0
2018/11/14 03:05:30.000  -74.425571452  163.418418996    64.2432   5  12   0.8377   0.5669   1.9461   0.0692   0.5030  -1.0394 11145.00    0.0
2018/11/14 03:06:00.000  -74.425571931  163.418425825    64.6745   5  12   0.8390   0.5672   1.9481   0.0672   0.5028  -1.0415 11175.00    0.0
2018/11/14 03:06:30.000  -74.425574715  163.418418500    64.6775   5  12   0.8407   0.5677   1.9508   0.0649   0.5030  -1.0438 11205.00    0.0
2018/11/14 03:07:00.000  -74.425571925  163.418421260    64.4971   5  12   0.8425   0.5685   1.9544   0.0620   0.5036  -1.0463 11235.00    0.0
2018/11/14 03:07:30.000  -74.425570654  163.418423732    64.8624   5  12   0.8447   0.5695   1.9587   0.0587   0.5046  -1.0492 11265.00    0.0
2018/11/14 03:08:00.000  -74.425571245  163.418420130    64.5509   5  12   0.8442   0.5682   1.9551   0.0602   0.5016  -1.0489 11295.00    0.0
2018/11/14 03:08:30.000  -74.425571376  163.418423591    64.2045   5  12   0.8441   0.5671   1.9522   0.0615   0.4988  -1.0490 11325.00    0.0
2018/11/14 03:09:00.000  -74.425571161  163.418425816    64.7719   5  11   0.8509   0.5676   1.9681  -0.0146   0.4861  -1.0358 11355.00    0.0
2018/11/14 03:09:30.000  -74.425568861  163.418418497    64.6333   5  11   0.8509   0.5670   1.9678   0.0047   0.4840  -1.0365 11385.00    0.0
2018/11/14 03:10:00.000  -74.425572150  163.418422454    65.1032   5  11   0.8512   0.5667   1.9684   0.0143   0.4822  -1.0374 11415.00    0.0
2018/11/14 03:10:30.000  -74.425569039  163.418424863    64.2286   5  11   0.8517   0.5667   1.9699   0.0178   0.4809  -1.0387 11445.00    0.0
2018/11/14 03:11:00.000  -74.425565319  163.418419493    64.0341   5  11   0.8526   0.5669   1.9723   0.0193   0.4800  -1.0402 11475.00    0.0
2018/11/14 03:11:30.000  -74.425565364  163.418419354    63.2489   5  11   0.8537   0.5673   1.9754   0.0193   0.4795  -1.0420 11505.00    0.0
2018/11/14 03:12:00.000  -74.425570576  163.418424684    64.1974   5  11   0.8551   0.5681   1.9794   0.0179   0.4794  -1.0440 11535.00    0.0
2018/11/14 03:12:30.000  -74.425568845  163.418420023    63.8862   5  10   0.8567   0.5779   2.0411   0.0174   0.4265  -1.0465 11565.00    0.0
2018/11/14 03:13:00.000  -74.425570903  163.418420363    64.8874   5   9   1.2536   0.6028   3.0407   0.4034  -0.4688  -1.7780 11595.00    0.0
2018/11/14 03:13:30.000  -74.425572756  163.418420196    64.6861   5   9   1.2578   0.6017   3.0577   0.4060  -0.4778  -1.7883 11625.00    0.0
2018/11/14 03:14:00.000  -74.425570181  163.418429258    63.9066   5  10   0.7549   0.5936   1.8594   0.2697  -0.0903  -0.8705 11655.00    0.0
2018/11/14 03:14:30.000  -74.425566579  163.418418917    62.9794   5  10   0.7540   0.5927   1.8634   0.2694  -0.1010  -0.8720 11685.00    0.0
2018/11/14 03:15:00.000  -74.425565028  163.418431032    62.9574   5  10   0.7533   0.5922   1.8682   0.2691  -0.1099  -0.8736 11715.00    0.0
2018/11/14 03:15:30.000  -74.425567863  163.418426087    63.6788   5  10   0.7529   0.5919   1.8738   0.2689  -0.1174  -0.8754 11745.00    0.0
2018/11/14 03:16:00.000  -74.425568099  163.418420451    64.2532   5  10   0.7527   0.5919   1.8803   0.2687  -0.1238  -0.8773 11775.00    0.0
2018/11/14 03:16:30.000  -74.425564296  163.418418824    62.8868   5  10   0.7527   0.5922   1.8877   0.2686  -0.1292  -0.8794 11805.00    0.0
2018/11/14 03:17:00.000  -74.425562183  163.418423987    63.1358   5  10   0.7530   0.5927   1.8959   0.2684  -0.1338  -0.8817 11835.00    0.0
2018/11/14 03:17:30.000  -74.425567595  163.418424918    63.4999   5  10   0.7535   0.5935   1.9049   0.2683  -0.1378  -0.8841 11865.00    0.0
2018/11/14 03:18:00.000  -74.425567316  163.418431456    63.7781   5  10   0.7520   0.5920   1.9068   0.2679  -0.1468  -0.8851 11895.00    0.0
2018/11/14 03:18:30.000  -74.425562885  163.418423054    63.3648   5  10   0.7507   0.5907   1.9093   0.2676  -0.1549  -0.8862 11925.00    0.0
2018/11/14 03:19:00.000  -74.425565102  163.418425605    63.9037   5  10   0.7496   0.5897   1.9126   0.2673  -0.1621  -0.8874 11955.00    0.0
2018/11/14 03:19:30.000  -74.425567684  163.418425960    64.4363   5  10   0.7488   0.5889   1.9168   0.2670  -0.1685  -0.8888 11985.00    0.0
2018/11/14 03:20:00.000  -74.425565479  163.418420814    64.2213   5  10   0.7482   0.5884   1.9217   0.2667  -0.1742  -0.8904 12015.00    0.0
2018/11/14 03:20:30.000  -74.425565074  163.418424745    63.5543   5  10   0.7478   0.5882   1.9277   0.2665  -0.1792  -0.8922 12045.00    0.0
2018/11/14 03:21:00.000  -74.425565748  163.418427756    63.2599   5  10   0.7477   0.5883   1.9345   0.2663  -0.1836  -0.8941 12075.00    0.0
2018/11/14 03:21:30.000  -74.425564719  163.418425948    62.5895   5  10   0.7478   0.5886   1.9422   0.2661  -0.1875  -0.8962 12105.00    0.0
2018/11/14 03:22:00.000  -74.425566842  163.418422887    63.8610   5  10   0.7481   0.5892   1.9508   0.2660  -0.1909  -0.8986 12135.00    0.0
2018/11/14 03:22:30.000  -74.425566102  163.418423913    63.9429   5  10   0.7486   0.5901   1.9603   0.2659  -0.1939  -0.9011 12165.00    0.0
2018/11/14 03:23:00.000  -74.425565188  163.418426465    63.1986   5  10   0.7472   0.5886   1.9619   0.2655  -0.2005  -0.9018 12195.00    0.0
2018/11/14 03:23:30.000  -74.425566855  163.418422464    62.8154   5  10   0.7459   0.5874   1.9642   0.2651  -0.2064  -0.9027 12225.00    0.0
2018/11/14 03:24:00.000  -74.425563710  163.418424175    63.7752   5  10   0.7449   0.5864   1.9674   0.2647  -0.2118  -0.9038 12255.00    0.0
2018/11/14 03:24:30.000  -74.425561184  163.418424908    62.6054   5  10   0.7441   0.5857   1.9714   0.2644  -0.2167  -0.9050 12285.00    0.0
2018/11/14 03:25:00.000  -74.425560446  163.418425531    63.4358   5  10   0.7435   0.5853   1.9763   0.2641  -0.2211  -0.9064 12315.00    0.0
2018/11/14 03:25:30.000  -74.425564457  163.418427241    62.9469   5  10   0.7432   0.5852   1.9823   0.2638  -0.2250  -0.9081 12345.00    0.0
2018/11/14 03:26:00.000  -74.425562150  163.418424050    62.4333   5  10   0.7431   0.5853   1.9891   0.2636  -0.2285  -0.9100 12375.00    0.0
2018/11/14 03:26:30.000  -74.425564239  163.418429632    62.6905   5  10   0.7433   0.5857   1.9969   0.2634  -0.2317  -0.9120 12405.00    0.0
