% program   : RTKLIB ver.2.4.3
% inp file  : _by_type/_obs/shirase/20181106.18o
% inp file  : _by_type/_obs/base/20181106.18o
% inp file  : _by_type/_sp3+clk/igs20262.clk
% inp file  : _by_type/_sp3+clk/igs20262.sp3
% inp file  : _by_type/_nav/shirase/20181106.18n
% obs start : 2018/11/06 00:00:00.0 GPST (week2026 172800.0s)
% obs end   : 2018/11/06 23:59:45.0 GPST (week2026 259185.0s)
% pos mode  : dgps
% freqs     : L1+L2
% solution  : combined
% elev mask : 15.0 deg
% dynamics  : off
% tidecorr  : off
% ionos opt : iono-free
% tropo opt : est ztd+grad
% ephemeris : precise
% navi sys  : gps glonass
% antenna1  :                       ( 0.0000  0.0000  0.0000)
% antenna2  :                       ( 0.0000  0.0000  0.0000)
% ref pos   : 90.000000000   0.000000000-6335367.6285
%
% (lat/lon/height=WGS84/ellipsoidal,Q=1:fix,2:float,3:sbas,4:dgps,5:single,6:ppp,ns=# of satellites)
%  GPST                  latitude(deg) longitude(deg)  height(m)   Q  ns   sdn(m)   sde(m)   sdu(m)  sdne(m)  sdeu(m)  sdun(m) age(s)  ratio
2018/11/06 00:00:00.000  -74.525920861  163.457803122    26.1616   5   8   0.8177   0.6420   2.6658   0.2351  -0.4852  -1.1391   0.00    0.0
2018/11/06 00:00:15.000  -74.525918891  163.457794324    26.8883   5   8   0.8172   0.6418   2.6700   0.2342  -0.4821  -1.1396   0.00    0.0
2018/11/06 00:00:30.000  -74.525918100  163.457802858    25.2003   5   9   0.6869   0.6151   2.0235  -0.1624   0.3004  -0.7259   0.00    0.0
2018/11/06 00:00:45.000  -74.525917044  163.457813536    25.2679   5   9   0.6867   0.6152   2.0281  -0.1631   0.3049  -0.7267   0.00    0.0
2018/11/06 00:01:00.000  -74.525916825  163.457810746    25.6090   5   9   0.6865   0.6154   2.0329  -0.1638   0.3095  -0.7275   0.00    0.0
2018/11/06 00:01:15.000  -74.525919824  163.457817533    25.3479   5   9   0.6864   0.6157   2.0380  -0.1647   0.3141  -0.7284   0.00    0.0
2018/11/06 00:01:30.000  -74.525915673  163.457811467    24.6236   5   9   0.6864   0.6160   2.0434  -0.1655   0.3188  -0.7293   0.00    0.0
2018/11/06 00:01:45.000  -74.525915217  163.457808057    25.1714   5   9   0.6864   0.6165   2.0490  -0.1664   0.3235  -0.7304   0.00    0.0
2018/11/06 00:02:00.000  -74.525917521  163.457804923    25.8081   5   9   0.6866   0.6170   2.0550  -0.1674   0.3283  -0.7315   0.00    0.0
2018/11/06 00:02:15.000  -74.525915405  163.457811558    24.8287   5   9   0.6868   0.6176   2.0612  -0.1684   0.3332  -0.7328   0.00    0.0
2018/11/06 00:02:30.000  -74.525916926  163.457812095    25.6779   5   9   0.6871   0.6183   2.0677  -0.1694   0.3381  -0.7341   0.00    0.0
2018/11/06 00:02:45.000  -74.525919150  163.457808055    25.7994   5   9   0.6860   0.6174   2.0695  -0.1698   0.3418  -0.7342   0.00    0.0
2018/11/06 00:03:00.000  -74.525918457  163.457811579    25.8779   5   9   0.6850   0.6166   2.0717  -0.1701   0.3455  -0.7343   0.00    0.0
2018/11/06 00:03:15.000  -74.525916059  163.457800303    25.8310   5   9   0.6842   0.6159   2.0742  -0.1705   0.3493  -0.7345   0.00    0.0
2018/11/06 00:03:30.000  -74.525920027  163.457812914    26.2993   5   9   0.6833   0.6153   2.0769  -0.1709   0.3531  -0.7348   0.00    0.0
2018/11/06 00:03:45.000  -74.525917701  163.457817635    26.2697   5   9   0.6826   0.6147   2.0798  -0.1714   0.3569  -0.7351   0.00    0.0
2018/11/06 00:04:00.000  -74.525919405  163.457814674    26.1583   5   9   0.6819   0.6143   2.0830  -0.1719   0.3608  -0.7356   0.00    0.0
2018/11/06 00:04:15.000  -74.525919151  163.457813716    25.4685   5   9   0.6813   0.6139   2.0865  -0.1724   0.3648  -0.7361   0.00    0.0
2018/11/06 00:04:30.000  -74.525917008  163.457806279    26.2682   5   9   0.6808   0.6136   2.0902  -0.1730   0.3688  -0.7367   0.00    0.0
2018/11/06 00:04:45.000  -74.525917931  163.457804945    25.4286   5   9   0.6804   0.6134   2.0943  -0.1737   0.3728  -0.7374   0.00    0.0
2018/11/06 00:05:00.000  -74.525917307  163.457808637    25.3395   5   9   0.6800   0.6133   2.0985  -0.1744   0.3770  -0.7382   0.00    0.0
2018/11/06 00:05:15.000  -74.525918601  163.457809453    26.1394   5   9   0.6797   0.6134   2.1033  -0.1752   0.3812  -0.7391   0.00    0.0
2018/11/06 00:05:30.000  -74.525916667  163.457814544    25.8361   5   9   0.6796   0.6135   2.1083  -0.1761   0.3856  -0.7402   0.00    0.0
2018/11/06 00:05:45.000  -74.525916393  163.457818922    25.2122   5   9   0.6795   0.6137   2.1135  -0.1770   0.3900  -0.7413   0.00    0.0
2018/11/06 00:06:00.000  -74.525916842  163.457812233    25.1470   5   9   0.6794   0.6140   2.1191  -0.1780   0.3945  -0.7425   0.00    0.0
2018/11/06 00:06:15.000  -74.525916355  163.457815779    25.9298   5   9   0.6795   0.6143   2.1250  -0.1790   0.3991  -0.7438   0.00    0.0
2018/11/06 00:06:30.000  -74.525917843  163.457819388    25.6879   5   9   0.6796   0.6148   2.1311  -0.1801   0.4038  -0.7451   0.00    0.0
2018/11/06 00:06:45.000  -74.525918534  163.457818765    25.6260   5   9   0.6798   0.6153   2.1376  -0.1812   0.4085  -0.7466   0.00    0.0
2018/11/06 00:07:00.000  -74.525918527  163.457818161    25.5783   5   9   0.6801   0.6160   2.1443  -0.1824   0.4134  -0.7482   0.00    0.0
2018/11/06 00:07:15.000  -74.525918826  163.457813090    26.4717   5   9   0.6804   0.6167   2.1513  -0.1836   0.4183  -0.7499   0.00    0.0
2018/11/06 00:07:30.000  -74.525917640  163.457813448    25.1403   5   9   0.6808   0.6175   2.1587  -0.1849   0.4233  -0.7516   0.00    0.0
2018/11/06 00:07:45.000  -74.525917612  163.457822694    26.8109   5   9   0.6799   0.6167   2.1610  -0.1853   0.4267  -0.7520   0.00    0.0
2018/11/06 00:08:00.000  -74.525916970  163.457813831    25.9436   5   9   0.6791   0.6161   2.1637  -0.1858   0.4302  -0.7524   0.00    0.0
2018/11/06 00:08:15.000  -74.525918332  163.457811760    25.9130   5   9   0.6783   0.6155   2.1666  -0.1863   0.4338  -0.7530   0.00    0.0
2018/11/06 00:08:30.000  -74.525917980  163.457822094    25.7000   5   9   0.6777   0.6150   2.1698  -0.1869   0.4374  -0.7536   0.00    0.0
2018/11/06 00:08:45.000  -74.525918296  163.457820449    25.6200   5   9   0.6771   0.6145   2.1733  -0.1875   0.4411  -0.7543   0.00    0.0
2018/11/06 00:09:00.000  -74.525917578  163.457814987    25.9734   5   9   0.6765   0.6142   2.1771  -0.1882   0.4449  -0.7551   0.00    0.0
2018/11/06 00:09:15.000  -74.525916786  163.457818275    25.7251   5   9   0.6761   0.6140   2.1811  -0.1890   0.4488  -0.7560   0.00    0.0
2018/11/06 00:09:30.000  -74.525918441  163.457808162    25.8839   5   9   0.6757   0.6138   2.1855  -0.1898   0.4527  -0.7569   0.00    0.0
2018/11/06 00:09:45.000  -74.525914758  163.457811520    24.9020   5   9   0.6754   0.6137   2.1901  -0.1906   0.4568  -0.7580   0.00    0.0
2018/11/06 00:10:00.000  -74.525915985  163.457811444    26.1247   5   9   0.6751   0.6137   2.1950  -0.1915   0.4609  -0.7591   0.00    0.0
2018/11/06 00:10:15.000  -74.525919042  163.457816893    26.0797   5   9   0.6750   0.6139   2.2003  -0.1925   0.4652  -0.7605   0.00    0.0
2018/11/06 00:10:30.000  -74.525915974  163.457820986    25.9774   5   9   0.6750   0.6141   2.2060  -0.1935   0.4696  -0.7619   0.00    0.0
2018/11/06 00:10:45.000  -74.525918711  163.457808009    26.1096   5   9   0.6750   0.6145   2.2120  -0.1946   0.4741  -0.7634   0.00    0.0
2018/11/06 00:11:00.000  -74.525918370  163.457822140    25.8779   5   9   0.6751   0.6149   2.2182  -0.1958   0.4786  -0.7650   0.00    0.0
2018/11/06 00:11:15.000  -74.525916003  163.457811911    24.6040   5   9   0.6753   0.6154   2.2248  -0.1970   0.4833  -0.7667   0.00    0.0
2018/11/06 00:11:30.000  -74.525916769  163.457816709    25.7072   5   9   0.6756   0.6160   2.2317  -0.1983   0.4881  -0.7685   0.00    0.0
2018/11/06 00:11:45.000  -74.525917832  163.457812221    25.3684   5   9   0.6759   0.6167   2.2389  -0.1997   0.4930  -0.7704   0.00    0.0
2018/11/06 00:12:00.000  -74.525915080  163.457817722    25.4266   5   9   0.6764   0.6175   2.2464  -0.2011   0.4980  -0.7724   0.00    0.0
2018/11/06 00:12:15.000  -74.525917847  163.457814403    25.7337   5   9   0.6768   0.6183   2.2542  -0.2025   0.5031  -0.7745   0.00    0.0
2018/11/06 00:12:30.000  -74.525914283  163.457818422    24.8445   5   9   0.6774   0.6193   2.2624  -0.2040   0.5083  -0.7767   0.00    0.0
2018/11/06 00:12:45.000  -74.525917080  163.457814377    25.4758   5   9   0.6767   0.6187   2.2652  -0.2046   0.5116  -0.7773   0.00    0.0
2018/11/06 00:13:00.000  -74.525918089  163.457815625    25.9857   5   9   0.6760   0.6181   2.2682  -0.2052   0.5150  -0.7781   0.00    0.0
2018/11/06 00:13:15.000  -74.525915574  163.457818687    26.3629   5   9   0.6753   0.6177   2.2716  -0.2059   0.5185  -0.7790   0.00    0.0
2018/11/06 00:13:30.000  -74.525918574  163.457808744    25.8376   5   9   0.6748   0.6173   2.2752  -0.2066   0.5221  -0.7799   0.00    0.0
2018/11/06 00:13:45.000  -74.525916604  163.457816501    25.9575   5   9   0.6743   0.6170   2.2792  -0.2074   0.5258  -0.7809   0.00    0.0
2018/11/06 00:14:00.000  -74.525916001  163.457815334    25.3931   5   9   0.6739   0.6168   2.2834  -0.2083   0.5296  -0.7821   0.00    0.0
2018/11/06 00:14:15.000  -74.525917031  163.457822063    25.5879   5   9   0.6736   0.6167   2.2879  -0.2092   0.5335  -0.7833   0.00    0.0
2018/11/06 00:14:30.000  -74.525915427  163.457812559    25.0060   5   9   0.6734   0.6167   2.2927  -0.2101   0.5375  -0.7846   0.00    0.0
2018/11/06 00:14:45.000  -74.525918688  163.457815721    25.8317   5   9   0.6732   0.6168   2.2978  -0.2111   0.5415  -0.7860   0.00    0.0
2018/11/06 00:15:00.000  -74.525914211  163.457815883    24.7089   5   9   0.6731   0.6169   2.3033  -0.2122   0.5457  -0.7875   0.00    0.0
2018/11/06 00:15:15.000  -74.525917243  163.457818357    26.2149   5   9   0.6732   0.6172   2.3092  -0.2134   0.5501  -0.7892   0.00    0.0
2018/11/06 00:15:30.000  -74.525917618  163.457815178    25.0730   5   9   0.6733   0.6176   2.3154  -0.2146   0.5545  -0.7910   0.00    0.0
2018/11/06 00:15:45.000  -74.525919411  163.457813081    26.1384   5   9   0.6735   0.6181   2.3219  -0.2159   0.5591  -0.7929   0.00    0.0
2018/11/06 00:16:00.000  -74.525916589  163.457825304    24.5873   5  10   0.6512   0.6093   2.0774  -0.2564   0.6564  -0.6709   0.00    0.0
2018/11/06 00:16:15.000  -74.525915881  163.457821865    24.6227   5  10   0.6515   0.6100   2.0847  -0.2575   0.6605  -0.6732   0.00    0.0
2018/11/06 00:16:30.000  -74.525917511  163.457825889    24.8213   5  10   0.6520   0.6108   2.0922  -0.2587   0.6647  -0.6755   0.00    0.0
2018/11/06 00:16:45.000  -74.525915838  163.457832111    23.8741   5  10   0.6525   0.6118   2.1001  -0.2600   0.6690  -0.6780   0.00    0.0
2018/11/06 00:17:00.000  -74.525915705  163.457823886    23.9189   5  10   0.6530   0.6128   2.1083  -0.2613   0.6735  -0.6806   0.00    0.0
2018/11/06 00:17:15.000  -74.525915953  163.457821744    24.2106   5  10   0.6537   0.6138   2.1168  -0.2627   0.6781  -0.6832   0.00    0.0
2018/11/06 00:17:30.000  -74.525914403  163.457825384    24.2603   5  10   0.6544   0.6150   2.1256  -0.2641   0.6829  -0.6860   0.00    0.0
2018/11/06 00:17:45.000  -74.525914088  163.457823547    24.5042   5  10   0.6538   0.6146   2.1293  -0.2645   0.6853  -0.6874   0.00    0.0
2018/11/06 00:18:00.000  -74.525916215  163.457828322    24.1670   5  10   0.6533   0.6142   2.1333  -0.2650   0.6879  -0.6889   0.00    0.0
2018/11/06 00:18:15.000  -74.525916599  163.457813379    24.7448   5  10   0.6529   0.6140   2.1376  -0.2655   0.6905  -0.6905   0.00    0.0
2018/11/06 00:18:30.000  -74.525915423  163.457818288    25.0826   5  10   0.6525   0.6138   2.1422  -0.2661   0.6934  -0.6922   0.00    0.0
2018/11/06 00:18:45.000  -74.525917188  163.457815249    25.2421   5  10   0.6522   0.6137   2.1471  -0.2668   0.6963  -0.6940   0.00    0.0
2018/11/06 00:19:00.000  -74.525917632  163.457820823    24.7740   5  10   0.6520   0.6137   2.1523  -0.2675   0.6993  -0.6958   0.00    0.0
2018/11/06 00:19:15.000  -74.525915422  163.457822533    23.9740   5  10   0.6519   0.6138   2.1577  -0.2683   0.7025  -0.6978   0.00    0.0
2018/11/06 00:19:30.000  -74.525915006  163.457813835    24.0738   5  10   0.6519   0.6140   2.1634  -0.2691   0.7058  -0.6999   0.00    0.0
2018/11/06 00:19:45.000  -74.525915960  163.457821707    24.6291   5  10   0.6519   0.6143   2.1695  -0.2700   0.7092  -0.7020   0.00    0.0
2018/11/06 00:20:00.000  -74.525917226  163.457820274    25.4637   5  10   0.6520   0.6147   2.1758  -0.2710   0.7128  -0.7042   0.00    0.0
2018/11/06 00:20:15.000  -74.525914671  163.457824490    24.4048   5  10   0.6522   0.6152   2.1826  -0.2720   0.7165  -0.7066   0.00    0.0
2018/11/06 00:20:30.000  -74.525918221  163.457821607    25.6141   5  10   0.6525   0.6158   2.1896  -0.2732   0.7204  -0.7091   0.00    0.0
2018/11/06 00:20:45.000  -74.525916845  163.457821659    24.3679   5  10   0.6528   0.6165   2.1970  -0.2744   0.7244  -0.7117   0.00    0.0
2018/11/06 00:21:00.000  -74.525914610  163.457827206    24.3400   5  10   0.6533   0.6173   2.2046  -0.2756   0.7285  -0.7143   0.00    0.0
2018/11/06 00:21:15.000  -74.525916013  163.457817290    24.3776   5  10   0.6538   0.6182   2.2126  -0.2769   0.7328  -0.7171   0.00    0.0
2018/11/06 00:21:30.000  -74.525915531  163.457830227    25.6974   5  10   0.6544   0.6191   2.2209  -0.2783   0.7372  -0.7200   0.00    0.0
2018/11/06 00:21:45.000  -74.525915328  163.457829789    25.4528   5  10   0.6550   0.6202   2.2295  -0.2798   0.7418  -0.7230   0.00    0.0
2018/11/06 00:22:00.000  -74.525917482  163.457827981    24.9671   5  10   0.6558   0.6214   2.2384  -0.2813   0.7464  -0.7260   0.00    0.0
2018/11/06 00:22:15.000  -74.525917063  163.457825232    24.7857   5  10   0.6566   0.6226   2.2476  -0.2828   0.7512  -0.7292   0.00    0.0
2018/11/06 00:22:30.000  -74.525915361  163.457828533    24.4629   5  10   0.6575   0.6240   2.2571  -0.2845   0.7562  -0.7325   0.00    0.0
2018/11/06 00:22:45.000  -74.525914139  163.457820700    24.3400   5  10   0.6571   0.6237   2.2613  -0.2851   0.7587  -0.7343   0.00    0.0
2018/11/06 00:23:00.000  -74.525915419  163.457819641    24.5419   5  10   0.6568   0.6235   2.2657  -0.2857   0.7613  -0.7362   0.00    0.0
2018/11/06 00:23:15.000  -74.525914583  163.457827048    24.6335   5  10   0.6565   0.6233   2.2703  -0.2864   0.7640  -0.7381   0.00    0.0
2018/11/06 00:23:30.000  -74.525916658  163.457830593    25.7743   5  10   0.6563   0.6233   2.2752  -0.2871   0.7668  -0.7402   0.00    0.0
2018/11/06 00:23:45.000  -74.525918086  163.457837562    26.2759   5  10   0.6562   0.6233   2.2804  -0.2879   0.7697  -0.7423   0.00    0.0
2018/11/06 00:24:00.000  -74.525916221  163.457823860    25.5884   5  10   0.6562   0.6234   2.2859  -0.2888   0.7728  -0.7446   0.00    0.0
2018/11/06 00:24:15.000  -74.525919363  163.457821709    25.3740   5  10   0.6562   0.6237   2.2917  -0.2897   0.7760  -0.7469   0.00    0.0
2018/11/06 00:24:30.000  -74.525916489  163.457818800    24.3310   5  10   0.6563   0.6240   2.2977  -0.2907   0.7793  -0.7493   0.00    0.0
2018/11/06 00:24:45.000  -74.525913431  163.457818960    24.2494   5  10   0.6565   0.6244   2.3041  -0.2917   0.7827  -0.7518   0.00    0.0
2018/11/06 00:25:00.000  -74.525916350  163.457825120    24.3495   5  10   0.6568   0.6249   2.3107  -0.2929   0.7863  -0.7544   0.00    0.0
2018/11/06 00:25:15.000  -74.525916985  163.457830601    24.8424   5  10   0.6571   0.6255   2.3178  -0.2941   0.7901  -0.7572   0.00    0.0
2018/11/06 00:25:30.000  -74.525916143  163.457820389    24.7500   5  10   0.6576   0.6262   2.3252  -0.2953   0.7940  -0.7600   0.00    0.0
2018/11/06 00:25:45.000  -74.525916644  163.457826338    24.1746   5  10   0.6581   0.6270   2.3329  -0.2967   0.7980  -0.7630   0.00    0.0
2018/11/06 00:26:00.000  -74.525914252  163.457825612    24.5579   5  10   0.6587   0.6280   2.3408  -0.2981   0.8021  -0.7661   0.00    0.0
2018/11/06 00:26:15.000  -74.525917754  163.457826961    25.2400   5  10   0.6594   0.6290   2.3491  -0.2995   0.8064  -0.7692   0.00    0.0
2018/11/06 00:26:30.000  -74.525913235  163.457821755    23.4300   5  10   0.6602   0.6301   2.3577  -0.3011   0.8108  -0.7725   0.00    0.0
2018/11/06 00:26:45.000  -74.525916098  163.457823558    24.9253   5  10   0.6611   0.6313   2.3665  -0.3027   0.8153  -0.7758   0.00    0.0
2018/11/06 00:27:00.000  -74.525917866  163.457823484    24.3088   5  10   0.6620   0.6325   2.3757  -0.3043   0.8200  -0.7793   0.00    0.0
2018/11/06 00:27:15.000  -74.525916342  163.457822751    25.1414   5  10   0.6630   0.6339   2.3851  -0.3060   0.8248  -0.7828   0.00    0.0
2018/11/06 00:27:30.000  -74.525913852  163.457821930    24.3627   5  10   0.6641   0.6354   2.3948  -0.3078   0.8297  -0.7864   0.00    0.0
2018/11/06 00:27:45.000  -74.525917012  163.457825901    25.7127   5  10   0.6638   0.6351   2.3986  -0.3084   0.8318  -0.7884   0.00    0.0
2018/11/06 00:28:00.000  -74.525913713  163.457824553    25.7204   5  10   0.6636   0.6349   2.4028  -0.3091   0.8342  -0.7904   0.00    0.0
2018/11/06 00:28:15.000  -74.525915006  163.457819822    24.5005   5  10   0.6635   0.6349   2.4073  -0.3099   0.8367  -0.7926   0.00    0.0
2018/11/06 00:28:30.000  -74.525913374  163.457825118    24.3824   5  10   0.6635   0.6349   2.4120  -0.3107   0.8393  -0.7948   0.00    0.0
2018/11/06 00:28:45.000  -74.525915632  163.457814962    23.2850   5  10   0.6635   0.6350   2.4170  -0.3116   0.8421  -0.7972   0.00    0.0
2018/11/06 00:29:00.000  -74.525914961  163.457824911    24.8421   5  10   0.6636   0.6352   2.4222  -0.3125   0.8449  -0.7996   0.00    0.0
2018/11/06 00:29:15.000  -74.525913726  163.457821862    24.8177   5  10   0.6638   0.6355   2.4278  -0.3135   0.8479  -0.8021   0.00    0.0
2018/11/06 00:29:30.000  -74.525913830  163.457823979    24.9951   5  10   0.6641   0.6358   2.4335  -0.3146   0.8509  -0.8047   0.00    0.0
2018/11/06 00:29:45.000  -74.525914821  163.457822547    25.0400   5  11   0.6516   0.6363   2.3442  -0.3142   0.8570  -0.8601   0.00    0.0
2018/11/06 00:30:00.000  -74.525915688  163.457823381    24.4715   5  11   0.6519   0.6368   2.3510  -0.3154   0.8602  -0.8628   0.00    0.0
2018/11/06 00:30:15.000  -74.525917949  163.457826186    25.9008   5  11   0.6524   0.6375   2.3581  -0.3167   0.8635  -0.8656   0.00    0.0
2018/11/06 00:30:30.000  -74.525917241  163.457825160    25.3960   5  11   0.6529   0.6383   2.3655  -0.3181   0.8670  -0.8686   0.00    0.0
2018/11/06 00:30:45.000  -74.525917326  163.457824858    24.0411   5  11   0.6535   0.6391   2.3731  -0.3195   0.8706  -0.8716   0.00    0.0
2018/11/06 00:31:00.000  -74.525917169  163.457817136    24.2450   5  11   0.6542   0.6401   2.3811  -0.3210   0.8743  -0.8748   0.00    0.0
2018/11/06 00:31:15.000  -74.525918616  163.457823495    25.4557   5  11   0.6550   0.6411   2.3892  -0.3225   0.8782  -0.8780   0.00    0.0
2018/11/06 00:31:30.000  -74.525916152  163.457820029    24.2139   5  11   0.6558   0.6422   2.3977  -0.3241   0.8821  -0.8813   0.00    0.0
2018/11/06 00:31:45.000  -74.525917075  163.457825060    24.6289   5  11   0.6567   0.6434   2.4063  -0.3257   0.8861  -0.8847   0.00    0.0
2018/11/06 00:32:00.000  -74.525916388  163.457830267    24.9733   5  11   0.6576   0.6447   2.4153  -0.3273   0.8903  -0.8882   0.00    0.0
2018/11/06 00:32:15.000  -74.525919010  163.457825308    25.4251   5  11   0.6587   0.6461   2.4245  -0.3291   0.8946  -0.8918   0.00    0.0
2018/11/06 00:32:30.000  -74.525915316  163.457820023    24.2419   5  11   0.6598   0.6476   2.4339  -0.3308   0.8989  -0.8955   0.00    0.0
2018/11/06 00:32:45.000  -74.525917844  163.457828386    25.6533   5  11   0.6596   0.6473   2.4377  -0.3315   0.9007  -0.8973   0.00    0.0
2018/11/06 00:33:00.000  -74.525917252  163.457826107    25.3177   5  11   0.6595   0.6471   2.4416  -0.3322   0.9024  -0.8992   0.00    0.0
2018/11/06 00:33:15.000  -74.525916060  163.457825395    24.4712   5  11   0.6594   0.6470   2.4457  -0.3330   0.9043  -0.9010   0.00    0.0
2018/11/06 00:33:30.000  -74.525917771  163.457827380    24.2277   5  11   0.6594   0.6470   2.4501  -0.3337   0.9063  -0.9030   0.00    0.0
2018/11/06 00:33:45.000  -74.525915729  163.457835454    24.9097   5  11   0.6595   0.6471   2.4546  -0.3346   0.9084  -0.9051   0.00    0.0
2018/11/06 00:34:00.000  -74.525913560  163.457824748    24.1540   5  11   0.6596   0.6472   2.4594  -0.3355   0.9105  -0.9072   0.00    0.0
2018/11/06 00:34:15.000  -74.525915954  163.457825066    24.6260   5  11   0.6599   0.6474   2.4644  -0.3364   0.9128  -0.9095   0.00    0.0
2018/11/06 00:34:30.000  -74.525915050  163.457826786    24.0438   5  11   0.6601   0.6477   2.4697  -0.3374   0.9152  -0.9118   0.00    0.0
2018/11/06 00:34:45.000  -74.525916829  163.457824610    25.2690   5  11   0.6605   0.6481   2.4751  -0.3384   0.9176  -0.9141   0.00    0.0
2018/11/06 00:35:00.000  -74.525916334  163.457823877    24.7060   5  11   0.6609   0.6486   2.4808  -0.3395   0.9202  -0.9166   0.00    0.0
2018/11/06 00:35:15.000  -74.525915551  163.457827742    25.4555   5  11   0.6615   0.6492   2.4868  -0.3406   0.9229  -0.9192   0.00    0.0
2018/11/06 00:35:30.000  -74.525915516  163.457822887    24.9464   5  11   0.6620   0.6499   2.4931  -0.3418   0.9257  -0.9219   0.00    0.0
2018/11/06 00:35:45.000  -74.525914644  163.457824721    23.4793   5  11   0.6627   0.6506   2.4995  -0.3430   0.9286  -0.9246   0.00    0.0
2018/11/06 00:36:00.000  -74.525915196  163.457829063    24.6939   5  11   0.6634   0.6514   2.5061  -0.3443   0.9316  -0.9274   0.00    0.0
2018/11/06 00:36:15.000  -74.525917414  163.457828523    25.3832   5  11   0.6642   0.6524   2.5130  -0.3456   0.9346  -0.9303   0.00    0.0
2018/11/06 00:36:30.000  -74.525913503  163.457827445    23.9541   5  11   0.6651   0.6533   2.5200  -0.3469   0.9377  -0.9333   0.00    0.0
2018/11/06 00:36:45.000  -74.525916856  163.457827981    25.1713   5  11   0.6660   0.6544   2.5273  -0.3483   0.9410  -0.9363   0.00    0.0
2018/11/06 00:37:00.000  -74.525914682  163.457825220    23.7202   5  11   0.6670   0.6556   2.5347  -0.3497   0.9443  -0.9394   0.00    0.0
2018/11/06 00:37:15.000  -74.525915810  163.457824450    24.0927   5  11   0.6681   0.6568   2.5423  -0.3512   0.9476  -0.9425   0.00    0.0
2018/11/06 00:37:30.000  -74.525916287  163.457821806    23.8421   5  11   0.6692   0.6581   2.5500  -0.3526   0.9511  -0.9458   0.00    0.0
2018/11/06 00:37:45.000  -74.525913267  163.457827121    23.3952   5  11   0.6690   0.6576   2.5520  -0.3530   0.9518  -0.9470   0.00    0.0
2018/11/06 00:38:00.000  -74.525916863  163.457825637    24.0191   5  11   0.6689   0.6573   2.5540  -0.3534   0.9527  -0.9483   0.00    0.0
2018/11/06 00:38:15.000  -74.525916413  163.457833088    24.0525   5  11   0.6688   0.6570   2.5563  -0.3539   0.9535  -0.9496   0.00    0.0
2018/11/06 00:38:30.000  -74.525918474  163.457833919    24.9528   5  11   0.6689   0.6567   2.5587  -0.3544   0.9545  -0.9510   0.00    0.0
2018/11/06 00:38:45.000  -74.525916583  163.457829020    24.8215   5  11   0.6689   0.6566   2.5613  -0.3549   0.9555  -0.9525   0.00    0.0
2018/11/06 00:39:00.000  -74.525918186  163.457833544    24.9217   5  11   0.6691   0.6565   2.5640  -0.3555   0.9567  -0.9540   0.00    0.0
2018/11/06 00:39:15.000  -74.525916287  163.457831369    24.0778   5  11   0.6693   0.6565   2.5669  -0.3561   0.9578  -0.9556   0.00    0.0
2018/11/06 00:39:30.000  -74.525912683  163.457815209    23.1797   5  11   0.6695   0.6566   2.5700  -0.3567   0.9591  -0.9572   0.00    0.0
2018/11/06 00:39:45.000  -74.525912648  163.457824797    24.0868   5  11   0.6698   0.6568   2.5732  -0.3573   0.9604  -0.9589   0.00    0.0
2018/11/06 00:40:00.000  -74.525916208  163.457827108    24.8460   5  11   0.6702   0.6570   2.5766  -0.3580   0.9618  -0.9606   0.00    0.0
2018/11/06 00:40:15.000  -74.525916415  163.457832041    25.5383   5  11   0.6707   0.6573   2.5802  -0.3588   0.9633  -0.9624   0.00    0.0
2018/11/06 00:40:30.000  -74.525912050  163.457818902    22.9278   5  11   0.6713   0.6577   2.5841  -0.3595   0.9648  -0.9643   0.00    0.0
2018/11/06 00:40:45.000  -74.525915487  163.457833412    25.0999   5  11   0.6719   0.6582   2.5880  -0.3603   0.9664  -0.9663   0.00    0.0
2018/11/06 00:41:00.000  -74.525915527  163.457833256    24.6789   5  11   0.6725   0.6588   2.5921  -0.3612   0.9681  -0.9683   0.00    0.0
2018/11/06 00:41:15.000  -74.525917631  163.457835370    25.3016   5  11   0.6732   0.6594   2.5964  -0.3620   0.9698  -0.9703   0.00    0.0
2018/11/06 00:41:30.000  -74.525915020  163.457832643    24.8320   5  11   0.6740   0.6601   2.6007  -0.3629   0.9715  -0.9724   0.00    0.0
2018/11/06 00:41:45.000  -74.525914033  163.457823995    23.9595   5  11   0.6749   0.6608   2.6052  -0.3638   0.9733  -0.9745   0.00    0.0
2018/11/06 00:42:00.000  -74.525914043  163.457833678    24.4387   5  11   0.6758   0.6616   2.6099  -0.3647   0.9752  -0.9766   0.00    0.0
2018/11/06 00:42:15.000  -74.525914159  163.457827437    24.3327   5  11   0.6767   0.6625   2.6146  -0.3657   0.9771  -0.9788   0.00    0.0
2018/11/06 00:42:30.000  -74.525911594  163.457818298    22.7794   5  11   0.6777   0.6634   2.6195  -0.3666   0.9790  -0.9810   0.00    0.0
2018/11/06 00:42:45.000  -74.525915181  163.457825911    24.0142   5  11   0.6774   0.6627   2.6184  -0.3665   0.9783  -0.9813   0.00    0.0
2018/11/06 00:43:00.000  -74.525914404  163.457825624    23.4781   5  11   0.6772   0.6620   2.6176  -0.3665   0.9777  -0.9816   0.00    0.0
2018/11/06 00:43:15.000  -74.525913686  163.457828225    23.0672   5  11   0.6771   0.6614   2.6169  -0.3664   0.9771  -0.9819   0.00    0.0
2018/11/06 00:43:30.000  -74.525913239  163.457823081    23.3695   5  11   0.6770   0.6608   2.6163  -0.3664   0.9766  -0.9823   0.00    0.0
2018/11/06 00:43:45.000  -74.525913050  163.457826049    23.6170   5  11   0.6769   0.6603   2.6158  -0.3664   0.9762  -0.9827   0.00    0.0
2018/11/06 00:44:00.000  -74.525915242  163.457827584    24.2264   5  11   0.6769   0.6599   2.6155  -0.3665   0.9758  -0.9832   0.00    0.0
2018/11/06 00:44:15.000  -74.525917294  163.457836763    25.4414   5  11   0.6770   0.6596   2.6153  -0.3665   0.9754  -0.9837   0.00    0.0
2018/11/06 00:44:30.000  -74.525912782  163.457815619    23.7861   5  11   0.6771   0.6593   2.6152  -0.3666   0.9751  -0.9843   0.00    0.0
2018/11/06 00:44:45.000  -74.525914615  163.457830776    24.0771   5  11   0.6773   0.6591   2.6152  -0.3667   0.9748  -0.9848   0.00    0.0
2018/11/06 00:45:00.000  -74.525912130  163.457825830    22.9659   5  11   0.6776   0.6589   2.6153  -0.3668   0.9746  -0.9854   0.00    0.0
2018/11/06 00:45:15.000  -74.525914277  163.457828916    24.2260   5  11   0.6779   0.6589   2.6157  -0.3670   0.9744  -0.9861   0.00    0.0
2018/11/06 00:45:30.000  -74.525915004  163.457829538    24.5208   5  11   0.6783   0.6589   2.6161  -0.3672   0.9743  -0.9868   0.00    0.0
2018/11/06 00:45:45.000  -74.525914574  163.457824601    23.4112   5  11   0.6787   0.6589   2.6167  -0.3674   0.9742  -0.9876   0.00    0.0
2018/11/06 00:46:00.000  -74.525914864  163.457829185    24.3174   5  11   0.6792   0.6591   2.6174  -0.3676   0.9741  -0.9883   0.00    0.0
2018/11/06 00:46:15.000  -74.525914471  163.457826842    23.7985   5  11   0.6797   0.6593   2.6182  -0.3678   0.9741  -0.9891   0.00    0.0
2018/11/06 00:46:30.000  -74.525916715  163.457829028    24.8024   5  11   0.6803   0.6595   2.6191  -0.3680   0.9741  -0.9899   0.00    0.0
2018/11/06 00:46:45.000  -74.525913365  163.457827044    23.7649   5  11   0.6810   0.6598   2.6201  -0.3683   0.9741  -0.9908   0.00    0.0
2018/11/06 00:47:00.000  -74.525915361  163.457825900    24.2255   5  11   0.6817   0.6602   2.6212  -0.3685   0.9741  -0.9916   0.00    0.0
2018/11/06 00:47:15.000  -74.525912983  163.457821132    23.4091   5  11   0.6824   0.6607   2.6223  -0.3688   0.9742  -0.9925   0.00    0.0
2018/11/06 00:47:30.000  -74.525911881  163.457819246    22.6407   5  11   0.6833   0.6611   2.6236  -0.3691   0.9743  -0.9934   0.00    0.0
2018/11/06 00:47:45.000  -74.525913985  163.457831131    23.7351   5  11   0.6828   0.6600   2.6192  -0.3684   0.9719  -0.9924   0.00    0.0
2018/11/06 00:48:00.000  -74.525913028  163.457829788    22.9200   5  11   0.6824   0.6589   2.6150  -0.3677   0.9697  -0.9915   0.00    0.0
2018/11/06 00:48:15.000  -74.525916186  163.457834471    24.5934   5  11   0.6821   0.6580   2.6109  -0.3671   0.9675  -0.9907   0.00    0.0
2018/11/06 00:48:30.000  -74.525914161  163.457836268    24.0747   5  11   0.6818   0.6570   2.6069  -0.3665   0.9654  -0.9898   0.00    0.0
2018/11/06 00:48:45.000  -74.525913257  163.457826335    23.8395   5  11   0.6816   0.6562   2.6030  -0.3659   0.9633  -0.9890   0.00    0.0
2018/11/06 00:49:00.000  -74.525914285  163.457829022    23.1482   5  11   0.6814   0.6554   2.5993  -0.3654   0.9612  -0.9883   0.00    0.0
2018/11/06 00:49:15.000  -74.525912537  163.457824462    23.2599   5  11   0.6813   0.6547   2.5957  -0.3648   0.9591  -0.9875   0.00    0.0
2018/11/06 00:49:30.000  -74.525912427  163.457823953    23.2276   5  11   0.6812   0.6540   2.5922  -0.3643   0.9571  -0.9868   0.00    0.0
2018/11/06 00:49:45.000  -74.525912870  163.457823937    22.8391   5  11   0.6812   0.6534   2.5888  -0.3637   0.9552  -0.9862   0.00    0.0
2018/11/06 00:50:00.000  -74.525914402  163.457833624    23.9785   5  11   0.6813   0.6528   2.5855  -0.3632   0.9532  -0.9855   0.00    0.0
2018/11/06 00:50:15.000  -74.525913535  163.457821205    22.5992   5  11   0.6814   0.6524   2.5825  -0.3628   0.9514  -0.9849   0.00    0.0
2018/11/06 00:50:30.000  -74.525915382  163.457827470    24.1346   5  11   0.6816   0.6520   2.5796  -0.3623   0.9495  -0.9844   0.00    0.0
2018/11/06 00:50:45.000  -74.525913263  163.457819186    22.8436   5  11   0.6818   0.6517   2.5768  -0.3618   0.9477  -0.9838   0.00    0.0
2018/11/06 00:51:00.000  -74.525915070  163.457839293    23.6292   5  11   0.6821   0.6514   2.5741  -0.3614   0.9459  -0.9833   0.00    0.0
2018/11/06 00:51:15.000  -74.525913421  163.457818987    23.4690   5  11   0.6824   0.6512   2.5715  -0.3609   0.9442  -0.9828   0.00    0.0
2018/11/06 00:51:30.000  -74.525911747  163.457834858    23.2958   5  11   0.6828   0.6511   2.5691  -0.3605   0.9424  -0.9824   0.00    0.0
2018/11/06 00:51:45.000  -74.525914459  163.457825112    23.6565   5  11   0.6832   0.6510   2.5668  -0.3601   0.9407  -0.9819   0.00    0.0
2018/11/06 00:52:00.000  -74.525912460  163.457827070    22.9581   5  11   0.6837   0.6510   2.5646  -0.3597   0.9391  -0.9815   0.00    0.0
2018/11/06 00:52:15.000  -74.525915297  163.457828390    23.7916   5  11   0.6843   0.6511   2.5626  -0.3593   0.9374  -0.9811   0.00    0.0
2018/11/06 00:52:30.000  -74.525914128  163.457829933    23.5056   5  11   0.6849   0.6512   2.5606  -0.3589   0.9358  -0.9808   0.00    0.0
2018/11/06 00:52:45.000  -74.525913842  163.457829260    23.1228   5  11   0.6843   0.6498   2.5535  -0.3577   0.9322  -0.9788   0.00    0.0
2018/11/06 00:53:00.000  -74.525912960  163.457824683    22.8009   5  11   0.6837   0.6484   2.5463  -0.3565   0.9285  -0.9768   0.00    0.0
2018/11/06 00:53:15.000  -74.525911424  163.457823549    22.5780   5  11   0.6832   0.6471   2.5394  -0.3554   0.9248  -0.9749   0.00    0.0
2018/11/06 00:53:30.000  -74.525913314  163.457828028    23.3359   5  11   0.6828   0.6459   2.5325  -0.3542   0.9212  -0.9730   0.00    0.0
2018/11/06 00:53:45.000  -74.525913710  163.457825044    23.0075   5  11   0.6824   0.6448   2.5259  -0.3531   0.9177  -0.9711   0.00    0.0
2018/11/06 00:54:00.000  -74.525913310  163.457832204    24.1048   5  11   0.6820   0.6437   2.5194  -0.3519   0.9142  -0.9693   0.00    0.0
2018/11/06 00:54:15.000  -74.525913802  163.457827782    23.0642   5  11   0.6818   0.6427   2.5130  -0.3508   0.9107  -0.9675   0.00    0.0
2018/11/06 00:54:30.000  -74.525915543  163.457829098    23.3389   5  10   0.9290   0.6743   3.5643  -0.5030   1.1610  -1.5913   0.00    0.0
2018/11/06 00:54:45.000  -74.525909992  163.457827784    21.7914   5  10   0.9282   0.6731   3.5557  -0.5013   1.1564  -1.5882   0.00    0.0
2018/11/06 00:55:00.000  -74.525908571  163.457830583    21.9916   5  10   0.9274   0.6719   3.5473  -0.4995   1.1518  -1.5853   0.00    0.0
2018/11/06 00:55:15.000  -74.525910914  163.457824968    22.2509   5  10   0.9268   0.6709   3.5392  -0.4978   1.1473  -1.5824   0.00    0.0
2018/11/06 00:55:30.000  -74.525906248  163.457818515    21.3629   5  10   0.9263   0.6698   3.5312  -0.4960   1.1428  -1.5796   0.00    0.0
2018/11/06 00:55:45.000  -74.525909767  163.457823014    22.0553   5  10   0.9258   0.6689   3.5233  -0.4943   1.1383  -1.5769   0.00    0.0
2018/11/06 00:56:00.000  -74.525907756  163.457825835    21.8555   5  10   0.9253   0.6680   3.5156  -0.4926   1.1338  -1.5742   0.00    0.0
2018/11/06 00:56:15.000  -74.525908300  163.457827544    21.1845   5  10   0.9249   0.6671   3.5080  -0.4908   1.1294  -1.5715   0.00    0.0
2018/11/06 00:56:30.000  -74.525907540  163.457825437    21.2941   5  10   0.9246   0.6664   3.5006  -0.4891   1.1249  -1.5689   0.00    0.0
2018/11/06 00:56:45.000  -74.525908120  163.457818003    21.3844   5  10   0.9243   0.6657   3.4934  -0.4874   1.1205  -1.5664   0.00    0.0
2018/11/06 00:57:00.000  -74.525909431  163.457823478    21.8783   5  10   0.9241   0.6650   3.4863  -0.4857   1.1161  -1.5639   0.00    0.0
2018/11/06 00:57:15.000  -74.525904774  163.457814255    19.5641   5  10   0.9240   0.6644   3.4794  -0.4840   1.1117  -1.5615   0.00    0.0
2018/11/06 00:57:30.000  -74.525904140  163.457819336    19.8628   5  10   0.9239   0.6639   3.4727  -0.4823   1.1074  -1.5592   0.00    0.0
2018/11/06 00:57:45.000  -74.525909882  163.457825703    21.8913   5  10   0.9215   0.6618   3.4562  -0.4791   1.0999  -1.5525   0.00    0.0
2018/11/06 00:58:00.000  -74.525909824  163.457833080    22.7563   5  10   0.9192   0.6597   3.4398  -0.4760   1.0925  -1.5459   0.00    0.0
2018/11/06 00:58:15.000  -74.525909918  163.457829899    21.9175   5  10   0.9170   0.6577   3.4237  -0.4729   1.0851  -1.5394   0.00    0.0
2018/11/06 00:58:30.000  -74.525909687  163.457830642    21.7462   5   9   0.9189   0.6559   3.6616  -0.4689   1.0714  -1.5699   0.00    0.0
2018/11/06 00:58:45.000  -74.525908408  163.457827944    20.7269   5   9   0.9169   0.6541   3.6474  -0.4658   1.0641  -1.5641   0.00    0.0
2018/11/06 00:59:00.000  -74.525911187  163.457828239    21.7027   5   9   0.9150   0.6523   3.6335  -0.4628   1.0568  -1.5584   0.00    0.0
2018/11/06 00:59:15.000  -74.525908018  163.457820821    20.6763   5   9   0.9132   0.6507   3.6199  -0.4598   1.0496  -1.5528   0.00    0.0
2018/11/06 00:59:30.000  -74.525909592  163.457824611    21.2927   5   9   0.9115   0.6491   3.6066  -0.4568   1.0425  -1.5473   0.00    0.0
2018/11/06 00:59:45.000  -74.525907445  163.457822858    20.1434   5   9   0.9099   0.6476   3.5935  -0.4538   1.0354  -1.5419   0.00    0.0
2018/11/06 01:00:00.000  -74.525908828  163.457823682    20.7382   5   9   0.9083   0.6462   3.5808  -0.4509   1.0283  -1.5367   0.00    0.0
2018/11/06 01:00:15.000  -74.525910021  163.457828449    21.1079   5   9   0.9069   0.6448   3.5687  -0.4480   1.0214  -1.5316   0.00    0.0
2018/11/06 01:00:30.000  -74.525907311  163.457823711    20.6343   5   9   0.9055   0.6436   3.5569  -0.4452   1.0145  -1.5267   0.00    0.0
2018/11/06 01:00:45.000  -74.525909212  163.457826097    21.5904   5   9   0.9043   0.6424   3.5455  -0.4423   1.0077  -1.5220   0.00    0.0
2018/11/06 01:01:00.000  -74.525909661  163.457823894    20.0027   5   9   0.9031   0.6414   3.5344  -0.4395   1.0009  -1.5173   0.00    0.0
2018/11/06 01:01:15.000  -74.525910454  163.457820632    21.9792   5   9   0.9020   0.6404   3.5237  -0.4367   0.9941  -1.5128   0.00    0.0
2018/11/06 01:01:30.000  -74.525912222  163.457822599    22.8082   5  10   0.7443   0.6358   2.6729  -0.3923   0.9058  -1.0572   0.00    0.0
2018/11/06 01:01:45.000  -74.525913727  163.457829515    23.1049   5  10   0.7445   0.6353   2.6704  -0.3913   0.9027  -1.0561   0.00    0.0
2018/11/06 01:02:00.000  -74.525908463  163.457823339    21.7352   5  10   0.7448   0.6348   2.6681  -0.3904   0.8996  -1.0551   0.00    0.0
2018/11/06 01:02:15.000  -74.525911724  163.457816107    21.9809   5  10   0.7451   0.6344   2.6660  -0.3894   0.8966  -1.0542   0.00    0.0
2018/11/06 01:02:30.000  -74.525913311  163.457825309    22.5707   5  10   0.7454   0.6341   2.6641  -0.3885   0.8936  -1.0533   0.00    0.0
2018/11/06 01:02:45.000  -74.525914161  163.457830942    22.9629   5  10   0.7444   0.6323   2.6555  -0.3867   0.8885  -1.0503   0.00    0.0
2018/11/06 01:03:00.000  -74.525913687  163.457827503    23.1030   5  10   0.7434   0.6306   2.6472  -0.3848   0.8834  -1.0474   0.00    0.0
2018/11/06 01:03:15.000  -74.525911552  163.457826631    22.9462   5  10   0.7425   0.6290   2.6392  -0.3830   0.8784  -1.0445   0.00    0.0
2018/11/06 01:03:30.000  -74.525912340  163.457832216    22.8607   5  10   0.7417   0.6274   2.6313  -0.3812   0.8734  -1.0417   0.00    0.0
2018/11/06 01:03:45.000  -74.525912114  163.457820952    22.3289   5  10   0.7409   0.6259   2.6238  -0.3795   0.8685  -1.0390   0.00    0.0
2018/11/06 01:04:00.000  -74.525912862  163.457818100    22.4079   5  10   0.7402   0.6245   2.6164  -0.3778   0.8637  -1.0363   0.00    0.0
2018/11/06 01:04:15.000  -74.525912114  163.457824521    22.7469   5  10   0.7396   0.6232   2.6093  -0.3761   0.8589  -1.0338   0.00    0.0
2018/11/06 01:04:30.000  -74.525910095  163.457820590    22.2121   5  10   0.7390   0.6219   2.6025  -0.3745   0.8542  -1.0312   0.00    0.0
2018/11/06 01:04:45.000  -74.525911090  163.457820519    23.2738   5  10   0.7385   0.6207   2.5959  -0.3729   0.8495  -1.0288   0.00    0.0
2018/11/06 01:05:00.000  -74.525910785  163.457822033    22.4644   5  10   0.7381   0.6196   2.5896  -0.3713   0.8449  -1.0264   0.00    0.0
2018/11/06 01:05:15.000  -74.525914526  163.457831411    23.8719   5  10   0.7377   0.6186   2.5837  -0.3698   0.8405  -1.0242   0.00    0.0
2018/11/06 01:05:30.000  -74.525910930  163.457819314    22.5223   5  10   0.7375   0.6177   2.5781  -0.3683   0.8360  -1.0220   0.00    0.0
2018/11/06 01:05:45.000  -74.525913404  163.457828083    23.7930   5  10   0.7373   0.6168   2.5728  -0.3668   0.8317  -1.0199   0.00    0.0
2018/11/06 01:06:00.000  -74.525913194  163.457828311    21.7375   5  10   0.7371   0.6160   2.5678  -0.3654   0.8274  -1.0179   0.00    0.0
2018/11/06 01:06:15.000  -74.525911307  163.457828462    23.6904   5  10   0.7371   0.6153   2.5631  -0.3640   0.8231  -1.0160   0.00    0.0
2018/11/06 01:06:30.000  -74.525913145  163.457824454    22.8206   5  10   0.7371   0.6147   2.5586  -0.3626   0.8190  -1.0142   0.00    0.0
2018/11/06 01:06:45.000  -74.525912097  163.457829836    22.9996   5  10   0.7372   0.6141   2.5545  -0.3613   0.8149  -1.0124   0.00    0.0
2018/11/06 01:07:00.000  -74.525910548  163.457824935    22.6253   5  10   0.7373   0.6136   2.5507  -0.3600   0.8108  -1.0107   0.00    0.0
2018/11/06 01:07:15.000  -74.525912003  163.457824765    22.6372   5  10   0.7375   0.6132   2.5472  -0.3587   0.8068  -1.0091   0.00    0.0
2018/11/06 01:07:30.000  -74.525911343  163.457824629    23.3764   5  10   0.7378   0.6129   2.5440  -0.3575   0.8029  -1.0076   0.00    0.0
2018/11/06 01:07:45.000  -74.525914525  163.457831643    23.4947   5  10   0.7367   0.6112   2.5340  -0.3553   0.7970  -1.0040   0.00    0.0
2018/11/06 01:08:00.000  -74.525912852  163.457830210    23.9717   5  10   0.7357   0.6096   2.5242  -0.3533   0.7911  -1.0005   0.00    0.0
2018/11/06 01:08:15.000  -74.525911481  163.457827169    22.9742   5  10   0.7348   0.6080   2.5148  -0.3512   0.7854  -0.9971   0.00    0.0
2018/11/06 01:08:30.000  -74.525912400  163.457832372    23.3165   5  10   0.7339   0.6065   2.5056  -0.3492   0.7797  -0.9938   0.00    0.0
2018/11/06 01:08:45.000  -74.525911887  163.457824794    23.1280   5  10   0.7331   0.6051   2.4968  -0.3473   0.7741  -0.9905   0.00    0.0
2018/11/06 01:09:00.000  -74.525913461  163.457825776    24.1909   5  10   0.7323   0.6038   2.4883  -0.3453   0.7685  -0.9874   0.00    0.0
2018/11/06 01:09:15.000  -74.525915118  163.457832107    23.5287   5  10   0.7317   0.6026   2.4801  -0.3434   0.7631  -0.9843   0.00    0.0
2018/11/06 01:09:30.000  -74.525910871  163.457822327    22.4889   5  10   0.7311   0.6014   2.4722  -0.3416   0.7577  -0.9814   0.00    0.0
2018/11/06 01:09:45.000  -74.525910053  163.457825441    23.0720   5  10   0.7306   0.6003   2.4647  -0.3398   0.7524  -0.9785   0.00    0.0
2018/11/06 01:10:00.000  -74.525911579  163.457824017    22.5702   5  10   0.7301   0.5993   2.4575  -0.3380   0.7472  -0.9758   0.00    0.0
2018/11/06 01:10:15.000  -74.525910785  163.457818745    23.2327   5  10   0.7298   0.5984   2.4509  -0.3363   0.7420  -0.9732   0.00    0.0
2018/11/06 01:10:30.000  -74.525912347  163.457829531    23.2227   5  10   0.7295   0.5976   2.4446  -0.3346   0.7370  -0.9706   0.00    0.0
2018/11/06 01:10:45.000  -74.525911984  163.457827276    23.5234   5  10   0.7293   0.5969   2.4386  -0.3329   0.7320  -0.9682   0.00    0.0
2018/11/06 01:11:00.000  -74.525912938  163.457824849    22.9028   5  10   0.7292   0.5962   2.4330  -0.3313   0.7271  -0.9659   0.00    0.0
2018/11/06 01:11:15.000  -74.525911452  163.457823538    23.8227   5  10   0.7291   0.5957   2.4277  -0.3297   0.7223  -0.9637   0.00    0.0
2018/11/06 01:11:30.000  -74.525913302  163.457824847    22.9556   5  10   0.7291   0.5952   2.4228  -0.3282   0.7175  -0.9616   0.00    0.0
2018/11/06 01:11:45.000  -74.525913657  163.457832277    24.7755   5  10   0.7292   0.5947   2.4182  -0.3267   0.7127  -0.9596   0.00    0.0
2018/11/06 01:12:00.000  -74.525913082  163.457827852    22.7729   5  10   0.7294   0.5944   2.4140  -0.3252   0.7081  -0.9576   0.00    0.0
2018/11/06 01:12:15.000  -74.525912924  163.457826318    23.2964   5  10   0.7296   0.5941   2.4102  -0.3237   0.7035  -0.9558   0.00    0.0
2018/11/06 01:12:30.000  -74.525914602  163.457829767    22.8557   5  10   0.7299   0.5939   2.4067  -0.3223   0.6989  -0.9541   0.00    0.0
2018/11/06 01:12:45.000  -74.525917151  163.457835124    24.0575   5  10   0.7289   0.5924   2.3963  -0.3201   0.6927  -0.9503   0.00    0.0
2018/11/06 01:13:00.000  -74.525915283  163.457827822    24.0603   5  10   0.7279   0.5910   2.3863  -0.3180   0.6865  -0.9467   0.00    0.0
2018/11/06 01:13:15.000  -74.525912088  163.457829509    23.6288   5  10   0.7270   0.5896   2.3766  -0.3159   0.6804  -0.9432   0.00    0.0
2018/11/06 01:13:30.000  -74.525911703  163.457830054    22.9905   5  10   0.7262   0.5884   2.3673  -0.3138   0.6744  -0.9398   0.00    0.0
2018/11/06 01:13:45.000  -74.525914190  163.457833424    23.8545   5  10   0.7254   0.5872   2.3584  -0.3118   0.6684  -0.9364   0.00    0.0
2018/11/06 01:14:00.000  -74.525913423  163.457824854    23.3404   5  10   0.7248   0.5861   2.3498  -0.3098   0.6626  -0.9332   0.00    0.0
2018/11/06 01:14:15.000  -74.525910484  163.457827440    23.5387   5  10   0.7242   0.5851   2.3416  -0.3078   0.6568  -0.9301   0.00    0.0
2018/11/06 01:14:30.000  -74.525914096  163.457828365    23.7754   5  10   0.7236   0.5841   2.3338  -0.3059   0.6511  -0.9272   0.00    0.0
2018/11/06 01:14:45.000  -74.525914460  163.457837628    23.4877   5  10   0.7232   0.5833   2.3264  -0.3040   0.6454  -0.9243   0.00    0.0
2018/11/06 01:15:00.000  -74.525915805  163.457826331    23.9606   5  10   0.7228   0.5825   2.3193  -0.3022   0.6398  -0.9215   0.00    0.0
2018/11/06 01:15:15.000  -74.525915148  163.457826262    23.1747   5  10   0.7226   0.5818   2.3128  -0.3004   0.6343  -0.9189   0.00    0.0
2018/11/06 01:15:30.000  -74.525910771  163.457832478    23.0184   5  10   0.7224   0.5812   2.3067  -0.2986   0.6289  -0.9164   0.00    0.0
2018/11/06 01:15:45.000  -74.525916318  163.457839499    24.8520   5  10   0.7222   0.5807   2.3009  -0.2969   0.6236  -0.9140   0.00    0.0
2018/11/06 01:16:00.000  -74.525910971  163.457828116    22.7250   5  10   0.7222   0.5803   2.2956  -0.2952   0.6182  -0.9117   0.00    0.0
2018/11/06 01:16:15.000  -74.525912789  163.457833198    23.0474   5  10   0.7222   0.5799   2.2906  -0.2936   0.6130  -0.9095   0.00    0.0
2018/11/06 01:16:30.000  -74.525914226  163.457827245    24.0396   5  10   0.7223   0.5796   2.2860  -0.2919   0.6078  -0.9074   0.00    0.0
2018/11/06 01:16:45.000  -74.525915148  163.457828020    23.8250   5  10   0.7224   0.5794   2.2817  -0.2904   0.6026  -0.9055   0.00    0.0
2018/11/06 01:17:00.000  -74.525909618  163.457830843    22.7610   5  10   0.7227   0.5793   2.2779  -0.2888   0.5975  -0.9036   0.00    0.0
2018/11/06 01:17:15.000  -74.525912693  163.457829875    23.0953   5  10   0.7230   0.5792   2.2744  -0.2873   0.5924  -0.9018   0.00    0.0
2018/11/06 01:17:30.000  -74.525912989  163.457831007    23.5926   5  10   0.7234   0.5792   2.2713  -0.2858   0.5873  -0.9001   0.00    0.0
2018/11/06 01:17:45.000  -74.525914069  163.457818653    23.2119   5  10   0.7224   0.5780   2.2614  -0.2836   0.5809  -0.8966   0.00    0.0
2018/11/06 01:18:00.000  -74.525914848  163.457825420    23.4034   5  10   0.7216   0.5768   2.2520  -0.2814   0.5745  -0.8931   0.00    0.0
2018/11/06 01:18:15.000  -74.525911616  163.457834672    22.7910   5  10   0.7208   0.5758   2.2429  -0.2793   0.5682  -0.8898   0.00    0.0
2018/11/06 01:18:30.000  -74.525913565  163.457828557    23.5449   5  10   0.7201   0.5748   2.2342  -0.2773   0.5620  -0.8866   0.00    0.0
2018/11/06 01:18:45.000  -74.525915991  163.457832066    23.8343   5  10   0.7195   0.5739   2.2259  -0.2753   0.5559  -0.8835   0.00    0.0
2018/11/06 01:19:00.000  -74.525914269  163.457828389    24.2294   5  10   0.7190   0.5730   2.2180  -0.2733   0.5498  -0.8805   0.00    0.0
2018/11/06 01:19:15.000  -74.525915215  163.457825524    23.8220   5  10   0.7185   0.5723   2.2105  -0.2713   0.5437  -0.8777   0.00    0.0
2018/11/06 01:19:30.000  -74.525911699  163.457828038    23.2369   5  10   0.7181   0.5716   2.2033  -0.2694   0.5377  -0.8749   0.00    0.0
2018/11/06 01:19:45.000  -74.525913035  163.457827032    23.4751   5  10   0.7178   0.5710   2.1966  -0.2675   0.5317  -0.8723   0.00    0.0
2018/11/06 01:20:00.000  -74.525914063  163.457830788    23.9246   5  10   0.7175   0.5705   2.1903  -0.2657   0.5258  -0.8697   0.00    0.0
2018/11/06 01:20:15.000  -74.525911611  163.457832370    22.8835   5  10   0.7173   0.5700   2.1845  -0.2639   0.5199  -0.8673   0.00    0.0
2018/11/06 01:20:30.000  -74.525915661  163.457828018    22.8970   5  10   0.7173   0.5697   2.1791  -0.2621   0.5141  -0.8650   0.00    0.0
2018/11/06 01:20:45.000  -74.525910950  163.457836204    23.8162   5  10   0.7172   0.5694   2.1741  -0.2604   0.5083  -0.8629   0.00    0.0
2018/11/06 01:21:00.000  -74.525911830  163.457831401    23.0796   5  10   0.7173   0.5692   2.1694  -0.2586   0.5025  -0.8608   0.00    0.0
2018/11/06 01:21:15.000  -74.525913425  163.457826076    24.0998   5  10   0.7174   0.5691   2.1652  -0.2570   0.4967  -0.8588   0.00    0.0
2018/11/06 01:21:30.000  -74.525914874  163.457833402    23.6662   5  10   0.7176   0.5691   2.1613  -0.2553   0.4909  -0.8569   0.00    0.0
2018/11/06 01:21:45.000  -74.525910939  163.457826225    22.6453   5  10   0.7179   0.5691   2.1578  -0.2537   0.4852  -0.8552   0.00    0.0
2018/11/06 01:22:00.000  -74.525913869  163.457825515    24.2753   5  10   0.7182   0.5692   2.1547  -0.2520   0.4794  -0.8535   0.00    0.0
2018/11/06 01:22:15.000  -74.525915518  163.457833835    24.1518   5  10   0.7186   0.5694   2.1519  -0.2505   0.4736  -0.8519   0.00    0.0
2018/11/06 01:22:30.000  -74.525916112  163.457826838    24.6929   5  11   0.6207   0.5525   1.8071  -0.1078   0.2398  -0.5483   0.00    0.0
2018/11/06 01:22:45.000  -74.525915138  163.457826959    23.4250   5  11   0.6203   0.5519   1.8024  -0.1056   0.2327  -0.5473   0.00    0.0
2018/11/06 01:23:00.000  -74.525915921  163.457830247    24.2474   5  11   0.6199   0.5513   1.7982  -0.1033   0.2252  -0.5463   0.00    0.0
2018/11/06 01:23:15.000  -74.525914813  163.457831486    23.9763   5  11   0.6195   0.5508   1.7943  -0.1010   0.2175  -0.5454   0.00    0.0
2018/11/06 01:23:30.000  -74.525915977  163.457831059    24.3288   5  11   0.6193   0.5503   1.7906  -0.0987   0.2095  -0.5445   0.00    0.0
2018/11/06 01:23:45.000  -74.525914026  163.457829852    24.2824   5  11   0.6191   0.5500   1.7872  -0.0963   0.2012  -0.5436   0.00    0.0
2018/11/06 01:24:00.000  -74.525915610  163.457829834    23.6438   5  11   0.6189   0.5497   1.7842  -0.0939   0.1926  -0.5428   0.00    0.0
2018/11/06 01:24:15.000  -74.525914426  163.457834263    23.7350   5  11   0.6188   0.5494   1.7814  -0.0914   0.1835  -0.5420   0.00    0.0
2018/11/06 01:24:30.000  -74.525913474  163.457825485    23.9575   5  11   0.6187   0.5492   1.7789  -0.0889   0.1740  -0.5412   0.00    0.0
2018/11/06 01:24:45.000  -74.525916065  163.457827053    24.5152   5  11   0.6187   0.5491   1.7767  -0.0862   0.1639  -0.5405   0.00    0.0
2018/11/06 01:25:00.000  -74.525915530  163.457833878    23.8172   5  11   0.6187   0.5491   1.7748  -0.0836   0.1531  -0.5398   0.00    0.0
2018/11/06 01:25:15.000  -74.525915992  163.457836473    23.5945   5  11   0.6189   0.5491   1.7732  -0.0808   0.1415  -0.5392   0.00    0.0
2018/11/06 01:25:30.000  -74.525912485  163.457830869    24.0966   5  11   0.6190   0.5493   1.7720  -0.0779   0.1288  -0.5386   0.00    0.0
2018/11/06 01:25:45.000  -74.525915471  163.457826789    24.7716   5  11   0.6193   0.5495   1.7711  -0.0749   0.1146  -0.5380   0.00    0.0
2018/11/06 01:26:00.000  -74.525916188  163.457826465    23.7674   5  12   0.6121   0.5270   1.7028  -0.1418  -0.2571  -0.5790   0.00    0.0
2018/11/06 01:26:15.000  -74.525916924  163.457831173    23.9800   5  12   0.6123   0.5273   1.7036  -0.1407  -0.2627  -0.5786   0.00    0.0
2018/11/06 01:26:30.000  -74.525917028  163.457822066    24.2203   5  12   0.6125   0.5277   1.7046  -0.1396  -0.2684  -0.5783   0.00    0.0
2018/11/06 01:26:45.000  -74.525916146  163.457827186    23.4114   5  12   0.6128   0.5281   1.7059  -0.1386  -0.2741  -0.5780   0.00    0.0
2018/11/06 01:27:00.000  -74.525914351  163.457828505    24.1857   5  12   0.6132   0.5286   1.7075  -0.1375  -0.2797  -0.5777   0.00    0.0
2018/11/06 01:27:15.000  -74.525915701  163.457826947    23.6941   5  12   0.6136   0.5291   1.7093  -0.1365  -0.2853  -0.5775   0.00    0.0
2018/11/06 01:27:30.000  -74.525917842  163.457835767    23.9544   5  12   0.6140   0.5298   1.7115  -0.1354  -0.2909  -0.5773   0.00    0.0
2018/11/06 01:27:45.000  -74.525916292  163.457823306    23.4677   5  12   0.6136   0.5293   1.7088  -0.1341  -0.2949  -0.5765   0.00    0.0
2018/11/06 01:28:00.000  -74.525916407  163.457827751    23.8026   5  12   0.6131   0.5289   1.7063  -0.1327  -0.2988  -0.5756   0.00    0.0
2018/11/06 01:28:15.000  -74.525913966  163.457825558    24.0694   5  12   0.6128   0.5285   1.7041  -0.1313  -0.3027  -0.5748   0.00    0.0
2018/11/06 01:28:30.000  -74.525914587  163.457824403    23.5726   5  12   0.6124   0.5282   1.7021  -0.1300  -0.3067  -0.5741   0.00    0.0
2018/11/06 01:28:45.000  -74.525914206  163.457835170    23.1299   5  12   0.6122   0.5280   1.7004  -0.1287  -0.3106  -0.5734   0.00    0.0
2018/11/06 01:29:00.000  -74.525915914  163.457831749    23.6745   5  12   0.6119   0.5279   1.6990  -0.1273  -0.3146  -0.5727   0.00    0.0
2018/11/06 01:29:15.000  -74.525915770  163.457830668    24.3985   5  12   0.6118   0.5278   1.6978  -0.1260  -0.3186  -0.5721   0.00    0.0
2018/11/06 01:29:30.000  -74.525916677  163.457821419    23.6778   5  12   0.6117   0.5277   1.6970  -0.1247  -0.3227  -0.5716   0.00    0.0
2018/11/06 01:29:45.000  -74.525917407  163.457824893    23.8903   5  12   0.6116   0.5277   1.6964  -0.1233  -0.3267  -0.5710   0.00    0.0
2018/11/06 01:30:00.000  -74.525915826  163.457829505    23.9073   5  12   0.6116   0.5278   1.6961  -0.1220  -0.3308  -0.5706   0.00    0.0
2018/11/06 01:30:15.000  -74.525914845  163.457827797    23.5087   5  12   0.6116   0.5280   1.6961  -0.1207  -0.3349  -0.5701   0.00    0.0
2018/11/06 01:30:30.000  -74.525911399  163.457823143    23.9124   5  12   0.6117   0.5282   1.6965  -0.1194  -0.3391  -0.5698   0.00    0.0
2018/11/06 01:30:45.000  -74.525915828  163.457825025    23.9834   5  12   0.6119   0.5285   1.6972  -0.1181  -0.3433  -0.5694   0.00    0.0
2018/11/06 01:31:00.000  -74.525915393  163.457822618    24.0585   5  12   0.6121   0.5288   1.6981  -0.1168  -0.3476  -0.5691   0.00    0.0
2018/11/06 01:31:15.000  -74.525914627  163.457826109    23.5336   5  12   0.6123   0.5293   1.6993  -0.1155  -0.3518  -0.5689   0.00    0.0
2018/11/06 01:31:30.000  -74.525914158  163.457823909    23.6149   5  12   0.6126   0.5297   1.7008  -0.1142  -0.3561  -0.5687   0.00    0.0
2018/11/06 01:31:45.000  -74.525917748  163.457831173    23.8960   5  12   0.6130   0.5303   1.7026  -0.1129  -0.3605  -0.5685   0.00    0.0
2018/11/06 01:32:00.000  -74.525916671  163.457829095    24.0237   5  12   0.6134   0.5309   1.7047  -0.1117  -0.3649  -0.5684   0.00    0.0
2018/11/06 01:32:15.000  -74.525915568  163.457824160    23.4751   5  12   0.6138   0.5315   1.7070  -0.1104  -0.3693  -0.5684   0.00    0.0
2018/11/06 01:32:30.000  -74.525916621  163.457828249    23.6350   5  12   0.6143   0.5322   1.7097  -0.1091  -0.3738  -0.5683   0.00    0.0
2018/11/06 01:32:45.000  -74.525917174  163.457828353    23.8024   5  12   0.6139   0.5319   1.7074  -0.1075  -0.3767  -0.5676   0.00    0.0
2018/11/06 01:33:00.000  -74.525915679  163.457833136    23.0580   5  12   0.6136   0.5316   1.7052  -0.1058  -0.3796  -0.5670   0.00    0.0
2018/11/06 01:33:15.000  -74.525916168  163.457816776    24.1915   5  12   0.6132   0.5313   1.7033  -0.1042  -0.3825  -0.5663   0.00    0.0
2018/11/06 01:33:30.000  -74.525917247  163.457829662    23.6527   5  12   0.6130   0.5312   1.7017  -0.1025  -0.3856  -0.5657   0.00    0.0
2018/11/06 01:33:45.000  -74.525916272  163.457820449    23.1222   5  12   0.6128   0.5310   1.7004  -0.1009  -0.3886  -0.5652   0.00    0.0
2018/11/06 01:34:00.000  -74.525915444  163.457829319    23.8485   5  12   0.6126   0.5310   1.6994  -0.0992  -0.3917  -0.5647   0.00    0.0
2018/11/06 01:34:15.000  -74.525916974  163.457826457    23.9838   5  12   0.6125   0.5310   1.6986  -0.0975  -0.3949  -0.5642   0.00    0.0
2018/11/06 01:34:30.000  -74.525916910  163.457834040    23.9981   5  12   0.6124   0.5310   1.6981  -0.0958  -0.3981  -0.5638   0.00    0.0
2018/11/06 01:34:45.000  -74.525916114  163.457830072    23.6412   5  12   0.6124   0.5312   1.6980  -0.0941  -0.4013  -0.5634   0.00    0.0
2018/11/06 01:35:00.000  -74.525915126  163.457828265    23.2294   5  12   0.6124   0.5314   1.6981  -0.0924  -0.4046  -0.5631   0.00    0.0
2018/11/06 01:35:15.000  -74.525915041  163.457822880    23.6138   5  12   0.6125   0.5316   1.6986  -0.0907  -0.4080  -0.5628   0.00    0.0
2018/11/06 01:35:30.000  -74.525916065  163.457827165    24.1039   5  12   0.6127   0.5320   1.6994  -0.0890  -0.4115  -0.5626   0.00    0.0
2018/11/06 01:35:45.000  -74.525913865  163.457830378    23.7699   5  12   0.6129   0.5323   1.7005  -0.0873  -0.4150  -0.5624   0.00    0.0
2018/11/06 01:36:00.000  -74.525915981  163.457832655    24.0793   5  12   0.6132   0.5328   1.7019  -0.0855  -0.4185  -0.5623   0.00    0.0
2018/11/06 01:36:15.000  -74.525915510  163.457828920    23.4007   5  12   0.6135   0.5333   1.7036  -0.0838  -0.4221  -0.5622   0.00    0.0
2018/11/06 01:36:30.000  -74.525913360  163.457831754    22.8193   5  12   0.6138   0.5339   1.7055  -0.0820  -0.4258  -0.5622   0.00    0.0
2018/11/06 01:36:45.000  -74.525914200  163.457830889    23.9792   5  12   0.6142   0.5345   1.7078  -0.0802  -0.4295  -0.5622   0.00    0.0
2018/11/06 01:37:00.000  -74.525915264  163.457829581    23.9647   5  12   0.6147   0.5352   1.7103  -0.0783  -0.4332  -0.5623   0.00    0.0
2018/11/06 01:37:15.000  -74.525915784  163.457828023    23.8902   5  12   0.6152   0.5360   1.7131  -0.0765  -0.4371  -0.5624   0.00    0.0
2018/11/06 01:37:30.000  -74.525914485  163.457823801    24.8862   5  12   0.6157   0.5368   1.7162  -0.0746  -0.4409  -0.5625   0.00    0.0
2018/11/06 01:37:45.000  -74.525916884  163.457828543    23.9256   5  12   0.6154   0.5365   1.7142  -0.0723  -0.4432  -0.5619   0.00    0.0
2018/11/06 01:38:00.000  -74.525916103  163.457832617    23.3203   5  12   0.6151   0.5363   1.7124  -0.0699  -0.4456  -0.5614   0.00    0.0
2018/11/06 01:38:15.000  -74.525914887  163.457826748    24.2977   5  12   0.6148   0.5362   1.7109  -0.0674  -0.4480  -0.5610   0.00    0.0
2018/11/06 01:38:30.000  -74.525916652  163.457830174    23.9930   5  12   0.6146   0.5361   1.7097  -0.0649  -0.4505  -0.5605   0.00    0.0
2018/11/06 01:38:45.000  -74.525915763  163.457830944    23.9670   5  12   0.6144   0.5361   1.7088  -0.0622  -0.4531  -0.5602   0.00    0.0
2018/11/06 01:39:00.000  -74.525917457  163.457823006    24.2935   5  12   0.6143   0.5361   1.7082  -0.0595  -0.4557  -0.5598   0.00    0.0
2018/11/06 01:39:15.000  -74.525915046  163.457826397    23.7217   5  12   0.6143   0.5362   1.7078  -0.0567  -0.4583  -0.5595   0.00    0.0
2018/11/06 01:39:30.000  -74.525914280  163.457829800    23.3239   5  12   0.6143   0.5364   1.7078  -0.0538  -0.4611  -0.5593   0.00    0.0
2018/11/06 01:39:45.000  -74.525916723  163.457829200    23.8143   5  12   0.6143   0.5366   1.7080  -0.0507  -0.4639  -0.5591   0.00    0.0
2018/11/06 01:40:00.000  -74.525915963  163.457828821    23.8944   5  12   0.6144   0.5369   1.7085  -0.0475  -0.4667  -0.5590   0.00    0.0
2018/11/06 01:40:15.000  -74.525915325  163.457828308    23.4895   5  12   0.6145   0.5372   1.7095  -0.0441  -0.4696  -0.5589   0.00    0.0
2018/11/06 01:40:30.000  -74.525917897  163.457821749    23.6808   5  12   0.6148   0.5376   1.7107  -0.0404  -0.4726  -0.5588   0.00    0.0
2018/11/06 01:40:45.000  -74.525915711  163.457827190    23.7471   5  12   0.6150   0.5381   1.7122  -0.0365  -0.4757  -0.5588   0.00    0.0
2018/11/06 01:41:00.000  -74.525915783  163.457831059    22.8811   5  12   0.6153   0.5387   1.7140  -0.0320  -0.4788  -0.5588   0.00    0.0
2018/11/06 01:41:15.000  -74.525916643  163.457828867    23.4698   5  12   0.6157   0.5393   1.7160  -0.0269  -0.4820  -0.5589   0.00    0.0
2018/11/06 01:41:30.000  -74.525918709  163.457833658    23.4591   5  12   0.6161   0.5399   1.7184  -0.0206  -0.4852  -0.5591   0.00    0.0
2018/11/06 01:41:45.000  -74.525917022  163.457826960    24.3374   5  12   0.6166   0.5406   1.7210  -0.0114  -0.4885  -0.5592   0.00    0.0
2018/11/06 01:42:00.000  -74.525917589  163.457825262    24.1393   5  12   0.6171   0.5414   1.7239   0.0128  -0.4919  -0.5595   0.00    0.0
2018/11/06 01:42:15.000  -74.525920032  163.457827558    23.9513   5  12   0.6176   0.5423   1.7271   0.0214  -0.4953  -0.5597   0.00    0.0
2018/11/06 01:42:30.000  -74.525917524  163.457827910    24.2530   5  12   0.6182   0.5432   1.7305   0.0274  -0.4988  -0.5600   0.00    0.0
2018/11/06 01:42:45.000  -74.525917437  163.457823137    24.0590   5  12   0.6180   0.5430   1.7288   0.0332  -0.5007  -0.5597   0.00    0.0
2018/11/06 01:43:00.000  -74.525918277  163.457828060    23.7529   5  12   0.6177   0.5428   1.7275   0.0380  -0.5028  -0.5593   0.00    0.0
2018/11/06 01:43:15.000  -74.525917428  163.457836807    23.8071   5  12   0.6175   0.5428   1.7264   0.0421  -0.5048  -0.5590   0.00    0.0
2018/11/06 01:43:30.000  -74.525917335  163.457829716    23.9542   5  12   0.6173   0.5428   1.7256   0.0459  -0.5070  -0.5588   0.00    0.0
2018/11/06 01:43:45.000  -74.525916143  163.457827209    23.6086   5  12   0.6172   0.5428   1.7251   0.0494  -0.5092  -0.5586   0.00    0.0
2018/11/06 01:44:00.000  -74.525917488  163.457823038    23.3100   5  12   0.6172   0.5430   1.7249   0.0526  -0.5114  -0.5585   0.00    0.0
2018/11/06 01:44:15.000  -74.525916972  163.457825139    24.0473   5  12   0.6172   0.5431   1.7249   0.0557  -0.5137  -0.5583   0.00    0.0
