% program   : RTKLIB ver.2.4.3
% inp file  : _by_type/_obs/tuati/20181109.18o
% inp file  : _by_type/_obs/base/20181108.18o
% inp file  : _by_type/_sp3+clk/igs20265.clk
% inp file  : _by_type/_sp3+clk/igs20265.sp3
% inp file  : _by_type/_nav/tuati/20181109.18n
% obs start : 2018/11/09 00:00:00.0 GPST (week2026 432000.0s)
% obs end   : 2018/11/09 23:59:30.0 GPST (week2026 518370.0s)
% pos mode  : dgps
% freqs     : L1+L2
% solution  : combined
% elev mask : 15.0 deg
% dynamics  : off
% tidecorr  : off
% ionos opt : iono-free
% tropo opt : est ztd+grad
% ephemeris : precise
% navi sys  : gps glonass
% antenna1  :                       ( 0.0000  0.0000  0.0000)
% antenna2  :                       ( 0.0000  0.0000  0.0000)
% ref pos   : 90.000000000   0.000000000-6335367.6285
%
% (lat/lon/height=WGS84/ellipsoidal,Q=1:fix,2:float,3:sbas,4:dgps,5:single,6:ppp,ns=# of satellites)
%  GPST                  latitude(deg) longitude(deg)  height(m)   Q  ns   sdn(m)   sde(m)   sdu(m)  sdne(m)  sdeu(m)  sdun(m) age(s)  ratio
2018/11/09 00:00:00.000  -74.425548173  163.418457145    64.2009   5   9   0.6753   0.6146   2.2407  -0.2020   0.4999  -0.7739  15.00    0.0
2018/11/09 00:00:30.000  -74.425552719  163.418448485    64.6989   5   9   0.6752   0.6151   2.2523  -0.2043   0.5087  -0.7770  45.00    0.0
2018/11/09 00:01:00.000  -74.425548409  163.418443499    64.0235   5   9   0.6755   0.6160   2.2651  -0.2067   0.5179  -0.7805  75.00    0.0
2018/11/09 00:01:30.000  -74.425549388  163.418447231    64.4076   5   9   0.6761   0.6173   2.2792  -0.2094   0.5275  -0.7844 105.00    0.0
2018/11/09 00:02:00.000  -74.425547615  163.418447280    64.5512   5   9   0.6771   0.6189   2.2946  -0.2124   0.5376  -0.7888 135.00    0.0
2018/11/09 00:02:30.000  -74.425549539  163.418435461    63.6984   5   9   0.6783   0.6209   2.3112  -0.2156   0.5481  -0.7935 165.00    0.0
2018/11/09 00:03:00.000  -74.425547297  163.418437668    63.8771   5   9   0.6769   0.6198   2.3172  -0.2169   0.5547  -0.7952 195.00    0.0
2018/11/09 00:03:30.000  -74.425546666  163.418449019    63.6248   5  10   0.6533   0.6096   2.0738  -0.2578   0.6549  -0.6735 225.00    0.0
2018/11/09 00:04:00.000  -74.425546170  163.418449953    63.2517   5  10   0.6527   0.6094   2.0832  -0.2590   0.6608  -0.6768 255.00    0.0
2018/11/09 00:04:30.000  -74.425547263  163.418448885    63.8631   5  10   0.6523   0.6096   2.0938  -0.2604   0.6671  -0.6803 285.00    0.0
2018/11/09 00:05:00.000  -74.425546141  163.418449546    62.8116   5  10   0.6523   0.6101   2.1055  -0.2621   0.6739  -0.6843 315.00    0.0
2018/11/09 00:05:30.000  -74.425546275  163.418453585    63.2214   5  10   0.6526   0.6110   2.1186  -0.2641   0.6814  -0.6887 345.00    0.0
2018/11/09 00:06:00.000  -74.425546180  163.418451084    62.9843   5  10   0.6532   0.6123   2.1330  -0.2664   0.6894  -0.6935 375.00    0.0
2018/11/09 00:06:30.000  -74.425548303  163.418455972    63.3189   5  10   0.6542   0.6140   2.1486  -0.2689   0.6979  -0.6987 405.00    0.0
2018/11/09 00:07:00.000  -74.425546255  163.418459511    63.0187   5  10   0.6554   0.6161   2.1655  -0.2717   0.7070  -0.7043 435.00    0.0
2018/11/09 00:07:30.000  -74.425546167  163.418458680    63.3630   5  10   0.6570   0.6185   2.1835  -0.2747   0.7166  -0.7103 465.00    0.0
2018/11/09 00:08:00.000  -74.425545020  163.418462553    62.8760   5  10   0.6561   0.6179   2.1918  -0.2758   0.7217  -0.7136 495.00    0.0
2018/11/09 00:08:30.000  -74.425548568  163.418460454    63.1241   5  10   0.6554   0.6176   2.2011  -0.2771   0.7272  -0.7173 525.00    0.0
2018/11/09 00:09:00.000  -74.425548382  163.418453387    63.5439   5  10   0.6551   0.6176   2.2116  -0.2786   0.7332  -0.7214 555.00    0.0
2018/11/09 00:09:30.000  -74.425547040  163.418450828    63.7101   5  10   0.6551   0.6180   2.2232  -0.2804   0.7397  -0.7258 585.00    0.0
2018/11/09 00:10:00.000  -74.425550058  163.418457403    63.5989   5  10   0.6554   0.6188   2.2359  -0.2824   0.7468  -0.7306 615.00    0.0
2018/11/09 00:10:30.000  -74.425548898  163.418456020    63.2729   5  10   0.6561   0.6201   2.2502  -0.2848   0.7545  -0.7360 645.00    0.0
2018/11/09 00:11:00.000  -74.425547133  163.418449028    63.9958   5  10   0.6571   0.6217   2.2658  -0.2874   0.7628  -0.7417 675.00    0.0
2018/11/09 00:11:30.000  -74.425545889  163.418456310    62.8633   5  10   0.6584   0.6237   2.2825  -0.2903   0.7716  -0.7478 705.00    0.0
2018/11/09 00:12:00.000  -74.425547540  163.418451162    63.8566   5  10   0.6600   0.6261   2.3004  -0.2934   0.7809  -0.7543 735.00    0.0
2018/11/09 00:12:30.000  -74.425548520  163.418456031    63.7392   5  10   0.6619   0.6288   2.3196  -0.2968   0.7907  -0.7613 765.00    0.0
2018/11/09 00:13:00.000  -74.425546483  163.418447798    63.3242   5  10   0.6613   0.6283   2.3281  -0.2981   0.7956  -0.7652 795.00    0.0
2018/11/09 00:13:30.000  -74.425549517  163.418461116    64.1024   5  10   0.6610   0.6282   2.3376  -0.2997   0.8010  -0.7695 825.00    0.0
2018/11/09 00:14:00.000  -74.425548310  163.418452429    63.5843   5  10   0.6610   0.6285   2.3483  -0.3015   0.8069  -0.7741 855.00    0.0
2018/11/09 00:14:30.000  -74.425550983  163.418454799    62.9613   5  10   0.6614   0.6291   2.3601  -0.3035   0.8132  -0.7792 885.00    0.0
2018/11/09 00:15:00.000  -74.425550425  163.418458048    63.3322   5  10   0.6620   0.6301   2.3730  -0.3057   0.8201  -0.7846 915.00    0.0
2018/11/09 00:15:30.000  -74.425551802  163.418461328    64.1885   5  10   0.6630   0.6315   2.3874  -0.3083   0.8276  -0.7905 945.00    0.0
2018/11/09 00:16:00.000  -74.425546388  163.418450993    63.1833   5  10   0.6643   0.6333   2.4029  -0.3112   0.8356  -0.7967 975.00    0.0
2018/11/09 00:16:30.000  -74.425550157  163.418455371    63.0724   5  10   0.6660   0.6355   2.4195  -0.3142   0.8441  -0.8034 1005.00    0.0
2018/11/09 00:17:00.000  -74.425548689  163.418451931    63.0503   5  10   0.6679   0.6380   2.4373  -0.3176   0.8531  -0.8104 1035.00    0.0
2018/11/09 00:17:30.000  -74.425550365  163.418454481    63.9495   5  10   0.6702   0.6409   2.4561  -0.3211   0.8625  -0.8178 1065.00    0.0
2018/11/09 00:18:00.000  -74.425551558  163.418457528    63.4808   5  11   0.6570   0.6405   2.3687  -0.3212   0.8691  -0.8742 1095.00    0.0
2018/11/09 00:18:30.000  -74.425552123  163.418465507    62.8478   5  11   0.6569   0.6404   2.3783  -0.3229   0.8736  -0.8783 1125.00    0.0
2018/11/09 00:19:00.000  -74.425550246  163.418463907    63.7824   5  11   0.6570   0.6407   2.3889  -0.3248   0.8785  -0.8829 1155.00    0.0
2018/11/09 00:19:30.000  -74.425550882  163.418460756    63.7224   5  11   0.6575   0.6413   2.4004  -0.3269   0.8839  -0.8878 1185.00    0.0
2018/11/09 00:20:00.000  -74.425550339  163.418455595    63.6132   5  11   0.6583   0.6423   2.4130  -0.3292   0.8897  -0.8930 1215.00    0.0
2018/11/09 00:20:30.000  -74.425550260  163.418464324    64.5989   5  11   0.6594   0.6437   2.4268  -0.3318   0.8961  -0.8988 1245.00    0.0
2018/11/09 00:21:00.000  -74.425552176  163.418460879    63.0723   5  11   0.6608   0.6455   2.4416  -0.3346   0.9030  -0.9049 1275.00    0.0
2018/11/09 00:21:30.000  -74.425553282  163.418460753    64.2320   5  11   0.6624   0.6476   2.4573  -0.3375   0.9102  -0.9113 1305.00    0.0
2018/11/09 00:22:00.000  -74.425550406  163.418450944    63.6582   5  11   0.6644   0.6500   2.4740  -0.3407   0.9178  -0.9180 1335.00    0.0
2018/11/09 00:22:30.000  -74.425551151  163.418458259    63.9464   5  11   0.6666   0.6528   2.4915  -0.3440   0.9258  -0.9251 1365.00    0.0
2018/11/09 00:23:00.000  -74.425550656  163.418454607    63.2722   5  11   0.6663   0.6522   2.4976  -0.3451   0.9284  -0.9283 1395.00    0.0
2018/11/09 00:23:30.000  -74.425549279  163.418458175    62.4618   5  11   0.6664   0.6519   2.5047  -0.3465   0.9315  -0.9318 1425.00    0.0
2018/11/09 00:24:00.000  -74.425548405  163.418459516    63.1599   5  11   0.6666   0.6520   2.5125  -0.3480   0.9349  -0.9356 1455.00    0.0
2018/11/09 00:24:30.000  -74.425549727  163.418459773    63.7254   5  11   0.6672   0.6523   2.5212  -0.3496   0.9387  -0.9397 1485.00    0.0
2018/11/09 00:25:00.000  -74.425552423  163.418462088    64.5026   5  11   0.6680   0.6530   2.5305  -0.3514   0.9428  -0.9441 1515.00    0.0
2018/11/09 00:25:30.000  -74.425549436  163.418465820    64.5322   5  11   0.6691   0.6541   2.5409  -0.3535   0.9473  -0.9488 1545.00    0.0
2018/11/09 00:26:00.000  -74.425549661  163.418462962    63.8064   5  11   0.6705   0.6555   2.5520  -0.3556   0.9521  -0.9538 1575.00    0.0
2018/11/09 00:26:30.000  -74.425549116  163.418457723    63.3384   5  11   0.6721   0.6571   2.5638  -0.3579   0.9572  -0.9590 1605.00    0.0
2018/11/09 00:27:00.000  -74.425550951  163.418457640    63.7410   5  11   0.6740   0.6591   2.5762  -0.3603   0.9626  -0.9644 1635.00    0.0
2018/11/09 00:27:30.000  -74.425552529  163.418462432    64.1070   5  11   0.6762   0.6613   2.5892  -0.3629   0.9681  -0.9700 1665.00    0.0
2018/11/09 00:28:00.000  -74.425548745  163.418452481    63.9060   5  11   0.6758   0.6602   2.5908  -0.3633   0.9685  -0.9718 1695.00    0.0
2018/11/09 00:28:30.000  -74.425548897  163.418461385    63.5150   5  11   0.6757   0.6595   2.5929  -0.3638   0.9691  -0.9737 1725.00    0.0
2018/11/09 00:29:00.000  -74.425549259  163.418462674    62.9612   5  11   0.6759   0.6590   2.5956  -0.3645   0.9700  -0.9759 1755.00    0.0
2018/11/09 00:29:30.000  -74.425548427  163.418461634    62.7604   5  11   0.6763   0.6588   2.5989  -0.3652   0.9710  -0.9782 1785.00    0.0
2018/11/09 00:30:00.000  -74.425549543  163.418464382    63.6569   5  11   0.6769   0.6588   2.6027  -0.3661   0.9723  -0.9807 1815.00    0.0
2018/11/09 00:30:30.000  -74.425549873  163.418459671    63.0323   5  11   0.6778   0.6592   2.6073  -0.3671   0.9739  -0.9834 1845.00    0.0
2018/11/09 00:31:00.000  -74.425548846  163.418467116    63.4794   5  11   0.6789   0.6599   2.6124  -0.3682   0.9757  -0.9863 1875.00    0.0
2018/11/09 00:31:30.000  -74.425549239  163.418470365    63.6000   5  11   0.6803   0.6608   2.6179  -0.3694   0.9776  -0.9893 1905.00    0.0
2018/11/09 00:32:00.000  -74.425546895  163.418457133    62.7650   5  11   0.6819   0.6620   2.6238  -0.3706   0.9796  -0.9925 1935.00    0.0
2018/11/09 00:32:30.000  -74.425548037  163.418459489    63.2181   5  11   0.6837   0.6634   2.6302  -0.3719   0.9818  -0.9957 1965.00    0.0
2018/11/09 00:33:00.000  -74.425544781  163.418459407    61.9997   5  11   0.6831   0.6616   2.6254  -0.3713   0.9791  -0.9953 1995.00    0.0
2018/11/09 00:33:30.000  -74.425545225  163.418464545    61.9835   5  11   0.6827   0.6601   2.6209  -0.3707   0.9765  -0.9949 2025.00    0.0
2018/11/09 00:34:00.000  -74.425548189  163.418466797    62.7374   5  11   0.6825   0.6588   2.6169  -0.3702   0.9740  -0.9946 2055.00    0.0
2018/11/09 00:34:30.000  -74.425547960  163.418456401    61.9338   5  11   0.6825   0.6578   2.6134  -0.3697   0.9718  -0.9945 2085.00    0.0
2018/11/09 00:35:00.000  -74.425547049  163.418459193    62.7609   5  11   0.6828   0.6571   2.6102  -0.3693   0.9696  -0.9945 2115.00    0.0
2018/11/09 00:35:30.000  -74.425548209  163.418458018    62.3965   5  11   0.6833   0.6566   2.6078  -0.3691   0.9677  -0.9947 2145.00    0.0
2018/11/09 00:36:00.000  -74.425549327  163.418452312    62.4615   5  11   0.6840   0.6565   2.6059  -0.3688   0.9659  -0.9950 2175.00    0.0
2018/11/09 00:36:30.000  -74.425548251  163.418454154    62.4646   5  11   0.6850   0.6565   2.6043  -0.3687   0.9643  -0.9954 2205.00    0.0
2018/11/09 00:37:00.000  -74.425548180  163.418462239    62.8166   5  11   0.6861   0.6569   2.6032  -0.3686   0.9627  -0.9958 2235.00    0.0
2018/11/09 00:37:30.000  -74.425549159  163.418452851    62.3661   5  11   0.6875   0.6574   2.6025  -0.3685   0.9612  -0.9964 2265.00    0.0
2018/11/09 00:38:00.000  -74.425547227  163.418455588    62.7629   5  11   0.6865   0.6549   2.5909  -0.3666   0.9552  -0.9934 2295.00    0.0
2018/11/09 00:38:30.000  -74.425550802  163.418462008    62.6347   5  11   0.6857   0.6527   2.5799  -0.3648   0.9494  -0.9906 2325.00    0.0
2018/11/09 00:39:00.000  -74.425547127  163.418453189    61.4580   5  11   0.6851   0.6507   2.5694  -0.3630   0.9437  -0.9879 2355.00    0.0
2018/11/09 00:39:30.000  -74.425544937  163.418449396    62.2156   5  11   0.6847   0.6490   2.5595  -0.3614   0.9383  -0.9854 2385.00    0.0
2018/11/09 00:40:00.000  -74.425547964  163.418457982    62.3446   5  11   0.6846   0.6476   2.5501  -0.3598   0.9329  -0.9830 2415.00    0.0
2018/11/09 00:40:30.000  -74.425549233  163.418456051    61.9978   5  11   0.6847   0.6464   2.5415  -0.3583   0.9279  -0.9808 2445.00    0.0
2018/11/09 00:41:00.000  -74.425548116  163.418463757    63.1868   5  11   0.6851   0.6456   2.5335  -0.3568   0.9229  -0.9787 2475.00    0.0
2018/11/09 00:41:30.000  -74.425546669  163.418457841    61.5690   5  11   0.6856   0.6450   2.5260  -0.3554   0.9181  -0.9767 2505.00    0.0
2018/11/09 00:42:00.000  -74.425548383  163.418453184    62.5032   5  11   0.6864   0.6446   2.5191  -0.3540   0.9134  -0.9749 2535.00    0.0
2018/11/09 00:42:30.000  -74.425544624  163.418449980    60.1028   5  10   0.9413   0.6775   3.5882  -0.5087   1.1667  -1.6107 2565.00    0.0
2018/11/09 00:43:00.000  -74.425544097  163.418453607    60.2365   5  10   0.9377   0.6737   3.5622  -0.5036   1.1543  -1.6006 2595.00    0.0
2018/11/09 00:43:30.000  -74.425541592  163.418445570    59.8477   5  10   0.9343   0.6701   3.5365  -0.4987   1.1421  -1.5907 2625.00    0.0
2018/11/09 00:44:00.000  -74.425543716  163.418455661    60.7363   5  10   0.9312   0.6667   3.5113  -0.4937   1.1300  -1.5809 2655.00    0.0
2018/11/09 00:44:30.000  -74.425542825  163.418455702    60.4614   5  10   0.9283   0.6636   3.4869  -0.4888   1.1180  -1.5714 2685.00    0.0
2018/11/09 00:45:00.000  -74.425542828  163.418457498    60.7008   5  10   0.9257   0.6608   3.4632  -0.4839   1.1061  -1.5622 2715.00    0.0
2018/11/09 00:45:30.000  -74.425545861  163.418464021    60.9201   5  10   0.9235   0.6584   3.4409  -0.4792   1.0946  -1.5536 2745.00    0.0
2018/11/09 00:46:00.000  -74.425547916  163.418454337    61.8976   5   9   0.9255   0.6563   3.6696  -0.4736   1.0770  -1.5820 2775.00    0.0
2018/11/09 00:46:30.000  -74.425545540  163.418446507    59.7236   5   9   0.9241   0.6544   3.6540  -0.4689   1.0658  -1.5755 2805.00    0.0
2018/11/09 00:47:00.000  -74.425546724  163.418460739    60.1769   5   9   0.9230   0.6527   3.6394  -0.4643   1.0546  -1.5693 2835.00    0.0
2018/11/09 00:47:30.000  -74.425543587  163.418456480    59.8611   5   9   0.9221   0.6514   3.6260  -0.4598   1.0435  -1.5636 2865.00    0.0
2018/11/09 00:48:00.000  -74.425544939  163.418460813    60.2934   5   9   0.9169   0.6472   3.5898  -0.4526   1.0265  -1.5486 2895.00    0.0
2018/11/09 00:48:30.000  -74.425546563  163.418459008    61.7347   5   9   0.9120   0.6433   3.5553  -0.4455   1.0099  -1.5343 2925.00    0.0
2018/11/09 00:49:00.000  -74.425546823  163.418465622    61.6459   5  10   0.7474   0.6358   2.6732  -0.3950   0.9084  -1.0640 2955.00    0.0
2018/11/09 00:49:30.000  -74.425546029  163.418457106    61.5113   5  10   0.7463   0.6332   2.6614  -0.3920   0.9000  -1.0597 2985.00    0.0
2018/11/09 00:50:00.000  -74.425546525  163.418468355    62.1483   5  10   0.7455   0.6309   2.6505  -0.3892   0.8918  -1.0556 3015.00    0.0
2018/11/09 00:50:30.000  -74.425549006  163.418466678    62.7310   5  10   0.7450   0.6290   2.6408  -0.3865   0.8839  -1.0519 3045.00    0.0
2018/11/09 00:51:00.000  -74.425546768  163.418464150    61.7976   5  10   0.7447   0.6273   2.6320  -0.3839   0.8763  -1.0485 3075.00    0.0
2018/11/09 00:51:30.000  -74.425545940  163.418456211    61.3400   5  10   0.7447   0.6260   2.6243  -0.3814   0.8688  -1.0454 3105.00    0.0
2018/11/09 00:52:00.000  -74.425549060  163.418466722    62.1292   5  10   0.7450   0.6249   2.6177  -0.3791   0.8616  -1.0425 3135.00    0.0
2018/11/09 00:52:30.000  -74.425549470  163.418463125    62.2723   5  10   0.7455   0.6241   2.6122  -0.3768   0.8545  -1.0399 3165.00    0.0
2018/11/09 00:53:00.000  -74.425546170  163.418462770    60.8887   5  10   0.7434   0.6206   2.5936  -0.3728   0.8435  -1.0333 3195.00    0.0
2018/11/09 00:53:30.000  -74.425546920  163.418471217    62.2117   5  10   0.7416   0.6175   2.5761  -0.3689   0.8327  -1.0269 3225.00    0.0
2018/11/09 00:54:00.000  -74.425546348  163.418462751    62.2442   5  10   0.7400   0.6146   2.5596  -0.3652   0.8221  -1.0208 3255.00    0.0
2018/11/09 00:54:30.000  -74.425547515  163.418456933    60.8622   5  10   0.7387   0.6120   2.5443  -0.3616   0.8119  -1.0151 3285.00    0.0
2018/11/09 00:55:00.000  -74.425546171  163.418470897    62.2655   5  10   0.7377   0.6098   2.5302  -0.3581   0.8019  -1.0098 3315.00    0.0
2018/11/09 00:55:30.000  -74.425545803  163.418451684    61.2111   5  10   0.7370   0.6079   2.5177  -0.3548   0.7923  -1.0048 3345.00    0.0
2018/11/09 00:56:00.000  -74.425548560  163.418470762    63.1599   5  10   0.7366   0.6064   2.5065  -0.3516   0.7830  -1.0003 3375.00    0.0
2018/11/09 00:56:30.000  -74.425548297  163.418465017    62.9733   5  10   0.7365   0.6051   2.4966  -0.3486   0.7739  -0.9961 3405.00    0.0
2018/11/09 00:57:00.000  -74.425546458  163.418462807    61.5273   5  10   0.7367   0.6041   2.4880  -0.3457   0.7650  -0.9923 3435.00    0.0
2018/11/09 00:57:30.000  -74.425549142  163.418465542    61.9773   5  10   0.7372   0.6035   2.4807  -0.3430   0.7564  -0.9888 3465.00    0.0
2018/11/09 00:58:00.000  -74.425547247  163.418466388    61.4123   5  10   0.7350   0.6003   2.4601  -0.3386   0.7442  -0.9814 3495.00    0.0
2018/11/09 00:58:30.000  -74.425549389  163.418469829    61.8911   5  10   0.7332   0.5974   2.4410  -0.3344   0.7324  -0.9744 3525.00    0.0
2018/11/09 00:59:00.000  -74.425548649  163.418464506    61.3848   5  10   0.7317   0.5949   2.4234  -0.3304   0.7209  -0.9677 3555.00    0.0
2018/11/09 00:59:30.000  -74.425548688  163.418467861    61.6732   5  10   0.7304   0.5927   2.4071  -0.3265   0.7097  -0.9615 3585.00    0.0
2018/11/09 01:00:00.000  -74.425548298  163.418471475    62.0675   5  10   0.7295   0.5908   2.3923  -0.3228   0.6988  -0.9558 3615.00    0.0
2018/11/09 01:00:30.000  -74.425548109  163.418465415    62.2253   5  10   0.7289   0.5893   2.3792  -0.3192   0.6882  -0.9505 3645.00    0.0
2018/11/09 01:01:00.000  -74.425548651  163.418471210    62.7034   5  10   0.7285   0.5880   2.3676  -0.3158   0.6779  -0.9456 3675.00    0.0
2018/11/09 01:01:30.000  -74.425545948  163.418468012    62.6895   5  10   0.7285   0.5871   2.3574  -0.3125   0.6678  -0.9412 3705.00    0.0
2018/11/09 01:02:00.000  -74.425549549  163.418471137    62.7629   5  10   0.7288   0.5865   2.3488  -0.3094   0.6580  -0.9372 3735.00    0.0
2018/11/09 01:02:30.000  -74.425545996  163.418465371    61.7790   5  10   0.7293   0.5862   2.3416  -0.3063   0.6483  -0.9336 3765.00    0.0
2018/11/09 01:03:00.000  -74.425547463  163.418467407    61.3095   5  10   0.7274   0.5835   2.3215  -0.3020   0.6357  -0.9263 3795.00    0.0
2018/11/09 01:03:30.000  -74.425548532  163.418465314    61.9434   5  10   0.7258   0.5812   2.3029  -0.2977   0.6234  -0.9194 3825.00    0.0
2018/11/09 01:04:00.000  -74.425550206  163.418472082    62.4179   5  10   0.7244   0.5792   2.2858  -0.2936   0.6114  -0.9129 3855.00    0.0
2018/11/09 01:04:30.000  -74.425549591  163.418465304    62.0826   5  10   0.7234   0.5774   2.2703  -0.2897   0.5997  -0.9069 3885.00    0.0
2018/11/09 01:05:00.000  -74.425550702  163.418465614    61.5793   5  10   0.7226   0.5760   2.2563  -0.2859   0.5882  -0.9014 3915.00    0.0
2018/11/09 01:05:30.000  -74.425551730  163.418469713    62.2842   5  10   0.7222   0.5750   2.2442  -0.2823   0.5769  -0.8964 3945.00    0.0
2018/11/09 01:06:00.000  -74.425548688  163.418475878    62.6377   5  10   0.7221   0.5742   2.2337  -0.2788   0.5659  -0.8918 3975.00    0.0
2018/11/09 01:06:30.000  -74.425549484  163.418465538    61.7495   5  10   0.7223   0.5738   2.2246  -0.2754   0.5549  -0.8876 4005.00    0.0
2018/11/09 01:07:00.000  -74.425551345  163.418468399    63.2357   5  10   0.7227   0.5737   2.2171  -0.2722   0.5441  -0.8839 4035.00    0.0
2018/11/09 01:07:30.000  -74.425548612  163.418472383    61.7728   5  10   0.7235   0.5738   2.2111  -0.2690   0.5334  -0.8806 4065.00    0.0
2018/11/09 01:08:00.000  -74.425549034  163.418470172    62.8699   5  10   0.7218   0.5717   2.1926  -0.2647   0.5204  -0.8738 4095.00    0.0
2018/11/09 01:08:30.000  -74.425547724  163.418475851    62.5740   5  10   0.7204   0.5699   2.1756  -0.2605   0.5077  -0.8675 4125.00    0.0
2018/11/09 01:09:00.000  -74.425548137  163.418467392    61.8667   5  10   0.7194   0.5684   2.1603  -0.2565   0.4951  -0.8617 4155.00    0.0
2018/11/09 01:09:30.000  -74.425547926  163.418471911    62.7454   5  10   0.7186   0.5672   2.1465  -0.2526   0.4826  -0.8563 4185.00    0.0
2018/11/09 01:10:00.000  -74.425548862  163.418472512    62.4947   5  11   0.6191   0.5492   1.7925  -0.1076   0.2467  -0.5508 4215.00    0.0
2018/11/09 01:10:30.000  -74.425549928  163.418472319    62.2641   5  11   0.6193   0.5492   1.7892  -0.1032   0.2321  -0.5492 4245.00    0.0
2018/11/09 01:11:00.000  -74.425549384  163.418472435    63.0315   5  11   0.6198   0.5495   1.7871  -0.0986   0.2165  -0.5478 4275.00    0.0
2018/11/09 01:11:30.000  -74.425547890  163.418472789    62.7206   5  11   0.6204   0.5500   1.7861  -0.0939   0.1995  -0.5466 4305.00    0.0
2018/11/09 01:12:00.000  -74.425551024  163.418475776    62.4095   5  11   0.6212   0.5508   1.7864  -0.0889   0.1808  -0.5455 4335.00    0.0
2018/11/09 01:12:30.000  -74.425550414  163.418476031    62.0006   5  11   0.6223   0.5519   1.7879  -0.0836   0.1596  -0.5446 4365.00    0.0
2018/11/09 01:13:00.000  -74.425548297  163.418473059    62.0336   5  11   0.6215   0.5508   1.7796  -0.0777   0.1375  -0.5428 4395.00    0.0
2018/11/09 01:13:30.000  -74.425550002  163.418469598    62.3438   5  11   0.6210   0.5500   1.7724  -0.0714   0.1110  -0.5412 4425.00    0.0
2018/11/09 01:14:00.000  -74.425550454  163.418469949    63.2199   5  12   0.6131   0.5268   1.7006  -0.1388  -0.2626  -0.5809 4455.00    0.0
2018/11/09 01:14:30.000  -74.425551367  163.418471408    62.4950   5  12   0.6127   0.5265   1.6981  -0.1363  -0.2723  -0.5796 4485.00    0.0
2018/11/09 01:15:00.000  -74.425548619  163.418466226    63.2419   5  12   0.6126   0.5265   1.6967  -0.1338  -0.2819  -0.5784 4515.00    0.0
2018/11/09 01:15:30.000  -74.425549217  163.418475563    62.5424   5  12   0.6126   0.5268   1.6967  -0.1313  -0.2917  -0.5774 4545.00    0.0
2018/11/09 01:16:00.000  -74.425549811  163.418474046    63.0008   5  12   0.6129   0.5273   1.6978  -0.1289  -0.3014  -0.5767 4575.00    0.0
2018/11/09 01:16:30.000  -74.425552977  163.418477605    63.1485   5  12   0.6134   0.5281   1.7001  -0.1265  -0.3112  -0.5761 4605.00    0.0
2018/11/09 01:17:00.000  -74.425549535  163.418478540    62.9279   5  12   0.6141   0.5291   1.7034  -0.1241  -0.3211  -0.5756 4635.00    0.0
2018/11/09 01:17:30.000  -74.425548137  163.418472810    62.5685   5  12   0.6150   0.5303   1.7079  -0.1217  -0.3310  -0.5754 4665.00    0.0
2018/11/09 01:18:00.000  -74.425553924  163.418473325    64.0088   5  12   0.6141   0.5296   1.7029  -0.1187  -0.3377  -0.5738 4695.00    0.0
2018/11/09 01:18:30.000  -74.425552440  163.418470997    63.3747   5  12   0.6135   0.5290   1.6990  -0.1157  -0.3445  -0.5724 4725.00    0.0
2018/11/09 01:19:00.000  -74.425551274  163.418473901    62.1575   5  12   0.6130   0.5288   1.6962  -0.1127  -0.3515  -0.5711 4755.00    0.0
2018/11/09 01:19:30.000  -74.425549800  163.418475794    62.0460   5  12   0.6128   0.5287   1.6945  -0.1097  -0.3586  -0.5701 4785.00    0.0
2018/11/09 01:20:00.000  -74.425547626  163.418469003    62.1646   5  12   0.6127   0.5289   1.6940  -0.1067  -0.3659  -0.5692 4815.00    0.0
2018/11/09 01:20:30.000  -74.425548995  163.418474836    62.0307   5  12   0.6129   0.5294   1.6948  -0.1036  -0.3735  -0.5686 4845.00    0.0
2018/11/09 01:21:00.000  -74.425549217  163.418469151    62.8560   5  12   0.6133   0.5301   1.6968  -0.1006  -0.3812  -0.5681 4875.00    0.0
2018/11/09 01:21:30.000  -74.425549021  163.418473855    63.1456   5  12   0.6139   0.5311   1.7000  -0.0975  -0.3891  -0.5678 4905.00    0.0
2018/11/09 01:22:00.000  -74.425550177  163.418478841    61.6022   5  12   0.6147   0.5323   1.7043  -0.0944  -0.3971  -0.5677 4935.00    0.0
2018/11/09 01:22:30.000  -74.425550083  163.418476975    62.5820   5  12   0.6157   0.5338   1.7097  -0.0913  -0.4054  -0.5678 4965.00    0.0
2018/11/09 01:23:00.000  -74.425548030  163.418478788    62.3948   5  12   0.6150   0.5333   1.7055  -0.0873  -0.4106  -0.5665 4995.00    0.0
2018/11/09 01:23:30.000  -74.425548279  163.418476878    62.3938   5  12   0.6144   0.5329   1.7024  -0.0833  -0.4160  -0.5654 5025.00    0.0
2018/11/09 01:24:00.000  -74.425550978  163.418475263    62.5907   5  12   0.6141   0.5329   1.7004  -0.0792  -0.4217  -0.5645 5055.00    0.0
2018/11/09 01:24:30.000  -74.425548697  163.418474304    62.3470   5  12   0.6140   0.5330   1.6995  -0.0749  -0.4275  -0.5638 5085.00    0.0
2018/11/09 01:25:00.000  -74.425549426  163.418474248    62.4369   5  12   0.6140   0.5334   1.6998  -0.0704  -0.4336  -0.5632 5115.00    0.0
2018/11/09 01:25:30.000  -74.425549478  163.418476730    62.1670   5  12   0.6143   0.5341   1.7015  -0.0658  -0.4400  -0.5629 5145.00    0.0
2018/11/09 01:26:00.000  -74.425550169  163.418483394    61.8874   5  12   0.6148   0.5350   1.7044  -0.0609  -0.4466  -0.5628 5175.00    0.0
2018/11/09 01:26:30.000  -74.425549841  163.418467375    62.6152   5  12   0.6156   0.5362   1.7084  -0.0556  -0.4534  -0.5628 5205.00    0.0
2018/11/09 01:27:00.000  -74.425550002  163.418477286    62.4043   5  12   0.6165   0.5376   1.7135  -0.0499  -0.4605  -0.5630 5235.00    0.0
2018/11/09 01:27:30.000  -74.425550562  163.418471691    62.2325   5  12   0.6176   0.5393   1.7198  -0.0436  -0.4678  -0.5634 5265.00    0.0
2018/11/09 01:28:00.000  -74.425550511  163.418477222    63.0241   5  12   0.6169   0.5389   1.7163  -0.0348  -0.4721  -0.5625 5295.00    0.0
2018/11/09 01:28:30.000  -74.425551555  163.418479535    63.3329   5  12   0.6165   0.5387   1.7140  -0.0231  -0.4767  -0.5618 5325.00    0.0
2018/11/09 01:29:00.000  -74.425551249  163.418478742    62.7657   5  12   0.6163   0.5388   1.7128   0.0116  -0.4815  -0.5612 5355.00    0.0
2018/11/09 01:29:30.000  -74.425550278  163.418477705    62.2429   5  12   0.6163   0.5392   1.7127   0.0281  -0.4865  -0.5608 5385.00    0.0
2018/11/09 01:30:00.000  -74.425550264  163.418480956    62.0104   5  12   0.6164   0.5397   1.7139   0.0379  -0.4918  -0.5607 5415.00    0.0
2018/11/09 01:30:30.000  -74.425552232  163.418479258    63.5128   5  12   0.6169   0.5406   1.7163   0.0455  -0.4974  -0.5607 5445.00    0.0
2018/11/09 01:31:00.000  -74.425550360  163.418483578    62.2562   5  12   0.6175   0.5417   1.7199   0.0520  -0.5033  -0.5609 5475.00    0.0
2018/11/09 01:31:30.000  -74.425552073  163.418476644    63.0779   5  12   0.6183   0.5430   1.7246   0.0576  -0.5094  -0.5613 5505.00    0.0
2018/11/09 01:32:00.000  -74.425547585  163.418481601    62.8472   5  12   0.6193   0.5446   1.7304   0.0627  -0.5158  -0.5618 5535.00    0.0
2018/11/09 01:32:30.000  -74.425549854  163.418475497    62.8106   5  12   0.6205   0.5464   1.7373   0.0674  -0.5224  -0.5626 5565.00    0.0
2018/11/09 01:33:00.000  -74.425550938  163.418476725    62.8253   5  12   0.6200   0.5461   1.7346   0.0723  -0.5261  -0.5620 5595.00    0.0
2018/11/09 01:33:30.000  -74.425551121  163.418475770    63.3146   5  12   0.6197   0.5461   1.7331   0.0768  -0.5300  -0.5617 5625.00    0.0
2018/11/09 01:34:00.000  -74.425551519  163.418476315    62.6329   5  12   0.6196   0.5464   1.7327   0.0811  -0.5342  -0.5615 5655.00    0.0
2018/11/09 01:34:30.000  -74.425550680  163.418472281    62.9852   5  12   0.6197   0.5468   1.7333   0.0850  -0.5386  -0.5615 5685.00    0.0
2018/11/09 01:35:00.000  -74.425549136  163.418475968    62.6909   5  12   0.6200   0.5475   1.7351   0.0888  -0.5433  -0.5616 5715.00    0.0
2018/11/09 01:35:30.000  -74.425549983  163.418477329    62.2485   5  12   0.6205   0.5485   1.7382   0.0923  -0.5483  -0.5620 5745.00    0.0
2018/11/09 01:36:00.000  -74.425551281  163.418478119    62.8936   5  12   0.6212   0.5497   1.7423   0.0957  -0.5536  -0.5625 5775.00    0.0
2018/11/09 01:36:30.000  -74.425553202  163.418479135    62.9433   5  12   0.6221   0.5511   1.7476   0.0990  -0.5591  -0.5633 5805.00    0.0
2018/11/09 01:37:00.000  -74.425550065  163.418476608    62.8487   5  12   0.6233   0.5528   1.7538   0.1021  -0.5648  -0.5641 5835.00    0.0
2018/11/09 01:37:30.000  -74.425551213  163.418477309    62.9791   5  12   0.6246   0.5547   1.7610   0.1051  -0.5708  -0.5652 5865.00    0.0
2018/11/09 01:38:00.000  -74.425552925  163.418478234    62.4348   5  12   0.6242   0.5545   1.7591   0.1083  -0.5739  -0.5650 5895.00    0.0
2018/11/09 01:38:30.000  -74.425551974  163.418480980    62.6418   5  12   0.6240   0.5546   1.7582   0.1114  -0.5773  -0.5650 5925.00    0.0
2018/11/09 01:39:00.000  -74.425551486  163.418477029    62.4563   5  12   0.6240   0.5549   1.7584   0.1144  -0.5809  -0.5652 5955.00    0.0
2018/11/09 01:39:30.000  -74.425551304  163.418481924    62.9645   5  12   0.6242   0.5555   1.7596   0.1173  -0.5848  -0.5656 5985.00    0.0
2018/11/09 01:40:00.000  -74.425552300  163.418481299    61.8736   5  12   0.6246   0.5562   1.7619   0.1201  -0.5889  -0.5661 6015.00    0.0
2018/11/09 01:40:30.000  -74.425551962  163.418478679    63.1108   5  12   0.6253   0.5573   1.7653   0.1228  -0.5934  -0.5668 6045.00    0.0
2018/11/09 01:41:00.000  -74.425551204  163.418479891    62.6183   5  12   0.6261   0.5585   1.7698   0.1254  -0.5980  -0.5677 6075.00    0.0
2018/11/09 01:41:30.000  -74.425550146  163.418476637    62.2049   5  12   0.6272   0.5600   1.7752   0.1279  -0.6029  -0.5687 6105.00    0.0
2018/11/09 01:42:00.000  -74.425551040  163.418481743    62.5995   5  12   0.6285   0.5617   1.7816   0.1304  -0.6080  -0.5698 6135.00    0.0
2018/11/09 01:42:30.000  -74.425548530  163.418477087    61.7619   5  12   0.6299   0.5636   1.7888   0.1328  -0.6133  -0.5711 6165.00    0.0
2018/11/09 01:43:00.000  -74.425549288  163.418477920    62.1581   5  12   0.6297   0.5635   1.7875   0.1354  -0.6159  -0.5714 6195.00    0.0
2018/11/09 01:43:30.000  -74.425550234  163.418472825    62.9172   5  12   0.6296   0.5636   1.7871   0.1379  -0.6188  -0.5718 6225.00    0.0
2018/11/09 01:44:00.000  -74.425551856  163.418471942    62.5870   5  11   0.6607   0.5677   1.8243   0.1807  -0.6026  -0.5047 6255.00    0.0
2018/11/09 01:44:30.000  -74.425550801  163.418472233    62.0370   5  11   0.6607   0.5682   1.8264   0.1821  -0.6060  -0.5053 6285.00    0.0
2018/11/09 01:45:00.000  -74.425553020  163.418484807    61.9207   5  11   0.6608   0.5689   1.8295   0.1835  -0.6096  -0.5061 6315.00    0.0
2018/11/09 01:45:30.000  -74.425551119  163.418484425    61.2539   5  10   0.6726   0.6282   2.0844   0.0407  -0.7990  -0.3675 6345.00    0.0
2018/11/09 01:46:00.000  -74.425551762  163.418478770    61.8973   5  10   0.6730   0.6301   2.0951   0.0479  -0.8054  -0.3684 6375.00    0.0
2018/11/09 01:46:30.000  -74.425552597  163.418485770    61.1482   5   9   0.7740   0.6844   2.6321   0.3205  -1.0358  -0.8587 6405.00    0.0
2018/11/09 01:47:00.000  -74.425550529  163.418487881    60.5268   5   9   0.7756   0.6889   2.6604   0.3255  -1.0497  -0.8669 6435.00    0.0
2018/11/09 01:47:30.000  -74.425552579  163.418478266    61.3468   5   9   0.7775   0.6938   2.6905   0.3307  -1.0642  -0.8755 6465.00    0.0
2018/11/09 01:48:00.000  -74.425552675  163.418476941    62.1771   5   9   0.7768   0.6954   2.7047   0.3348  -1.0724  -0.8815 6495.00    0.0
2018/11/09 01:48:30.000  -74.425550492  163.418484899    61.3900   5   9   0.7765   0.6974   2.7209   0.3390  -1.0812  -0.8880 6525.00    0.0
2018/11/09 01:49:00.000  -74.425550608  163.418488514    60.1599   5   9   0.7764   0.6998   2.7390   0.3432  -1.0906  -0.8947 6555.00    0.0
2018/11/09 01:49:30.000  -74.425549736  163.418482153    60.8163   5   9   0.7767   0.7025   2.7588   0.3476  -1.1007  -0.9019 6585.00    0.0
2018/11/09 01:50:00.000  -74.425554895  163.418471087    63.1892   5   9   0.7773   0.7056   2.7803   0.3521  -1.1114  -0.9094 6615.00    0.0
2018/11/09 01:50:30.000  -74.425550772  163.418477875    62.6444   5   9   0.7783   0.7090   2.8040   0.3566  -1.1228  -0.9174 6645.00    0.0
2018/11/09 01:51:00.000  -74.425552650  163.418489458    61.3033   5   9   0.7796   0.7129   2.8294   0.3613  -1.1349  -0.9257 6675.00    0.0
2018/11/09 01:51:30.000  -74.425549419  163.418489324    60.2528   5   9   0.7812   0.7170   2.8565   0.3661  -1.1476  -0.9344 6705.00    0.0
2018/11/09 01:52:00.000  -74.425553597  163.418483471    62.6071   5   9   0.7832   0.7215   2.8853   0.3710  -1.1608  -0.9435 6735.00    0.0
2018/11/09 01:52:30.000  -74.425553595  163.418489926    62.2278   5   9   0.7855   0.7263   2.9156   0.3759  -1.1746  -0.9529 6765.00    0.0
2018/11/09 01:53:00.000  -74.425548911  163.418489724    59.3177   5   9   0.7851   0.7277   2.9297   0.3797  -1.1817  -0.9594 6795.00    0.0
2018/11/09 01:53:30.000  -74.425550869  163.418479128    61.9247   5   9   0.7851   0.7295   2.9454   0.3835  -1.1892  -0.9663 6825.00    0.0
2018/11/09 01:54:00.000  -74.425552618  163.418480655    61.1030   5   9   0.7854   0.7315   2.9626   0.3874  -1.1973  -0.9734 6855.00    0.0
2018/11/09 01:54:30.000  -74.425551939  163.418477933    62.7369   5   9   0.7860   0.7338   2.9812   0.3913  -1.2059  -0.9809 6885.00    0.0
2018/11/09 01:55:00.000  -74.425551454  163.418473922    62.5588   5   9   0.7869   0.7364   3.0012   0.3954  -1.2149  -0.9886 6915.00    0.0
2018/11/09 01:55:30.000  -74.425551233  163.418483704    60.6306   5   9   0.7882   0.7393   3.0228   0.3995  -1.2245  -0.9966 6945.00    0.0
2018/11/09 01:56:00.000  -74.425550686  163.418472102    62.5226   5   9   0.7898   0.7425   3.0457   0.4036  -1.2345  -1.0049 6975.00    0.0
2018/11/09 01:56:30.000  -74.425551198  163.418480541    61.0500   5   9   0.7918   0.7460   3.0698   0.4078  -1.2449  -1.0134 7005.00    0.0
2018/11/09 01:57:00.000  -74.425554822  163.418474047    63.9960   5   9   0.7940   0.7498   3.0948   0.4121  -1.2556  -1.0221 7035.00    0.0
2018/11/09 01:57:30.000  -74.425551539  163.418476011    61.4004   5   9   0.7965   0.7538   3.1209   0.4164  -1.2667  -1.0310 7065.00    0.0
2018/11/09 01:58:00.000  -74.425553057  163.418479632    62.1225   5   9   0.7964   0.7542   3.1311   0.4193  -1.2709  -1.0369 7095.00    0.0
2018/11/09 01:58:30.000  -74.425553756  163.418476610    63.7860   5   8   0.9700   0.7720   4.0712   0.5174  -1.4299  -1.5876 7125.00    0.0
2018/11/09 01:59:00.000  -74.425553365  163.418471684    62.4265   5   8   0.9757   0.7751   4.1220   0.5268  -1.4474  -1.6105 7155.00    0.0
2018/11/09 01:59:30.000  -74.425555709  163.418468800    63.3540   5   9   0.7316   0.7319   2.9113   0.3374  -1.1632  -0.8433 7185.00    0.0
2018/11/09 02:00:00.000  -74.425555241  163.418472492    63.3681   5   9   0.7323   0.7335   2.9346   0.3425  -1.1717  -0.8531 7215.00    0.0
2018/11/09 02:00:30.000  -74.425554442  163.418475882    63.3431   5   9   0.7332   0.7354   2.9593   0.3475  -1.1807  -0.8631 7245.00    0.0
2018/11/09 02:01:00.000  -74.425555168  163.418468561    63.0000   5   9   0.7345   0.7375   2.9853   0.3526  -1.1900  -0.8733 7275.00    0.0
2018/11/09 02:01:30.000  -74.425555001  163.418462894    64.1237   5   9   0.7362   0.7399   3.0123   0.3577  -1.1997  -0.8837 7305.00    0.0
2018/11/09 02:02:00.000  -74.425555346  163.418474813    64.1004   5   9   0.7381   0.7426   3.0404   0.3628  -1.2097  -0.8943 7335.00    0.0
2018/11/09 02:02:30.000  -74.425554826  163.418470581    64.6646   5   9   0.7403   0.7456   3.0695   0.3679  -1.2200  -0.9050 7365.00    0.0
2018/11/09 02:03:00.000  -74.425551507  163.418476422    62.7515   5   9   0.7402   0.7452   3.0850   0.3723  -1.2245  -0.9143 7395.00    0.0
2018/11/09 02:03:30.000  -74.425552353  163.418473802    63.9566   5   9   0.7404   0.7451   3.1015   0.3765  -1.2293  -0.9235 7425.00    0.0
2018/11/09 02:04:00.000  -74.425553769  163.418471541    64.5997   5   9   0.7408   0.7452   3.1189   0.3808  -1.2343  -0.9329 7455.00    0.0
2018/11/09 02:04:30.000  -74.425556073  163.418468094    64.0362   5   9   0.7416   0.7456   3.1370   0.3850  -1.2395  -0.9423 7485.00    0.0
2018/11/09 02:05:00.000  -74.425552461  163.418480136    62.8079   5   9   0.7426   0.7461   3.1559   0.3891  -1.2449  -0.9518 7515.00    0.0
2018/11/09 02:05:30.000  -74.425557337  163.418463187    64.8587   5   9   0.7440   0.7470   3.1757   0.3933  -1.2506  -0.9614 7545.00    0.0
2018/11/09 02:06:00.000  -74.425555456  163.418474041    63.3797   5   9   0.7458   0.7480   3.1962   0.3975  -1.2564  -0.9710 7575.00    0.0
2018/11/09 02:06:30.000  -74.425555740  163.418460981    64.2964   5   9   0.7478   0.7493   3.2171   0.4017  -1.2623  -0.9808 7605.00    0.0
2018/11/09 02:07:00.000  -74.425552177  163.418473798    62.3813   5   9   0.7501   0.7508   3.2386   0.4058  -1.2684  -0.9906 7635.00    0.0
2018/11/09 02:07:30.000  -74.425554480  163.418467974    64.3168   5   9   0.7527   0.7524   3.2605   0.4100  -1.2745  -1.0004 7665.00    0.0
2018/11/09 02:08:00.000  -74.425552426  163.418479111    63.0595   5   9   0.7528   0.7507   3.2686   0.4129  -1.2747  -1.0080 7695.00    0.0
2018/11/09 02:08:30.000  -74.425551000  163.418471427    63.3244   5   9   0.7532   0.7492   3.2771   0.4158  -1.2749  -1.0155 7725.00    0.0
2018/11/09 02:09:00.000  -74.425553411  163.418466625    64.3849   5   9   0.7539   0.7479   3.2860   0.4186  -1.2752  -1.0229 7755.00    0.0
2018/11/09 02:09:30.000  -74.425554063  163.418479937    63.2083   5   9   0.7549   0.7467   3.2951   0.4214  -1.2755  -1.0303 7785.00    0.0
2018/11/09 02:10:00.000  -74.425552781  163.418475170    64.5933   5   9   0.7561   0.7458   3.3045   0.4242  -1.2759  -1.0377 7815.00    0.0
2018/11/09 02:10:30.000  -74.425555843  163.418486652    62.8516   5   9   0.7577   0.7451   3.3142   0.4269  -1.2763  -1.0450 7845.00    0.0
2018/11/09 02:11:00.000  -74.425556280  163.418475698    63.8150   5   9   0.7596   0.7446   3.3242   0.4296  -1.2768  -1.0523 7875.00    0.0
2018/11/09 02:11:30.000  -74.425555237  163.418471517    64.8601   5   9   0.7617   0.7443   3.3342   0.4323  -1.2772  -1.0595 7905.00    0.0
2018/11/09 02:12:00.000  -74.425556668  163.418466272    65.2102   5   9   0.7641   0.7441   3.3443   0.4349  -1.2777  -1.0667 7935.00    0.0
2018/11/09 02:12:30.000  -74.425557356  163.418463913    66.0508   5   9   0.7669   0.7442   3.3545   0.4376  -1.2781  -1.0738 7965.00    0.0
2018/11/09 02:13:00.000  -74.425556602  163.418469436    64.6485   5   9   0.7669   0.7409   3.3511   0.4387  -1.2725  -1.0781 7995.00    0.0
2018/11/09 02:13:30.000  -74.425557526  163.418469473    64.2664   5   9   0.7672   0.7378   3.3478   0.4398  -1.2670  -1.0821 8025.00    0.0
2018/11/09 02:14:00.000  -74.425556153  163.418470017    64.3117   5   9   0.7678   0.7348   3.3446   0.4408  -1.2614  -1.0861 8055.00    0.0
2018/11/09 02:14:30.000  -74.425556044  163.418457066    65.8780   5   9   0.7687   0.7321   3.3415   0.4418  -1.2559  -1.0900 8085.00    0.0
2018/11/09 02:15:00.000  -74.425555998  163.418458376    65.3872   5   9   0.7698   0.7297   3.3385   0.4428  -1.2504  -1.0938 8115.00    0.0
2018/11/09 02:15:30.000  -74.425556223  163.418468640    65.0736   5   9   0.7712   0.7275   3.3357   0.4437  -1.2450  -1.0976 8145.00    0.0
2018/11/09 02:16:00.000  -74.425557554  163.418466779    65.2507   5   9   0.7729   0.7255   3.3332   0.4447  -1.2397  -1.1013 8175.00    0.0
2018/11/09 02:16:30.000  -74.425557295  163.418460269    65.8208   5   9   0.7749   0.7238   3.3307   0.4457  -1.2345  -1.1049 8205.00    0.0
2018/11/09 02:17:00.000  -74.425557986  163.418466445    65.5547   5   9   0.7771   0.7224   3.3284   0.4468  -1.2293  -1.1086 8235.00    0.0
2018/11/09 02:17:30.000  -74.425557668  163.418459234    65.7751   5   9   0.7797   0.7212   3.3263   0.4479  -1.2243  -1.1123 8265.00    0.0
2018/11/09 02:18:00.000  -74.425555861  163.418468147    66.2865   5   9   0.7794   0.7167   3.3111   0.4472  -1.2134  -1.1125 8295.00    0.0
2018/11/09 02:18:30.000  -74.425557188  163.418465468    66.3216   5   9   0.7794   0.7125   3.2963   0.4465  -1.2026  -1.1127 8325.00    0.0
2018/11/09 02:19:00.000  -74.425559498  163.418455699    66.6340   5   9   0.7796   0.7085   3.2817   0.4458  -1.1921  -1.1129 8355.00    0.0
2018/11/09 02:19:30.000  -74.425554373  163.418465648    64.7598   5   9   0.7801   0.7049   3.2675   0.4452  -1.1817  -1.1131 8385.00    0.0
2018/11/09 02:20:00.000  -74.425553894  163.418468794    65.4832   5   9   0.7809   0.7015   3.2538   0.4446  -1.1715  -1.1133 8415.00    0.0
2018/11/09 02:20:30.000  -74.425558026  163.418457159    66.5323   5   9   0.7821   0.6986   3.2407   0.4442  -1.1616  -1.1136 8445.00    0.0
2018/11/09 02:21:00.000  -74.425557926  163.418462793    65.9883   5   9   0.7835   0.6960   3.2281   0.4438  -1.1521  -1.1140 8475.00    0.0
2018/11/09 02:21:30.000  -74.425557102  163.418458826    65.8339   5   9   0.7852   0.6937   3.2160   0.4435  -1.1428  -1.1145 8505.00    0.0
2018/11/09 02:22:00.000  -74.425555925  163.418464599    65.1588   5   9   0.7873   0.6918   3.2045   0.4434  -1.1338  -1.1151 8535.00    0.0
2018/11/09 02:22:30.000  -74.425557842  163.418453187    66.5714   5   9   0.7896   0.6902   3.1937   0.4434  -1.1252  -1.1160 8565.00    0.0
2018/11/09 02:23:00.000  -74.425555894  163.418457025    65.1243   5   9   0.7890   0.6854   3.1705   0.4414  -1.1109  -1.1130 8595.00    0.0
2018/11/09 02:23:30.000  -74.425550438  163.418469350    63.2343   5   9   0.7886   0.6809   3.1481   0.4395  -1.0970  -1.1102 8625.00    0.0
2018/11/09 02:24:00.000  -74.425555124  163.418460729    64.5601   5   9   0.7885   0.6768   3.1265   0.4377  -1.0835  -1.1075 8655.00    0.0
2018/11/09 02:24:30.000  -74.425553994  163.418457365    65.0933   5   9   0.7887   0.6732   3.1058   0.4361  -1.0705  -1.1051 8685.00    0.0
2018/11/09 02:25:00.000  -74.425556463  163.418452369    65.0303   5   9   0.7893   0.6699   3.0859   0.4347  -1.0579  -1.1028 8715.00    0.0
2018/11/09 02:25:30.000  -74.425553029  163.418464740    65.0472   5   9   0.7902   0.6670   3.0672   0.4335  -1.0458  -1.1009 8745.00    0.0
2018/11/09 02:26:00.000  -74.425555481  163.418463107    64.6681   5   9   0.7915   0.6646   3.0494   0.4324  -1.0342  -1.0992 8775.00    0.0
2018/11/09 02:26:30.000  -74.425555354  163.418452917    65.0160   5   9   0.7931   0.6626   3.0326   0.4315  -1.0232  -1.0978 8805.00    0.0
2018/11/09 02:27:00.000  -74.425554492  163.418459368    65.1833   5   9   0.7950   0.6609   3.0168   0.4308  -1.0126  -1.0967 8835.00    0.0
2018/11/09 02:27:30.000  -74.425555018  163.418463535    64.9792   5   9   0.7973   0.6597   3.0021   0.4304  -1.0026  -1.0960 8865.00    0.0
2018/11/09 02:28:00.000  -74.425557407  163.418464365    64.9212   5   9   0.7964   0.6554   2.9758   0.4278  -0.9872  -1.0913 8895.00    0.0
2018/11/09 02:28:30.000  -74.425555245  163.418462062    64.4507   5   9   0.7958   0.6515   2.9508   0.4255  -0.9723  -1.0869 8925.00    0.0
2018/11/09 02:29:00.000  -74.425557291  163.418453922    65.1777   5   9   0.7956   0.6480   2.9269   0.4234  -0.9580  -1.0829 8955.00    0.0
2018/11/09 02:29:30.000  -74.425556387  163.418456570    65.4565   5   9   0.7958   0.6449   2.9042   0.4215  -0.9443  -1.0791 8985.00    0.0
2018/11/09 02:30:00.000  -74.425554507  163.418465604    64.7028   5   9   0.7962   0.6423   2.8828   0.4198  -0.9313  -1.0758 9015.00    0.0
2018/11/09 02:30:30.000  -74.425556761  163.418456076    64.4142   5   8   0.8314   0.6504   3.4320   0.3845  -0.7915  -1.2643 9045.00    0.0
2018/11/09 02:31:00.000  -74.425557507  163.418461907    65.5618   5   8   0.8334   0.6491   3.4186   0.3822  -0.7751  -1.2648 9075.00    0.0
2018/11/09 02:31:30.000  -74.425558771  163.418455645    66.3790   5   8   0.8358   0.6482   3.4064   0.3801  -0.7591  -1.2656 9105.00    0.0
2018/11/09 02:32:00.000  -74.425555478  163.418467105    65.2332   5   8   0.8386   0.6477   3.3954   0.3782  -0.7434  -1.2670 9135.00    0.0
2018/11/09 02:32:30.000  -74.425556618  163.418467352    64.0928   5   8   0.8418   0.6477   3.3855   0.3764  -0.7282  -1.2687 9165.00    0.0
2018/11/09 02:33:00.000  -74.425553814  163.418463652    63.2588   5   8   0.8414   0.6446   3.3619   0.3727  -0.7079  -1.2652 9195.00    0.0
2018/11/09 02:33:30.000  -74.425557149  163.418462168    65.1266   5   8   0.8415   0.6420   3.3396   0.3692  -0.6880  -1.2621 9225.00    0.0
2018/11/09 02:34:00.000  -74.425555698  163.418468257    64.2571   5   8   0.8418   0.6399   3.3184   0.3660  -0.6685  -1.2594 9255.00    0.0
2018/11/09 02:34:30.000  -74.425556903  163.418459125    65.4663   5   8   0.8426   0.6382   3.2986   0.3629  -0.6494  -1.2572 9285.00    0.0
2018/11/09 02:35:00.000  -74.425557310  163.418457777    65.4676   5   8   0.8437   0.6369   3.2802   0.3601  -0.6306  -1.2554 9315.00    0.0
2018/11/09 02:35:30.000  -74.425558704  163.418456885    65.8029   5   8   0.8453   0.6362   3.2633   0.3576  -0.6123  -1.2543 9345.00    0.0
2018/11/09 02:36:00.000  -74.425556968  163.418456176    66.0989   5   8   0.8473   0.6358   3.2478   0.3553  -0.5943  -1.2536 9375.00    0.0
2018/11/09 02:36:30.000  -74.425553356  163.418457963    64.3556   5   8   0.8497   0.6359   3.2338   0.3532  -0.5767  -1.2535 9405.00    0.0
2018/11/09 02:37:00.000  -74.425554468  163.418452902    64.3365   5   9   0.8481   0.6362   2.9739   0.3492  -0.5778  -1.2959 9435.00    0.0
2018/11/09 02:37:30.000  -74.425553941  163.418453834    63.6500   5   9   0.8508   0.6370   2.9719   0.3470  -0.5653  -1.2984 9465.00    0.0
2018/11/09 02:38:00.000  -74.425556627  163.418460047    65.4145   5   9   0.8498   0.6349   2.9574   0.3427  -0.5482  -1.2950 9495.00    0.0
2018/11/09 02:38:30.000  -74.425558830  163.418453813    65.1634   5   9   0.8492   0.6331   2.9439   0.3386  -0.5313  -1.2920 9525.00    0.0
2018/11/09 02:39:00.000  -74.425560031  163.418447110    66.1263   5   9   0.8489   0.6318   2.9315   0.3348  -0.5147  -1.2896 9555.00    0.0
2018/11/09 02:39:30.000  -74.425560143  163.418446309    65.0632   5   8   0.8540   0.6602   3.1694   0.3569  -0.0933  -1.2433 9585.00    0.0
2018/11/09 02:40:00.000  -74.425556471  163.418455370    64.8495   5   8   0.8541   0.6603   3.1633   0.3530   0.1062  -1.2434 9615.00    0.0
2018/11/09 02:40:30.000  -74.425557279  163.418449784    65.7149   5   8   0.8547   0.6608   3.1586   0.3493   0.1757  -1.2441 9645.00    0.0
2018/11/09 02:41:00.000  -74.425555118  163.418453325    64.6852   5   8   0.8557   0.6618   3.1552   0.3458   0.2239  -1.2454 9675.00    0.0
2018/11/09 02:41:30.000  -74.425557623  163.418458067    65.1394   5   8   0.8571   0.6632   3.1532   0.3425   0.2629  -1.2473 9705.00    0.0
2018/11/09 02:42:00.000  -74.425556469  163.418454263    64.5468   5   8   0.8590   0.6651   3.1525   0.3393   0.2964  -1.2497 9735.00    0.0
2018/11/09 02:42:30.000  -74.425554350  163.418451223    64.9132   5   8   0.8612   0.6673   3.1533   0.3363   0.3263  -1.2527 9765.00    0.0
2018/11/09 02:43:00.000  -74.425558583  163.418453922    65.2154   5   8   0.8597   0.6665   3.1395   0.3315   0.3537  -1.2498 9795.00    0.0
2018/11/09 02:43:30.000  -74.425557432  163.418459632    65.2911   5   8   0.8586   0.6660   3.1269   0.3268   0.3785  -1.2474 9825.00    0.0
2018/11/09 02:44:00.000  -74.425558080  163.418461277    65.6416   5   8   0.8579   0.6659   3.1156   0.3224   0.4011  -1.2455 9855.00    0.0
2018/11/09 02:44:30.000  -74.425560428  163.418445287    66.4206   5   9   0.8114   0.6526   2.6065   0.2528   0.6364  -1.0388 9885.00    0.0
2018/11/09 02:45:00.000  -74.425559220  163.418455954    65.7313   5   9   0.8122   0.6537   2.6087   0.2491   0.6456  -1.0422 9915.00    0.0
2018/11/09 02:45:30.000  -74.425558560  163.418450900    65.1805   5   9   0.8135   0.6552   2.6121   0.2455   0.6549  -1.0461 9945.00    0.0
2018/11/09 02:46:00.000  -74.425557288  163.418449930    64.9567   5   9   0.8152   0.6570   2.6166   0.2420   0.6644  -1.0504 9975.00    0.0
2018/11/09 02:46:30.000  -74.425559291  163.418445654    65.6438   5   9   0.8172   0.6593   2.6222   0.2385   0.6741  -1.0553 10005.00    0.0
2018/11/09 02:47:00.000  -74.425558142  163.418451695    66.1523   5   9   0.8197   0.6619   2.6289   0.2350   0.6839  -1.0605 10035.00    0.0
2018/11/09 02:47:30.000  -74.425557453  163.418457825    65.3871   5   9   0.8226   0.6648   2.6369   0.2315   0.6940  -1.0663 10065.00    0.0
2018/11/09 02:48:00.000  -74.425557745  163.418459267    65.3773   5   9   0.8221   0.6647   2.6331   0.2272   0.7003  -1.0676 10095.00    0.0
2018/11/09 02:48:30.000  -74.425557589  163.418452433    65.8327   5   9   0.8219   0.6649   2.6303   0.2230   0.7066  -1.0693 10125.00    0.0
2018/11/09 02:49:00.000  -74.425558631  163.418451616    65.0570   5   9   0.8222   0.6655   2.6285   0.2188   0.7131  -1.0713 10155.00    0.0
2018/11/09 02:49:30.000  -74.425560034  163.418456406    65.9233   5   9   0.8228   0.6664   2.6278   0.2147   0.7198  -1.0739 10185.00    0.0
2018/11/09 02:50:00.000  -74.425558525  163.418456722    65.5136   5   9   0.8238   0.6677   2.6281   0.2106   0.7266  -1.0768 10215.00    0.0
2018/11/09 02:50:30.000  -74.425559483  163.418444553    65.0841   5   9   0.8253   0.6694   2.6299   0.2066   0.7337  -1.0803 10245.00    0.0
2018/11/09 02:51:00.000  -74.425559774  163.418447280    65.6401   5   9   0.8271   0.6714   2.6328   0.2026   0.7411  -1.0843 10275.00    0.0
2018/11/09 02:51:30.000  -74.425559099  163.418442091    64.9926   5   9   0.8294   0.6738   2.6369   0.1985   0.7487  -1.0888 10305.00    0.0
2018/11/09 02:52:00.000  -74.425559513  163.418461429    66.6007   5   9   0.8320   0.6766   2.6423   0.1944   0.7567  -1.0938 10335.00    0.0
2018/11/09 02:52:30.000  -74.425559819  163.418448476    65.3719   5   9   0.8350   0.6798   2.6489   0.1902   0.7649  -1.0992 10365.00    0.0
2018/11/09 02:53:00.000  -74.425562086  163.418451716    66.2765   5   9   0.8346   0.6797   2.6427   0.1858   0.7686  -1.0998 10395.00    0.0
2018/11/09 02:53:30.000  -74.425561438  163.418463389    66.4656   5   9   0.8345   0.6799   2.6375   0.1814   0.7724  -1.1008 10425.00    0.0
2018/11/09 02:54:00.000  -74.425559864  163.418463518    66.5312   5   9   0.8349   0.6805   2.6335   0.1771   0.7765  -1.1022 10455.00    0.0
2018/11/09 02:54:30.000  -74.425559028  163.418452718    66.1827   5   9   0.8356   0.6814   2.6307   0.1728   0.7809  -1.1041 10485.00    0.0
2018/11/09 02:55:00.000  -74.425559325  163.418453235    66.9346   5   9   0.8367   0.6827   2.6291   0.1685   0.7855  -1.1065 10515.00    0.0
2018/11/09 02:55:30.000  -74.425554642  163.418453541    64.4459   5   9   0.8383   0.6844   2.6289   0.1641   0.7906  -1.1094 10545.00    0.0
2018/11/09 02:56:00.000  -74.425561414  163.418453730    66.6205   5   9   0.8402   0.6864   2.6301   0.1596   0.7959  -1.1129 10575.00    0.0
2018/11/09 02:56:30.000  -74.425560466  163.418453867    66.7088   5   9   0.8425   0.6888   2.6325   0.1550   0.8016  -1.1168 10605.00    0.0
2018/11/09 02:57:00.000  -74.425556644  163.418445226    65.7706   5   9   0.8452   0.6916   2.6362   0.1503   0.8077  -1.1213 10635.00    0.0
2018/11/09 02:57:30.000  -74.425561822  163.418455014    66.7313   5   9   0.8483   0.6947   2.6412   0.1454   0.8142  -1.1262 10665.00    0.0
2018/11/09 02:58:00.000  -74.425557186  163.418449048    64.8200   5   9   0.8480   0.6945   2.6326   0.1412   0.8154  -1.1260 10695.00    0.0
2018/11/09 02:58:30.000  -74.425558535  163.418458079    65.5179   5   9   0.8480   0.6945   2.6252   0.1371   0.8169  -1.1262 10725.00    0.0
2018/11/09 02:59:00.000  -74.425559566  163.418452631    64.9592   5   9   0.8483   0.6949   2.6190   0.1330   0.8187  -1.1269 10755.00    0.0
2018/11/09 02:59:30.000  -74.425555372  163.418443341    64.4344   5   9   0.8491   0.6957   2.6141   0.1288   0.8209  -1.1281 10785.00    0.0
2018/11/09 03:00:00.000  -74.425558961  163.418453934    65.1084   5   9   0.8502   0.6968   2.6105   0.1245   0.8234  -1.1297 10815.00    0.0
2018/11/09 03:00:30.000  -74.425556977  163.418446767    64.7563   5   9   0.8518   0.6984   2.6084   0.1200   0.8264  -1.1320 10845.00    0.0
2018/11/09 03:01:00.000  -74.425559030  163.418449957    65.2846   5   9   0.8538   0.7002   2.6076   0.1153   0.8298  -1.1348 10875.00    0.0
2018/11/09 03:01:30.000  -74.425561235  163.418455348    66.7928   5   9   0.8561   0.7025   2.6082   0.1104   0.8337  -1.1381 10905.00    0.0
2018/11/09 03:02:00.000  -74.425559133  163.418448529    64.7428   5   9   0.8588   0.7051   2.6102   0.1051   0.8380  -1.1419 10935.00    0.0
2018/11/09 03:02:30.000  -74.425557858  163.418446047    64.8597   5   9   0.8619   0.7081   2.6134   0.0995   0.8427  -1.1462 10965.00    0.0
2018/11/09 03:03:00.000  -74.425560699  163.418454342    65.5129   5  10   0.8471   0.5843   2.1571   0.2682   0.3569  -1.0404 10995.00    0.0
2018/11/09 03:03:30.000  -74.425561831  163.418449224    65.9697   5  10   0.8472   0.5836   2.1526   0.2667   0.3595  -1.0411 11025.00    0.0
2018/11/09 03:04:00.000  -74.425557709  163.418456325    65.2513   5  10   0.8477   0.5831   2.1491   0.2654   0.3619  -1.0423 11055.00    0.0
2018/11/09 03:04:30.000  -74.425558241  163.418454277    65.9155   5  10   0.8486   0.5829   2.1466   0.2641   0.3644  -1.0439 11085.00    0.0
2018/11/09 03:05:00.000  -74.425559865  163.418453806    65.8250   5  10   0.8499   0.5829   2.1452   0.2630   0.3670  -1.0459 11115.00    0.0
2018/11/09 03:05:30.000  -74.425560398  163.418453526    65.5865   5  10   0.8515   0.5832   2.1449   0.2620   0.3696  -1.0484 11145.00    0.0
2018/11/09 03:06:00.000  -74.425564364  163.418447962    66.8333   5  10   0.8535   0.5837   2.1456   0.2610   0.3723  -1.0513 11175.00    0.0
2018/11/09 03:06:30.000  -74.425559280  163.418451682    65.5189   5  10   0.8559   0.5845   2.1473   0.2602   0.3751  -1.0546 11205.00    0.0
2018/11/09 03:07:00.000  -74.425559601  163.418460236    65.3107   5  10   0.8587   0.5855   2.1501   0.2594   0.3781  -1.0584 11235.00    0.0
2018/11/09 03:07:30.000  -74.425560193  163.418447682    65.1071   5  10   0.8617   0.5868   2.1539   0.2587   0.3812  -1.0625 11265.00    0.0
2018/11/09 03:08:00.000  -74.425558979  163.418452517    65.5339   5  10   0.8616   0.5858   2.1481   0.2574   0.3821  -1.0626 11295.00    0.0
2018/11/09 03:08:30.000  -74.425559622  163.418458332    65.3610   5  10   0.8618   0.5851   2.1434   0.2562   0.3830  -1.0632 11325.00    0.0
2018/11/09 03:09:00.000  -74.425561717  163.418450310    65.3863   5  10   0.8624   0.5847   2.1397   0.2551   0.3840  -1.0641 11355.00    0.0
2018/11/09 03:09:30.000  -74.425561320  163.418458119    65.9868   5  10   0.8633   0.5844   2.1370   0.2542   0.3852  -1.0655 11385.00    0.0
2018/11/09 03:10:00.000  -74.425559164  163.418447835    65.2283   5  10   0.8646   0.5845   2.1353   0.2533   0.3864  -1.0673 11415.00    0.0
2018/11/09 03:10:30.000  -74.425560514  163.418450836    65.6592   5  10   0.8663   0.5848   2.1348   0.2525   0.3879  -1.0695 11445.00    0.0
2018/11/09 03:11:00.000  -74.425562456  163.418454166    65.3476   5  10   0.8683   0.5853   2.1352   0.2517   0.3896  -1.0722 11475.00    0.0
2018/11/09 03:11:30.000  -74.425562256  163.418453842    65.5982   5  10   0.8707   0.5862   2.1367   0.2510   0.3915  -1.0752 11505.00    0.0
2018/11/09 03:12:00.000  -74.425560051  163.418462471    64.8015   5  10   0.8734   0.5872   2.1392   0.2504   0.3936  -1.0787 11535.00    0.0
2018/11/09 03:12:30.000  -74.425555690  163.418455996    63.9929   5  10   0.8764   0.5885   2.1426   0.2498   0.3960  -1.0825 11565.00    0.0
2018/11/09 03:13:00.000  -74.425558567  163.418458320    64.8589   5  10   0.8763   0.5876   2.1368   0.2489   0.3955  -1.0824 11595.00    0.0
2018/11/09 03:13:30.000  -74.425557877  163.418455843    64.2262   5  10   0.8766   0.5869   2.1318   0.2481   0.3951  -1.0827 11625.00    0.0
2018/11/09 03:14:00.000  -74.425557852  163.418457254    64.4818   5  10   0.8771   0.5864   2.1279   0.2474   0.3949  -1.0834 11655.00    0.0
2018/11/09 03:14:30.000  -74.425559026  163.418465135    64.8139   5  10   0.8780   0.5862   2.1250   0.2467   0.3949  -1.0845 11685.00    0.0
2018/11/09 03:15:00.000  -74.425557858  163.418452038    63.8071   5  10   0.8793   0.5862   2.1231   0.2461   0.3951  -1.0860 11715.00    0.0
2018/11/09 03:15:30.000  -74.425561017  163.418453489    65.5511   5  10   0.8809   0.5865   2.1223   0.2456   0.3957  -1.0879 11745.00    0.0
2018/11/09 03:16:00.000  -74.425562359  163.418454968    64.8510   5  10   0.8829   0.5871   2.1224   0.2451   0.3965  -1.0902 11775.00    0.0
2018/11/09 03:16:30.000  -74.425556759  163.418457202    63.9254   5  11   0.8398   0.5722   1.9456   0.1482   0.5227  -0.9779 11805.00    0.0
2018/11/09 03:17:00.000  -74.425557510  163.418466991    64.2731   5  11   0.8426   0.5730   1.9495   0.1464   0.5242  -0.9818 11835.00    0.0
2018/11/09 03:17:30.000  -74.425554567  163.418455722    63.4545   5  11   0.8457   0.5741   1.9543   0.1445   0.5261  -0.9861 11865.00    0.0
2018/11/09 03:18:00.000  -74.425555129  163.418458056    63.9133   5  11   0.8460   0.5729   1.9509   0.1436   0.5244  -0.9873 11895.00    0.0
2018/11/09 03:18:30.000  -74.425558328  163.418455912    64.4920   5  11   0.8466   0.5719   1.9482   0.1427   0.5230  -0.9888 11925.00    0.0
2018/11/09 03:19:00.000  -74.425554742  163.418455455    63.8388   5  11   0.8475   0.5712   1.9465   0.1418   0.5219  -0.9906 11955.00    0.0
2018/11/09 03:19:30.000  -74.425556459  163.418457862    63.4408   5  12   0.8234   0.5680   1.9344   0.0911   0.5098  -1.0141 11985.00    0.0
2018/11/09 03:20:00.000  -74.425555671  163.418455150    64.1864   5  12   0.8243   0.5678   1.9352   0.0888   0.5097  -1.0161 12015.00    0.0
2018/11/09 03:20:30.000  -74.425555547  163.418459552    63.6402   5  12   0.8256   0.5679   1.9369   0.0862   0.5100  -1.0184 12045.00    0.0
2018/11/09 03:21:00.000  -74.425554509  163.418462201    63.7655   5  12   0.8272   0.5682   1.9395   0.0834   0.5106  -1.0210 12075.00    0.0
2018/11/09 03:21:30.000  -74.425555192  163.418458531    63.6511   5  12   0.8290   0.5687   1.9430   0.0802   0.5115  -1.0240 12105.00    0.0
2018/11/09 03:22:00.000  -74.425555208  163.418457443    64.0366   5  12   0.8312   0.5695   1.9472   0.0766   0.5128  -1.0272 12135.00    0.0
2018/11/09 03:22:30.000  -74.425554471  163.418458967    63.1259   5  12   0.8335   0.5705   1.9524   0.0725   0.5144  -1.0308 12165.00    0.0
2018/11/09 03:23:00.000  -74.425554723  163.418459714    63.0939   5  12   0.8333   0.5693   1.9492   0.0720   0.5122  -1.0310 12195.00    0.0
2018/11/09 03:23:30.000  -74.425554008  163.418461597    63.5557   5  12   0.8333   0.5683   1.9469   0.0713   0.5104  -1.0316 12225.00    0.0
2018/11/09 03:24:00.000  -74.425552928  163.418466941    63.5075   5  12   0.8336   0.5675   1.9455   0.0703   0.5089  -1.0325 12255.00    0.0
2018/11/09 03:24:30.000  -74.425553703  163.418464403    63.1144   5  12   0.8342   0.5670   1.9450   0.0691   0.5077  -1.0337 12285.00    0.0
2018/11/09 03:25:00.000  -74.425554294  163.418459230    63.2687   5  12   0.8350   0.5668   1.9452   0.0675   0.5069  -1.0352 12315.00    0.0
2018/11/09 03:25:30.000  -74.425555974  163.418461136    63.6129   5  12   0.8362   0.5668   1.9465   0.0656   0.5065  -1.0371 12345.00    0.0
2018/11/09 03:26:00.000  -74.425553465  163.418456770    63.4545   5  12   0.8376   0.5670   1.9485   0.0633   0.5064  -1.0392 12375.00    0.0
2018/11/09 03:26:30.000  -74.425552779  163.418457126    63.7392   5  12   0.8393   0.5676   1.9514   0.0605   0.5068  -1.0417 12405.00    0.0
