% program   : RTKLIB ver.2.4.3
% inp file  : _by_type/_obs/shirase/20181112.18o
% inp file  : _by_type/_obs/base/20181112.18o
% inp file  : _by_type/_sp3+clk/igs20271.clk
% inp file  : _by_type/_sp3+clk/igs20271.sp3
% inp file  : _by_type/_nav/shirase/20181112.18n
% obs start : 2018/11/12 00:00:00.0 GPST (week2027  86400.0s)
% obs end   : 2018/11/12 23:59:45.0 GPST (week2027 172785.0s)
% pos mode  : dgps
% freqs     : L1+L2
% solution  : combined
% elev mask : 15.0 deg
% dynamics  : off
% tidecorr  : off
% ionos opt : iono-free
% tropo opt : est ztd+grad
% ephemeris : precise
% navi sys  : gps glonass
% antenna1  :                       ( 0.0000  0.0000  0.0000)
% antenna2  :                       ( 0.0000  0.0000  0.0000)
% ref pos   : 90.000000000   0.000000000-6335367.6285
%
% (lat/lon/height=WGS84/ellipsoidal,Q=1:fix,2:float,3:sbas,4:dgps,5:single,6:ppp,ns=# of satellites)
%  GPST                  latitude(deg) longitude(deg)  height(m)   Q  ns   sdn(m)   sde(m)   sdu(m)  sdne(m)  sdeu(m)  sdun(m) age(s)  ratio
2018/11/12 00:00:00.000  -74.525924841  163.457837937    24.6863   5  10   0.6561   0.6229   2.3011  -0.2901   0.7792  -0.7482   0.00    0.0
2018/11/12 00:00:15.000  -74.525926482  163.457839159    24.8098   5  10   0.6565   0.6235   2.3083  -0.2913   0.7830  -0.7509   0.00    0.0
2018/11/12 00:00:30.000  -74.525925666  163.457834043    24.7895   5  10   0.6569   0.6242   2.3157  -0.2925   0.7869  -0.7538   0.00    0.0
2018/11/12 00:00:45.000  -74.525926353  163.457839327    25.5503   5  10   0.6574   0.6250   2.3234  -0.2938   0.7909  -0.7567   0.00    0.0
2018/11/12 00:01:00.000  -74.525924738  163.457842446    24.2430   5  10   0.6580   0.6260   2.3314  -0.2952   0.7951  -0.7598   0.00    0.0
2018/11/12 00:01:15.000  -74.525926695  163.457839323    24.9125   5  10   0.6587   0.6270   2.3397  -0.2967   0.7994  -0.7629   0.00    0.0
2018/11/12 00:01:30.000  -74.525928377  163.457832567    24.2929   5  10   0.6595   0.6280   2.3483  -0.2982   0.8039  -0.7662   0.00    0.0
2018/11/12 00:01:45.000  -74.525928229  163.457838399    25.5610   5  10   0.6603   0.6292   2.3572  -0.2997   0.8084  -0.7695   0.00    0.0
2018/11/12 00:02:00.000  -74.525924772  163.457834267    24.9496   5  10   0.6612   0.6305   2.3664  -0.3014   0.8131  -0.7729   0.00    0.0
2018/11/12 00:02:15.000  -74.525925359  163.457835291    24.5474   5  10   0.6622   0.6319   2.3759  -0.3031   0.8179  -0.7765   0.00    0.0
2018/11/12 00:02:30.000  -74.525924199  163.457841190    24.9749   5  10   0.6632   0.6333   2.3857  -0.3048   0.8229  -0.7801   0.00    0.0
2018/11/12 00:02:45.000  -74.525924949  163.457840716    25.2745   5  10   0.6630   0.6330   2.3895  -0.3054   0.8251  -0.7820   0.00    0.0
2018/11/12 00:03:00.000  -74.525926053  163.457839083    24.7515   5  10   0.6628   0.6329   2.3938  -0.3061   0.8275  -0.7841   0.00    0.0
2018/11/12 00:03:15.000  -74.525924804  163.457831723    24.5470   5  10   0.6626   0.6328   2.3984  -0.3069   0.8300  -0.7863   0.00    0.0
2018/11/12 00:03:30.000  -74.525926190  163.457831919    24.9495   5  10   0.6626   0.6328   2.4032  -0.3077   0.8327  -0.7886   0.00    0.0
2018/11/12 00:03:45.000  -74.525923248  163.457837196    24.5000   5  10   0.6626   0.6329   2.4083  -0.3086   0.8354  -0.7909   0.00    0.0
2018/11/12 00:04:00.000  -74.525924641  163.457835135    24.5436   5  10   0.6627   0.6331   2.4136  -0.3096   0.8383  -0.7933   0.00    0.0
2018/11/12 00:04:15.000  -74.525925710  163.457833938    24.5288   5  10   0.6629   0.6334   2.4192  -0.3106   0.8413  -0.7959   0.00    0.0
2018/11/12 00:04:30.000  -74.525927122  163.457847351    25.7452   5  10   0.6632   0.6338   2.4251  -0.3116   0.8444  -0.7985   0.00    0.0
2018/11/12 00:04:45.000  -74.525927829  163.457832547    24.5123   5  10   0.6635   0.6342   2.4313  -0.3127   0.8477  -0.8012   0.00    0.0
2018/11/12 00:05:00.000  -74.525926094  163.457837396    24.6226   5  11   0.6511   0.6347   2.3413  -0.3124   0.8538  -0.8572   0.00    0.0
2018/11/12 00:05:15.000  -74.525929100  163.457839333    25.7964   5  11   0.6515   0.6354   2.3485  -0.3138   0.8572  -0.8601   0.00    0.0
2018/11/12 00:05:30.000  -74.525927133  163.457837194    24.0377   5  11   0.6521   0.6362   2.3560  -0.3151   0.8608  -0.8630   0.00    0.0
2018/11/12 00:05:45.000  -74.525927849  163.457837927    25.3611   5  11   0.6527   0.6371   2.3638  -0.3165   0.8644  -0.8661   0.00    0.0
2018/11/12 00:06:00.000  -74.525926782  163.457830336    24.5335   5  11   0.6533   0.6380   2.3718  -0.3180   0.8682  -0.8693   0.00    0.0
2018/11/12 00:06:15.000  -74.525928565  163.457836403    25.2291   5  11   0.6541   0.6390   2.3801  -0.3195   0.8721  -0.8725   0.00    0.0
2018/11/12 00:06:30.000  -74.525925388  163.457823947    23.8151   5  11   0.6549   0.6402   2.3886  -0.3211   0.8761  -0.8759   0.00    0.0
2018/11/12 00:06:45.000  -74.525924865  163.457831294    24.2477   5  11   0.6558   0.6414   2.3974  -0.3228   0.8802  -0.8793   0.00    0.0
2018/11/12 00:07:00.000  -74.525926032  163.457836861    24.4703   5  11   0.6567   0.6427   2.4064  -0.3244   0.8844  -0.8829   0.00    0.0
2018/11/12 00:07:15.000  -74.525926565  163.457837749    25.0001   5  11   0.6578   0.6441   2.4157  -0.3262   0.8888  -0.8865   0.00    0.0
2018/11/12 00:07:30.000  -74.525923595  163.457829195    23.7939   5  11   0.6589   0.6455   2.4253  -0.3280   0.8932  -0.8902   0.00    0.0
2018/11/12 00:07:45.000  -74.525925592  163.457830171    24.7645   5  11   0.6587   0.6454   2.4296  -0.3288   0.8953  -0.8923   0.00    0.0
2018/11/12 00:08:00.000  -74.525925033  163.457841480    25.4920   5  11   0.6586   0.6452   2.4337  -0.3295   0.8971  -0.8941   0.00    0.0
2018/11/12 00:08:15.000  -74.525926481  163.457836034    24.8487   5  11   0.6585   0.6451   2.4379  -0.3302   0.8990  -0.8961   0.00    0.0
2018/11/12 00:08:30.000  -74.525927775  163.457838557    24.8791   5  11   0.6585   0.6451   2.4424  -0.3310   0.9010  -0.8981   0.00    0.0
2018/11/12 00:08:45.000  -74.525925257  163.457831097    24.8325   5  11   0.6586   0.6451   2.4471  -0.3319   0.9032  -0.9002   0.00    0.0
2018/11/12 00:09:00.000  -74.525925761  163.457830523    23.5816   5  11   0.6588   0.6453   2.4520  -0.3328   0.9054  -0.9024   0.00    0.0
2018/11/12 00:09:15.000  -74.525925969  163.457839055    25.1869   5  11   0.6590   0.6455   2.4572  -0.3337   0.9077  -0.9046   0.00    0.0
2018/11/12 00:09:30.000  -74.525923080  163.457827993    23.5450   5  11   0.6593   0.6458   2.4625  -0.3347   0.9101  -0.9070   0.00    0.0
2018/11/12 00:09:45.000  -74.525925553  163.457844360    24.4382   5  11   0.6596   0.6462   2.4681  -0.3357   0.9126  -0.9094   0.00    0.0
2018/11/12 00:10:00.000  -74.525926238  163.457838690    25.1612   5  11   0.6600   0.6467   2.4739  -0.3368   0.9152  -0.9119   0.00    0.0
2018/11/12 00:10:15.000  -74.525924025  163.457824638    24.1667   5  11   0.6606   0.6473   2.4802  -0.3380   0.9181  -0.9146   0.00    0.0
2018/11/12 00:10:30.000  -74.525925638  163.457834822    24.1079   5  11   0.6612   0.6480   2.4867  -0.3392   0.9210  -0.9173   0.00    0.0
2018/11/12 00:10:45.000  -74.525926200  163.457830201    24.5060   5  11   0.6619   0.6488   2.4934  -0.3405   0.9240  -0.9202   0.00    0.0
2018/11/12 00:11:00.000  -74.525925549  163.457826244    24.3052   5  11   0.6626   0.6497   2.5003  -0.3418   0.9271  -0.9231   0.00    0.0
2018/11/12 00:11:15.000  -74.525926323  163.457829396    24.5306   5  11   0.6634   0.6506   2.5074  -0.3431   0.9303  -0.9261   0.00    0.0
2018/11/12 00:11:30.000  -74.525925259  163.457823986    23.5542   5  11   0.6643   0.6516   2.5147  -0.3445   0.9336  -0.9291   0.00    0.0
2018/11/12 00:11:45.000  -74.525927172  163.457822621    24.5548   5  11   0.6652   0.6527   2.5222  -0.3459   0.9370  -0.9323   0.00    0.0
2018/11/12 00:12:00.000  -74.525925005  163.457828080    23.9890   5  11   0.6662   0.6539   2.5299  -0.3474   0.9404  -0.9355   0.00    0.0
2018/11/12 00:12:15.000  -74.525924299  163.457828659    23.9892   5  11   0.6673   0.6552   2.5378  -0.3489   0.9440  -0.9387   0.00    0.0
2018/11/12 00:12:30.000  -74.525928784  163.457832110    24.6780   5  11   0.6684   0.6565   2.5458  -0.3504   0.9476  -0.9420   0.00    0.0
2018/11/12 00:12:45.000  -74.525925060  163.457824479    23.8003   5  11   0.6683   0.6561   2.5479  -0.3508   0.9483  -0.9433   0.00    0.0
2018/11/12 00:13:00.000  -74.525925956  163.457838826    24.5407   5  11   0.6682   0.6557   2.5502  -0.3513   0.9493  -0.9447   0.00    0.0
2018/11/12 00:13:15.000  -74.525925149  163.457834846    23.9104   5  11   0.6681   0.6554   2.5527  -0.3517   0.9502  -0.9461   0.00    0.0
2018/11/12 00:13:30.000  -74.525923793  163.457833354    23.6587   5  11   0.6681   0.6552   2.5553  -0.3523   0.9513  -0.9476   0.00    0.0
2018/11/12 00:13:45.000  -74.525924900  163.457837133    24.8477   5  11   0.6682   0.6551   2.5581  -0.3528   0.9524  -0.9491   0.00    0.0
2018/11/12 00:14:00.000  -74.525926385  163.457830155    23.5519   5  11   0.6683   0.6550   2.5611  -0.3534   0.9536  -0.9507   0.00    0.0
2018/11/12 00:14:15.000  -74.525927334  163.457831338    23.9670   5  11   0.6685   0.6551   2.5642  -0.3540   0.9549  -0.9524   0.00    0.0
2018/11/12 00:14:30.000  -74.525923694  163.457826757    23.9543   5  11   0.6688   0.6552   2.5675  -0.3547   0.9563  -0.9541   0.00    0.0
2018/11/12 00:14:45.000  -74.525925333  163.457830801    23.8327   5  11   0.6692   0.6553   2.5710  -0.3554   0.9577  -0.9559   0.00    0.0
2018/11/12 00:15:00.000  -74.525926100  163.457828584    23.9512   5  11   0.6696   0.6556   2.5746  -0.3561   0.9592  -0.9577   0.00    0.0
2018/11/12 00:15:15.000  -74.525928687  163.457840927    24.0272   5  11   0.6701   0.6559   2.5786  -0.3569   0.9608  -0.9597   0.00    0.0
2018/11/12 00:15:30.000  -74.525926224  163.457836849    24.5470   5  11   0.6706   0.6564   2.5828  -0.3577   0.9626  -0.9617   0.00    0.0
2018/11/12 00:15:45.000  -74.525924371  163.457827294    22.8677   5  11   0.6712   0.6569   2.5871  -0.3586   0.9643  -0.9638   0.00    0.0
2018/11/12 00:16:00.000  -74.525924096  163.457820470    22.7694   5  11   0.6719   0.6575   2.5916  -0.3595   0.9662  -0.9659   0.00    0.0
2018/11/12 00:16:15.000  -74.525927896  163.457837580    24.4632   5  11   0.6727   0.6582   2.5961  -0.3604   0.9681  -0.9681   0.00    0.0
2018/11/12 00:16:30.000  -74.525925113  163.457825890    23.4279   5  11   0.6735   0.6589   2.6009  -0.3614   0.9700  -0.9703   0.00    0.0
2018/11/12 00:16:45.000  -74.525926912  163.457825115    23.4068   5  11   0.6744   0.6597   2.6057  -0.3623   0.9720  -0.9725   0.00    0.0
2018/11/12 00:17:00.000  -74.525927773  163.457842300    24.9565   5  11   0.6753   0.6605   2.6107  -0.3633   0.9740  -0.9748   0.00    0.0
2018/11/12 00:17:15.000  -74.525926298  163.457835700    24.1910   5  11   0.6763   0.6615   2.6158  -0.3643   0.9761  -0.9772   0.00    0.0
2018/11/12 00:17:30.000  -74.525926609  163.457828455    22.9764   5  11   0.6773   0.6624   2.6210  -0.3653   0.9782  -0.9795   0.00    0.0
2018/11/12 00:17:45.000  -74.525927623  163.457837388    24.3964   5  11   0.6770   0.6617   2.6203  -0.3653   0.9777  -0.9799   0.00    0.0
2018/11/12 00:18:00.000  -74.525925946  163.457828889    23.5535   5  11   0.6768   0.6611   2.6198  -0.3653   0.9772  -0.9803   0.00    0.0
2018/11/12 00:18:15.000  -74.525925819  163.457835234    23.7591   5  11   0.6767   0.6605   2.6193  -0.3653   0.9768  -0.9808   0.00    0.0
2018/11/12 00:18:30.000  -74.525927543  163.457833876    23.5480   5  11   0.6766   0.6599   2.6190  -0.3653   0.9764  -0.9813   0.00    0.0
2018/11/12 00:18:45.000  -74.525926748  163.457835349    23.4573   5  11   0.6766   0.6595   2.6189  -0.3654   0.9760  -0.9818   0.00    0.0
2018/11/12 00:19:00.000  -74.525923492  163.457822042    23.3658   5  11   0.6766   0.6591   2.6188  -0.3655   0.9758  -0.9824   0.00    0.0
2018/11/12 00:19:15.000  -74.525926079  163.457833456    24.1506   5  11   0.6767   0.6588   2.6189  -0.3656   0.9755  -0.9830   0.00    0.0
2018/11/12 00:19:30.000  -74.525926199  163.457836663    24.3031   5  11   0.6768   0.6585   2.6191  -0.3657   0.9753  -0.9837   0.00    0.0
2018/11/12 00:19:45.000  -74.525926464  163.457832681    24.1646   5  11   0.6770   0.6583   2.6194  -0.3658   0.9752  -0.9843   0.00    0.0
2018/11/12 00:20:00.000  -74.525925737  163.457833519    23.1934   5  11   0.6773   0.6582   2.6198  -0.3660   0.9750  -0.9851   0.00    0.0
2018/11/12 00:20:15.000  -74.525926937  163.457834821    24.5035   5  11   0.6777   0.6582   2.6205  -0.3662   0.9751  -0.9859   0.00    0.0
2018/11/12 00:20:30.000  -74.525926796  163.457822410    23.3372   5  11   0.6781   0.6582   2.6213  -0.3665   0.9751  -0.9868   0.00    0.0
2018/11/12 00:20:45.000  -74.525928719  163.457835497    23.3557   5  11   0.6785   0.6584   2.6223  -0.3668   0.9752  -0.9876   0.00    0.0
2018/11/12 00:21:00.000  -74.525926149  163.457825949    23.3898   5  11   0.6791   0.6586   2.6233  -0.3670   0.9754  -0.9886   0.00    0.0
2018/11/12 00:21:15.000  -74.525926399  163.457837372    23.6855   5  11   0.6796   0.6588   2.6245  -0.3673   0.9755  -0.9895   0.00    0.0
2018/11/12 00:21:30.000  -74.525926650  163.457832849    23.9749   5  11   0.6803   0.6591   2.6257  -0.3677   0.9757  -0.9905   0.00    0.0
2018/11/12 00:21:45.000  -74.525927601  163.457832625    24.4673   5  11   0.6809   0.6595   2.6271  -0.3680   0.9759  -0.9914   0.00    0.0
2018/11/12 00:22:00.000  -74.525927660  163.457833945    23.4681   5  11   0.6817   0.6599   2.6285  -0.3683   0.9762  -0.9925   0.00    0.0
2018/11/12 00:22:15.000  -74.525927720  163.457835314    25.0877   5  11   0.6825   0.6604   2.6301  -0.3687   0.9764  -0.9935   0.00    0.0
2018/11/12 00:22:30.000  -74.525928257  163.457836972    25.1415   5  11   0.6833   0.6609   2.6317  -0.3690   0.9767  -0.9945   0.00    0.0
2018/11/12 00:22:45.000  -74.525926892  163.457833962    23.8630   5  11   0.6829   0.6598   2.6277  -0.3684   0.9746  -0.9937   0.00    0.0
2018/11/12 00:23:00.000  -74.525927995  163.457834709    24.1020   5  11   0.6825   0.6588   2.6237  -0.3678   0.9724  -0.9930   0.00    0.0
2018/11/12 00:23:15.000  -74.525927854  163.457828042    24.0806   5  11   0.6822   0.6578   2.6199  -0.3672   0.9704  -0.9922   0.00    0.0
2018/11/12 00:23:30.000  -74.525927253  163.457838505    24.4538   5  11   0.6819   0.6569   2.6162  -0.3666   0.9683  -0.9915   0.00    0.0
2018/11/12 00:23:45.000  -74.525926433  163.457823313    22.6778   5  11   0.6817   0.6561   2.6125  -0.3661   0.9663  -0.9908   0.00    0.0
2018/11/12 00:24:00.000  -74.525927204  163.457820117    22.9733   5  11   0.6816   0.6553   2.6090  -0.3656   0.9643  -0.9901   0.00    0.0
2018/11/12 00:24:15.000  -74.525928589  163.457827546    23.6648   5  11   0.6815   0.6546   2.6057  -0.3650   0.9624  -0.9895   0.00    0.0
2018/11/12 00:24:30.000  -74.525925314  163.457821894    23.1766   5  11   0.6814   0.6539   2.6024  -0.3645   0.9605  -0.9889   0.00    0.0
2018/11/12 00:24:45.000  -74.525928418  163.457830974    23.3248   5  11   0.6814   0.6534   2.5992  -0.3640   0.9586  -0.9883   0.00    0.0
2018/11/12 00:25:00.000  -74.525928988  163.457834799    23.8042   5  11   0.6815   0.6528   2.5962  -0.3636   0.9568  -0.9877   0.00    0.0
2018/11/12 00:25:15.000  -74.525927468  163.457832741    23.4872   5  11   0.6816   0.6524   2.5935  -0.3632   0.9551  -0.9873   0.00    0.0
2018/11/12 00:25:30.000  -74.525924454  163.457827301    22.9870   5  11   0.6818   0.6521   2.5909  -0.3628   0.9534  -0.9869   0.00    0.0
2018/11/12 00:25:45.000  -74.525927159  163.457830476    24.1899   5  11   0.6821   0.6518   2.5884  -0.3624   0.9518  -0.9865   0.00    0.0
2018/11/12 00:26:00.000  -74.525927565  163.457834924    24.7099   5  11   0.6824   0.6516   2.5860  -0.3620   0.9502  -0.9861   0.00    0.0
2018/11/12 00:26:15.000  -74.525927363  163.457831229    24.0517   5  11   0.6828   0.6514   2.5837  -0.3616   0.9486  -0.9857   0.00    0.0
2018/11/12 00:26:30.000  -74.525927848  163.457840576    23.9983   5  11   0.6832   0.6514   2.5816  -0.3613   0.9470  -0.9854   0.00    0.0
2018/11/12 00:26:45.000  -74.525924445  163.457832833    24.1138   5  11   0.6837   0.6513   2.5795  -0.3609   0.9455  -0.9851   0.00    0.0
2018/11/12 00:27:00.000  -74.525927923  163.457836276    24.6894   5  11   0.6842   0.6513   2.5776  -0.3606   0.9440  -0.9848   0.00    0.0
2018/11/12 00:27:15.000  -74.525924318  163.457831755    24.1973   5  11   0.6848   0.6514   2.5758  -0.3603   0.9425  -0.9845   0.00    0.0
2018/11/12 00:27:30.000  -74.525927247  163.457837570    24.8999   5  11   0.6854   0.6516   2.5741  -0.3599   0.9410  -0.9843   0.00    0.0
2018/11/12 00:27:45.000  -74.525928232  163.457838914    24.5840   5  11   0.6848   0.6502   2.5670  -0.3588   0.9374  -0.9824   0.00    0.0
2018/11/12 00:28:00.000  -74.525926347  163.457826949    23.4693   5  11   0.6842   0.6488   2.5600  -0.3576   0.9338  -0.9805   0.00    0.0
2018/11/12 00:28:15.000  -74.525928659  163.457831586    23.1798   5  11   0.6838   0.6476   2.5532  -0.3564   0.9302  -0.9786   0.00    0.0
2018/11/12 00:28:30.000  -74.525925140  163.457830426    23.1715   5  11   0.6833   0.6464   2.5466  -0.3553   0.9267  -0.9768   0.00    0.0
2018/11/12 00:28:45.000  -74.525927892  163.457830889    23.7362   5  11   0.6829   0.6452   2.5401  -0.3542   0.9233  -0.9750   0.00    0.0
2018/11/12 00:29:00.000  -74.525925412  163.457830056    24.0890   5  11   0.6826   0.6442   2.5337  -0.3531   0.9198  -0.9732   0.00    0.0
2018/11/12 00:29:15.000  -74.525927429  163.457833870    23.8683   5  11   0.6824   0.6432   2.5275  -0.3520   0.9165  -0.9715   0.00    0.0
2018/11/12 00:29:30.000  -74.525927404  163.457832731    24.6201   5  11   0.6821   0.6422   2.5215  -0.3510   0.9131  -0.9698   0.00    0.0
2018/11/12 00:29:45.000  -74.525922847  163.457833687    22.5597   5  10   0.9317   0.6745   3.5864  -0.5050   1.1669  -1.6000   0.00    0.0
2018/11/12 00:30:00.000  -74.525921944  163.457826580    22.0943   5  10   0.9311   0.6734   3.5785  -0.5034   1.1625  -1.5973   0.00    0.0
2018/11/12 00:30:15.000  -74.525923763  163.457830412    21.4452   5  10   0.9306   0.6723   3.5710  -0.5017   1.1583  -1.5948   0.00    0.0
2018/11/12 00:30:30.000  -74.525923360  163.457843869    22.4024   5  10   0.9301   0.6714   3.5636  -0.5001   1.1540  -1.5923   0.00    0.0
2018/11/12 00:30:45.000  -74.525922644  163.457836074    21.8784   5  10   0.9297   0.6705   3.5562  -0.4985   1.1498  -1.5898   0.00    0.0
2018/11/12 00:31:00.000  -74.525922557  163.457834235    22.1554   5  10   0.9293   0.6696   3.5490  -0.4969   1.1456  -1.5874   0.00    0.0
2018/11/12 00:31:15.000  -74.525923249  163.457838695    22.4433   5  10   0.9291   0.6688   3.5420  -0.4953   1.1413  -1.5850   0.00    0.0
2018/11/12 00:31:30.000  -74.525924574  163.457837326    21.6453   5  10   0.9288   0.6681   3.5350  -0.4937   1.1371  -1.5826   0.00    0.0
2018/11/12 00:31:45.000  -74.525922479  163.457823926    21.1678   5  10   0.9286   0.6674   3.5282  -0.4921   1.1329  -1.5803   0.00    0.0
2018/11/12 00:32:00.000  -74.525921005  163.457833931    20.4247   5  10   0.9285   0.6668   3.5216  -0.4905   1.1287  -1.5781   0.00    0.0
2018/11/12 00:32:15.000  -74.525925175  163.457835310    22.3279   5  10   0.9284   0.6663   3.5151  -0.4889   1.1245  -1.5759   0.00    0.0
2018/11/12 00:32:30.000  -74.525923090  163.457828103    21.3456   5  10   0.9284   0.6658   3.5088  -0.4873   1.1204  -1.5738   0.00    0.0
2018/11/12 00:32:45.000  -74.525921569  163.457831888    21.0066   5  10   0.9261   0.6636   3.4924  -0.4841   1.1129  -1.5672   0.00    0.0
2018/11/12 00:33:00.000  -74.525924000  163.457838686    23.5275   5  10   0.9239   0.6616   3.4763  -0.4811   1.1056  -1.5607   0.00    0.0
2018/11/12 00:33:15.000  -74.525922944  163.457840481    22.8082   5  10   0.9217   0.6596   3.4604  -0.4780   1.0983  -1.5544   0.00    0.0
2018/11/12 00:33:30.000  -74.525924929  163.457836170    23.4260   5  10   0.9196   0.6577   3.4447  -0.4750   1.0911  -1.5481   0.00    0.0
2018/11/12 00:33:45.000  -74.525923584  163.457834326    22.7523   5  10   0.9176   0.6558   3.4293  -0.4720   1.0839  -1.5419   0.00    0.0
2018/11/12 00:34:00.000  -74.525925933  163.457836388    22.9290   5   9   0.9197   0.6541   3.6686  -0.4680   1.0704  -1.5730   0.00    0.0
2018/11/12 00:34:15.000  -74.525921648  163.457825314    20.2866   5   9   0.9180   0.6525   3.6553  -0.4651   1.0633  -1.5676   0.00    0.0
2018/11/12 00:34:30.000  -74.525922356  163.457828907    21.6551   5   9   0.9163   0.6509   3.6423  -0.4621   1.0562  -1.5622   0.00    0.0
2018/11/12 00:34:45.000  -74.525921307  163.457836458    20.8812   5   9   0.9147   0.6493   3.6295  -0.4592   1.0492  -1.5570   0.00    0.0
2018/11/12 00:35:00.000  -74.525925253  163.457836112    22.5998   5   9   0.9131   0.6479   3.6171  -0.4563   1.0422  -1.5519   0.00    0.0
2018/11/12 00:35:15.000  -74.525928527  163.457838047    23.9554   5   9   0.9117   0.6466   3.6052  -0.4535   1.0354  -1.5470   0.00    0.0
2018/11/12 00:35:30.000  -74.525922997  163.457841387    22.5799   5   9   0.9104   0.6453   3.5936  -0.4506   1.0286  -1.5422   0.00    0.0
2018/11/12 00:35:45.000  -74.525923066  163.457838748    21.9626   5   9   0.9092   0.6442   3.5824  -0.4479   1.0219  -1.5375   0.00    0.0
2018/11/12 00:36:00.000  -74.525924526  163.457839429    22.4656   5   9   0.9081   0.6431   3.5715  -0.4451   1.0152  -1.5330   0.00    0.0
2018/11/12 00:36:15.000  -74.525923873  163.457840169    22.2909   5   9   0.9070   0.6421   3.5610  -0.4423   1.0086  -1.5285   0.00    0.0
2018/11/12 00:36:30.000  -74.525925534  163.457840296    22.1515   5   9   0.9060   0.6412   3.5508  -0.4396   1.0020  -1.5242   0.00    0.0
2018/11/12 00:36:45.000  -74.525925982  163.457832567    22.8131   5  10   0.7458   0.6364   2.6843  -0.3932   0.9097  -1.0612   0.00    0.0
2018/11/12 00:37:00.000  -74.525924963  163.457834701    22.7562   5  10   0.7460   0.6360   2.6821  -0.3923   0.9068  -1.0603   0.00    0.0
2018/11/12 00:37:15.000  -74.525925398  163.457838898    23.2363   5  10   0.7463   0.6356   2.6802  -0.3914   0.9039  -1.0594   0.00    0.0
2018/11/12 00:37:30.000  -74.525925716  163.457841723    23.4451   5  10   0.7467   0.6353   2.6784  -0.3905   0.9010  -1.0586   0.00    0.0
2018/11/12 00:37:45.000  -74.525927041  163.457835488    23.6028   5  10   0.7457   0.6335   2.6701  -0.3887   0.8959  -1.0557   0.00    0.0
2018/11/12 00:38:00.000  -74.525927772  163.457847531    24.9511   5  10   0.7447   0.6317   2.6619  -0.3868   0.8909  -1.0528   0.00    0.0
2018/11/12 00:38:15.000  -74.525924934  163.457835207    22.4192   5  10   0.7438   0.6301   2.6540  -0.3851   0.8859  -1.0500   0.00    0.0
2018/11/12 00:38:30.000  -74.525926641  163.457841317    23.6423   5  10   0.7430   0.6285   2.6462  -0.3833   0.8810  -1.0472   0.00    0.0
2018/11/12 00:38:45.000  -74.525924301  163.457834247    23.0509   5  10   0.7422   0.6270   2.6387  -0.3816   0.8761  -1.0446   0.00    0.0
2018/11/12 00:39:00.000  -74.525926304  163.457833963    23.4975   5  10   0.7415   0.6256   2.6314  -0.3799   0.8713  -1.0419   0.00    0.0
2018/11/12 00:39:15.000  -74.525925785  163.457835473    22.9544   5  10   0.7409   0.6243   2.6244  -0.3782   0.8666  -1.0394   0.00    0.0
2018/11/12 00:39:30.000  -74.525928510  163.457839928    23.6290   5  10   0.7403   0.6230   2.6176  -0.3766   0.8620  -1.0369   0.00    0.0
2018/11/12 00:39:45.000  -74.525925805  163.457830426    22.8772   5  10   0.7398   0.6218   2.6111  -0.3750   0.8573  -1.0345   0.00    0.0
2018/11/12 00:40:00.000  -74.525926886  163.457825987    23.3699   5  10   0.7394   0.6207   2.6049  -0.3734   0.8528  -1.0321   0.00    0.0
2018/11/12 00:40:15.000  -74.525925601  163.457838915    22.5948   5  10   0.7391   0.6197   2.5991  -0.3719   0.8484  -1.0299   0.00    0.0
2018/11/12 00:40:30.000  -74.525924351  163.457840787    22.3851   5  10   0.7388   0.6187   2.5935  -0.3704   0.8440  -1.0278   0.00    0.0
2018/11/12 00:40:45.000  -74.525927057  163.457830421    22.0621   5  10   0.7386   0.6179   2.5883  -0.3690   0.8397  -1.0258   0.00    0.0
2018/11/12 00:41:00.000  -74.525925544  163.457827380    23.5607   5  10   0.7385   0.6171   2.5833  -0.3676   0.8355  -1.0238   0.00    0.0
2018/11/12 00:41:15.000  -74.525925732  163.457832312    22.6447   5  10   0.7384   0.6164   2.5787  -0.3662   0.8313  -1.0219   0.00    0.0
2018/11/12 00:41:30.000  -74.525927489  163.457843029    22.8291   5  10   0.7384   0.6158   2.5743  -0.3648   0.8272  -1.0201   0.00    0.0
2018/11/12 00:41:45.000  -74.525922316  163.457829897    22.2237   5  10   0.7385   0.6152   2.5702  -0.3635   0.8231  -1.0184   0.00    0.0
2018/11/12 00:42:00.000  -74.525926579  163.457839597    23.8999   5  10   0.7387   0.6147   2.5664  -0.3622   0.8191  -1.0167   0.00    0.0
2018/11/12 00:42:15.000  -74.525927353  163.457839632    23.7434   5  10   0.7389   0.6143   2.5630  -0.3609   0.8151  -1.0152   0.00    0.0
2018/11/12 00:42:30.000  -74.525927503  163.457839815    22.9522   5  10   0.7392   0.6139   2.5598  -0.3597   0.8113  -1.0137   0.00    0.0
2018/11/12 00:42:45.000  -74.525926796  163.457833984    23.1527   5  10   0.7381   0.6122   2.5496  -0.3576   0.8054  -1.0101   0.00    0.0
2018/11/12 00:43:00.000  -74.525924415  163.457838979    23.3555   5  10   0.7370   0.6106   2.5399  -0.3555   0.7995  -1.0065   0.00    0.0
2018/11/12 00:43:15.000  -74.525926145  163.457841167    22.4818   5  10   0.7361   0.6090   2.5304  -0.3535   0.7938  -1.0031   0.00    0.0
2018/11/12 00:43:30.000  -74.525927299  163.457835866    23.5599   5  10   0.7352   0.6075   2.5213  -0.3515   0.7881  -0.9998   0.00    0.0
2018/11/12 00:43:45.000  -74.525925572  163.457833385    22.1531   5  10   0.7344   0.6061   2.5124  -0.3495   0.7825  -0.9966   0.00    0.0
2018/11/12 00:44:00.000  -74.525926233  163.457835137    23.0064   5  10   0.7336   0.6048   2.5039  -0.3476   0.7770  -0.9934   0.00    0.0
2018/11/12 00:44:15.000  -74.525926356  163.457835515    22.7892   5  10   0.7330   0.6035   2.4957  -0.3457   0.7716  -0.9904   0.00    0.0
2018/11/12 00:44:30.000  -74.525925381  163.457837442    22.9519   5  10   0.7324   0.6023   2.4878  -0.3438   0.7662  -0.9874   0.00    0.0
2018/11/12 00:44:45.000  -74.525927790  163.457842901    23.7610   5  10   0.7318   0.6012   2.4803  -0.3420   0.7609  -0.9846   0.00    0.0
2018/11/12 00:45:00.000  -74.525928881  163.457840962    23.8915   5  10   0.7314   0.6002   2.4730  -0.3402   0.7557  -0.9818   0.00    0.0
2018/11/12 00:45:15.000  -74.525927054  163.457839723    24.2069   5  10   0.7310   0.5993   2.4663  -0.3385   0.7506  -0.9792   0.00    0.0
2018/11/12 00:45:30.000  -74.525926342  163.457837171    23.6941   5  10   0.7308   0.5985   2.4600  -0.3368   0.7456  -0.9767   0.00    0.0
2018/11/12 00:45:45.000  -74.525926388  163.457831912    23.2361   5  10   0.7306   0.5978   2.4540  -0.3351   0.7406  -0.9742   0.00    0.0
2018/11/12 00:46:00.000  -74.525926179  163.457840234    22.9052   5  10   0.7304   0.5971   2.4483  -0.3335   0.7358  -0.9719   0.00    0.0
2018/11/12 00:46:15.000  -74.525926217  163.457833993    22.9712   5  10   0.7304   0.5965   2.4430  -0.3319   0.7309  -0.9697   0.00    0.0
2018/11/12 00:46:30.000  -74.525925912  163.457831119    21.6433   5  10   0.7304   0.5960   2.4380  -0.3304   0.7262  -0.9676   0.00    0.0
2018/11/12 00:46:45.000  -74.525927255  163.457831429    23.2122   5  10   0.7304   0.5955   2.4334  -0.3289   0.7215  -0.9655   0.00    0.0
2018/11/12 00:47:00.000  -74.525926062  163.457832121    23.0579   5  10   0.7306   0.5952   2.4291  -0.3274   0.7168  -0.9636   0.00    0.0
2018/11/12 00:47:15.000  -74.525925486  163.457834432    23.3090   5  10   0.7308   0.5949   2.4252  -0.3259   0.7122  -0.9618   0.00    0.0
2018/11/12 00:47:30.000  -74.525927439  163.457839325    23.6532   5  10   0.7311   0.5946   2.4216  -0.3245   0.7077  -0.9600   0.00    0.0
2018/11/12 00:47:45.000  -74.525926428  163.457839914    21.8535   5  10   0.7300   0.5931   2.4112  -0.3223   0.7015  -0.9563   0.00    0.0
2018/11/12 00:48:00.000  -74.525929268  163.457840052    23.7145   5  10   0.7291   0.5917   2.4011  -0.3201   0.6953  -0.9526   0.00    0.0
2018/11/12 00:48:15.000  -74.525924422  163.457835407    21.5235   5  10   0.7282   0.5903   2.3914  -0.3180   0.6892  -0.9491   0.00    0.0
2018/11/12 00:48:30.000  -74.525927423  163.457848361    24.5690   5  10   0.7273   0.5891   2.3820  -0.3159   0.6832  -0.9456   0.00    0.0
2018/11/12 00:48:45.000  -74.525926096  163.457840373    21.8036   5  10   0.7266   0.5879   2.3730  -0.3139   0.6772  -0.9423   0.00    0.0
2018/11/12 00:49:00.000  -74.525926066  163.457840370    23.3883   5  10   0.7259   0.5867   2.3643  -0.3119   0.6714  -0.9390   0.00    0.0
2018/11/12 00:49:15.000  -74.525926827  163.457842603    22.6681   5  10   0.7253   0.5857   2.3560  -0.3099   0.6656  -0.9359   0.00    0.0
2018/11/12 00:49:30.000  -74.525930317  163.457842883    23.9032   5  10   0.7248   0.5847   2.3481  -0.3080   0.6599  -0.9329   0.00    0.0
2018/11/12 00:49:45.000  -74.525928002  163.457845530    23.9324   5  10   0.7243   0.5839   2.3406  -0.3061   0.6542  -0.9300   0.00    0.0
2018/11/12 00:50:00.000  -74.525927218  163.457844458    23.2446   5  10   0.7239   0.5831   2.3335  -0.3042   0.6486  -0.9272   0.00    0.0
2018/11/12 00:50:15.000  -74.525925442  163.457831435    23.3216   5  10   0.7236   0.5824   2.3269  -0.3024   0.6432  -0.9246   0.00    0.0
2018/11/12 00:50:30.000  -74.525930735  163.457841948    23.6901   5  10   0.7234   0.5818   2.3206  -0.3006   0.6378  -0.9220   0.00    0.0
2018/11/12 00:50:45.000  -74.525926024  163.457837997    24.3821   5  10   0.7233   0.5812   2.3148  -0.2989   0.6324  -0.9196   0.00    0.0
2018/11/12 00:51:00.000  -74.525928228  163.457848531    25.1073   5  10   0.7232   0.5808   2.3093  -0.2972   0.6271  -0.9173   0.00    0.0
2018/11/12 00:51:15.000  -74.525927903  163.457842395    24.4928   5  10   0.7232   0.5804   2.3042  -0.2955   0.6219  -0.9151   0.00    0.0
2018/11/12 00:51:30.000  -74.525928088  163.457845293    23.8505   5  10   0.7233   0.5801   2.2995  -0.2939   0.6167  -0.9130   0.00    0.0
2018/11/12 00:51:45.000  -74.525926639  163.457845809    24.3362   5  10   0.7234   0.5799   2.2952  -0.2923   0.6115  -0.9110   0.00    0.0
2018/11/12 00:52:00.000  -74.525927889  163.457844924    23.7036   5  10   0.7237   0.5797   2.2912  -0.2907   0.6064  -0.9091   0.00    0.0
2018/11/12 00:52:15.000  -74.525928836  163.457842695    24.0920   5  10   0.7239   0.5796   2.2876  -0.2892   0.6013  -0.9073   0.00    0.0
2018/11/12 00:52:30.000  -74.525927130  163.457844950    24.1636   5  10   0.7243   0.5796   2.2844  -0.2877   0.5963  -0.9056   0.00    0.0
2018/11/12 00:52:45.000  -74.525928790  163.457846042    24.2254   5  10   0.7234   0.5784   2.2745  -0.2855   0.5899  -0.9020   0.00    0.0
2018/11/12 00:53:00.000  -74.525927137  163.457840410    24.7427   5  10   0.7225   0.5772   2.2649  -0.2833   0.5835  -0.8985   0.00    0.0
2018/11/12 00:53:15.000  -74.525926083  163.457833939    23.8382   5  10   0.7217   0.5761   2.2557  -0.2812   0.5773  -0.8951   0.00    0.0
2018/11/12 00:53:30.000  -74.525926755  163.457844324    23.8523   5  10   0.7210   0.5751   2.2469  -0.2791   0.5710  -0.8919   0.00    0.0
2018/11/12 00:53:45.000  -74.525930813  163.457835695    23.6653   5  10   0.7204   0.5742   2.2384  -0.2771   0.5649  -0.8887   0.00    0.0
2018/11/12 00:54:00.000  -74.525929369  163.457836369    23.7908   5  10   0.7198   0.5733   2.2304  -0.2751   0.5588  -0.8857   0.00    0.0
2018/11/12 00:54:15.000  -74.525930386  163.457840702    24.5309   5  10   0.7193   0.5725   2.2228  -0.2731   0.5528  -0.8828   0.00    0.0
2018/11/12 00:54:30.000  -74.525926090  163.457848002    23.9497   5  10   0.7189   0.5718   2.2155  -0.2712   0.5468  -0.8800   0.00    0.0
2018/11/12 00:54:45.000  -74.525928170  163.457833150    23.8150   5  10   0.7186   0.5712   2.2087  -0.2693   0.5408  -0.8773   0.00    0.0
2018/11/12 00:55:00.000  -74.525927539  163.457841943    24.1412   5  10   0.7183   0.5707   2.2022  -0.2674   0.5349  -0.8747   0.00    0.0
2018/11/12 00:55:15.000  -74.525928072  163.457842388    23.8723   5  10   0.7181   0.5702   2.1963  -0.2656   0.5291  -0.8723   0.00    0.0
2018/11/12 00:55:30.000  -74.525929561  163.457844380    23.9755   5  10   0.7180   0.5699   2.1908  -0.2638   0.5232  -0.8700   0.00    0.0
2018/11/12 00:55:45.000  -74.525929328  163.457841502    24.2594   5  10   0.7180   0.5696   2.1856  -0.2621   0.5175  -0.8678   0.00    0.0
2018/11/12 00:56:00.000  -74.525928459  163.457849873    24.3967   5  10   0.7181   0.5694   2.1809  -0.2603   0.5117  -0.8657   0.00    0.0
2018/11/12 00:56:15.000  -74.525926606  163.457839313    23.1773   5  10   0.7182   0.5692   2.1765  -0.2586   0.5060  -0.8637   0.00    0.0
2018/11/12 00:56:30.000  -74.525930994  163.457843895    24.0354   5  10   0.7184   0.5692   2.1725  -0.2569   0.5002  -0.8618   0.00    0.0
2018/11/12 00:56:45.000  -74.525927943  163.457842612    24.1847   5  10   0.7186   0.5692   2.1689  -0.2553   0.4945  -0.8600   0.00    0.0
2018/11/12 00:57:00.000  -74.525927152  163.457841155    24.0828   5  10   0.7189   0.5693   2.1657  -0.2537   0.4888  -0.8583   0.00    0.0
2018/11/12 00:57:15.000  -74.525930590  163.457845228    24.4767   5  10   0.7193   0.5695   2.1628  -0.2521   0.4831  -0.8567   0.00    0.0
2018/11/12 00:57:30.000  -74.525928713  163.457848676    23.9672   5  10   0.7198   0.5697   2.1603  -0.2505   0.4774  -0.8552   0.00    0.0
2018/11/12 00:57:45.000  -74.525927734  163.457847815    25.0628   5  11   0.6205   0.5516   1.8068  -0.1068   0.2448  -0.5491   0.00    0.0
2018/11/12 00:58:00.000  -74.525928801  163.457851792    24.3590   5  11   0.6201   0.5510   1.8025  -0.1045   0.2376  -0.5481   0.00    0.0
2018/11/12 00:58:15.000  -74.525929542  163.457850118    25.0131   5  11   0.6198   0.5505   1.7985  -0.1023   0.2303  -0.5472   0.00    0.0
2018/11/12 00:58:30.000  -74.525928536  163.457846458    24.3987   5  11   0.6195   0.5501   1.7948  -0.0999   0.2227  -0.5462   0.00    0.0
2018/11/12 00:58:45.000  -74.525928967  163.457842975    24.5564   5  11   0.6192   0.5497   1.7913  -0.0976   0.2149  -0.5453   0.00    0.0
2018/11/12 00:59:00.000  -74.525926862  163.457847190    24.0582   5  11   0.6191   0.5493   1.7882  -0.0952   0.2068  -0.5445   0.00    0.0
2018/11/12 00:59:15.000  -74.525929010  163.457845902    24.7460   5  11   0.6189   0.5491   1.7853  -0.0927   0.1984  -0.5437   0.00    0.0
2018/11/12 00:59:30.000  -74.525929746  163.457836143    24.7410   5  11   0.6189   0.5489   1.7827  -0.0902   0.1896  -0.5429   0.00    0.0
2018/11/12 00:59:45.000  -74.525931347  163.457845296    24.1568   5  11   0.6189   0.5488   1.7805  -0.0876   0.1804  -0.5421   0.00    0.0
2018/11/12 01:00:00.000  -74.525928718  163.457848590    24.4675   5  11   0.6189   0.5487   1.7785  -0.0849   0.1706  -0.5414   0.00    0.0
2018/11/12 01:00:15.000  -74.525929222  163.457854839    24.6756   5  11   0.6190   0.5488   1.7769  -0.0822   0.1602  -0.5408   0.00    0.0
2018/11/12 01:00:30.000  -74.525928876  163.457850519    24.0697   5  11   0.6192   0.5489   1.7756  -0.0793   0.1491  -0.5402   0.00    0.0
2018/11/12 01:00:45.000  -74.525929237  163.457845163    24.2270   5  11   0.6194   0.5491   1.7746  -0.0764   0.1369  -0.5396   0.00    0.0
2018/11/12 01:01:00.000  -74.525929813  163.457851002    25.0504   5  11   0.6197   0.5493   1.7740  -0.0733   0.1235  -0.5390   0.00    0.0
2018/11/12 01:01:15.000  -74.525930257  163.457850063    24.2801   5  12   0.6125   0.5268   1.7055  -0.1412  -0.2539  -0.5802   0.00    0.0
2018/11/12 01:01:30.000  -74.525931288  163.457841858    24.7807   5  12   0.6128   0.5272   1.7065  -0.1401  -0.2598  -0.5798   0.00    0.0
2018/11/12 01:01:45.000  -74.525930772  163.457846456    24.5745   5  12   0.6131   0.5276   1.7078  -0.1390  -0.2656  -0.5795   0.00    0.0
2018/11/12 01:02:00.000  -74.525930340  163.457841947    24.5890   5  12   0.6134   0.5281   1.7093  -0.1379  -0.2714  -0.5792   0.00    0.0
2018/11/12 01:02:15.000  -74.525931158  163.457844392    23.8683   5  12   0.6138   0.5286   1.7111  -0.1369  -0.2772  -0.5790   0.00    0.0
2018/11/12 01:02:30.000  -74.525931241  163.457848874    24.4997   5  12   0.6142   0.5292   1.7132  -0.1358  -0.2829  -0.5788   0.00    0.0
2018/11/12 01:02:45.000  -74.525929819  163.457851957    24.2279   5  12   0.6138   0.5287   1.7105  -0.1345  -0.2870  -0.5779   0.00    0.0
2018/11/12 01:03:00.000  -74.525930321  163.457841167    24.8650   5  12   0.6133   0.5283   1.7079  -0.1331  -0.2910  -0.5771   0.00    0.0
2018/11/12 01:03:15.000  -74.525932329  163.457840040    24.0459   5  12   0.6130   0.5280   1.7056  -0.1317  -0.2950  -0.5763   0.00    0.0
2018/11/12 01:03:30.000  -74.525930547  163.457837225    24.8939   5  12   0.6126   0.5277   1.7036  -0.1304  -0.2991  -0.5755   0.00    0.0
2018/11/12 01:03:45.000  -74.525929949  163.457845636    24.3174   5  12   0.6123   0.5274   1.7018  -0.1291  -0.3031  -0.5748   0.00    0.0
2018/11/12 01:04:00.000  -74.525928667  163.457840632    24.2311   5  12   0.6121   0.5273   1.7003  -0.1277  -0.3072  -0.5741   0.00    0.0
2018/11/12 01:04:15.000  -74.525929728  163.457836907    24.4420   5  12   0.6119   0.5272   1.6991  -0.1264  -0.3113  -0.5735   0.00    0.0
2018/11/12 01:04:30.000  -74.525927766  163.457845378    24.3709   5  12   0.6118   0.5271   1.6982  -0.1251  -0.3154  -0.5729   0.00    0.0
2018/11/12 01:04:45.000  -74.525930727  163.457838366    24.0060   5  12   0.6117   0.5271   1.6975  -0.1237  -0.3196  -0.5724   0.00    0.0
2018/11/12 01:05:00.000  -74.525929736  163.457845530    24.4494   5  12   0.6117   0.5272   1.6972  -0.1224  -0.3237  -0.5719   0.00    0.0
2018/11/12 01:05:15.000  -74.525930908  163.457845785    24.4874   5  12   0.6117   0.5274   1.6972  -0.1211  -0.3280  -0.5714   0.00    0.0
2018/11/12 01:05:30.000  -74.525930390  163.457832540    24.7139   5  12   0.6118   0.5276   1.6975  -0.1198  -0.3322  -0.5710   0.00    0.0
2018/11/12 01:05:45.000  -74.525932154  163.457837001    24.7074   5  12   0.6120   0.5279   1.6981  -0.1185  -0.3365  -0.5707   0.00    0.0
2018/11/12 01:06:00.000  -74.525931569  163.457839679    24.4349   5  12   0.6122   0.5282   1.6990  -0.1172  -0.3409  -0.5704   0.00    0.0
2018/11/12 01:06:15.000  -74.525933232  163.457848257    24.4555   5  12   0.6124   0.5286   1.7002  -0.1159  -0.3452  -0.5701   0.00    0.0
2018/11/12 01:06:30.000  -74.525930711  163.457833928    24.6764   5  12   0.6127   0.5291   1.7016  -0.1146  -0.3496  -0.5699   0.00    0.0
2018/11/12 01:06:45.000  -74.525932989  163.457838955    24.8790   5  12   0.6131   0.5296   1.7034  -0.1133  -0.3540  -0.5697   0.00    0.0
2018/11/12 01:07:00.000  -74.525931316  163.457847301    24.0546   5  12   0.6135   0.5302   1.7054  -0.1120  -0.3585  -0.5696   0.00    0.0
2018/11/12 01:07:15.000  -74.525930399  163.457841093    23.8412   5  12   0.6139   0.5308   1.7077  -0.1107  -0.3630  -0.5695   0.00    0.0
2018/11/12 01:07:30.000  -74.525932903  163.457845759    24.4281   5  12   0.6144   0.5315   1.7103  -0.1094  -0.3675  -0.5695   0.00    0.0
2018/11/12 01:07:45.000  -74.525931762  163.457840209    24.5441   5  12   0.6140   0.5312   1.7078  -0.1078  -0.3704  -0.5688   0.00    0.0
2018/11/12 01:08:00.000  -74.525928868  163.457840690    23.9761   5  12   0.6136   0.5309   1.7056  -0.1062  -0.3734  -0.5680   0.00    0.0
2018/11/12 01:08:15.000  -74.525931496  163.457837223    25.3053   5  12   0.6133   0.5306   1.7037  -0.1045  -0.3764  -0.5674   0.00    0.0
2018/11/12 01:08:30.000  -74.525931686  163.457833361    24.1186   5  12   0.6130   0.5304   1.7020  -0.1029  -0.3795  -0.5668   0.00    0.0
2018/11/12 01:08:45.000  -74.525929244  163.457844889    23.0629   5  12   0.6128   0.5303   1.7006  -0.1012  -0.3826  -0.5662   0.00    0.0
2018/11/12 01:09:00.000  -74.525929836  163.457845872    24.4617   5  12   0.6126   0.5303   1.6995  -0.0996  -0.3857  -0.5657   0.00    0.0
2018/11/12 01:09:15.000  -74.525931763  163.457837518    24.5014   5  12   0.6125   0.5303   1.6987  -0.0979  -0.3889  -0.5652   0.00    0.0
2018/11/12 01:09:30.000  -74.525930742  163.457842574    24.6014   5  12   0.6124   0.5303   1.6982  -0.0962  -0.3921  -0.5648   0.00    0.0
2018/11/12 01:09:45.000  -74.525932966  163.457844660    23.8831   5  12   0.6124   0.5304   1.6980  -0.0945  -0.3954  -0.5644   0.00    0.0
2018/11/12 01:10:00.000  -74.525932790  163.457842489    24.9018   5  12   0.6124   0.5306   1.6980  -0.0928  -0.3988  -0.5640   0.00    0.0
2018/11/12 01:10:15.000  -74.525932496  163.457838465    24.3153   5  12   0.6125   0.5309   1.6985  -0.0911  -0.4022  -0.5638   0.00    0.0
2018/11/12 01:10:30.000  -74.525932927  163.457842368    24.1131   5  12   0.6127   0.5312   1.6992  -0.0894  -0.4057  -0.5635   0.00    0.0
2018/11/12 01:10:45.000  -74.525931100  163.457843083    24.1717   5  12   0.6129   0.5316   1.7003  -0.0877  -0.4092  -0.5633   0.00    0.0
2018/11/12 01:11:00.000  -74.525929988  163.457841176    24.0700   5  12   0.6131   0.5320   1.7016  -0.0859  -0.4128  -0.5632   0.00    0.0
2018/11/12 01:11:15.000  -74.525931116  163.457836091    24.0202   5  12   0.6134   0.5325   1.7032  -0.0841  -0.4165  -0.5631   0.00    0.0
2018/11/12 01:11:30.000  -74.525931128  163.457847713    24.2406   5  12   0.6138   0.5331   1.7051  -0.0823  -0.4202  -0.5630   0.00    0.0
2018/11/12 01:11:45.000  -74.525932212  163.457841417    24.5024   5  12   0.6142   0.5337   1.7073  -0.0805  -0.4239  -0.5630   0.00    0.0
2018/11/12 01:12:00.000  -74.525932563  163.457838119    24.6959   5  12   0.6146   0.5344   1.7098  -0.0787  -0.4277  -0.5631   0.00    0.0
2018/11/12 01:12:15.000  -74.525931677  163.457841073    24.9195   5  12   0.6151   0.5352   1.7125  -0.0768  -0.4316  -0.5631   0.00    0.0
2018/11/12 01:12:30.000  -74.525933637  163.457835130    25.2458   5  12   0.6157   0.5360   1.7156  -0.0749  -0.4355  -0.5633   0.00    0.0
2018/11/12 01:12:45.000  -74.525932417  163.457838644    25.2878   5  12   0.6153   0.5357   1.7134  -0.0726  -0.4378  -0.5627   0.00    0.0
2018/11/12 01:13:00.000  -74.525932356  163.457843734    24.6217   5  12   0.6150   0.5355   1.7116  -0.0702  -0.4402  -0.5622   0.00    0.0
2018/11/12 01:13:15.000  -74.525932489  163.457841640    24.7305   5  12   0.6147   0.5354   1.7100  -0.0677  -0.4427  -0.5617   0.00    0.0
2018/11/12 01:13:30.000  -74.525930782  163.457835577    25.7764   5  12   0.6145   0.5353   1.7088  -0.0652  -0.4452  -0.5612   0.00    0.0
2018/11/12 01:13:45.000  -74.525932205  163.457845195    25.1094   5  12   0.6143   0.5353   1.7078  -0.0626  -0.4478  -0.5608   0.00    0.0
2018/11/12 01:14:00.000  -74.525932119  163.457836360    24.7125   5  12   0.6142   0.5353   1.7072  -0.0599  -0.4504  -0.5605   0.00    0.0
2018/11/12 01:14:15.000  -74.525930812  163.457836162    24.8633   5  12   0.6142   0.5354   1.7068  -0.0572  -0.4531  -0.5601   0.00    0.0
2018/11/12 01:14:30.000  -74.525932753  163.457842370    24.2846   5  12   0.6141   0.5355   1.7067  -0.0543  -0.4558  -0.5599   0.00    0.0
2018/11/12 01:14:45.000  -74.525932638  163.457832808    25.4002   5  12   0.6142   0.5357   1.7068  -0.0513  -0.4586  -0.5597   0.00    0.0
2018/11/12 01:15:00.000  -74.525932292  163.457841311    24.8279   5  12   0.6143   0.5360   1.7073  -0.0481  -0.4615  -0.5595   0.00    0.0
2018/11/12 01:15:15.000  -74.525930558  163.457836009    24.4611   5  12   0.6144   0.5364   1.7082  -0.0447  -0.4645  -0.5594   0.00    0.0
2018/11/12 01:15:30.000  -74.525933523  163.457835262    24.5620   5  12   0.6146   0.5368   1.7093  -0.0411  -0.4675  -0.5593   0.00    0.0
2018/11/12 01:15:45.000  -74.525931916  163.457838123    23.2036   5  12   0.6149   0.5373   1.7108  -0.0371  -0.4706  -0.5593   0.00    0.0
2018/11/12 01:16:00.000  -74.525933265  163.457846652    24.0998   5  12   0.6152   0.5378   1.7125  -0.0327  -0.4737  -0.5593   0.00    0.0
2018/11/12 01:16:15.000  -74.525931175  163.457838842    24.3354   5  12   0.6155   0.5384   1.7145  -0.0277  -0.4769  -0.5594   0.00    0.0
2018/11/12 01:16:30.000  -74.525932124  163.457832213    24.9396   5  12   0.6159   0.5390   1.7168  -0.0216  -0.4802  -0.5595   0.00    0.0
2018/11/12 01:16:45.000  -74.525932276  163.457834377    24.5111   5  12   0.6164   0.5398   1.7193  -0.0129  -0.4835  -0.5597   0.00    0.0
2018/11/12 01:17:00.000  -74.525931794  163.457833789    25.3406   5  12   0.6169   0.5405   1.7222   0.0115  -0.4869  -0.5599   0.00    0.0
2018/11/12 01:17:15.000  -74.525932198  163.457843037    23.9748   5  12   0.6174   0.5414   1.7253   0.0207  -0.4904  -0.5601   0.00    0.0
2018/11/12 01:17:30.000  -74.525933533  163.457837327    25.1133   5  12   0.6180   0.5423   1.7287   0.0269  -0.4939  -0.5604   0.00    0.0
2018/11/12 01:17:45.000  -74.525930405  163.457836969    24.9785   5  12   0.6177   0.5421   1.7270   0.0326  -0.4958  -0.5600   0.00    0.0
2018/11/12 01:18:00.000  -74.525934210  163.457832792    25.3628   5  12   0.6175   0.5420   1.7256   0.0374  -0.4979  -0.5596   0.00    0.0
2018/11/12 01:18:15.000  -74.525932546  163.457845315    24.6680   5  12   0.6173   0.5419   1.7245   0.0416  -0.4999  -0.5593   0.00    0.0
2018/11/12 01:18:30.000  -74.525929802  163.457845384    23.7827   5  12   0.6171   0.5419   1.7236   0.0454  -0.5021  -0.5590   0.00    0.0
2018/11/12 01:18:45.000  -74.525932086  163.457841782    24.5716   5  12   0.6170   0.5419   1.7231   0.0489  -0.5043  -0.5588   0.00    0.0
2018/11/12 01:19:00.000  -74.525933262  163.457839836    24.9142   5  12   0.6169   0.5420   1.7228   0.0522  -0.5066  -0.5587   0.00    0.0
2018/11/12 01:19:15.000  -74.525933105  163.457843571    24.2458   5  12   0.6169   0.5422   1.7228   0.0552  -0.5089  -0.5585   0.00    0.0
2018/11/12 01:19:30.000  -74.525932617  163.457855883    23.9958   5  12   0.6169   0.5424   1.7231   0.0580  -0.5113  -0.5584   0.00    0.0
2018/11/12 01:19:45.000  -74.525934002  163.457846360    24.4799   5  12   0.6170   0.5427   1.7236   0.0607  -0.5138  -0.5584   0.00    0.0
2018/11/12 01:20:00.000  -74.525934334  163.457838354    24.3094   5  12   0.6172   0.5431   1.7245   0.0633  -0.5163  -0.5584   0.00    0.0
2018/11/12 01:20:15.000  -74.525935000  163.457844788    24.7162   5  12   0.6174   0.5435   1.7257   0.0657  -0.5189  -0.5585   0.00    0.0
2018/11/12 01:20:30.000  -74.525934607  163.457836395    25.2250   5  12   0.6176   0.5440   1.7272   0.0681  -0.5216  -0.5586   0.00    0.0
2018/11/12 01:20:45.000  -74.525932293  163.457838681    23.9644   5  12   0.6179   0.5445   1.7290   0.0703  -0.5244  -0.5587   0.00    0.0
2018/11/12 01:21:00.000  -74.525931534  163.457847400    24.2383   5  12   0.6183   0.5451   1.7310   0.0725  -0.5272  -0.5589   0.00    0.0
2018/11/12 01:21:15.000  -74.525934228  163.457843413    25.3096   5  12   0.6187   0.5458   1.7333   0.0746  -0.5301  -0.5592   0.00    0.0
2018/11/12 01:21:30.000  -74.525932300  163.457841913    24.3934   5  12   0.6192   0.5465   1.7359   0.0767  -0.5330  -0.5594   0.00    0.0
2018/11/12 01:21:45.000  -74.525934498  163.457840116    24.4944   5  12   0.6197   0.5473   1.7388   0.0786  -0.5360  -0.5598   0.00    0.0
2018/11/12 01:22:00.000  -74.525930363  163.457843882    25.0659   5  12   0.6202   0.5481   1.7419   0.0805  -0.5391  -0.5601   0.00    0.0
2018/11/12 01:22:15.000  -74.525931211  163.457841679    24.7574   5  12   0.6209   0.5490   1.7453   0.0824  -0.5422  -0.5605   0.00    0.0
2018/11/12 01:22:30.000  -74.525931658  163.457844330    24.5532   5  12   0.6215   0.5500   1.7489   0.0842  -0.5454  -0.5610   0.00    0.0
2018/11/12 01:22:45.000  -74.525933110  163.457842942    24.9906   5  12   0.6213   0.5499   1.7477   0.0862  -0.5471  -0.5607   0.00    0.0
2018/11/12 01:23:00.000  -74.525931601  163.457839719    24.6959   5  12   0.6211   0.5498   1.7466   0.0881  -0.5488  -0.5606   0.00    0.0
2018/11/12 01:23:15.000  -74.525933497  163.457837779    25.1063   5  12   0.6209   0.5498   1.7459   0.0900  -0.5506  -0.5605   0.00    0.0
2018/11/12 01:23:30.000  -74.525934841  163.457840594    25.0937   5  12   0.6208   0.5498   1.7454   0.0918  -0.5525  -0.5604   0.00    0.0
2018/11/12 01:23:45.000  -74.525932563  163.457842018    24.1183   5  12   0.6207   0.5499   1.7452   0.0936  -0.5544  -0.5604   0.00    0.0
2018/11/12 01:24:00.000  -74.525933921  163.457845702    25.0671   5  12   0.6207   0.5501   1.7452   0.0953  -0.5564  -0.5604   0.00    0.0
2018/11/12 01:24:15.000  -74.525934325  163.457836677    24.7418   5  12   0.6208   0.5503   1.7455   0.0971  -0.5584  -0.5604   0.00    0.0
2018/11/12 01:24:30.000  -74.525933557  163.457840886    24.6961   5  12   0.6209   0.5506   1.7461   0.0987  -0.5606  -0.5605   0.00    0.0
2018/11/12 01:24:45.000  -74.525933669  163.457845000    24.6607   5  12   0.6210   0.5509   1.7470   0.1004  -0.5627  -0.5607   0.00    0.0
2018/11/12 01:25:00.000  -74.525934625  163.457845097    24.2539   5  12   0.6212   0.5513   1.7481   0.1019  -0.5650  -0.5608   0.00    0.0
2018/11/12 01:25:15.000  -74.525934655  163.457840992    24.2437   5  12   0.6215   0.5518   1.7496   0.1035  -0.5673  -0.5611   0.00    0.0
2018/11/12 01:25:30.000  -74.525933197  163.457847433    24.3165   5  12   0.6218   0.5524   1.7514   0.1050  -0.5697  -0.5614   0.00    0.0
2018/11/12 01:25:45.000  -74.525930984  163.457860313    23.2448   5  12   0.6222   0.5529   1.7534   0.1065  -0.5722  -0.5617   0.00    0.0
2018/11/12 01:26:00.000  -74.525933708  163.457846721    24.4712   5  12   0.6226   0.5536   1.7557   0.1080  -0.5747  -0.5620   0.00    0.0
2018/11/12 01:26:15.000  -74.525933353  163.457851066    24.4585   5  12   0.6230   0.5543   1.7582   0.1095  -0.5773  -0.5624   0.00    0.0
2018/11/12 01:26:30.000  -74.525932975  163.457851338    23.8261   5  12   0.6236   0.5551   1.7610   0.1109  -0.5799  -0.5629   0.00    0.0
2018/11/12 01:26:45.000  -74.525932921  163.457846869    24.2401   5  12   0.6241   0.5559   1.7640   0.1123  -0.5826  -0.5633   0.00    0.0
2018/11/12 01:27:00.000  -74.525934702  163.457842077    24.3905   5  12   0.6248   0.5567   1.7673   0.1137  -0.5853  -0.5638   0.00    0.0
2018/11/12 01:27:15.000  -74.525933253  163.457842380    24.5992   5  12   0.6254   0.5577   1.7708   0.1150  -0.5881  -0.5644   0.00    0.0
2018/11/12 01:27:30.000  -74.525933074  163.457850341    24.4327   5  12   0.6262   0.5587   1.7745   0.1163  -0.5910  -0.5650   0.00    0.0
2018/11/12 01:27:45.000  -74.525935392  163.457841555    25.0442   5  12   0.6260   0.5586   1.7735   0.1178  -0.5924  -0.5650   0.00    0.0
2018/11/12 01:28:00.000  -74.525933391  163.457849928    23.8217   5  12   0.6258   0.5586   1.7728   0.1192  -0.5939  -0.5650   0.00    0.0
2018/11/12 01:28:15.000  -74.525933119  163.457843405    24.5647   5  12   0.6257   0.5586   1.7723   0.1207  -0.5954  -0.5651   0.00    0.0
2018/11/12 01:28:30.000  -74.525933204  163.457842253    24.2084   5  12   0.6257   0.5587   1.7721   0.1220  -0.5970  -0.5652   0.00    0.0
2018/11/12 01:28:45.000  -74.525934164  163.457845477    24.6895   5  12   0.6257   0.5588   1.7722   0.1234  -0.5987  -0.5653   0.00    0.0
2018/11/12 01:29:00.000  -74.525933782  163.457840183    24.5024   5  12   0.6257   0.5590   1.7725   0.1247  -0.6004  -0.5655   0.00    0.0
2018/11/12 01:29:15.000  -74.525934557  163.457842909    24.7161   5  12   0.6258   0.5592   1.7731   0.1261  -0.6022  -0.5658   0.00    0.0
2018/11/12 01:29:30.000  -74.525934235  163.457848537    24.3180   5  12   0.6260   0.5595   1.7739   0.1274  -0.6040  -0.5661   0.00    0.0
2018/11/12 01:29:45.000  -74.525935061  163.457843465    24.5394   5  12   0.6262   0.5599   1.7749   0.1287  -0.6059  -0.5664   0.00    0.0
2018/11/12 01:30:00.000  -74.525936133  163.457839436    24.5872   5  12   0.6264   0.5603   1.7762   0.1299  -0.6079  -0.5667   0.00    0.0
2018/11/12 01:30:15.000  -74.525933199  163.457847631    24.1245   5  12   0.6268   0.5608   1.7779   0.1312  -0.6099  -0.5671   0.00    0.0
2018/11/12 01:30:30.000  -74.525934820  163.457841413    24.3475   5  12   0.6271   0.5613   1.7798   0.1324  -0.6120  -0.5676   0.00    0.0
2018/11/12 01:30:45.000  -74.525935143  163.457840465    24.8137   5  12   0.6276   0.5619   1.7819   0.1336  -0.6141  -0.5680   0.00    0.0
2018/11/12 01:31:00.000  -74.525934365  163.457847151    24.4182   5  12   0.6280   0.5626   1.7842   0.1348  -0.6163  -0.5685   0.00    0.0
2018/11/12 01:31:15.000  -74.525934463  163.457843503    24.1840   5  12   0.6286   0.5633   1.7868   0.1360  -0.6186  -0.5691   0.00    0.0
2018/11/12 01:31:30.000  -74.525935898  163.457842462    24.6281   5  12   0.6292   0.5641   1.7896   0.1372  -0.6209  -0.5697   0.00    0.0
2018/11/12 01:31:45.000  -74.525934882  163.457846338    23.9022   5  11   0.6612   0.5686   1.8295   0.1793  -0.6039  -0.5016   0.00    0.0
2018/11/12 01:32:00.000  -74.525936974  163.457843655    24.1276   5  11   0.6617   0.5695   1.8331   0.1801  -0.6063  -0.5020   0.00    0.0
2018/11/12 01:32:15.000  -74.525933733  163.457850873    24.5268   5  11   0.6624   0.5703   1.8370   0.1808  -0.6088  -0.5024   0.00    0.0
2018/11/12 01:32:30.000  -74.525936320  163.457849950    23.6617   5  11   0.6630   0.5713   1.8411   0.1815  -0.6113  -0.5028   0.00    0.0
2018/11/12 01:32:45.000  -74.525936727  163.457847051    24.3837   5  11   0.6627   0.5712   1.8405   0.1821  -0.6125  -0.5031   0.00    0.0
2018/11/12 01:33:00.000  -74.525934019  163.457846590    24.0092   5  11   0.6623   0.5711   1.8403   0.1828  -0.6137  -0.5034   0.00    0.0
2018/11/12 01:33:15.000  -74.525935877  163.457844607    24.2015   5  10   0.6737   0.6302   2.0938   0.0222  -0.8027  -0.3598   0.00    0.0
2018/11/12 01:33:30.000  -74.525935879  163.457846921    22.8472   5  10   0.6733   0.6304   2.0961   0.0306  -0.8047  -0.3609   0.00    0.0
2018/11/12 01:33:45.000  -74.525937348  163.457851093    23.5654   5  10   0.6730   0.6307   2.0986   0.0371  -0.8069  -0.3619   0.00    0.0
2018/11/12 01:34:00.000  -74.525933036  163.457854881    22.2885   5   9   0.7714   0.6821   2.6190   0.3153  -1.0291  -0.8494   0.00    0.0
2018/11/12 01:34:15.000  -74.525932599  163.457857511    21.7285   5   9   0.7714   0.6833   2.6283   0.3175  -1.0341  -0.8526   0.00    0.0
2018/11/12 01:34:30.000  -74.525931347  163.457858388    21.6039   5   9   0.7714   0.6847   2.6381   0.3198  -1.0393  -0.8560   0.00    0.0
2018/11/12 01:34:45.000  -74.525932164  163.457856447    21.9494   5   9   0.7716   0.6862   2.6483   0.3220  -1.0447  -0.8594   0.00    0.0
2018/11/12 01:35:00.000  -74.525933088  163.457854894    22.3873   5   9   0.7718   0.6878   2.6590   0.3243  -1.0502  -0.8629   0.00    0.0
2018/11/12 01:35:15.000  -74.525932837  163.457860835    21.6326   5   9   0.7721   0.6894   2.6704   0.3266  -1.0560  -0.8665   0.00    0.0
2018/11/12 01:35:30.000  -74.525934274  163.457861063    22.0614   5   9   0.7726   0.6912   2.6822   0.3289  -1.0619  -0.8703   0.00    0.0
2018/11/12 01:35:45.000  -74.525933348  163.457843167    23.5592   5   9   0.7731   0.6931   2.6944   0.3312  -1.0680  -0.8741   0.00    0.0
2018/11/12 01:36:00.000  -74.525931230  163.457856008    22.3923   5   9   0.7736   0.6951   2.7072   0.3336  -1.0743  -0.8781   0.00    0.0
2018/11/12 01:36:15.000  -74.525933751  163.457866566    21.7061   5   9   0.7743   0.6971   2.7204   0.3360  -1.0808  -0.8821   0.00    0.0
2018/11/12 01:36:30.000  -74.525931811  163.457856982    21.8398   5   9   0.7750   0.6992   2.7341   0.3384  -1.0874  -0.8862   0.00    0.0
2018/11/12 01:36:45.000  -74.525933421  163.457850079    22.6135   5   9   0.7758   0.7015   2.7482   0.3409  -1.0941  -0.8905   0.00    0.0
2018/11/12 01:37:00.000  -74.525935596  163.457851231    22.7801   5   9   0.7767   0.7038   2.7628   0.3434  -1.1011  -0.8948   0.00    0.0
2018/11/12 01:37:15.000  -74.525933662  163.457858808    22.6609   5   9   0.7777   0.7062   2.7778   0.3459  -1.1082  -0.8992   0.00    0.0
2018/11/12 01:37:30.000  -74.525930934  163.457863414    22.1266   5   9   0.7788   0.7087   2.7933   0.3485  -1.1154  -0.9038   0.00    0.0
2018/11/12 01:37:45.000  -74.525931417  163.457861462    21.1076   5   9   0.7785   0.7095   2.8005   0.3504  -1.1193  -0.9069   0.00    0.0
2018/11/12 01:38:00.000  -74.525932272  163.457862589    21.0302   5   9   0.7783   0.7104   2.8079   0.3524  -1.1233  -0.9101   0.00    0.0
2018/11/12 01:38:15.000  -74.525933753  163.457854065    22.2917   5   9   0.7781   0.7113   2.8158   0.3544  -1.1274  -0.9133   0.00    0.0
2018/11/12 01:38:30.000  -74.525932007  163.457860136    20.5438   5   9   0.7780   0.7123   2.8241   0.3564  -1.1316  -0.9167   0.00    0.0
2018/11/12 01:38:45.000  -74.525933350  163.457855079    21.9120   5   9   0.7780   0.7134   2.8329   0.3585  -1.1360  -0.9201   0.00    0.0
2018/11/12 01:39:00.000  -74.525934856  163.457852300    23.2837   5   9   0.7781   0.7145   2.8420   0.3605  -1.1406  -0.9237   0.00    0.0
2018/11/12 01:39:15.000  -74.525932918  163.457861038    21.6441   5   9   0.7783   0.7158   2.8516   0.3626  -1.1453  -0.9273   0.00    0.0
2018/11/12 01:39:30.000  -74.525932296  163.457865971    20.8194   5   9   0.7785   0.7171   2.8616   0.3647  -1.1501  -0.9310   0.00    0.0
2018/11/12 01:39:45.000  -74.525933821  163.457856570    21.5624   5   9   0.7789   0.7185   2.8720   0.3668  -1.1551  -0.9347   0.00    0.0
2018/11/12 01:40:00.000  -74.525931249  163.457862692    21.1987   5   9   0.7793   0.7200   2.8828   0.3690  -1.1602  -0.9386   0.00    0.0
2018/11/12 01:40:15.000  -74.525932645  163.457853544    21.9455   5   9   0.7798   0.7217   2.8942   0.3711  -1.1655  -0.9426   0.00    0.0
2018/11/12 01:40:30.000  -74.525933177  163.457861534    21.7798   5   9   0.7804   0.7234   2.9059   0.3734  -1.1710  -0.9466   0.00    0.0
2018/11/12 01:40:45.000  -74.525935552  163.457863505    22.2347   5   9   0.7810   0.7251   2.9181   0.3756  -1.1766  -0.9508   0.00    0.0
2018/11/12 01:41:00.000  -74.525933489  163.457864335    19.8390   5   9   0.7818   0.7270   2.9307   0.3778  -1.1823  -0.9550   0.00    0.0
2018/11/12 01:41:15.000  -74.525934629  163.457857018    21.2188   5   9   0.7826   0.7289   2.9436   0.3801  -1.1882  -0.9593   0.00    0.0
2018/11/12 01:41:30.000  -74.525934800  163.457865968    20.5567   5   9   0.7835   0.7309   2.9568   0.3824  -1.1942  -0.9637   0.00    0.0
2018/11/12 01:41:45.000  -74.525935260  163.457862143    21.1358   5   9   0.7845   0.7330   2.9705   0.3847  -1.2003  -0.9682   0.00    0.0
2018/11/12 01:42:00.000  -74.525932927  163.457854766    21.7759   5   9   0.7856   0.7352   2.9844   0.3870  -1.2065  -0.9727   0.00    0.0
2018/11/12 01:42:15.000  -74.525931697  163.457856778    22.1621   5   9   0.7868   0.7374   2.9987   0.3894  -1.2128  -0.9773   0.00    0.0
2018/11/12 01:42:30.000  -74.525932402  163.457857138    22.2389   5   9   0.7880   0.7397   3.0133   0.3917  -1.2193  -0.9819   0.00    0.0
2018/11/12 01:42:45.000  -74.525933219  163.457857074    21.7022   5   9   0.7878   0.7402   3.0195   0.3934  -1.2222  -0.9851   0.00    0.0
2018/11/12 01:43:00.000  -74.525932490  163.457858165    21.9281   5   9   0.7877   0.7407   3.0260   0.3951  -1.2252  -0.9883   0.00    0.0
2018/11/12 01:43:15.000  -74.525932162  163.457864172    21.3548   5   9   0.7877   0.7414   3.0329   0.3969  -1.2283  -0.9915   0.00    0.0
2018/11/12 01:43:30.000  -74.525929336  163.457863284    20.5466   5   9   0.7878   0.7421   3.0400   0.3986  -1.2315  -0.9948   0.00    0.0
2018/11/12 01:43:45.000  -74.525931755  163.457857298    22.1141   5   9   0.7879   0.7428   3.0475   0.4003  -1.2349  -0.9982   0.00    0.0
2018/11/12 01:44:00.000  -74.525931150  163.457858331    21.6088   5   9   0.7882   0.7436   3.0553   0.4021  -1.2383  -1.0016   0.00    0.0
2018/11/12 01:44:15.000  -74.525931627  163.457859023    22.0057   5   9   0.7884   0.7445   3.0634   0.4039  -1.2418  -1.0051   0.00    0.0
