% program   : RTKLIB ver.2.4.3
% inp file  : _by_type/_obs/shirase/20181109.18o
% inp file  : _by_type/_obs/base/20181109.18o
% inp file  : _by_type/_sp3+clk/igs20265.clk
% inp file  : _by_type/_sp3+clk/igs20265.sp3
% inp file  : _by_type/_nav/shirase/20181109.18n
% obs start : 2018/11/09 00:00:00.0 GPST (week2026 432000.0s)
% obs end   : 2018/11/09 23:59:45.0 GPST (week2026 518385.0s)
% pos mode  : dgps
% freqs     : L1+L2
% solution  : combined
% elev mask : 15.0 deg
% dynamics  : off
% tidecorr  : off
% ionos opt : iono-free
% tropo opt : est ztd+grad
% ephemeris : precise
% navi sys  : gps glonass
% antenna1  :                       ( 0.0000  0.0000  0.0000)
% antenna2  :                       ( 0.0000  0.0000  0.0000)
% ref pos   : 90.000000000   0.000000000-6335367.6285
%
% (lat/lon/height=WGS84/ellipsoidal,Q=1:fix,2:float,3:sbas,4:dgps,5:single,6:ppp,ns=# of satellites)
%  GPST                  latitude(deg) longitude(deg)  height(m)   Q  ns   sdn(m)   sde(m)   sdu(m)  sdne(m)  sdeu(m)  sdun(m) age(s)  ratio
2018/11/09 00:00:00.000  -74.525923963  163.457809447    25.1409   5   9   0.6736   0.6145   2.2430  -0.2004   0.4986  -0.7698   0.00    0.0
2018/11/09 00:00:15.000  -74.525923260  163.457822814    26.3168   5   9   0.6736   0.6147   2.2486  -0.2015   0.5029  -0.7713   0.00    0.0
2018/11/09 00:00:30.000  -74.525923774  163.457819321    26.9177   5   9   0.6736   0.6150   2.2546  -0.2026   0.5074  -0.7729   0.00    0.0
2018/11/09 00:00:45.000  -74.525923171  163.457817662    25.4990   5   9   0.6737   0.6154   2.2608  -0.2038   0.5119  -0.7745   0.00    0.0
2018/11/09 00:01:00.000  -74.525920833  163.457822559    26.2951   5   9   0.6739   0.6159   2.2674  -0.2051   0.5165  -0.7763   0.00    0.0
2018/11/09 00:01:15.000  -74.525922047  163.457817533    25.1839   5   9   0.6741   0.6165   2.2743  -0.2064   0.5213  -0.7782   0.00    0.0
2018/11/09 00:01:30.000  -74.525922745  163.457814271    26.8093   5   9   0.6745   0.6171   2.2815  -0.2078   0.5262  -0.7802   0.00    0.0
2018/11/09 00:01:45.000  -74.525924126  163.457806980    25.2868   5   9   0.6749   0.6179   2.2890  -0.2092   0.5312  -0.7823   0.00    0.0
2018/11/09 00:02:00.000  -74.525923804  163.457808468    25.5612   5   9   0.6754   0.6188   2.2968  -0.2107   0.5362  -0.7844   0.00    0.0
2018/11/09 00:02:15.000  -74.525924381  163.457808983    25.8869   5   9   0.6759   0.6197   2.3050  -0.2122   0.5415  -0.7867   0.00    0.0
2018/11/09 00:02:30.000  -74.525921425  163.457812457    24.9883   5   9   0.6766   0.6208   2.3134  -0.2138   0.5468  -0.7891   0.00    0.0
2018/11/09 00:02:45.000  -74.525921004  163.457813244    25.1751   5   9   0.6758   0.6202   2.3162  -0.2144   0.5500  -0.7899   0.00    0.0
2018/11/09 00:03:00.000  -74.525923772  163.457814848    25.8574   5   9   0.6752   0.6197   2.3194  -0.2151   0.5534  -0.7908   0.00    0.0
2018/11/09 00:03:15.000  -74.525922786  163.457805334    24.9224   5   9   0.6747   0.6193   2.3230  -0.2158   0.5569  -0.7918   0.00    0.0
2018/11/09 00:03:30.000  -74.525924806  163.457813618    25.6481   5   9   0.6742   0.6190   2.3267  -0.2166   0.5605  -0.7929   0.00    0.0
2018/11/09 00:03:45.000  -74.525921097  163.457817186    23.6902   5  10   0.6514   0.6093   2.0800  -0.2566   0.6569  -0.6705   0.00    0.0
2018/11/09 00:04:00.000  -74.525921774  163.457821469    24.2135   5  10   0.6512   0.6092   2.0848  -0.2572   0.6599  -0.6721   0.00    0.0
2018/11/09 00:04:15.000  -74.525922808  163.457828830    25.0707   5  10   0.6509   0.6093   2.0899  -0.2579   0.6630  -0.6738   0.00    0.0
2018/11/09 00:04:30.000  -74.525922875  163.457824011    24.8566   5  10   0.6508   0.6094   2.0954  -0.2586   0.6662  -0.6757   0.00    0.0
2018/11/09 00:04:45.000  -74.525921240  163.457819487    24.2044   5  10   0.6507   0.6096   2.1011  -0.2594   0.6695  -0.6776   0.00    0.0
2018/11/09 00:05:00.000  -74.525922044  163.457820890    25.0716   5  10   0.6507   0.6099   2.1071  -0.2603   0.6730  -0.6796   0.00    0.0
2018/11/09 00:05:15.000  -74.525923283  163.457820981    24.7621   5  10   0.6509   0.6103   2.1135  -0.2612   0.6767  -0.6817   0.00    0.0
2018/11/09 00:05:30.000  -74.525921732  163.457822948    24.4120   5  10   0.6511   0.6108   2.1202  -0.2622   0.6805  -0.6839   0.00    0.0
2018/11/09 00:05:45.000  -74.525921586  163.457826771    24.8069   5  10   0.6513   0.6114   2.1273  -0.2633   0.6844  -0.6862   0.00    0.0
2018/11/09 00:06:00.000  -74.525922448  163.457830996    24.6113   5  10   0.6517   0.6121   2.1346  -0.2645   0.6885  -0.6886   0.00    0.0
2018/11/09 00:06:15.000  -74.525923382  163.457826091    25.2532   5  10   0.6521   0.6129   2.1423  -0.2657   0.6927  -0.6911   0.00    0.0
2018/11/09 00:06:30.000  -74.525923649  163.457822179    24.4750   5  10   0.6526   0.6138   2.1502  -0.2670   0.6970  -0.6938   0.00    0.0
2018/11/09 00:06:45.000  -74.525923704  163.457823342    25.3618   5  10   0.6532   0.6148   2.1585  -0.2683   0.7015  -0.6965   0.00    0.0
2018/11/09 00:07:00.000  -74.525922455  163.457824518    24.5748   5  10   0.6538   0.6159   2.1670  -0.2697   0.7061  -0.6993   0.00    0.0
2018/11/09 00:07:15.000  -74.525923619  163.457824260    24.9106   5  10   0.6545   0.6170   2.1759  -0.2712   0.7108  -0.7022   0.00    0.0
2018/11/09 00:07:30.000  -74.525923099  163.457820727    24.9698   5  10   0.6553   0.6183   2.1851  -0.2727   0.7157  -0.7052   0.00    0.0
2018/11/09 00:07:45.000  -74.525924526  163.457826662    25.8436   5  10   0.6548   0.6179   2.1892  -0.2732   0.7182  -0.7068   0.00    0.0
2018/11/09 00:08:00.000  -74.525923953  163.457830377    25.1095   5  10   0.6544   0.6176   2.1934  -0.2738   0.7207  -0.7085   0.00    0.0
2018/11/09 00:08:15.000  -74.525924952  163.457816379    24.7585   5  10   0.6540   0.6174   2.1979  -0.2744   0.7234  -0.7103   0.00    0.0
2018/11/09 00:08:30.000  -74.525923104  163.457814917    24.7014   5  10   0.6538   0.6173   2.2027  -0.2750   0.7263  -0.7122   0.00    0.0
2018/11/09 00:08:45.000  -74.525924235  163.457827738    25.0836   5  10   0.6536   0.6173   2.2078  -0.2757   0.7292  -0.7142   0.00    0.0
2018/11/09 00:09:00.000  -74.525922993  163.457820960    24.7319   5  10   0.6534   0.6174   2.2131  -0.2765   0.7323  -0.7162   0.00    0.0
2018/11/09 00:09:15.000  -74.525922127  163.457823158    24.8799   5  10   0.6534   0.6175   2.2188  -0.2774   0.7355  -0.7184   0.00    0.0
2018/11/09 00:09:30.000  -74.525924018  163.457820380    25.0021   5  10   0.6534   0.6178   2.2247  -0.2783   0.7388  -0.7206   0.00    0.0
2018/11/09 00:09:45.000  -74.525925208  163.457821906    24.5566   5  10   0.6535   0.6181   2.2310  -0.2792   0.7422  -0.7229   0.00    0.0
2018/11/09 00:10:00.000  -74.525922000  163.457812112    24.0735   5  10   0.6537   0.6185   2.2375  -0.2803   0.7458  -0.7254   0.00    0.0
2018/11/09 00:10:15.000  -74.525924442  163.457825102    24.2584   5  10   0.6540   0.6191   2.2445  -0.2814   0.7496  -0.7280   0.00    0.0
2018/11/09 00:10:30.000  -74.525924631  163.457818210    24.9637   5  10   0.6543   0.6198   2.2518  -0.2826   0.7536  -0.7306   0.00    0.0
2018/11/09 00:10:45.000  -74.525924255  163.457833858    25.6415   5  10   0.6548   0.6205   2.2594  -0.2839   0.7576  -0.7334   0.00    0.0
2018/11/09 00:11:00.000  -74.525926038  163.457815218    24.9804   5  10   0.6553   0.6214   2.2673  -0.2852   0.7618  -0.7363   0.00    0.0
2018/11/09 00:11:15.000  -74.525925021  163.457825586    24.8081   5  10   0.6559   0.6223   2.2755  -0.2866   0.7661  -0.7393   0.00    0.0
2018/11/09 00:11:30.000  -74.525925860  163.457821717    24.3899   5  10   0.6566   0.6234   2.2840  -0.2881   0.7706  -0.7423   0.00    0.0
2018/11/09 00:11:45.000  -74.525925899  163.457824423    24.9118   5  10   0.6573   0.6245   2.2929  -0.2896   0.7752  -0.7455   0.00    0.0
2018/11/09 00:12:00.000  -74.525924940  163.457819518    24.6596   5  10   0.6581   0.6257   2.3020  -0.2912   0.7799  -0.7488   0.00    0.0
2018/11/09 00:12:15.000  -74.525924798  163.457824269    24.3926   5  10   0.6590   0.6271   2.3114  -0.2928   0.7848  -0.7522   0.00    0.0
2018/11/09 00:12:30.000  -74.525924806  163.457820800    25.4613   5  10   0.6600   0.6285   2.3212  -0.2945   0.7897  -0.7557   0.00    0.0
2018/11/09 00:12:45.000  -74.525924954  163.457819862    24.4850   5  10   0.6597   0.6282   2.3253  -0.2951   0.7921  -0.7576   0.00    0.0
2018/11/09 00:13:00.000  -74.525923651  163.457826063    24.2053   5  10   0.6594   0.6280   2.3296  -0.2958   0.7947  -0.7596   0.00    0.0
2018/11/09 00:13:15.000  -74.525924392  163.457825872    24.0183   5  10   0.6592   0.6279   2.3343  -0.2965   0.7973  -0.7617   0.00    0.0
2018/11/09 00:13:30.000  -74.525928013  163.457823171    25.1586   5  10   0.6591   0.6279   2.3392  -0.2973   0.8000  -0.7638   0.00    0.0
2018/11/09 00:13:45.000  -74.525923331  163.457828612    25.0518   5  10   0.6591   0.6280   2.3444  -0.2982   0.8029  -0.7661   0.00    0.0
2018/11/09 00:14:00.000  -74.525925297  163.457825968    25.1632   5  10   0.6591   0.6281   2.3499  -0.2991   0.8059  -0.7685   0.00    0.0
2018/11/09 00:14:15.000  -74.525925877  163.457823999    24.8445   5  10   0.6592   0.6284   2.3556  -0.3001   0.8090  -0.7709   0.00    0.0
2018/11/09 00:14:30.000  -74.525925887  163.457821664    24.4419   5  10   0.6594   0.6287   2.3617  -0.3011   0.8123  -0.7735   0.00    0.0
2018/11/09 00:14:45.000  -74.525927015  163.457827197    25.2527   5  10   0.6597   0.6292   2.3680  -0.3022   0.8156  -0.7761   0.00    0.0
2018/11/09 00:15:00.000  -74.525926211  163.457827485    24.3821   5  10   0.6600   0.6297   2.3746  -0.3033   0.8191  -0.7788   0.00    0.0
2018/11/09 00:15:15.000  -74.525926107  163.457827854    25.0175   5  10   0.6605   0.6304   2.3816  -0.3046   0.8228  -0.7817   0.00    0.0
2018/11/09 00:15:30.000  -74.525924140  163.457822819    24.7957   5  10   0.6610   0.6311   2.3890  -0.3059   0.8266  -0.7847   0.00    0.0
2018/11/09 00:15:45.000  -74.525923498  163.457833655    24.6118   5  10   0.6616   0.6320   2.3966  -0.3073   0.8306  -0.7877   0.00    0.0
2018/11/09 00:16:00.000  -74.525925077  163.457823923    24.6096   5  10   0.6623   0.6329   2.4045  -0.3087   0.8346  -0.7909   0.00    0.0
2018/11/09 00:16:15.000  -74.525922707  163.457832661    24.7092   5  10   0.6631   0.6340   2.4127  -0.3102   0.8388  -0.7941   0.00    0.0
2018/11/09 00:16:30.000  -74.525926494  163.457830084    25.1154   5  10   0.6639   0.6351   2.4211  -0.3117   0.8431  -0.7975   0.00    0.0
2018/11/09 00:16:45.000  -74.525923866  163.457823658    25.2215   5  10   0.6648   0.6363   2.4299  -0.3134   0.8475  -0.8009   0.00    0.0
2018/11/09 00:17:00.000  -74.525925524  163.457832010    24.9456   5  10   0.6658   0.6376   2.4389  -0.3150   0.8521  -0.8045   0.00    0.0
2018/11/09 00:17:15.000  -74.525926596  163.457833236    25.6000   5  11   0.6540   0.6390   2.3515  -0.3152   0.8596  -0.8615   0.00    0.0
2018/11/09 00:17:30.000  -74.525925684  163.457826457    24.4565   5  11   0.6550   0.6405   2.3613  -0.3171   0.8643  -0.8652   0.00    0.0
2018/11/09 00:17:45.000  -74.525926334  163.457829833    24.9103   5  11   0.6548   0.6402   2.3655  -0.3178   0.8662  -0.8671   0.00    0.0
2018/11/09 00:18:00.000  -74.525924596  163.457837412    24.9846   5  11   0.6546   0.6401   2.3699  -0.3185   0.8683  -0.8690   0.00    0.0
2018/11/09 00:18:15.000  -74.525925191  163.457830261    25.3793   5  11   0.6545   0.6400   2.3746  -0.3193   0.8705  -0.8710   0.00    0.0
2018/11/09 00:18:30.000  -74.525925705  163.457824101    23.8915   5  11   0.6545   0.6400   2.3795  -0.3202   0.8728  -0.8731   0.00    0.0
2018/11/09 00:18:45.000  -74.525926183  163.457836019    25.0102   5  11   0.6545   0.6401   2.3847  -0.3211   0.8752  -0.8753   0.00    0.0
2018/11/09 00:19:00.000  -74.525927572  163.457830342    24.9412   5  11   0.6546   0.6403   2.3901  -0.3221   0.8777  -0.8776   0.00    0.0
2018/11/09 00:19:15.000  -74.525924121  163.457830494    24.7552   5  11   0.6548   0.6406   2.3958  -0.3231   0.8803  -0.8800   0.00    0.0
2018/11/09 00:19:30.000  -74.525927428  163.457825059    24.0392   5  11   0.6551   0.6409   2.4017  -0.3242   0.8831  -0.8825   0.00    0.0
2018/11/09 00:19:45.000  -74.525925430  163.457831324    24.4707   5  11   0.6554   0.6414   2.4079  -0.3253   0.8859  -0.8851   0.00    0.0
2018/11/09 00:20:00.000  -74.525924607  163.457820992    23.8588   5  11   0.6558   0.6419   2.4143  -0.3264   0.8889  -0.8877   0.00    0.0
2018/11/09 00:20:15.000  -74.525925085  163.457828363    24.5637   5  11   0.6563   0.6426   2.4211  -0.3277   0.8920  -0.8906   0.00    0.0
2018/11/09 00:20:30.000  -74.525925860  163.457838871    25.3044   5  11   0.6569   0.6433   2.4282  -0.3290   0.8953  -0.8934   0.00    0.0
2018/11/09 00:20:45.000  -74.525927765  163.457830487    24.9422   5  11   0.6575   0.6442   2.4354  -0.3304   0.8987  -0.8964   0.00    0.0
2018/11/09 00:21:00.000  -74.525926420  163.457831975    24.5564   5  11   0.6583   0.6451   2.4430  -0.3318   0.9021  -0.8995   0.00    0.0
2018/11/09 00:21:15.000  -74.525922722  163.457828157    24.9184   5  11   0.6590   0.6461   2.4507  -0.3333   0.9057  -0.9026   0.00    0.0
2018/11/09 00:21:30.000  -74.525925066  163.457833214    25.4044   5  11   0.6599   0.6472   2.4587  -0.3348   0.9094  -0.9059   0.00    0.0
2018/11/09 00:21:45.000  -74.525927061  163.457824323    24.8298   5  11   0.6608   0.6483   2.4669  -0.3363   0.9131  -0.9092   0.00    0.0
2018/11/09 00:22:00.000  -74.525925764  163.457830005    24.4276   5  11   0.6618   0.6496   2.4754  -0.3379   0.9170  -0.9126   0.00    0.0
2018/11/09 00:22:15.000  -74.525926915  163.457838212    25.1601   5  11   0.6629   0.6509   2.4840  -0.3395   0.9210  -0.9161   0.00    0.0
2018/11/09 00:22:30.000  -74.525924464  163.457821343    23.9467   5  11   0.6640   0.6523   2.4929  -0.3412   0.9250  -0.9196   0.00    0.0
2018/11/09 00:22:45.000  -74.525923750  163.457836395    24.0815   5  11   0.6638   0.6520   2.4958  -0.3417   0.9262  -0.9212   0.00    0.0
2018/11/09 00:23:00.000  -74.525924523  163.457819956    24.0562   5  11   0.6637   0.6517   2.4991  -0.3423   0.9276  -0.9228   0.00    0.0
2018/11/09 00:23:15.000  -74.525925513  163.457830652    24.6255   5  11   0.6637   0.6516   2.5025  -0.3430   0.9291  -0.9245   0.00    0.0
2018/11/09 00:23:30.000  -74.525923994  163.457834038    25.2962   5  11   0.6637   0.6515   2.5062  -0.3436   0.9307  -0.9263   0.00    0.0
2018/11/09 00:23:45.000  -74.525926402  163.457838692    24.8218   5  11   0.6638   0.6515   2.5100  -0.3444   0.9324  -0.9282   0.00    0.0
2018/11/09 00:24:00.000  -74.525924743  163.457829407    24.4360   5  11   0.6640   0.6515   2.5141  -0.3451   0.9341  -0.9301   0.00    0.0
2018/11/09 00:24:15.000  -74.525925883  163.457823698    24.4302   5  11   0.6642   0.6517   2.5183  -0.3459   0.9360  -0.9321   0.00    0.0
2018/11/09 00:24:30.000  -74.525925543  163.457827776    24.7982   5  11   0.6645   0.6519   2.5227  -0.3468   0.9379  -0.9342   0.00    0.0
2018/11/09 00:24:45.000  -74.525926268  163.457835530    26.2178   5  11   0.6649   0.6522   2.5273  -0.3477   0.9399  -0.9364   0.00    0.0
2018/11/09 00:25:00.000  -74.525924774  163.457824778    24.7785   5  11   0.6653   0.6526   2.5322  -0.3486   0.9420  -0.9386   0.00    0.0
2018/11/09 00:25:15.000  -74.525924769  163.457824975    24.3282   5  11   0.6658   0.6531   2.5373  -0.3496   0.9442  -0.9409   0.00    0.0
2018/11/09 00:25:30.000  -74.525925712  163.457833432    25.6578   5  11   0.6664   0.6536   2.5426  -0.3506   0.9465  -0.9433   0.00    0.0
2018/11/09 00:25:45.000  -74.525927332  163.457828530    25.6154   5  11   0.6671   0.6543   2.5481  -0.3517   0.9489  -0.9457   0.00    0.0
2018/11/09 00:26:00.000  -74.525922764  163.457824302    24.3706   5  11   0.6678   0.6550   2.5537  -0.3528   0.9514  -0.9482   0.00    0.0
2018/11/09 00:26:15.000  -74.525926836  163.457833927    25.2948   5  11   0.6686   0.6558   2.5595  -0.3539   0.9539  -0.9508   0.00    0.0
2018/11/09 00:26:30.000  -74.525926308  163.457820567    24.9373   5  11   0.6694   0.6567   2.5655  -0.3550   0.9565  -0.9534   0.00    0.0
2018/11/09 00:26:45.000  -74.525923810  163.457826647    24.5823   5  11   0.6703   0.6576   2.5717  -0.3562   0.9591  -0.9561   0.00    0.0
2018/11/09 00:27:00.000  -74.525924942  163.457832174    25.0958   5  11   0.6713   0.6586   2.5779  -0.3575   0.9618  -0.9588   0.00    0.0
2018/11/09 00:27:15.000  -74.525927243  163.457831539    25.4002   5  11   0.6723   0.6597   2.5844  -0.3587   0.9646  -0.9616   0.00    0.0
2018/11/09 00:27:30.000  -74.525923281  163.457819111    24.5602   5  11   0.6734   0.6609   2.5910  -0.3600   0.9674  -0.9644   0.00    0.0
2018/11/09 00:27:45.000  -74.525925748  163.457837501    25.5047   5  11   0.6732   0.6603   2.5918  -0.3602   0.9676  -0.9653   0.00    0.0
2018/11/09 00:28:00.000  -74.525924954  163.457827206    24.8791   5  11   0.6730   0.6598   2.5926  -0.3604   0.9678  -0.9662   0.00    0.0
2018/11/09 00:28:15.000  -74.525925391  163.457829780    24.9164   5  11   0.6730   0.6594   2.5937  -0.3606   0.9681  -0.9672   0.00    0.0
2018/11/09 00:28:30.000  -74.525925834  163.457834668    24.7374   5  11   0.6729   0.6590   2.5948  -0.3609   0.9684  -0.9682   0.00    0.0
2018/11/09 00:28:45.000  -74.525926938  163.457830914    25.5900   5  11   0.6730   0.6587   2.5962  -0.3612   0.9688  -0.9692   0.00    0.0
2018/11/09 00:29:00.000  -74.525926043  163.457831785    24.2537   5  11   0.6731   0.6585   2.5976  -0.3616   0.9693  -0.9703   0.00    0.0
2018/11/09 00:29:15.000  -74.525923288  163.457828937    24.3515   5  11   0.6732   0.6584   2.5992  -0.3620   0.9698  -0.9715   0.00    0.0
2018/11/09 00:29:30.000  -74.525923869  163.457828943    24.4530   5  11   0.6735   0.6583   2.6009  -0.3624   0.9704  -0.9727   0.00    0.0
2018/11/09 00:29:45.000  -74.525926781  163.457835971    24.9735   5  11   0.6737   0.6583   2.6028  -0.3628   0.9710  -0.9739   0.00    0.0
2018/11/09 00:30:00.000  -74.525927087  163.457833296    25.2053   5  11   0.6741   0.6584   2.6048  -0.3632   0.9717  -0.9752   0.00    0.0
2018/11/09 00:30:15.000  -74.525923437  163.457831382    24.7173   5  11   0.6745   0.6585   2.6070  -0.3637   0.9725  -0.9765   0.00    0.0
2018/11/09 00:30:30.000  -74.525925306  163.457835161    25.1245   5  11   0.6750   0.6588   2.6094  -0.3643   0.9733  -0.9779   0.00    0.0
2018/11/09 00:30:45.000  -74.525923541  163.457827843    24.3852   5  11   0.6755   0.6591   2.6119  -0.3648   0.9742  -0.9794   0.00    0.0
2018/11/09 00:31:00.000  -74.525923754  163.457830214    24.3057   5  11   0.6761   0.6594   2.6145  -0.3654   0.9751  -0.9808   0.00    0.0
2018/11/09 00:31:15.000  -74.525925443  163.457831666    23.8361   5  11   0.6768   0.6599   2.6173  -0.3659   0.9760  -0.9823   0.00    0.0
2018/11/09 00:31:30.000  -74.525927186  163.457829259    24.0718   5  11   0.6775   0.6604   2.6201  -0.3665   0.9770  -0.9839   0.00    0.0
2018/11/09 00:31:45.000  -74.525924787  163.457838200    25.5077   5  11   0.6782   0.6609   2.6231  -0.3672   0.9781  -0.9854   0.00    0.0
2018/11/09 00:32:00.000  -74.525926002  163.457824803    23.9071   5  11   0.6791   0.6615   2.6261  -0.3678   0.9791  -0.9870   0.00    0.0
2018/11/09 00:32:15.000  -74.525923370  163.457832773    24.1608   5  11   0.6799   0.6622   2.6293  -0.3684   0.9802  -0.9886   0.00    0.0
2018/11/09 00:32:30.000  -74.525924323  163.457832598    24.5704   5  11   0.6809   0.6630   2.6325  -0.3691   0.9813  -0.9903   0.00    0.0
2018/11/09 00:32:45.000  -74.525923801  163.457832450    24.1351   5  11   0.6805   0.6621   2.6302  -0.3688   0.9800  -0.9901   0.00    0.0
2018/11/09 00:33:00.000  -74.525926236  163.457827865    23.9398   5  11   0.6803   0.6612   2.6278  -0.3685   0.9786  -0.9898   0.00    0.0
2018/11/09 00:33:15.000  -74.525924230  163.457835944    24.3411   5  11   0.6800   0.6604   2.6255  -0.3682   0.9773  -0.9897   0.00    0.0
2018/11/09 00:33:30.000  -74.525923329  163.457833780    23.6623   5  11   0.6798   0.6597   2.6234  -0.3679   0.9760  -0.9895   0.00    0.0
2018/11/09 00:33:45.000  -74.525922829  163.457833965    24.5684   5  11   0.6797   0.6590   2.6213  -0.3676   0.9748  -0.9894   0.00    0.0
2018/11/09 00:34:00.000  -74.525924508  163.457829958    24.4424   5  11   0.6797   0.6584   2.6194  -0.3674   0.9736  -0.9893   0.00    0.0
2018/11/09 00:34:15.000  -74.525924128  163.457820440    24.1208   5  11   0.6796   0.6579   2.6176  -0.3672   0.9724  -0.9892   0.00    0.0
2018/11/09 00:34:30.000  -74.525925308  163.457831493    24.8992   5  11   0.6797   0.6574   2.6159  -0.3670   0.9713  -0.9892   0.00    0.0
2018/11/09 00:34:45.000  -74.525923840  163.457822148    23.9269   5  11   0.6798   0.6570   2.6143  -0.3668   0.9703  -0.9892   0.00    0.0
2018/11/09 00:35:00.000  -74.525923610  163.457825296    23.5660   5  11   0.6799   0.6567   2.6128  -0.3666   0.9692  -0.9892   0.00    0.0
2018/11/09 00:35:15.000  -74.525921507  163.457824339    23.2064   5  11   0.6802   0.6564   2.6116  -0.3665   0.9683  -0.9893   0.00    0.0
2018/11/09 00:35:30.000  -74.525922845  163.457828515    23.5800   5  11   0.6805   0.6563   2.6105  -0.3663   0.9673  -0.9895   0.00    0.0
2018/11/09 00:35:45.000  -74.525924140  163.457834864    24.5043   5  11   0.6808   0.6562   2.6095  -0.3662   0.9665  -0.9896   0.00    0.0
2018/11/09 00:36:00.000  -74.525923690  163.457829664    23.9895   5  11   0.6812   0.6561   2.6086  -0.3661   0.9656  -0.9898   0.00    0.0
2018/11/09 00:36:15.000  -74.525922142  163.457821968    23.5761   5  11   0.6817   0.6561   2.6078  -0.3661   0.9648  -0.9900   0.00    0.0
2018/11/09 00:36:30.000  -74.525922521  163.457832212    24.2359   5  11   0.6822   0.6562   2.6071  -0.3660   0.9640  -0.9902   0.00    0.0
2018/11/09 00:36:45.000  -74.525926089  163.457828041    24.3431   5  11   0.6827   0.6563   2.6065  -0.3659   0.9632  -0.9905   0.00    0.0
2018/11/09 00:37:00.000  -74.525922389  163.457831309    23.5576   5  11   0.6833   0.6565   2.6060  -0.3659   0.9624  -0.9907   0.00    0.0
2018/11/09 00:37:15.000  -74.525924769  163.457834838    24.5962   5  11   0.6840   0.6567   2.6056  -0.3659   0.9617  -0.9910   0.00    0.0
2018/11/09 00:37:30.000  -74.525923147  163.457829505    23.8681   5  11   0.6847   0.6570   2.6053  -0.3658   0.9609  -0.9913   0.00    0.0
2018/11/09 00:37:45.000  -74.525924654  163.457837716    24.7889   5  11   0.6842   0.6557   2.5995  -0.3649   0.9579  -0.9898   0.00    0.0
2018/11/09 00:38:00.000  -74.525923842  163.457825817    24.5047   5  11   0.6837   0.6545   2.5938  -0.3640   0.9549  -0.9884   0.00    0.0
2018/11/09 00:38:15.000  -74.525922093  163.457830714    24.3104   5  11   0.6833   0.6534   2.5883  -0.3631   0.9520  -0.9870   0.00    0.0
2018/11/09 00:38:30.000  -74.525924160  163.457828916    24.6839   5  11   0.6829   0.6523   2.5829  -0.3622   0.9492  -0.9857   0.00    0.0
2018/11/09 00:38:45.000  -74.525925655  163.457831599    25.1511   5  11   0.6826   0.6513   2.5776  -0.3613   0.9463  -0.9844   0.00    0.0
2018/11/09 00:39:00.000  -74.525920995  163.457827774    24.0608   5  11   0.6824   0.6504   2.5725  -0.3605   0.9435  -0.9831   0.00    0.0
2018/11/09 00:39:15.000  -74.525924618  163.457832525    24.9936   5  11   0.6822   0.6495   2.5674  -0.3597   0.9408  -0.9818   0.00    0.0
2018/11/09 00:39:30.000  -74.525923882  163.457829395    24.0107   5  11   0.6820   0.6487   2.5626  -0.3588   0.9381  -0.9806   0.00    0.0
2018/11/09 00:39:45.000  -74.525924613  163.457829107    23.9274   5  11   0.6820   0.6479   2.5578  -0.3581   0.9354  -0.9794   0.00    0.0
2018/11/09 00:40:00.000  -74.525924265  163.457833709    24.0355   5  11   0.6819   0.6473   2.5532  -0.3573   0.9328  -0.9782   0.00    0.0
2018/11/09 00:40:15.000  -74.525925448  163.457828494    24.3741   5  11   0.6820   0.6467   2.5489  -0.3565   0.9302  -0.9772   0.00    0.0
2018/11/09 00:40:30.000  -74.525923655  163.457833769    24.1122   5  11   0.6821   0.6461   2.5447  -0.3558   0.9277  -0.9761   0.00    0.0
2018/11/09 00:40:45.000  -74.525924510  163.457834043    23.9156   5  11   0.6822   0.6457   2.5406  -0.3551   0.9252  -0.9751   0.00    0.0
2018/11/09 00:41:00.000  -74.525924934  163.457830962    24.3865   5  11   0.6824   0.6453   2.5367  -0.3544   0.9228  -0.9741   0.00    0.0
2018/11/09 00:41:15.000  -74.525921847  163.457824072    23.1042   5  11   0.6827   0.6450   2.5329  -0.3537   0.9204  -0.9731   0.00    0.0
2018/11/09 00:41:30.000  -74.525921780  163.457831410    23.1096   5  11   0.6830   0.6447   2.5293  -0.3530   0.9180  -0.9722   0.00    0.0
2018/11/09 00:41:45.000  -74.525922948  163.457830601    23.7462   5  11   0.6834   0.6445   2.5258  -0.3523   0.9157  -0.9713   0.00    0.0
2018/11/09 00:42:00.000  -74.525922953  163.457822480    23.4347   5  11   0.6838   0.6444   2.5224  -0.3516   0.9134  -0.9704   0.00    0.0
2018/11/09 00:42:15.000  -74.525921569  163.457823819    22.0559   5  10   0.9350   0.6774   3.5925  -0.5065   1.1687  -1.6037   0.00    0.0
2018/11/09 00:42:30.000  -74.525918358  163.457829394    21.2080   5  10   0.9355   0.6771   3.5896  -0.5055   1.1659  -1.6032   0.00    0.0
2018/11/09 00:42:45.000  -74.525922795  163.457825380    23.2293   5  10   0.9338   0.6752   3.5766  -0.5030   1.1598  -1.5982   0.00    0.0
2018/11/09 00:43:00.000  -74.525921247  163.457832310    21.9829   5  10   0.9320   0.6733   3.5636  -0.5006   1.1537  -1.5932   0.00    0.0
2018/11/09 00:43:15.000  -74.525922200  163.457834320    22.5507   5  10   0.9303   0.6714   3.5508  -0.4981   1.1475  -1.5883   0.00    0.0
2018/11/09 00:43:30.000  -74.525917847  163.457824303    21.7044   5  10   0.9287   0.6697   3.5380  -0.4956   1.1415  -1.5834   0.00    0.0
2018/11/09 00:43:45.000  -74.525917196  163.457823605    20.8332   5  10   0.9271   0.6680   3.5254  -0.4932   1.1354  -1.5786   0.00    0.0
2018/11/09 00:44:00.000  -74.525920742  163.457818814    22.6217   5  10   0.9256   0.6663   3.5130  -0.4907   1.1294  -1.5738   0.00    0.0
2018/11/09 00:44:15.000  -74.525921271  163.457817321    21.6302   5  10   0.9242   0.6648   3.5007  -0.4883   1.1234  -1.5691   0.00    0.0
2018/11/09 00:44:30.000  -74.525920655  163.457826318    21.4216   5  10   0.9228   0.6633   3.4886  -0.4859   1.1174  -1.5644   0.00    0.0
2018/11/09 00:44:45.000  -74.525918623  163.457815192    20.9763   5  10   0.9215   0.6618   3.4767  -0.4835   1.1115  -1.5598   0.00    0.0
2018/11/09 00:45:00.000  -74.525921144  163.457840976    23.1994   5  10   0.9203   0.6605   3.4650  -0.4811   1.1056  -1.5553   0.00    0.0
2018/11/09 00:45:15.000  -74.525917777  163.457822704    21.5905   5  10   0.9192   0.6592   3.4538  -0.4787   1.0999  -1.5510   0.00    0.0
2018/11/09 00:45:30.000  -74.525918969  163.457823942    21.2156   5  10   0.9181   0.6580   3.4428  -0.4764   1.0942  -1.5468   0.00    0.0
2018/11/09 00:45:45.000  -74.525918648  163.457829368    21.8002   5  10   0.9171   0.6569   3.4320  -0.4741   1.0885  -1.5426   0.00    0.0
2018/11/09 00:46:00.000  -74.525917295  163.457829626    20.9255   5  10   0.9162   0.6559   3.4215  -0.4718   1.0829  -1.5386   0.00    0.0
2018/11/09 00:46:15.000  -74.525917142  163.457813849    21.2365   5   9   0.9194   0.6550   3.6652  -0.4685   1.0708  -1.5716   0.00    0.0
2018/11/09 00:46:30.000  -74.525918991  163.457829451    21.1105   5   9   0.9188   0.6541   3.6575  -0.4662   1.0652  -1.5685   0.00    0.0
2018/11/09 00:46:45.000  -74.525919381  163.457828521    21.4732   5   9   0.9182   0.6532   3.6502  -0.4640   1.0597  -1.5654   0.00    0.0
2018/11/09 00:47:00.000  -74.525916840  163.457825927    20.6255   5   9   0.9177   0.6525   3.6431  -0.4617   1.0541  -1.5625   0.00    0.0
2018/11/09 00:47:15.000  -74.525918522  163.457830094    22.1756   5   9   0.9173   0.6518   3.6363  -0.4594   1.0486  -1.5596   0.00    0.0
2018/11/09 00:47:30.000  -74.525919173  163.457827408    21.8910   5   9   0.9169   0.6511   3.6297  -0.4572   1.0431  -1.5568   0.00    0.0
2018/11/09 00:47:45.000  -74.525918148  163.457825067    21.7765   5   9   0.9143   0.6490   3.6114  -0.4536   1.0345  -1.5493   0.00    0.0
2018/11/09 00:48:00.000  -74.525920993  163.457832962    22.3120   5   9   0.9117   0.6469   3.5937  -0.4500   1.0261  -1.5420   0.00    0.0
2018/11/09 00:48:15.000  -74.525918790  163.457832630    22.4263   5   9   0.9093   0.6449   3.5763  -0.4465   1.0178  -1.5349   0.00    0.0
2018/11/09 00:48:30.000  -74.525919819  163.457834315    22.1532   5   9   0.9069   0.6430   3.5593  -0.4430   1.0095  -1.5278   0.00    0.0
2018/11/09 00:48:45.000  -74.525917871  163.457831244    22.0917   5   9   0.9046   0.6412   3.5426  -0.4396   1.0013  -1.5210   0.00    0.0
2018/11/09 00:49:00.000  -74.525923647  163.457838885    23.8207   5  10   0.7443   0.6356   2.6764  -0.3928   0.9081  -1.0588   0.00    0.0
2018/11/09 00:49:15.000  -74.525921632  163.457832281    22.8670   5  10   0.7437   0.6343   2.6704  -0.3913   0.9039  -1.0566   0.00    0.0
2018/11/09 00:49:30.000  -74.525926010  163.457840321    24.0289   5  10   0.7432   0.6330   2.6646  -0.3899   0.8997  -1.0545   0.00    0.0
2018/11/09 00:49:45.000  -74.525923738  163.457840956    23.9498   5  10   0.7428   0.6318   2.6591  -0.3884   0.8956  -1.0525   0.00    0.0
2018/11/09 00:50:00.000  -74.525922236  163.457839646    22.9796   5  10   0.7424   0.6307   2.6537  -0.3870   0.8916  -1.0506   0.00    0.0
2018/11/09 00:50:15.000  -74.525923636  163.457839362    23.7257   5  10   0.7421   0.6297   2.6488  -0.3857   0.8876  -1.0487   0.00    0.0
2018/11/09 00:50:30.000  -74.525920944  163.457832188    22.8964   5  10   0.7419   0.6288   2.6440  -0.3844   0.8837  -1.0469   0.00    0.0
2018/11/09 00:50:45.000  -74.525921313  163.457838877    22.4632   5  10   0.7417   0.6279   2.6396  -0.3831   0.8798  -1.0452   0.00    0.0
2018/11/09 00:51:00.000  -74.525922371  163.457833619    22.7909   5  10   0.7416   0.6272   2.6353  -0.3818   0.8760  -1.0435   0.00    0.0
2018/11/09 00:51:15.000  -74.525923891  163.457840464    23.3980   5  10   0.7416   0.6264   2.6314  -0.3806   0.8723  -1.0419   0.00    0.0
2018/11/09 00:51:30.000  -74.525919947  163.457829917    22.2542   5  10   0.7417   0.6258   2.6277  -0.3794   0.8686  -1.0404   0.00    0.0
2018/11/09 00:51:45.000  -74.525922918  163.457840056    23.2767   5  10   0.7418   0.6252   2.6242  -0.3782   0.8650  -1.0390   0.00    0.0
2018/11/09 00:52:00.000  -74.525924189  163.457838260    23.8379   5  10   0.7420   0.6247   2.6210  -0.3771   0.8614  -1.0376   0.00    0.0
2018/11/09 00:52:15.000  -74.525922060  163.457832201    22.9517   5  10   0.7422   0.6243   2.6181  -0.3759   0.8578  -1.0363   0.00    0.0
2018/11/09 00:52:30.000  -74.525922959  163.457830444    23.7126   5  10   0.7425   0.6239   2.6155  -0.3748   0.8543  -1.0351   0.00    0.0
2018/11/09 00:52:45.000  -74.525923099  163.457838216    23.1689   5  10   0.7415   0.6222   2.6062  -0.3728   0.8488  -1.0317   0.00    0.0
2018/11/09 00:53:00.000  -74.525922978  163.457837707    22.6490   5  10   0.7405   0.6205   2.5970  -0.3709   0.8433  -1.0285   0.00    0.0
2018/11/09 00:53:15.000  -74.525920594  163.457825826    22.2237   5  10   0.7395   0.6189   2.5881  -0.3689   0.8379  -1.0253   0.00    0.0
2018/11/09 00:53:30.000  -74.525920523  163.457825921    22.8107   5  10   0.7386   0.6173   2.5794  -0.3670   0.8325  -1.0222   0.00    0.0
2018/11/09 00:53:45.000  -74.525919748  163.457839557    22.9847   5  10   0.7378   0.6158   2.5711  -0.3651   0.8272  -1.0191   0.00    0.0
2018/11/09 00:54:00.000  -74.525921352  163.457839152    22.5586   5  10   0.7371   0.6145   2.5630  -0.3633   0.8220  -1.0162   0.00    0.0
2018/11/09 00:54:15.000  -74.525919786  163.457825433    21.4932   5  10   0.7364   0.6131   2.5552  -0.3615   0.8168  -1.0133   0.00    0.0
2018/11/09 00:54:30.000  -74.525923289  163.457840029    23.6489   5  10   0.7358   0.6119   2.5477  -0.3597   0.8118  -1.0105   0.00    0.0
2018/11/09 00:54:45.000  -74.525921028  163.457833085    22.5484   5  10   0.7353   0.6108   2.5405  -0.3580   0.8067  -1.0078   0.00    0.0
2018/11/09 00:55:00.000  -74.525923880  163.457839691    22.9969   5  10   0.7349   0.6097   2.5336  -0.3563   0.8018  -1.0052   0.00    0.0
2018/11/09 00:55:15.000  -74.525922538  163.457831789    23.5851   5  10   0.7345   0.6087   2.5272  -0.3547   0.7970  -1.0027   0.00    0.0
2018/11/09 00:55:30.000  -74.525923215  163.457833728    23.9371   5  10   0.7342   0.6078   2.5211  -0.3531   0.7922  -1.0004   0.00    0.0
2018/11/09 00:55:45.000  -74.525921626  163.457834613    22.7915   5  10   0.7340   0.6070   2.5153  -0.3515   0.7875  -0.9981   0.00    0.0
2018/11/09 00:56:00.000  -74.525921204  163.457835923    22.8579   5  10   0.7339   0.6063   2.5099  -0.3499   0.7829  -0.9958   0.00    0.0
2018/11/09 00:56:15.000  -74.525923721  163.457832933    23.2070   5  10   0.7338   0.6056   2.5048  -0.3484   0.7783  -0.9937   0.00    0.0
2018/11/09 00:56:30.000  -74.525923916  163.457832173    23.7356   5  10   0.7338   0.6050   2.5000  -0.3469   0.7738  -0.9917   0.00    0.0
2018/11/09 00:56:45.000  -74.525920612  163.457823123    23.0531   5  10   0.7339   0.6045   2.4955  -0.3455   0.7693  -0.9898   0.00    0.0
2018/11/09 00:57:00.000  -74.525920503  163.457828040    22.6658   5  10   0.7340   0.6040   2.4914  -0.3441   0.7649  -0.9879   0.00    0.0
2018/11/09 00:57:15.000  -74.525923396  163.457828535    23.9796   5  10   0.7342   0.6037   2.4876  -0.3427   0.7606  -0.9862   0.00    0.0
2018/11/09 00:57:30.000  -74.525924249  163.457836916    24.2586   5  10   0.7345   0.6034   2.4841  -0.3414   0.7563  -0.9845   0.00    0.0
2018/11/09 00:57:45.000  -74.525923667  163.457835505    22.8128   5  10   0.7334   0.6017   2.4736  -0.3392   0.7502  -0.9808   0.00    0.0
2018/11/09 00:58:00.000  -74.525920767  163.457830047    22.5378   5  10   0.7324   0.6002   2.4635  -0.3370   0.7442  -0.9771   0.00    0.0
2018/11/09 00:58:15.000  -74.525923780  163.457838905    22.9661   5  10   0.7314   0.5987   2.4538  -0.3349   0.7382  -0.9736   0.00    0.0
2018/11/09 00:58:30.000  -74.525925077  163.457831474    23.7603   5  10   0.7306   0.5973   2.4445  -0.3329   0.7323  -0.9702   0.00    0.0
2018/11/09 00:58:45.000  -74.525924971  163.457839952    23.5222   5  10   0.7298   0.5960   2.4355  -0.3309   0.7265  -0.9669   0.00    0.0
2018/11/09 00:59:00.000  -74.525923323  163.457840970    23.4678   5  10   0.7291   0.5948   2.4268  -0.3289   0.7208  -0.9636   0.00    0.0
2018/11/09 00:59:15.000  -74.525920735  163.457838961    23.1580   5  10   0.7284   0.5937   2.4185  -0.3270   0.7152  -0.9605   0.00    0.0
2018/11/09 00:59:30.000  -74.525923493  163.457834102    23.2788   5  10   0.7279   0.5926   2.4105  -0.3251   0.7096  -0.9575   0.00    0.0
2018/11/09 00:59:45.000  -74.525923541  163.457833929    24.0666   5  10   0.7274   0.5916   2.4029  -0.3232   0.7041  -0.9546   0.00    0.0
2018/11/09 01:00:00.000  -74.525923933  163.457834830    23.9026   5  10   0.7270   0.5907   2.3957  -0.3214   0.6987  -0.9518   0.00    0.0
2018/11/09 01:00:15.000  -74.525923242  163.457843960    23.2003   5  10   0.7266   0.5899   2.3890  -0.3196   0.6934  -0.9491   0.00    0.0
2018/11/09 01:00:30.000  -74.525924466  163.457841184    23.2033   5  10   0.7264   0.5892   2.3826  -0.3179   0.6882  -0.9466   0.00    0.0
2018/11/09 01:00:45.000  -74.525923275  163.457845400    23.9974   5  10   0.7262   0.5886   2.3766  -0.3161   0.6830  -0.9441   0.00    0.0
2018/11/09 01:01:00.000  -74.525924769  163.457838306    23.4291   5  10   0.7261   0.5880   2.3710  -0.3145   0.6778  -0.9418   0.00    0.0
2018/11/09 01:01:15.000  -74.525925515  163.457843773    23.6851   5  10   0.7261   0.5875   2.3657  -0.3128   0.6728  -0.9395   0.00    0.0
2018/11/09 01:01:30.000  -74.525922653  163.457843906    22.9856   5  10   0.7261   0.5871   2.3608  -0.3112   0.6678  -0.9374   0.00    0.0
2018/11/09 01:01:45.000  -74.525926620  163.457841778    23.7935   5  10   0.7262   0.5867   2.3563  -0.3097   0.6628  -0.9353   0.00    0.0
2018/11/09 01:02:00.000  -74.525924469  163.457839048    22.7322   5  10   0.7264   0.5865   2.3522  -0.3081   0.6579  -0.9334   0.00    0.0
2018/11/09 01:02:15.000  -74.525922052  163.457841970    23.7528   5  10   0.7266   0.5863   2.3484  -0.3066   0.6531  -0.9315   0.00    0.0
2018/11/09 01:02:30.000  -74.525923483  163.457839096    23.6094   5  10   0.7270   0.5862   2.3450  -0.3051   0.6482  -0.9298   0.00    0.0
2018/11/09 01:02:45.000  -74.525924180  163.457845827    23.2913   5  10   0.7260   0.5848   2.3348  -0.3030   0.6419  -0.9261   0.00    0.0
2018/11/09 01:03:00.000  -74.525926291  163.457842275    23.7413   5  10   0.7251   0.5835   2.3249  -0.3008   0.6357  -0.9226   0.00    0.0
2018/11/09 01:03:15.000  -74.525921497  163.457843965    23.1355   5  10   0.7242   0.5823   2.3154  -0.2987   0.6295  -0.9191   0.00    0.0
2018/11/09 01:03:30.000  -74.525923845  163.457843937    24.0475   5  10   0.7235   0.5812   2.3063  -0.2966   0.6234  -0.9157   0.00    0.0
2018/11/09 01:03:45.000  -74.525924274  163.457835449    23.7168   5  10   0.7228   0.5801   2.2976  -0.2946   0.6174  -0.9125   0.00    0.0
2018/11/09 01:04:00.000  -74.525924672  163.457840223    22.9775   5  10   0.7221   0.5791   2.2892  -0.2926   0.6114  -0.9093   0.00    0.0
2018/11/09 01:04:15.000  -74.525925548  163.457840878    23.0823   5  10   0.7216   0.5782   2.2813  -0.2906   0.6055  -0.9063   0.00    0.0
2018/11/09 01:04:30.000  -74.525924763  163.457842682    24.6155   5  10   0.7211   0.5774   2.2737  -0.2887   0.5996  -0.9034   0.00    0.0
2018/11/09 01:04:45.000  -74.525922515  163.457836385    23.2542   5  10   0.7207   0.5767   2.2665  -0.2868   0.5939  -0.9006   0.00    0.0
2018/11/09 01:05:00.000  -74.525925505  163.457842123    23.5810   5  10   0.7204   0.5760   2.2597  -0.2849   0.5881  -0.8979   0.00    0.0
2018/11/09 01:05:15.000  -74.525922835  163.457836326    23.1719   5  10   0.7202   0.5755   2.2534  -0.2831   0.5825  -0.8954   0.00    0.0
2018/11/09 01:05:30.000  -74.525925045  163.457844995    24.2894   5  10   0.7200   0.5750   2.2476  -0.2814   0.5769  -0.8930   0.00    0.0
2018/11/09 01:05:45.000  -74.525924626  163.457850285    24.0578   5  10   0.7199   0.5746   2.2421  -0.2796   0.5713  -0.8906   0.00    0.0
2018/11/09 01:06:00.000  -74.525922478  163.457838854    23.8652   5  10   0.7199   0.5742   2.2370  -0.2779   0.5658  -0.8884   0.00    0.0
2018/11/09 01:06:15.000  -74.525925766  163.457844792    23.6949   5  10   0.7200   0.5740   2.2323  -0.2762   0.5603  -0.8863   0.00    0.0
2018/11/09 01:06:30.000  -74.525922337  163.457846298    23.6838   5  10   0.7201   0.5738   2.2279  -0.2746   0.5549  -0.8843   0.00    0.0
2018/11/09 01:06:45.000  -74.525924356  163.457849326    23.8207   5  10   0.7203   0.5737   2.2240  -0.2729   0.5494  -0.8824   0.00    0.0
2018/11/09 01:07:00.000  -74.525926678  163.457849153    24.2040   5  10   0.7206   0.5737   2.2204  -0.2713   0.5440  -0.8806   0.00    0.0
2018/11/09 01:07:15.000  -74.525924993  163.457847649    24.1064   5  10   0.7210   0.5737   2.2172  -0.2698   0.5387  -0.8789   0.00    0.0
2018/11/09 01:07:30.000  -74.525925846  163.457846204    24.2007   5  10   0.7214   0.5738   2.2144  -0.2682   0.5333  -0.8773   0.00    0.0
2018/11/09 01:07:45.000  -74.525923234  163.457837595    22.9858   5  10   0.7205   0.5727   2.2050  -0.2661   0.5268  -0.8739   0.00    0.0
2018/11/09 01:08:00.000  -74.525923640  163.457840063    23.5558   5  10   0.7197   0.5717   2.1959  -0.2640   0.5204  -0.8706   0.00    0.0
2018/11/09 01:08:15.000  -74.525924997  163.457847627    23.4483   5  10   0.7190   0.5708   2.1872  -0.2619   0.5139  -0.8674   0.00    0.0
2018/11/09 01:08:30.000  -74.525924078  163.457842533    22.8170   5  10   0.7184   0.5699   2.1789  -0.2598   0.5076  -0.8644   0.00    0.0
2018/11/09 01:08:45.000  -74.525923959  163.457842886    23.2060   5  10   0.7179   0.5691   2.1710  -0.2578   0.5013  -0.8614   0.00    0.0
2018/11/09 01:09:00.000  -74.525923250  163.457842974    23.2876   5  10   0.7174   0.5684   2.1635  -0.2558   0.4950  -0.8586   0.00    0.0
2018/11/09 01:09:15.000  -74.525925142  163.457834090    23.7107   5  10   0.7170   0.5678   2.1564  -0.2539   0.4887  -0.8559   0.00    0.0
2018/11/09 01:09:30.000  -74.525920617  163.457836371    23.2477   5  10   0.7166   0.5673   2.1497  -0.2520   0.4825  -0.8532   0.00    0.0
2018/11/09 01:09:45.000  -74.525922727  163.457842712    23.4315   5  10   0.7164   0.5668   2.1434  -0.2501   0.4763  -0.8507   0.00    0.0
2018/11/09 01:10:00.000  -74.525924344  163.457844808    24.1197   5  11   0.6183   0.5493   1.7954  -0.1081   0.2466  -0.5481   0.00    0.0
2018/11/09 01:10:15.000  -74.525925832  163.457844510    24.6981   5  11   0.6183   0.5493   1.7936  -0.1059   0.2394  -0.5474   0.00    0.0
2018/11/09 01:10:30.000  -74.525924792  163.457843447    24.1189   5  11   0.6185   0.5493   1.7921  -0.1038   0.2319  -0.5466   0.00    0.0
2018/11/09 01:10:45.000  -74.525926099  163.457849304    24.4714   5  11   0.6186   0.5494   1.7909  -0.1016   0.2242  -0.5459   0.00    0.0
2018/11/09 01:11:00.000  -74.525926096  163.457841753    23.5397   5  11   0.6189   0.5495   1.7900  -0.0993   0.2162  -0.5452   0.00    0.0
2018/11/09 01:11:15.000  -74.525925199  163.457847351    24.0052   5  11   0.6192   0.5498   1.7894  -0.0970   0.2079  -0.5446   0.00    0.0
2018/11/09 01:11:30.000  -74.525924371  163.457841863    23.6917   5  11   0.6195   0.5501   1.7890  -0.0946   0.1992  -0.5440   0.00    0.0
2018/11/09 01:11:45.000  -74.525924272  163.457846827    23.4309   5  11   0.6199   0.5504   1.7890  -0.0922   0.1901  -0.5434   0.00    0.0
2018/11/09 01:12:00.000  -74.525926858  163.457848991    24.3776   5  11   0.6203   0.5509   1.7893  -0.0897   0.1804  -0.5429   0.00    0.0
2018/11/09 01:12:15.000  -74.525923624  163.457847969    23.0913   5  11   0.6208   0.5514   1.7898  -0.0872   0.1701  -0.5424   0.00    0.0
2018/11/09 01:12:30.000  -74.525924324  163.457841795    23.5427   5  11   0.6214   0.5519   1.7907  -0.0845   0.1591  -0.5420   0.00    0.0
2018/11/09 01:12:45.000  -74.525926014  163.457844713    23.8049   5  11   0.6210   0.5514   1.7865  -0.0817   0.1484  -0.5411   0.00    0.0
2018/11/09 01:13:00.000  -74.525924856  163.457846192    24.3215   5  11   0.6207   0.5509   1.7824  -0.0788   0.1369  -0.5402   0.00    0.0
2018/11/09 01:13:15.000  -74.525926235  163.457845255    23.4303   5  11   0.6204   0.5505   1.7787  -0.0758   0.1243  -0.5394   0.00    0.0
2018/11/09 01:13:30.000  -74.525925115  163.457842391    23.1283   5  11   0.6201   0.5501   1.7752  -0.0727   0.1102  -0.5386   0.00    0.0
2018/11/09 01:13:45.000  -74.525924961  163.457843472    23.4975   5  12   0.6124   0.5271   1.7047  -0.1409  -0.2585  -0.5795   0.00    0.0
2018/11/09 01:14:00.000  -74.525926464  163.457840017    24.0031   5  12   0.6122   0.5268   1.7031  -0.1397  -0.2634  -0.5788   0.00    0.0
2018/11/09 01:14:15.000  -74.525924512  163.457839475    23.4176   5  12   0.6120   0.5267   1.7017  -0.1385  -0.2682  -0.5781   0.00    0.0
2018/11/09 01:14:30.000  -74.525922098  163.457840165    23.1323   5  12   0.6118   0.5266   1.7006  -0.1372  -0.2730  -0.5774   0.00    0.0
2018/11/09 01:14:45.000  -74.525925238  163.457838979    24.1661   5  12   0.6117   0.5265   1.6997  -0.1360  -0.2779  -0.5768   0.00    0.0
2018/11/09 01:15:00.000  -74.525927480  163.457841081    24.2637   5  12   0.6117   0.5266   1.6992  -0.1348  -0.2827  -0.5763   0.00    0.0
2018/11/09 01:15:15.000  -74.525924813  163.457846670    22.7446   5  12   0.6117   0.5267   1.6990  -0.1336  -0.2875  -0.5758   0.00    0.0
2018/11/09 01:15:30.000  -74.525924584  163.457842333    23.6863   5  12   0.6118   0.5268   1.6992  -0.1324  -0.2924  -0.5753   0.00    0.0
2018/11/09 01:15:45.000  -74.525927971  163.457838860    23.8611   5  12   0.6119   0.5271   1.6996  -0.1312  -0.2973  -0.5749   0.00    0.0
2018/11/09 01:16:00.000  -74.525926270  163.457843402    24.3823   5  12   0.6120   0.5274   1.7003  -0.1300  -0.3021  -0.5745   0.00    0.0
2018/11/09 01:16:15.000  -74.525924964  163.457843212    22.8598   5  12   0.6123   0.5277   1.7012  -0.1289  -0.3070  -0.5742   0.00    0.0
2018/11/09 01:16:30.000  -74.525926770  163.457843400    23.7330   5  12   0.6125   0.5281   1.7025  -0.1277  -0.3119  -0.5739   0.00    0.0
2018/11/09 01:16:45.000  -74.525928339  163.457841178    23.4588   5  12   0.6129   0.5286   1.7040  -0.1265  -0.3168  -0.5737   0.00    0.0
2018/11/09 01:17:00.000  -74.525926298  163.457836824    24.5375   5  12   0.6132   0.5291   1.7058  -0.1254  -0.3218  -0.5735   0.00    0.0
2018/11/09 01:17:15.000  -74.525926127  163.457847249    23.4047   5  12   0.6136   0.5297   1.7079  -0.1242  -0.3267  -0.5733   0.00    0.0
2018/11/09 01:17:30.000  -74.525924195  163.457843964    23.5707   5  12   0.6141   0.5304   1.7103  -0.1231  -0.3317  -0.5732   0.00    0.0
2018/11/09 01:17:45.000  -74.525926891  163.457843307    23.9756   5  12   0.6137   0.5300   1.7076  -0.1216  -0.3350  -0.5724   0.00    0.0
2018/11/09 01:18:00.000  -74.525924340  163.457840762    24.5917   5  12   0.6133   0.5296   1.7053  -0.1201  -0.3384  -0.5716   0.00    0.0
2018/11/09 01:18:15.000  -74.525927965  163.457849649    24.2932   5  12   0.6129   0.5293   1.7032  -0.1187  -0.3418  -0.5709   0.00    0.0
2018/11/09 01:18:30.000  -74.525926554  163.457844999    24.5341   5  12   0.6126   0.5291   1.7014  -0.1172  -0.3452  -0.5702   0.00    0.0
2018/11/09 01:18:45.000  -74.525924666  163.457842228    24.3111   5  12   0.6124   0.5289   1.6998  -0.1157  -0.3486  -0.5696   0.00    0.0
2018/11/09 01:19:00.000  -74.525925983  163.457843829    24.2124   5  12   0.6122   0.5288   1.6986  -0.1143  -0.3522  -0.5690   0.00    0.0
2018/11/09 01:19:15.000  -74.525927077  163.457846250    24.5783   5  12   0.6120   0.5288   1.6976  -0.1128  -0.3557  -0.5684   0.00    0.0
2018/11/09 01:19:30.000  -74.525924572  163.457844763    24.0151   5  12   0.6120   0.5288   1.6969  -0.1113  -0.3593  -0.5679   0.00    0.0
2018/11/09 01:19:45.000  -74.525922081  163.457844125    23.5302   5  12   0.6119   0.5288   1.6965  -0.1099  -0.3629  -0.5675   0.00    0.0
2018/11/09 01:20:00.000  -74.525926348  163.457842944    24.2101   5  12   0.6119   0.5290   1.6964  -0.1084  -0.3665  -0.5671   0.00    0.0
2018/11/09 01:20:15.000  -74.525926621  163.457839022    24.2638   5  12   0.6120   0.5292   1.6966  -0.1069  -0.3703  -0.5667   0.00    0.0
2018/11/09 01:20:30.000  -74.525927978  163.457842279    24.3536   5  12   0.6121   0.5295   1.6972  -0.1055  -0.3741  -0.5664   0.00    0.0
2018/11/09 01:20:45.000  -74.525925917  163.457841163    23.6922   5  12   0.6123   0.5298   1.6980  -0.1040  -0.3779  -0.5662   0.00    0.0
2018/11/09 01:21:00.000  -74.525926425  163.457838514    24.2894   5  12   0.6125   0.5302   1.6992  -0.1025  -0.3818  -0.5659   0.00    0.0
2018/11/09 01:21:15.000  -74.525925316  163.457841962    23.0638   5  12   0.6128   0.5307   1.7006  -0.1010  -0.3857  -0.5658   0.00    0.0
2018/11/09 01:21:30.000  -74.525925033  163.457846707    23.6799   5  12   0.6131   0.5312   1.7023  -0.0996  -0.3897  -0.5656   0.00    0.0
2018/11/09 01:21:45.000  -74.525926565  163.457842459    24.1444   5  12   0.6135   0.5318   1.7043  -0.0981  -0.3937  -0.5655   0.00    0.0
2018/11/09 01:22:00.000  -74.525925748  163.457845145    24.4417   5  12   0.6139   0.5324   1.7066  -0.0966  -0.3977  -0.5655   0.00    0.0
2018/11/09 01:22:15.000  -74.525926902  163.457831798    24.5212   5  12   0.6144   0.5331   1.7091  -0.0951  -0.4018  -0.5655   0.00    0.0
2018/11/09 01:22:30.000  -74.525923617  163.457838937    24.1691   5  12   0.6149   0.5339   1.7120  -0.0936  -0.4060  -0.5656   0.00    0.0
2018/11/09 01:22:45.000  -74.525927218  163.457848730    23.7085   5  12   0.6145   0.5336   1.7098  -0.0917  -0.4086  -0.5649   0.00    0.0
2018/11/09 01:23:00.000  -74.525924273  163.457842971    24.0546   5  12   0.6142   0.5333   1.7078  -0.0898  -0.4112  -0.5643   0.00    0.0
2018/11/09 01:23:15.000  -74.525926605  163.457844786    24.1778   5  12   0.6139   0.5331   1.7061  -0.0878  -0.4139  -0.5637   0.00    0.0
2018/11/09 01:23:30.000  -74.525924168  163.457850686    24.2968   5  12   0.6136   0.5330   1.7047  -0.0859  -0.4166  -0.5632   0.00    0.0
2018/11/09 01:23:45.000  -74.525927190  163.457846386    24.6035   5  12   0.6135   0.5329   1.7035  -0.0839  -0.4194  -0.5627   0.00    0.0
2018/11/09 01:24:00.000  -74.525927278  163.457842443    24.1602   5  12   0.6133   0.5329   1.7026  -0.0819  -0.4222  -0.5623   0.00    0.0
2018/11/09 01:24:15.000  -74.525925551  163.457840217    23.8706   5  12   0.6132   0.5330   1.7021  -0.0799  -0.4251  -0.5619   0.00    0.0
2018/11/09 01:24:30.000  -74.525924088  163.457839843    24.2892   5  12   0.6132   0.5331   1.7018  -0.0779  -0.4281  -0.5616   0.00    0.0
2018/11/09 01:24:45.000  -74.525926125  163.457846658    24.2237   5  12   0.6132   0.5332   1.7018  -0.0758  -0.4311  -0.5613   0.00    0.0
2018/11/09 01:25:00.000  -74.525924788  163.457852225    22.9909   5  12   0.6133   0.5335   1.7021  -0.0737  -0.4342  -0.5611   0.00    0.0
2018/11/09 01:25:15.000  -74.525925910  163.457849735    23.7306   5  12   0.6134   0.5338   1.7028  -0.0715  -0.4373  -0.5609   0.00    0.0
2018/11/09 01:25:30.000  -74.525924879  163.457849408    23.9689   5  12   0.6136   0.5342   1.7038  -0.0693  -0.4405  -0.5607   0.00    0.0
2018/11/09 01:25:45.000  -74.525925597  163.457848724    23.5672   5  12   0.6138   0.5346   1.7050  -0.0671  -0.4438  -0.5606   0.00    0.0
2018/11/09 01:26:00.000  -74.525927621  163.457853829    23.8652   5  12   0.6141   0.5351   1.7066  -0.0648  -0.4471  -0.5606   0.00    0.0
2018/11/09 01:26:15.000  -74.525923402  163.457847011    24.0073   5  12   0.6144   0.5357   1.7085  -0.0624  -0.4505  -0.5606   0.00    0.0
2018/11/09 01:26:30.000  -74.525926744  163.457843043    23.6197   5  12   0.6148   0.5363   1.7106  -0.0599  -0.4540  -0.5606   0.00    0.0
2018/11/09 01:26:45.000  -74.525925558  163.457852552    23.5133   5  12   0.6152   0.5369   1.7130  -0.0574  -0.4575  -0.5607   0.00    0.0
2018/11/09 01:27:00.000  -74.525925548  163.457843177    24.1104   5  12   0.6157   0.5377   1.7157  -0.0548  -0.4611  -0.5608   0.00    0.0
2018/11/09 01:27:15.000  -74.525924633  163.457841577    23.5866   5  12   0.6162   0.5385   1.7187  -0.0521  -0.4647  -0.5610   0.00    0.0
2018/11/09 01:27:30.000  -74.525924160  163.457840150    24.3309   5  12   0.6168   0.5393   1.7220  -0.0492  -0.4684  -0.5612   0.00    0.0
2018/11/09 01:27:45.000  -74.525925302  163.457848358    23.4668   5  12   0.6165   0.5391   1.7200  -0.0456  -0.4705  -0.5607   0.00    0.0
2018/11/09 01:28:00.000  -74.525924748  163.457846635    23.4839   5  12   0.6162   0.5389   1.7184  -0.0417  -0.4727  -0.5603   0.00    0.0
2018/11/09 01:28:15.000  -74.525925803  163.457845433    23.6224   5  12   0.6159   0.5388   1.7171  -0.0374  -0.4749  -0.5599   0.00    0.0
2018/11/09 01:28:30.000  -74.525925824  163.457848325    24.1178   5  12   0.6157   0.5388   1.7161  -0.0327  -0.4772  -0.5595   0.00    0.0
2018/11/09 01:28:45.000  -74.525927026  163.457844499    24.2015   5  12   0.6156   0.5388   1.7154  -0.0272  -0.4796  -0.5592   0.00    0.0
2018/11/09 01:29:00.000  -74.525926409  163.457842687    23.6530   5  12   0.6155   0.5389   1.7149  -0.0203  -0.4820  -0.5590   0.00    0.0
2018/11/09 01:29:15.000  -74.525925127  163.457845758    24.3139   5  12   0.6155   0.5390   1.7148  -0.0092  -0.4845  -0.5588   0.00    0.0
2018/11/09 01:29:30.000  -74.525924850  163.457852186    23.7613   5  12   0.6155   0.5392   1.7149   0.0154  -0.4870  -0.5586   0.00    0.0
2018/11/09 01:29:45.000  -74.525925770  163.457846952    23.5133   5  12   0.6156   0.5395   1.7153   0.0236  -0.4897  -0.5585   0.00    0.0
2018/11/09 01:30:00.000  -74.525926712  163.457850121    24.0683   5  12   0.6157   0.5398   1.7160   0.0296  -0.4923  -0.5584   0.00    0.0
2018/11/09 01:30:15.000  -74.525927528  163.457850999    24.6172   5  12   0.6159   0.5402   1.7171   0.0345  -0.4951  -0.5584   0.00    0.0
2018/11/09 01:30:30.000  -74.525924935  163.457848821    24.4755   5  12   0.6161   0.5407   1.7184   0.0387  -0.4980  -0.5584   0.00    0.0
2018/11/09 01:30:45.000  -74.525926902  163.457844315    23.9930   5  12   0.6164   0.5412   1.7201   0.0426  -0.5009  -0.5585   0.00    0.0
2018/11/09 01:31:00.000  -74.525925600  163.457852836    24.6382   5  12   0.6167   0.5417   1.7220   0.0460  -0.5038  -0.5586   0.00    0.0
2018/11/09 01:31:15.000  -74.525927256  163.457842915    24.1914   5  12   0.6171   0.5424   1.7242   0.0492  -0.5068  -0.5588   0.00    0.0
2018/11/09 01:31:30.000  -74.525926554  163.457846473    24.4261   5  12   0.6175   0.5431   1.7267   0.0522  -0.5099  -0.5590   0.00    0.0
2018/11/09 01:31:45.000  -74.525927702  163.457844237    24.5628   5  12   0.6180   0.5438   1.7294   0.0550  -0.5131  -0.5592   0.00    0.0
2018/11/09 01:32:00.000  -74.525929631  163.457848844    24.1445   5  12   0.6186   0.5446   1.7325   0.0577  -0.5163  -0.5595   0.00    0.0
2018/11/09 01:32:15.000  -74.525927354  163.457848090    24.0398   5  12   0.6191   0.5455   1.7358   0.0602  -0.5196  -0.5599   0.00    0.0
2018/11/09 01:32:30.000  -74.525924832  163.457849588    22.9588   5  12   0.6198   0.5464   1.7393   0.0626  -0.5229  -0.5602   0.00    0.0
2018/11/09 01:32:45.000  -74.525926669  163.457845331    23.6748   5  12   0.6195   0.5463   1.7379   0.0653  -0.5247  -0.5600   0.00    0.0
2018/11/09 01:33:00.000  -74.525925911  163.457842659    23.9407   5  12   0.6193   0.5462   1.7367   0.0678  -0.5266  -0.5597   0.00    0.0
2018/11/09 01:33:15.000  -74.525927146  163.457854287    23.7249   5  12   0.6191   0.5462   1.7358   0.0703  -0.5285  -0.5595   0.00    0.0
2018/11/09 01:33:30.000  -74.525926475  163.457842993    24.0293   5  12   0.6190   0.5462   1.7351   0.0726  -0.5305  -0.5593   0.00    0.0
2018/11/09 01:33:45.000  -74.525926767  163.457850414    24.1096   5  12   0.6189   0.5463   1.7348   0.0748  -0.5325  -0.5592   0.00    0.0
2018/11/09 01:34:00.000  -74.525925510  163.457850573    23.7277   5  12   0.6188   0.5464   1.7347   0.0770  -0.5347  -0.5592   0.00    0.0
2018/11/09 01:34:15.000  -74.525927533  163.457850224    24.4802   5  12   0.6189   0.5466   1.7349   0.0791  -0.5368  -0.5591   0.00    0.0
2018/11/09 01:34:30.000  -74.525926572  163.457847430    24.3645   5  12   0.6189   0.5469   1.7354   0.0811  -0.5391  -0.5591   0.00    0.0
2018/11/09 01:34:45.000  -74.525925346  163.457851301    24.2421   5  12   0.6191   0.5472   1.7361   0.0831  -0.5414  -0.5592   0.00    0.0
2018/11/09 01:35:00.000  -74.525927458  163.457845963    23.7475   5  12   0.6192   0.5476   1.7371   0.0850  -0.5438  -0.5593   0.00    0.0
2018/11/09 01:35:15.000  -74.525923889  163.457844683    24.1961   5  12   0.6195   0.5480   1.7385   0.0869  -0.5463  -0.5595   0.00    0.0
2018/11/09 01:35:30.000  -74.525928167  163.457852524    23.5872   5  12   0.6198   0.5485   1.7402   0.0887  -0.5488  -0.5597   0.00    0.0
2018/11/09 01:35:45.000  -74.525925564  163.457846230    24.4923   5  12   0.6201   0.5491   1.7421   0.0904  -0.5514  -0.5599   0.00    0.0
2018/11/09 01:36:00.000  -74.525923917  163.457849567    23.6696   5  12   0.6205   0.5497   1.7444   0.0921  -0.5540  -0.5602   0.00    0.0
2018/11/09 01:36:15.000  -74.525925793  163.457852554    23.5640   5  12   0.6209   0.5504   1.7468   0.0938  -0.5568  -0.5605   0.00    0.0
2018/11/09 01:36:30.000  -74.525924258  163.457844605    24.2659   5  12   0.6214   0.5512   1.7495   0.0955  -0.5595  -0.5609   0.00    0.0
2018/11/09 01:36:45.000  -74.525923793  163.457851592    23.4455   5  12   0.6220   0.5520   1.7525   0.0971  -0.5624  -0.5613   0.00    0.0
2018/11/09 01:37:00.000  -74.525925067  163.457851382    23.1442   5  12   0.6226   0.5528   1.7558   0.0986  -0.5653  -0.5618   0.00    0.0
2018/11/09 01:37:15.000  -74.525926983  163.457848233    24.1766   5  12   0.6232   0.5537   1.7592   0.1002  -0.5682  -0.5622   0.00    0.0
2018/11/09 01:37:30.000  -74.525925186  163.457843842    24.1525   5  12   0.6239   0.5547   1.7630   0.1017  -0.5712  -0.5628   0.00    0.0
2018/11/09 01:37:45.000  -74.525925422  163.457847588    23.0394   5  12   0.6237   0.5546   1.7619   0.1033  -0.5728  -0.5627   0.00    0.0
2018/11/09 01:38:00.000  -74.525925268  163.457846980    23.8064   5  12   0.6235   0.5546   1.7611   0.1050  -0.5744  -0.5626   0.00    0.0
2018/11/09 01:38:15.000  -74.525925971  163.457846501    24.3626   5  12   0.6234   0.5546   1.7605   0.1066  -0.5761  -0.5626   0.00    0.0
2018/11/09 01:38:30.000  -74.525925420  163.457848757    24.2193   5  12   0.6233   0.5547   1.7602   0.1081  -0.5778  -0.5626   0.00    0.0
2018/11/09 01:38:45.000  -74.525926043  163.457849708    23.5663   5  12   0.6233   0.5548   1.7601   0.1097  -0.5796  -0.5627   0.00    0.0
2018/11/09 01:39:00.000  -74.525926324  163.457841817    24.0111   5  12   0.6233   0.5550   1.7603   0.1112  -0.5814  -0.5628   0.00    0.0
2018/11/09 01:39:15.000  -74.525927657  163.457843770    24.4956   5  12   0.6234   0.5552   1.7608   0.1127  -0.5833  -0.5630   0.00    0.0
2018/11/09 01:39:30.000  -74.525927116  163.457851469    23.9181   5  12   0.6235   0.5555   1.7616   0.1141  -0.5853  -0.5632   0.00    0.0
2018/11/09 01:39:45.000  -74.525927164  163.457847440    23.6011   5  12   0.6237   0.5559   1.7625   0.1155  -0.5873  -0.5634   0.00    0.0
2018/11/09 01:40:00.000  -74.525925579  163.457849496    23.7669   5  12   0.6239   0.5563   1.7638   0.1169  -0.5894  -0.5637   0.00    0.0
2018/11/09 01:40:15.000  -74.525926022  163.457844361    24.0168   5  12   0.6242   0.5568   1.7654   0.1183  -0.5916  -0.5640   0.00    0.0
2018/11/09 01:40:30.000  -74.525927637  163.457843266    23.8730   5  12   0.6246   0.5573   1.7673   0.1197  -0.5938  -0.5644   0.00    0.0
2018/11/09 01:40:45.000  -74.525928275  163.457848678    23.8858   5  12   0.6250   0.5579   1.7694   0.1210  -0.5961  -0.5648   0.00    0.0
2018/11/09 01:41:00.000  -74.525926662  163.457852525    23.9141   5  12   0.6254   0.5586   1.7717   0.1223  -0.5985  -0.5652   0.00    0.0
2018/11/09 01:41:15.000  -74.525925974  163.457845562    24.4688   5  12   0.6259   0.5593   1.7743   0.1236  -0.6009  -0.5657   0.00    0.0
2018/11/09 01:41:30.000  -74.525927177  163.457842743    24.9012   5  12   0.6265   0.5600   1.7771   0.1249  -0.6034  -0.5662   0.00    0.0
2018/11/09 01:41:45.000  -74.525925378  163.457850805    22.9073   5  12   0.6271   0.5609   1.7802   0.1261  -0.6059  -0.5668   0.00    0.0
2018/11/09 01:42:00.000  -74.525927839  163.457842141    23.9128   5  12   0.6278   0.5617   1.7835   0.1274  -0.6084  -0.5674   0.00    0.0
2018/11/09 01:42:15.000  -74.525926808  163.457852718    23.2145   5  12   0.6285   0.5627   1.7870   0.1286  -0.6111  -0.5680   0.00    0.0
2018/11/09 01:42:30.000  -74.525927502  163.457855929    22.9550   5  12   0.6292   0.5636   1.7907   0.1298  -0.6137  -0.5687   0.00    0.0
2018/11/09 01:42:45.000  -74.525928339  163.457843041    24.4176   5  12   0.6291   0.5636   1.7900   0.1311  -0.6150  -0.5688   0.00    0.0
2018/11/09 01:43:00.000  -74.525924184  163.457849173    24.2663   5  12   0.6290   0.5635   1.7894   0.1324  -0.6164  -0.5689   0.00    0.0
2018/11/09 01:43:15.000  -74.525926079  163.457846255    23.7705   5  12   0.6289   0.5636   1.7891   0.1337  -0.6177  -0.5691   0.00    0.0
2018/11/09 01:43:30.000  -74.525926959  163.457847535    23.4815   5  12   0.6289   0.5637   1.7890   0.1350  -0.6192  -0.5693   0.00    0.0
2018/11/09 01:43:45.000  -74.525927397  163.457844233    24.4578   5  12   0.6289   0.5638   1.7892   0.1362  -0.6207  -0.5695   0.00    0.0
2018/11/09 01:44:00.000  -74.525928023  163.457854509    23.4510   5  12   0.6290   0.5640   1.7896   0.1374  -0.6223  -0.5698   0.00    0.0
2018/11/09 01:44:15.000  -74.525928228  163.457846647    23.5768   5  11   0.6602   0.5679   1.8271   0.1792  -0.6047  -0.5019   0.00    0.0
