% program   : RTKLIB ver.2.4.3
% inp file  : _by_type/_obs/blake/20181111.18o
% inp file  : _by_type/_obs/base/20181111.18o
% inp file  : _by_type/_sp3+clk/igs20270.clk
% inp file  : _by_type/_sp3+clk/igs20270.sp3
% inp file  : _by_type/_nav/blake/20181111.18n
% obs start : 2018/11/11 00:00:00.0 GPST (week2027      0.0s)
% obs end   : 2018/11/11 23:59:45.0 GPST (week2027  86385.0s)
% pos mode  : dgps
% freqs     : L1+L2
% solution  : combined
% elev mask : 15.0 deg
% dynamics  : off
% tidecorr  : off
% ionos opt : iono-free
% tropo opt : est ztd+grad
% ephemeris : precise
% navi sys  : gps glonass
% antenna1  :                       ( 0.0000  0.0000  0.0000)
% antenna2  :                       ( 0.0000  0.0000  0.0000)
% ref pos   : 90.000000000   0.000000000-6335367.6285
%
% (lat/lon/height=WGS84/ellipsoidal,Q=1:fix,2:float,3:sbas,4:dgps,5:single,6:ppp,ns=# of satellites)
%  GPST                  latitude(deg) longitude(deg)  height(m)   Q  ns   sdn(m)   sde(m)   sdu(m)  sdne(m)  sdeu(m)  sdun(m) age(s)  ratio
2018/11/11 00:00:00.000  -74.407223776  163.437648710    80.3640   5  10   0.6541   0.6150   2.1876  -0.2746   0.7197  -0.7128   0.00    0.0
2018/11/11 00:00:15.000  -74.407220463  163.437641756    78.7523   5  10   0.6543   0.6155   2.1944  -0.2757   0.7234  -0.7153   0.00    0.0
2018/11/11 00:00:30.000  -74.407223001  163.437638863    79.2277   5  10   0.6546   0.6161   2.2016  -0.2769   0.7273  -0.7179   0.00    0.0
2018/11/11 00:00:45.000  -74.407224469  163.437650285    78.5859   5  10   0.6550   0.6168   2.2090  -0.2781   0.7314  -0.7205   0.00    0.0
2018/11/11 00:01:00.000  -74.407220945  163.437645401    79.5311   5  10   0.6555   0.6176   2.2168  -0.2794   0.7355  -0.7233   0.00    0.0
2018/11/11 00:01:15.000  -74.407223031  163.437643238    78.7162   5  10   0.6560   0.6185   2.2249  -0.2807   0.7398  -0.7261   0.00    0.0
2018/11/11 00:01:30.000  -74.407221272  163.437642054    78.2972   5  10   0.6566   0.6195   2.2333  -0.2821   0.7443  -0.7291   0.00    0.0
2018/11/11 00:01:45.000  -74.407221983  163.437640744    79.0420   5  10   0.6573   0.6206   2.2419  -0.2836   0.7489  -0.7322   0.00    0.0
2018/11/11 00:02:00.000  -74.407220085  163.437647540    79.4807   5  10   0.6581   0.6218   2.2509  -0.2851   0.7536  -0.7353   0.00    0.0
2018/11/11 00:02:15.000  -74.407222268  163.437637050    79.2408   5  10   0.6590   0.6230   2.2602  -0.2867   0.7584  -0.7386   0.00    0.0
2018/11/11 00:02:30.000  -74.407223493  163.437638814    78.7804   5  10   0.6599   0.6244   2.2699  -0.2884   0.7634  -0.7420   0.00    0.0
2018/11/11 00:02:45.000  -74.407220908  163.437642334    79.5434   5  10   0.6595   0.6241   2.2739  -0.2890   0.7658  -0.7438   0.00    0.0
2018/11/11 00:03:00.000  -74.407222043  163.437645786    78.8578   5  10   0.6592   0.6239   2.2783  -0.2896   0.7684  -0.7458   0.00    0.0
2018/11/11 00:03:15.000  -74.407222283  163.437640879    79.0491   5  10   0.6590   0.6238   2.2830  -0.2904   0.7711  -0.7478   0.00    0.0
2018/11/11 00:03:30.000  -74.407224114  163.437635480    79.6766   5  10   0.6588   0.6237   2.2880  -0.2911   0.7739  -0.7499   0.00    0.0
2018/11/11 00:03:45.000  -74.407221988  163.437637397    78.1610   5  10   0.6587   0.6238   2.2932  -0.2919   0.7768  -0.7521   0.00    0.0
2018/11/11 00:04:00.000  -74.407221423  163.437645123    78.8755   5  10   0.6587   0.6239   2.2987  -0.2928   0.7799  -0.7544   0.00    0.0
2018/11/11 00:04:15.000  -74.407221892  163.437640807    79.2493   5  10   0.6588   0.6241   2.3045  -0.2938   0.7831  -0.7568   0.00    0.0
2018/11/11 00:04:30.000  -74.407221136  163.437639753    79.4278   5  10   0.6589   0.6245   2.3106  -0.2948   0.7864  -0.7593   0.00    0.0
2018/11/11 00:04:45.000  -74.407223447  163.437643666    78.8677   5  10   0.6591   0.6249   2.3170  -0.2959   0.7898  -0.7619   0.00    0.0
2018/11/11 00:05:00.000  -74.407220312  163.437647298    79.4574   5  10   0.6594   0.6254   2.3237  -0.2970   0.7934  -0.7646   0.00    0.0
2018/11/11 00:05:15.000  -74.407220970  163.437646410    79.3722   5  10   0.6598   0.6260   2.3308  -0.2982   0.7972  -0.7674   0.00    0.0
2018/11/11 00:05:30.000  -74.407221592  163.437648241    79.0561   5  10   0.6603   0.6268   2.3382  -0.2995   0.8011  -0.7703   0.00    0.0
2018/11/11 00:05:45.000  -74.407222157  163.437633832    79.6193   5  10   0.6609   0.6276   2.3459  -0.3009   0.8051  -0.7733   0.00    0.0
2018/11/11 00:06:00.000  -74.407220534  163.437648400    79.9223   5  10   0.6615   0.6285   2.3539  -0.3023   0.8092  -0.7764   0.00    0.0
2018/11/11 00:06:15.000  -74.407221672  163.437643206    78.7733   5  10   0.6623   0.6296   2.3622  -0.3038   0.8135  -0.7797   0.00    0.0
2018/11/11 00:06:30.000  -74.407220605  163.437641201    78.6110   5  10   0.6631   0.6307   2.3708  -0.3053   0.8179  -0.7830   0.00    0.0
2018/11/11 00:06:45.000  -74.407221016  163.437641411    79.4768   5  10   0.6639   0.6319   2.3796  -0.3069   0.8224  -0.7864   0.00    0.0
2018/11/11 00:07:00.000  -74.407220398  163.437642166    79.1263   5  10   0.6649   0.6332   2.3888  -0.3086   0.8271  -0.7899   0.00    0.0
2018/11/11 00:07:15.000  -74.407220800  163.437647932    79.7632   5  10   0.6659   0.6345   2.3982  -0.3103   0.8319  -0.7935   0.00    0.0
2018/11/11 00:07:30.000  -74.407221508  163.437647135    79.3038   5  10   0.6670   0.6360   2.4080  -0.3121   0.8368  -0.7972   0.00    0.0
2018/11/11 00:07:45.000  -74.407221365  163.437643109    78.7611   5  10   0.6668   0.6357   2.4119  -0.3128   0.8390  -0.7993   0.00    0.0
2018/11/11 00:08:00.000  -74.407221135  163.437638883    78.4116   5  10   0.6667   0.6356   2.4160  -0.3135   0.8413  -0.8014   0.00    0.0
2018/11/11 00:08:15.000  -74.407221340  163.437647523    79.1226   5  10   0.6666   0.6355   2.4205  -0.3143   0.8438  -0.8036   0.00    0.0
2018/11/11 00:08:30.000  -74.407220574  163.437640843    78.7304   5  10   0.6666   0.6355   2.4251  -0.3151   0.8463  -0.8058   0.00    0.0
2018/11/11 00:08:45.000  -74.407219002  163.437645778    77.9163   5  10   0.6666   0.6357   2.4301  -0.3160   0.8490  -0.8082   0.00    0.0
2018/11/11 00:09:00.000  -74.407219896  163.437649151    78.8512   5  10   0.6668   0.6359   2.4353  -0.3170   0.8518  -0.8107   0.00    0.0
2018/11/11 00:09:15.000  -74.407223066  163.437648752    80.1722   5  10   0.6670   0.6361   2.4408  -0.3180   0.8548  -0.8132   0.00    0.0
2018/11/11 00:09:30.000  -74.407221547  163.437644657    78.2808   5  11   0.6546   0.6365   2.3513  -0.3177   0.8603  -0.8679   0.00    0.0
2018/11/11 00:09:45.000  -74.407222585  163.437646391    79.1441   5  11   0.6549   0.6369   2.3578  -0.3189   0.8633  -0.8705   0.00    0.0
2018/11/11 00:10:00.000  -74.407218485  163.437644347    78.5596   5  11   0.6553   0.6375   2.3645  -0.3201   0.8665  -0.8733   0.00    0.0
2018/11/11 00:10:15.000  -74.407223335  163.437653663    79.1518   5  11   0.6558   0.6382   2.3716  -0.3214   0.8698  -0.8762   0.00    0.0
2018/11/11 00:10:30.000  -74.407223627  163.437649949    80.0104   5  11   0.6563   0.6390   2.3790  -0.3228   0.8733  -0.8791   0.00    0.0
2018/11/11 00:10:45.000  -74.407223025  163.437646148    79.0853   5  11   0.6570   0.6398   2.3866  -0.3242   0.8769  -0.8822   0.00    0.0
2018/11/11 00:11:00.000  -74.407221828  163.437644695    78.7637   5  11   0.6577   0.6408   2.3945  -0.3257   0.8806  -0.8854   0.00    0.0
2018/11/11 00:11:15.000  -74.407220567  163.437643173    78.8940   5  11   0.6585   0.6418   2.4026  -0.3272   0.8844  -0.8887   0.00    0.0
2018/11/11 00:11:30.000  -74.407221948  163.437653640    79.2030   5  11   0.6593   0.6429   2.4110  -0.3288   0.8883  -0.8920   0.00    0.0
2018/11/11 00:11:45.000  -74.407223687  163.437659308    79.9299   5  11   0.6602   0.6441   2.4197  -0.3304   0.8923  -0.8955   0.00    0.0
2018/11/11 00:12:00.000  -74.407222383  163.437647727    78.9399   5  11   0.6612   0.6454   2.4286  -0.3321   0.8964  -0.8990   0.00    0.0
2018/11/11 00:12:15.000  -74.407222513  163.437642211    78.9160   5  11   0.6623   0.6468   2.4377  -0.3338   0.9007  -0.9027   0.00    0.0
2018/11/11 00:12:30.000  -74.407222501  163.437656165    79.5718   5  11   0.6634   0.6483   2.4470  -0.3356   0.9050  -0.9064   0.00    0.0
2018/11/11 00:12:45.000  -74.407220437  163.437649972    78.9217   5  11   0.6632   0.6479   2.4505  -0.3362   0.9065  -0.9081   0.00    0.0
2018/11/11 00:13:00.000  -74.407222587  163.437654586    79.9739   5  11   0.6631   0.6477   2.4543  -0.3369   0.9082  -0.9099   0.00    0.0
2018/11/11 00:13:15.000  -74.407220808  163.437653121    79.4054   5  11   0.6631   0.6476   2.4583  -0.3376   0.9100  -0.9118   0.00    0.0
2018/11/11 00:13:30.000  -74.407220998  163.437657408    78.7139   5  11   0.6631   0.6476   2.4626  -0.3384   0.9119  -0.9138   0.00    0.0
2018/11/11 00:13:45.000  -74.407218747  163.437656535    78.8690   5  11   0.6632   0.6477   2.4671  -0.3392   0.9140  -0.9158   0.00    0.0
2018/11/11 00:14:00.000  -74.407221129  163.437654105    78.3090   5  11   0.6634   0.6478   2.4718  -0.3401   0.9161  -0.9180   0.00    0.0
2018/11/11 00:14:15.000  -74.407223437  163.437656347    79.8373   5  11   0.6636   0.6480   2.4767  -0.3410   0.9183  -0.9202   0.00    0.0
2018/11/11 00:14:30.000  -74.407222366  163.437662733    79.5135   5  11   0.6639   0.6483   2.4818  -0.3420   0.9206  -0.9225   0.00    0.0
2018/11/11 00:14:45.000  -74.407219657  163.437651392    79.0062   5  11   0.6643   0.6487   2.4871  -0.3430   0.9230  -0.9249   0.00    0.0
2018/11/11 00:15:00.000  -74.407221993  163.437657405    79.6499   5  11   0.6648   0.6492   2.4927  -0.3440   0.9254  -0.9273   0.00    0.0
2018/11/11 00:15:15.000  -74.407221842  163.437657125    79.2012   5  11   0.6653   0.6497   2.4985  -0.3451   0.9281  -0.9299   0.00    0.0
2018/11/11 00:15:30.000  -74.407219813  163.437647825    79.1305   5  11   0.6659   0.6504   2.5046  -0.3463   0.9308  -0.9326   0.00    0.0
2018/11/11 00:15:45.000  -74.407219200  163.437657559    78.9497   5  11   0.6666   0.6511   2.5109  -0.3475   0.9336  -0.9353   0.00    0.0
2018/11/11 00:16:00.000  -74.407221134  163.437656116    79.3464   5  11   0.6673   0.6519   2.5173  -0.3487   0.9364  -0.9381   0.00    0.0
2018/11/11 00:16:15.000  -74.407222730  163.437655099    79.6239   5  11   0.6681   0.6528   2.5240  -0.3500   0.9394  -0.9409   0.00    0.0
2018/11/11 00:16:30.000  -74.407221912  163.437662960    79.3836   5  11   0.6690   0.6538   2.5308  -0.3513   0.9424  -0.9438   0.00    0.0
2018/11/11 00:16:45.000  -74.407221277  163.437656321    79.4171   5  11   0.6700   0.6548   2.5378  -0.3527   0.9455  -0.9468   0.00    0.0
2018/11/11 00:17:00.000  -74.407221627  163.437657867    79.2822   5  11   0.6710   0.6559   2.5451  -0.3541   0.9487  -0.9499   0.00    0.0
2018/11/11 00:17:15.000  -74.407222118  163.437662897    79.8099   5  11   0.6720   0.6571   2.5524  -0.3555   0.9520  -0.9530   0.00    0.0
2018/11/11 00:17:30.000  -74.407220564  163.437658516    79.6559   5  11   0.6732   0.6584   2.5600  -0.3569   0.9553  -0.9562   0.00    0.0
2018/11/11 00:17:45.000  -74.407218742  163.437657109    79.5460   5  11   0.6730   0.6580   2.5618  -0.3573   0.9560  -0.9574   0.00    0.0
2018/11/11 00:18:00.000  -74.407220797  163.437660810    79.9067   5  11   0.6729   0.6576   2.5636  -0.3577   0.9567  -0.9586   0.00    0.0
2018/11/11 00:18:15.000  -74.407221047  163.437658072    79.6668   5  11   0.6729   0.6573   2.5657  -0.3581   0.9575  -0.9599   0.00    0.0
2018/11/11 00:18:30.000  -74.407220316  163.437654736    79.5697   5  11   0.6729   0.6570   2.5679  -0.3586   0.9583  -0.9613   0.00    0.0
2018/11/11 00:18:45.000  -74.407221826  163.437658507    80.4126   5  11   0.6730   0.6569   2.5702  -0.3591   0.9593  -0.9627   0.00    0.0
2018/11/11 00:19:00.000  -74.407221713  163.437661639    79.4963   5  11   0.6731   0.6568   2.5727  -0.3596   0.9602  -0.9641   0.00    0.0
2018/11/11 00:19:15.000  -74.407220834  163.437654830    79.6490   5  11   0.6733   0.6567   2.5754  -0.3602   0.9613  -0.9656   0.00    0.0
2018/11/11 00:19:30.000  -74.407222376  163.437654254    79.3490   5  11   0.6736   0.6568   2.5782  -0.3607   0.9624  -0.9672   0.00    0.0
2018/11/11 00:19:45.000  -74.407220551  163.437657364    79.2591   5  11   0.6739   0.6569   2.5812  -0.3614   0.9636  -0.9688   0.00    0.0
2018/11/11 00:20:00.000  -74.407221697  163.437655545    79.8885   5  11   0.6743   0.6571   2.5843  -0.3620   0.9648  -0.9705   0.00    0.0
2018/11/11 00:20:15.000  -74.407220305  163.437657231    79.5080   5  11   0.6748   0.6574   2.5877  -0.3627   0.9662  -0.9723   0.00    0.0
2018/11/11 00:20:30.000  -74.407221341  163.437663168    80.4119   5  11   0.6753   0.6578   2.5912  -0.3634   0.9676  -0.9741   0.00    0.0
2018/11/11 00:20:45.000  -74.407220351  163.437667973    79.8172   5  11   0.6759   0.6582   2.5949  -0.3642   0.9690  -0.9759   0.00    0.0
2018/11/11 00:21:00.000  -74.407218685  163.437657001    79.3289   5  11   0.6766   0.6587   2.5987  -0.3650   0.9706  -0.9778   0.00    0.0
2018/11/11 00:21:15.000  -74.407220601  163.437664951    79.1060   5  11   0.6773   0.6593   2.6026  -0.3658   0.9721  -0.9798   0.00    0.0
2018/11/11 00:21:30.000  -74.407219112  163.437663232    78.9139   5  11   0.6781   0.6600   2.6067  -0.3666   0.9737  -0.9818   0.00    0.0
2018/11/11 00:21:45.000  -74.407222204  163.437666943    80.1525   5  11   0.6789   0.6607   2.6109  -0.3674   0.9754  -0.9838   0.00    0.0
2018/11/11 00:22:00.000  -74.407219922  163.437655535    78.3489   5  11   0.6798   0.6614   2.6152  -0.3683   0.9771  -0.9858   0.00    0.0
2018/11/11 00:22:15.000  -74.407218605  163.437665883    79.6084   5  11   0.6808   0.6623   2.6196  -0.3692   0.9788  -0.9879   0.00    0.0
2018/11/11 00:22:30.000  -74.407222401  163.437667512    80.5323   5  11   0.6818   0.6632   2.6241  -0.3701   0.9805  -0.9900   0.00    0.0
2018/11/11 00:22:45.000  -74.407220440  163.437661047    79.9630   5  11   0.6815   0.6624   2.6229  -0.3699   0.9797  -0.9902   0.00    0.0
2018/11/11 00:23:00.000  -74.407221260  163.437656307    79.2146   5  11   0.6813   0.6617   2.6217  -0.3698   0.9790  -0.9904   0.00    0.0
2018/11/11 00:23:15.000  -74.407219986  163.437661202    79.6119   5  11   0.6811   0.6610   2.6207  -0.3697   0.9783  -0.9907   0.00    0.0
2018/11/11 00:23:30.000  -74.407219695  163.437653166    79.3986   5  11   0.6810   0.6604   2.6198  -0.3697   0.9776  -0.9910   0.00    0.0
2018/11/11 00:23:45.000  -74.407220011  163.437670782    79.8850   5  11   0.6810   0.6599   2.6190  -0.3696   0.9770  -0.9913   0.00    0.0
2018/11/11 00:24:00.000  -74.407221409  163.437666112    79.4669   5  11   0.6810   0.6595   2.6183  -0.3696   0.9764  -0.9916   0.00    0.0
2018/11/11 00:24:15.000  -74.407219722  163.437653815    79.0943   5  11   0.6810   0.6591   2.6178  -0.3696   0.9759  -0.9920   0.00    0.0
2018/11/11 00:24:30.000  -74.407219278  163.437654411    78.6592   5  11   0.6811   0.6588   2.6173  -0.3696   0.9754  -0.9924   0.00    0.0
2018/11/11 00:24:45.000  -74.407221689  163.437650542    78.6129   5  11   0.6813   0.6585   2.6170  -0.3697   0.9749  -0.9929   0.00    0.0
2018/11/11 00:25:00.000  -74.407221767  163.437661978    79.9205   5  11   0.6815   0.6583   2.6168  -0.3697   0.9745  -0.9934   0.00    0.0
2018/11/11 00:25:15.000  -74.407220558  163.437656509    80.0260   5  11   0.6819   0.6582   2.6168  -0.3698   0.9742  -0.9939   0.00    0.0
2018/11/11 00:25:30.000  -74.407223389  163.437659122    80.0566   5  11   0.6822   0.6582   2.6169  -0.3699   0.9739  -0.9945   0.00    0.0
2018/11/11 00:25:45.000  -74.407220484  163.437657816    80.1453   5  11   0.6827   0.6582   2.6171  -0.3700   0.9736  -0.9951   0.00    0.0
2018/11/11 00:26:00.000  -74.407220336  163.437658472    79.1120   5  11   0.6831   0.6583   2.6175  -0.3702   0.9734  -0.9958   0.00    0.0
2018/11/11 00:26:15.000  -74.407220999  163.437661562    80.3751   5  11   0.6837   0.6585   2.6179  -0.3703   0.9732  -0.9964   0.00    0.0
2018/11/11 00:26:30.000  -74.407220964  163.437655060    79.7942   5  11   0.6842   0.6587   2.6184  -0.3705   0.9730  -0.9971   0.00    0.0
2018/11/11 00:26:45.000  -74.407220803  163.437657588    79.2544   5  11   0.6849   0.6589   2.6191  -0.3707   0.9728  -0.9978   0.00    0.0
2018/11/11 00:27:00.000  -74.407221431  163.437663784    79.8725   5  11   0.6856   0.6593   2.6198  -0.3709   0.9727  -0.9986   0.00    0.0
2018/11/11 00:27:15.000  -74.407220794  163.437664214    80.0468   5  11   0.6863   0.6597   2.6206  -0.3711   0.9726  -0.9993   0.00    0.0
2018/11/11 00:27:30.000  -74.407219719  163.437654536    78.9635   5  11   0.6871   0.6601   2.6215  -0.3713   0.9725  -1.0001   0.00    0.0
2018/11/11 00:27:45.000  -74.407222019  163.437672528    80.5102   5  11   0.6866   0.6590   2.6168  -0.3705   0.9700  -0.9990   0.00    0.0
2018/11/11 00:28:00.000  -74.407219913  163.437670862    80.0480   5  11   0.6862   0.6579   2.6122  -0.3698   0.9676  -0.9980   0.00    0.0
2018/11/11 00:28:15.000  -74.407219678  163.437671913    79.6228   5  11   0.6858   0.6568   2.6078  -0.3691   0.9653  -0.9970   0.00    0.0
2018/11/11 00:28:30.000  -74.407218867  163.437665535    78.9042   5  11   0.6855   0.6559   2.6035  -0.3684   0.9629  -0.9960   0.00    0.0
2018/11/11 00:28:45.000  -74.407219576  163.437671888    79.3794   5  11   0.6853   0.6550   2.5993  -0.3678   0.9606  -0.9951   0.00    0.0
2018/11/11 00:29:00.000  -74.407222973  163.437665129    80.3210   5  11   0.6851   0.6541   2.5952  -0.3671   0.9584  -0.9942   0.00    0.0
2018/11/11 00:29:15.000  -74.407222938  163.437662992    79.3419   5  11   0.6850   0.6534   2.5913  -0.3665   0.9562  -0.9933   0.00    0.0
2018/11/11 00:29:30.000  -74.407218973  163.437660291    78.6600   5  11   0.6849   0.6527   2.5874  -0.3659   0.9540  -0.9925   0.00    0.0
2018/11/11 00:29:45.000  -74.407222528  163.437666055    79.6689   5  11   0.6849   0.6520   2.5837  -0.3653   0.9519  -0.9917   0.00    0.0
2018/11/11 00:30:00.000  -74.407221451  163.437663969    78.7494   5  11   0.6849   0.6515   2.5801  -0.3647   0.9498  -0.9909   0.00    0.0
2018/11/11 00:30:15.000  -74.407221313  163.437663178    79.6229   5  11   0.6850   0.6510   2.5768  -0.3642   0.9477  -0.9902   0.00    0.0
2018/11/11 00:30:30.000  -74.407220868  163.437666754    79.6435   5  11   0.6851   0.6506   2.5735  -0.3636   0.9457  -0.9895   0.00    0.0
2018/11/11 00:30:45.000  -74.407222207  163.437668572    78.8628   5  11   0.6853   0.6502   2.5704  -0.3631   0.9438  -0.9888   0.00    0.0
2018/11/11 00:31:00.000  -74.407221547  163.437657977    79.6765   5  11   0.6856   0.6499   2.5674  -0.3626   0.9418  -0.9882   0.00    0.0
2018/11/11 00:31:15.000  -74.407219258  163.437658588    78.7040   5  11   0.6859   0.6497   2.5646  -0.3621   0.9399  -0.9875   0.00    0.0
2018/11/11 00:31:30.000  -74.407220816  163.437667306    80.0432   5  11   0.6863   0.6495   2.5618  -0.3616   0.9380  -0.9870   0.00    0.0
2018/11/11 00:31:45.000  -74.407219209  163.437671596    79.3100   5  11   0.6867   0.6494   2.5592  -0.3611   0.9362  -0.9864   0.00    0.0
2018/11/11 00:32:00.000  -74.407219807  163.437671357    79.2422   5  11   0.6872   0.6494   2.5567  -0.3606   0.9344  -0.9859   0.00    0.0
2018/11/11 00:32:15.000  -74.407222638  163.437669808    79.6451   5  11   0.6877   0.6494   2.5543  -0.3602   0.9326  -0.9854   0.00    0.0
2018/11/11 00:32:30.000  -74.407221106  163.437666334    80.1476   5  11   0.6883   0.6495   2.5521  -0.3597   0.9308  -0.9849   0.00    0.0
2018/11/11 00:32:45.000  -74.407221304  163.437667889    79.4026   5  11   0.6876   0.6480   2.5446  -0.3584   0.9270  -0.9828   0.00    0.0
2018/11/11 00:33:00.000  -74.407219623  163.437673290    80.3794   5  11   0.6870   0.6467   2.5372  -0.3572   0.9232  -0.9807   0.00    0.0
2018/11/11 00:33:15.000  -74.407220418  163.437663767    80.5792   5  11   0.6865   0.6454   2.5300  -0.3559   0.9194  -0.9786   0.00    0.0
2018/11/11 00:33:30.000  -74.407220045  163.437661394    79.7650   5  11   0.6861   0.6441   2.5229  -0.3547   0.9157  -0.9766   0.00    0.0
2018/11/11 00:33:45.000  -74.407222048  163.437668758    80.3638   5  11   0.6856   0.6430   2.5160  -0.3535   0.9120  -0.9746   0.00    0.0
2018/11/11 00:34:00.000  -74.407223523  163.437666315    80.3486   5  11   0.6853   0.6419   2.5093  -0.3523   0.9084  -0.9727   0.00    0.0
2018/11/11 00:34:15.000  -74.407213070  163.437644457    76.1398   5  10   0.9376   0.6736   3.5716  -0.5061   1.1607  -1.6042   0.00    0.0
2018/11/11 00:34:30.000  -74.407212764  163.437653999    76.7098   5  10   0.9366   0.6722   3.5621  -0.5041   1.1558  -1.6007   0.00    0.0
2018/11/11 00:34:45.000  -74.407217549  163.437658364    78.2493   5  10   0.9356   0.6709   3.5526  -0.5022   1.1508  -1.5973   0.00    0.0
2018/11/11 00:35:00.000  -74.407211101  163.437650580    75.6574   5  10   0.9348   0.6697   3.5433  -0.5002   1.1459  -1.5939   0.00    0.0
2018/11/11 00:35:15.000  -74.407211219  163.437646199    75.8628   5  10   0.9340   0.6686   3.5342  -0.4983   1.1410  -1.5906   0.00    0.0
2018/11/11 00:35:30.000  -74.407212302  163.437648820    75.7968   5  10   0.9333   0.6675   3.5254  -0.4964   1.1362  -1.5874   0.00    0.0
2018/11/11 00:35:45.000  -74.407214432  163.437647786    77.0785   5  10   0.9326   0.6665   3.5166  -0.4945   1.1313  -1.5842   0.00    0.0
2018/11/11 00:36:00.000  -74.407209370  163.437646739    74.4848   5  10   0.9320   0.6655   3.5081  -0.4926   1.1265  -1.5811   0.00    0.0
2018/11/11 00:36:15.000  -74.407211299  163.437659489    76.5078   5  10   0.9315   0.6646   3.4997  -0.4907   1.1218  -1.5780   0.00    0.0
2018/11/11 00:36:30.000  -74.407213938  163.437652514    75.9800   5  10   0.9310   0.6638   3.4915  -0.4888   1.1170  -1.5750   0.00    0.0
2018/11/11 00:36:45.000  -74.407210466  163.437643325    73.9274   5  10   0.9306   0.6631   3.4834  -0.4869   1.1123  -1.5721   0.00    0.0
2018/11/11 00:37:00.000  -74.407210236  163.437655326    74.3246   5  10   0.9302   0.6624   3.4756  -0.4850   1.1075  -1.5693   0.00    0.0
2018/11/11 00:37:15.000  -74.407214962  163.437663840    76.8381   5  10   0.9299   0.6617   3.4680  -0.4831   1.1029  -1.5665   0.00    0.0
2018/11/11 00:37:30.000  -74.407208805  163.437635125    73.6311   5  10   0.9297   0.6612   3.4605  -0.4813   1.0982  -1.5638   0.00    0.0
2018/11/11 00:37:45.000  -74.407214557  163.437659062    75.7022   5  10   0.9272   0.6590   3.4433  -0.4779   1.0904  -1.5567   0.00    0.0
2018/11/11 00:38:00.000  -74.407209288  163.437652845    74.5254   5   9   0.9290   0.6570   3.6801  -0.4737   1.0765  -1.5876   0.00    0.0
2018/11/11 00:38:15.000  -74.407209469  163.437651543    74.6214   5   9   0.9268   0.6550   3.6647  -0.4705   1.0688  -1.5812   0.00    0.0
2018/11/11 00:38:30.000  -74.407211274  163.437653746    76.1003   5   9   0.9246   0.6531   3.6495  -0.4672   1.0611  -1.5749   0.00    0.0
2018/11/11 00:38:45.000  -74.407208666  163.437651241    73.7082   5   9   0.9225   0.6512   3.6345  -0.4640   1.0536  -1.5688   0.00    0.0
2018/11/11 00:39:00.000  -74.407212249  163.437654743    75.3027   5   9   0.9205   0.6495   3.6199  -0.4608   1.0460  -1.5627   0.00    0.0
2018/11/11 00:39:15.000  -74.407210857  163.437652267    75.5432   5   9   0.9185   0.6478   3.6055  -0.4577   1.0386  -1.5567   0.00    0.0
2018/11/11 00:39:30.000  -74.407209929  163.437650857    75.1324   5   9   0.9167   0.6462   3.5915  -0.4546   1.0311  -1.5509   0.00    0.0
2018/11/11 00:39:45.000  -74.407209745  163.437656304    75.1404   5   9   0.9149   0.6447   3.5778  -0.4515   1.0238  -1.5452   0.00    0.0
2018/11/11 00:40:00.000  -74.407209599  163.437659328    75.0828   5   9   0.9132   0.6432   3.5644  -0.4484   1.0165  -1.5396   0.00    0.0
2018/11/11 00:40:15.000  -74.407210608  163.437651880    75.1785   5   9   0.9117   0.6419   3.5515  -0.4454   1.0093  -1.5342   0.00    0.0
2018/11/11 00:40:30.000  -74.407215042  163.437656730    77.8728   5   9   0.9102   0.6406   3.5391  -0.4424   1.0021  -1.5290   0.00    0.0
2018/11/11 00:40:45.000  -74.407219254  163.437654017    77.9555   5  10   0.7479   0.6355   2.6741  -0.3952   0.9088  -1.0652   0.00    0.0
2018/11/11 00:41:00.000  -74.407217655  163.437664467    79.4538   5  10   0.7478   0.6347   2.6706  -0.3941   0.9054  -1.0638   0.00    0.0
2018/11/11 00:41:15.000  -74.407219409  163.437656471    78.9466   5  10   0.7478   0.6340   2.6673  -0.3930   0.9020  -1.0625   0.00    0.0
2018/11/11 00:41:30.000  -74.407215985  163.437646025    78.3892   5  10   0.7479   0.6334   2.6642  -0.3919   0.8987  -1.0613   0.00    0.0
2018/11/11 00:41:45.000  -74.407217153  163.437661148    77.4861   5  10   0.7481   0.6329   2.6614  -0.3908   0.8955  -1.0601   0.00    0.0
2018/11/11 00:42:00.000  -74.407216249  163.437656770    77.8605   5  10   0.7483   0.6324   2.6588  -0.3898   0.8923  -1.0589   0.00    0.0
2018/11/11 00:42:15.000  -74.407215495  163.437656904    78.0771   5  10   0.7486   0.6320   2.6565  -0.3888   0.8891  -1.0579   0.00    0.0
2018/11/11 00:42:30.000  -74.407214830  163.437649060    77.2848   5  10   0.7489   0.6316   2.6544  -0.3878   0.8860  -1.0569   0.00    0.0
2018/11/11 00:42:45.000  -74.407217866  163.437667314    78.5653   5  10   0.7478   0.6298   2.6456  -0.3859   0.8807  -1.0538   0.00    0.0
2018/11/11 00:43:00.000  -74.407217839  163.437668597    78.2152   5  10   0.7468   0.6281   2.6371  -0.3840   0.8755  -1.0507   0.00    0.0
2018/11/11 00:43:15.000  -74.407215446  163.437662841    77.5046   5  10   0.7459   0.6265   2.6288  -0.3821   0.8704  -1.0477   0.00    0.0
2018/11/11 00:43:30.000  -74.407214690  163.437657595    77.7273   5  10   0.7450   0.6249   2.6207  -0.3803   0.8653  -1.0448   0.00    0.0
2018/11/11 00:43:45.000  -74.407216653  163.437658373    77.6967   5  10   0.7442   0.6234   2.6129  -0.3785   0.8603  -1.0420   0.00    0.0
2018/11/11 00:44:00.000  -74.407217797  163.437666791    78.5305   5  10   0.7435   0.6220   2.6053  -0.3767   0.8554  -1.0392   0.00    0.0
2018/11/11 00:44:15.000  -74.407214713  163.437667411    78.6604   5  10   0.7428   0.6206   2.5980  -0.3750   0.8505  -1.0365   0.00    0.0
2018/11/11 00:44:30.000  -74.407218576  163.437669087    79.5135   5  10   0.7422   0.6194   2.5910  -0.3733   0.8457  -1.0339   0.00    0.0
2018/11/11 00:44:45.000  -74.407216211  163.437663330    78.3046   5  10   0.7417   0.6182   2.5843  -0.3717   0.8409  -1.0314   0.00    0.0
2018/11/11 00:45:00.000  -74.407215822  163.437663443    78.1114   5  10   0.7413   0.6171   2.5778  -0.3700   0.8362  -1.0289   0.00    0.0
2018/11/11 00:45:15.000  -74.407216622  163.437664625    77.1336   5  10   0.7409   0.6161   2.5717  -0.3684   0.8316  -1.0265   0.00    0.0
2018/11/11 00:45:30.000  -74.407214815  163.437659987    77.3186   5  10   0.7406   0.6151   2.5659  -0.3669   0.8271  -1.0243   0.00    0.0
2018/11/11 00:45:45.000  -74.407215930  163.437657747    77.3431   5  10   0.7404   0.6143   2.5604  -0.3654   0.8226  -1.0221   0.00    0.0
2018/11/11 00:46:00.000  -74.407215284  163.437656722    76.8135   5  10   0.7402   0.6135   2.5552  -0.3639   0.8182  -1.0200   0.00    0.0
2018/11/11 00:46:15.000  -74.407217334  163.437666685    78.1351   5  10   0.7402   0.6128   2.5503  -0.3624   0.8139  -1.0180   0.00    0.0
2018/11/11 00:46:30.000  -74.407213335  163.437655406    76.5894   5  10   0.7401   0.6122   2.5457  -0.3610   0.8096  -1.0160   0.00    0.0
2018/11/11 00:46:45.000  -74.407213854  163.437659652    77.2314   5  10   0.7402   0.6116   2.5414  -0.3596   0.8054  -1.0142   0.00    0.0
2018/11/11 00:47:00.000  -74.407215700  163.437658278    76.5303   5  10   0.7403   0.6111   2.5375  -0.3582   0.8013  -1.0124   0.00    0.0
2018/11/11 00:47:15.000  -74.407218449  163.437656879    78.5482   5  10   0.7405   0.6107   2.5338  -0.3569   0.7972  -1.0108   0.00    0.0
2018/11/11 00:47:30.000  -74.407214472  163.437660577    76.5150   5  10   0.7408   0.6104   2.5305  -0.3556   0.7931  -1.0092   0.00    0.0
2018/11/11 00:47:45.000  -74.407215870  163.437663018    78.2016   5  10   0.7397   0.6087   2.5203  -0.3535   0.7871  -1.0055   0.00    0.0
2018/11/11 00:48:00.000  -74.407216727  163.437658137    78.1548   5  10   0.7386   0.6071   2.5104  -0.3513   0.7812  -1.0019   0.00    0.0
2018/11/11 00:48:15.000  -74.407216709  163.437660146    77.5050   5  10   0.7377   0.6055   2.5009  -0.3492   0.7754  -0.9984   0.00    0.0
2018/11/11 00:48:30.000  -74.407215252  163.437654128    77.8464   5  10   0.7368   0.6041   2.4916  -0.3472   0.7697  -0.9950   0.00    0.0
2018/11/11 00:48:45.000  -74.407217563  163.437659753    78.6680   5  10   0.7359   0.6027   2.4827  -0.3452   0.7640  -0.9917   0.00    0.0
2018/11/11 00:49:00.000  -74.407215672  163.437664934    79.4699   5  10   0.7352   0.6014   2.4741  -0.3432   0.7584  -0.9885   0.00    0.0
2018/11/11 00:49:15.000  -74.407213868  163.437660648    76.9421   5  10   0.7345   0.6002   2.4659  -0.3413   0.7529  -0.9854   0.00    0.0
2018/11/11 00:49:30.000  -74.407215711  163.437656293    78.3123   5  10   0.7339   0.5990   2.4580  -0.3394   0.7475  -0.9824   0.00    0.0
2018/11/11 00:49:45.000  -74.407214874  163.437662011    77.9543   5  10   0.7334   0.5980   2.4504  -0.3375   0.7421  -0.9794   0.00    0.0
2018/11/11 00:50:00.000  -74.407211755  163.437658725    77.2452   5  10   0.7329   0.5970   2.4432  -0.3357   0.7368  -0.9766   0.00    0.0
2018/11/11 00:50:15.000  -74.407214846  163.437657846    77.6766   5  10   0.7325   0.5961   2.4364  -0.3339   0.7316  -0.9739   0.00    0.0
2018/11/11 00:50:30.000  -74.407211270  163.437651690    77.5322   5  10   0.7322   0.5953   2.4300  -0.3322   0.7265  -0.9714   0.00    0.0
2018/11/11 00:50:45.000  -74.407212278  163.437654281    77.1245   5  10   0.7320   0.5946   2.4239  -0.3305   0.7215  -0.9689   0.00    0.0
2018/11/11 00:51:00.000  -74.407215149  163.437656585    78.0413   5  10   0.7319   0.5939   2.4182  -0.3288   0.7165  -0.9665   0.00    0.0
2018/11/11 00:51:15.000  -74.407214779  163.437651844    77.1331   5  10   0.7318   0.5934   2.4129  -0.3272   0.7116  -0.9642   0.00    0.0
2018/11/11 00:51:30.000  -74.407214485  163.437652358    77.6152   5  10   0.7318   0.5929   2.4079  -0.3256   0.7067  -0.9621   0.00    0.0
2018/11/11 00:51:45.000  -74.407212995  163.437665243    76.6883   5  10   0.7319   0.5925   2.4033  -0.3241   0.7019  -0.9600   0.00    0.0
2018/11/11 00:52:00.000  -74.407213596  163.437656195    76.8706   5  10   0.7320   0.5921   2.3990  -0.3225   0.6972  -0.9580   0.00    0.0
2018/11/11 00:52:15.000  -74.407216219  163.437662011    77.9164   5  10   0.7322   0.5919   2.3951  -0.3210   0.6925  -0.9562   0.00    0.0
2018/11/11 00:52:30.000  -74.407214826  163.437660225    76.8348   5  10   0.7325   0.5917   2.3915  -0.3196   0.6879  -0.9544   0.00    0.0
2018/11/11 00:52:45.000  -74.407215046  163.437661671    78.1019   5  10   0.7315   0.5902   2.3812  -0.3173   0.6816  -0.9506   0.00    0.0
2018/11/11 00:53:00.000  -74.407216199  163.437661936    77.8033   5  10   0.7305   0.5888   2.3712  -0.3151   0.6754  -0.9469   0.00    0.0
2018/11/11 00:53:15.000  -74.407215680  163.437665166    77.3225   5  10   0.7296   0.5875   2.3615  -0.3130   0.6693  -0.9434   0.00    0.0
2018/11/11 00:53:30.000  -74.407214150  163.437659182    77.8064   5  10   0.7287   0.5863   2.3522  -0.3109   0.6632  -0.9399   0.00    0.0
2018/11/11 00:53:45.000  -74.407214576  163.437661251    78.1064   5  10   0.7280   0.5851   2.3433  -0.3088   0.6573  -0.9366   0.00    0.0
2018/11/11 00:54:00.000  -74.407218287  163.437663622    78.4755   5  10   0.7273   0.5841   2.3348  -0.3068   0.6514  -0.9333   0.00    0.0
2018/11/11 00:54:15.000  -74.407213409  163.437659655    77.4765   5  10   0.7267   0.5831   2.3266  -0.3048   0.6456  -0.9302   0.00    0.0
2018/11/11 00:54:30.000  -74.407212273  163.437654738    76.9800   5  10   0.7262   0.5822   2.3188  -0.3029   0.6398  -0.9272   0.00    0.0
2018/11/11 00:54:45.000  -74.407214616  163.437658622    78.1458   5  10   0.7257   0.5813   2.3114  -0.3010   0.6341  -0.9243   0.00    0.0
2018/11/11 00:55:00.000  -74.407214844  163.437662521    79.1528   5  10   0.7253   0.5806   2.3044  -0.2991   0.6285  -0.9215   0.00    0.0
2018/11/11 00:55:15.000  -74.407216209  163.437659521    78.7947   5  10   0.7251   0.5799   2.2979  -0.2972   0.6230  -0.9189   0.00    0.0
2018/11/11 00:55:30.000  -74.407215987  163.437661818    77.6632   5  10   0.7248   0.5793   2.2918  -0.2954   0.6175  -0.9163   0.00    0.0
2018/11/11 00:55:45.000  -74.407217650  163.437663969    79.1255   5  10   0.7247   0.5788   2.2860  -0.2937   0.6121  -0.9139   0.00    0.0
2018/11/11 00:56:00.000  -74.407214997  163.437658651    78.2565   5  10   0.7246   0.5784   2.2807  -0.2920   0.6067  -0.9116   0.00    0.0
2018/11/11 00:56:15.000  -74.407215427  163.437664369    78.6201   5  10   0.7246   0.5781   2.2757  -0.2903   0.6014  -0.9094   0.00    0.0
2018/11/11 00:56:30.000  -74.407217304  163.437654948    77.9888   5  10   0.7247   0.5778   2.2711  -0.2886   0.5961  -0.9073   0.00    0.0
2018/11/11 00:56:45.000  -74.407216617  163.437664770    78.8087   5  10   0.7249   0.5776   2.2668  -0.2870   0.5908  -0.9053   0.00    0.0
2018/11/11 00:57:00.000  -74.407216045  163.437658395    78.1847   5  10   0.7251   0.5775   2.2630  -0.2854   0.5856  -0.9034   0.00    0.0
2018/11/11 00:57:15.000  -74.407215474  163.437659207    78.1101   5  10   0.7254   0.5775   2.2595  -0.2838   0.5805  -0.9016   0.00    0.0
2018/11/11 00:57:30.000  -74.407216498  163.437654702    78.7533   5  10   0.7258   0.5775   2.2564  -0.2822   0.5753  -0.8999   0.00    0.0
2018/11/11 00:57:45.000  -74.407214085  163.437660382    77.7568   5  10   0.7248   0.5763   2.2466  -0.2800   0.5689  -0.8963   0.00    0.0
2018/11/11 00:58:00.000  -74.407216923  163.437662785    79.0038   5  10   0.7240   0.5752   2.2372  -0.2779   0.5626  -0.8929   0.00    0.0
2018/11/11 00:58:15.000  -74.407217881  163.437651731    78.8334   5  10   0.7232   0.5741   2.2281  -0.2758   0.5562  -0.8895   0.00    0.0
2018/11/11 00:58:30.000  -74.407214820  163.437659129    77.8088   5  10   0.7225   0.5732   2.2195  -0.2737   0.5500  -0.8863   0.00    0.0
2018/11/11 00:58:45.000  -74.407215855  163.437662205    78.5205   5  10   0.7219   0.5723   2.2113  -0.2716   0.5438  -0.8832   0.00    0.0
2018/11/11 00:59:00.000  -74.407214307  163.437653412    78.0031   5  10   0.7213   0.5715   2.2035  -0.2696   0.5377  -0.8802   0.00    0.0
2018/11/11 00:59:15.000  -74.407214420  163.437659590    78.1368   5  10   0.7209   0.5708   2.1960  -0.2676   0.5316  -0.8773   0.00    0.0
2018/11/11 00:59:30.000  -74.407211276  163.437652065    77.3641   5  10   0.7205   0.5701   2.1890  -0.2657   0.5255  -0.8746   0.00    0.0
2018/11/11 00:59:45.000  -74.407213251  163.437657190    77.8737   5  10   0.7201   0.5696   2.1824  -0.2637   0.5195  -0.8719   0.00    0.0
2018/11/11 01:00:00.000  -74.407217322  163.437657065    77.9033   5  10   0.7199   0.5691   2.1761  -0.2618   0.5135  -0.8694   0.00    0.0
2018/11/11 01:00:15.000  -74.407213177  163.437657181    78.9282   5  10   0.7197   0.5687   2.1703  -0.2600   0.5076  -0.8670   0.00    0.0
2018/11/11 01:00:30.000  -74.407216048  163.437654923    78.4175   5  10   0.7196   0.5683   2.1650  -0.2582   0.5017  -0.8647   0.00    0.0
2018/11/11 01:00:45.000  -74.407215002  163.437653597    78.5375   5  10   0.7196   0.5681   2.1600  -0.2564   0.4958  -0.8625   0.00    0.0
2018/11/11 01:01:00.000  -74.407213664  163.437656517    77.3840   5  10   0.7196   0.5679   2.1554  -0.2546   0.4899  -0.8604   0.00    0.0
2018/11/11 01:01:15.000  -74.407217374  163.437660495    79.4909   5  10   0.7198   0.5678   2.1512  -0.2529   0.4840  -0.8584   0.00    0.0
2018/11/11 01:01:30.000  -74.407215254  163.437657126    78.9290   5  11   0.6203   0.5503   1.7997  -0.1094   0.2545  -0.5528   0.00    0.0
2018/11/11 01:01:45.000  -74.407215351  163.437659504    79.1979   5  11   0.6207   0.5506   1.7995  -0.1073   0.2475  -0.5521   0.00    0.0
2018/11/11 01:02:00.000  -74.407216348  163.437652376    78.6770   5  11   0.6211   0.5510   1.7995  -0.1052   0.2401  -0.5515   0.00    0.0
2018/11/11 01:02:15.000  -74.407217127  163.437657265    78.8720   5  11   0.6215   0.5514   1.7998  -0.1030   0.2326  -0.5509   0.00    0.0
2018/11/11 01:02:30.000  -74.407217803  163.437659150    78.5820   5  11   0.6221   0.5520   1.8005  -0.1007   0.2247  -0.5504   0.00    0.0
2018/11/11 01:02:45.000  -74.407215763  163.437653638    79.0782   5  11   0.6216   0.5513   1.7961  -0.0983   0.2170  -0.5494   0.00    0.0
2018/11/11 01:03:00.000  -74.407216161  163.437654048    78.3497   5  11   0.6213   0.5508   1.7920  -0.0958   0.2090  -0.5484   0.00    0.0
2018/11/11 01:03:15.000  -74.407216554  163.437653844    78.7658   5  11   0.6209   0.5503   1.7881  -0.0933   0.2008  -0.5475   0.00    0.0
2018/11/11 01:03:30.000  -74.407217806  163.437656423    79.0264   5  11   0.6207   0.5499   1.7844  -0.0908   0.1922  -0.5466   0.00    0.0
2018/11/11 01:03:45.000  -74.407215825  163.437655078    78.3838   5  11   0.6204   0.5495   1.7811  -0.0881   0.1832  -0.5457   0.00    0.0
2018/11/11 01:04:00.000  -74.407215817  163.437660725    78.8833   5  11   0.6203   0.5492   1.7781  -0.0854   0.1738  -0.5449   0.00    0.0
2018/11/11 01:04:15.000  -74.407214129  163.437655389    78.5277   5  11   0.6202   0.5490   1.7753  -0.0826   0.1638  -0.5442   0.00    0.0
2018/11/11 01:04:30.000  -74.407215623  163.437660271    78.2123   5  11   0.6201   0.5489   1.7729  -0.0798   0.1532  -0.5434   0.00    0.0
2018/11/11 01:04:45.000  -74.407217310  163.437654126    78.4423   5  11   0.6201   0.5488   1.7707  -0.0768   0.1417  -0.5427   0.00    0.0
2018/11/11 01:05:00.000  -74.407215257  163.437664632    79.2649   5  11   0.6202   0.5487   1.7689  -0.0737   0.1292  -0.5421   0.00    0.0
2018/11/11 01:05:15.000  -74.407215119  163.437649598    78.6448   5  11   0.6203   0.5488   1.7674  -0.0705   0.1152  -0.5415   0.00    0.0
2018/11/11 01:05:30.000  -74.407216839  163.437654158    78.9090   5  12   0.6130   0.5263   1.6993  -0.1395  -0.2557  -0.5819   0.00    0.0
2018/11/11 01:05:45.000  -74.407216055  163.437658713    78.1905   5  12   0.6131   0.5265   1.6995  -0.1383  -0.2612  -0.5815   0.00    0.0
2018/11/11 01:06:00.000  -74.407215076  163.437657645    78.1365   5  12   0.6133   0.5267   1.7000  -0.1371  -0.2667  -0.5810   0.00    0.0
2018/11/11 01:06:15.000  -74.407214892  163.437656174    78.4312   5  12   0.6135   0.5270   1.7008  -0.1360  -0.2722  -0.5807   0.00    0.0
2018/11/11 01:06:30.000  -74.407216027  163.437652089    78.1117   5  12   0.6137   0.5274   1.7019  -0.1349  -0.2777  -0.5803   0.00    0.0
2018/11/11 01:06:45.000  -74.407215853  163.437658122    78.3606   5  12   0.6140   0.5278   1.7032  -0.1337  -0.2831  -0.5800   0.00    0.0
2018/11/11 01:07:00.000  -74.407214665  163.437656452    78.4348   5  12   0.6143   0.5283   1.7049  -0.1326  -0.2886  -0.5798   0.00    0.0
2018/11/11 01:07:15.000  -74.407214789  163.437662663    77.8017   5  12   0.6147   0.5289   1.7068  -0.1315  -0.2940  -0.5796   0.00    0.0
2018/11/11 01:07:30.000  -74.407215266  163.437661137    77.5448   5  12   0.6152   0.5295   1.7090  -0.1304  -0.2995  -0.5795   0.00    0.0
2018/11/11 01:07:45.000  -74.407216397  163.437665562    77.9176   5  12   0.6147   0.5290   1.7063  -0.1289  -0.3033  -0.5786   0.00    0.0
2018/11/11 01:08:00.000  -74.407216002  163.437665527    77.1889   5  12   0.6143   0.5286   1.7038  -0.1275  -0.3070  -0.5778   0.00    0.0
2018/11/11 01:08:15.000  -74.407218189  163.437657087    78.3626   5  12   0.6139   0.5283   1.7016  -0.1261  -0.3108  -0.5770   0.00    0.0
2018/11/11 01:08:30.000  -74.407216395  163.437655329    77.4826   5  12   0.6136   0.5280   1.6996  -0.1247  -0.3147  -0.5762   0.00    0.0
2018/11/11 01:08:45.000  -74.407214858  163.437658236    78.2627   5  12   0.6133   0.5278   1.6980  -0.1232  -0.3185  -0.5755   0.00    0.0
2018/11/11 01:09:00.000  -74.407218279  163.437657419    78.3044   5  12   0.6131   0.5277   1.6966  -0.1218  -0.3224  -0.5749   0.00    0.0
2018/11/11 01:09:15.000  -74.407217691  163.437660990    78.0373   5  12   0.6130   0.5276   1.6954  -0.1204  -0.3263  -0.5743   0.00    0.0
2018/11/11 01:09:30.000  -74.407217080  163.437657975    77.5934   5  12   0.6128   0.5276   1.6946  -0.1190  -0.3302  -0.5737   0.00    0.0
2018/11/11 01:09:45.000  -74.407215289  163.437658691    78.2396   5  12   0.6128   0.5276   1.6940  -0.1176  -0.3341  -0.5732   0.00    0.0
2018/11/11 01:10:00.000  -74.407218548  163.437661071    78.4631   5  12   0.6127   0.5277   1.6938  -0.1162  -0.3381  -0.5728   0.00    0.0
2018/11/11 01:10:15.000  -74.407217169  163.437660672    77.7181   5  12   0.6128   0.5279   1.6939  -0.1148  -0.3422  -0.5723   0.00    0.0
2018/11/11 01:10:30.000  -74.407216342  163.437657616    78.9113   5  12   0.6129   0.5281   1.6943  -0.1134  -0.3463  -0.5720   0.00    0.0
2018/11/11 01:10:45.000  -74.407216021  163.437657671    78.2926   5  12   0.6130   0.5284   1.6949  -0.1120  -0.3504  -0.5717   0.00    0.0
2018/11/11 01:11:00.000  -74.407218074  163.437657169    78.2821   5  12   0.6132   0.5288   1.6959  -0.1106  -0.3545  -0.5714   0.00    0.0
2018/11/11 01:11:15.000  -74.407218220  163.437655232    78.2263   5  12   0.6135   0.5292   1.6971  -0.1092  -0.3587  -0.5712   0.00    0.0
2018/11/11 01:11:30.000  -74.407218759  163.437658302    78.2473   5  12   0.6138   0.5297   1.6987  -0.1078  -0.3629  -0.5710   0.00    0.0
2018/11/11 01:11:45.000  -74.407217865  163.437665076    78.3828   5  12   0.6142   0.5302   1.7005  -0.1064  -0.3672  -0.5709   0.00    0.0
2018/11/11 01:12:00.000  -74.407219802  163.437667114    78.0010   5  12   0.6146   0.5308   1.7026  -0.1050  -0.3715  -0.5708   0.00    0.0
2018/11/11 01:12:15.000  -74.407216947  163.437658967    78.1775   5  12   0.6150   0.5315   1.7050  -0.1035  -0.3759  -0.5707   0.00    0.0
2018/11/11 01:12:30.000  -74.407218900  163.437656639    77.9218   5  12   0.6155   0.5322   1.7077  -0.1021  -0.3802  -0.5707   0.00    0.0
2018/11/11 01:12:45.000  -74.407219756  163.437658446    78.2964   5  12   0.6151   0.5319   1.7052  -0.1004  -0.3830  -0.5700   0.00    0.0
2018/11/11 01:13:00.000  -74.407216471  163.437662487    77.9497   5  12   0.6147   0.5316   1.7030  -0.0986  -0.3858  -0.5693   0.00    0.0
2018/11/11 01:13:15.000  -74.407218228  163.437648514    78.5531   5  12   0.6144   0.5314   1.7012  -0.0968  -0.3887  -0.5687   0.00    0.0
2018/11/11 01:13:30.000  -74.407216164  163.437658917    78.3850   5  12   0.6141   0.5312   1.6997  -0.0950  -0.3917  -0.5681   0.00    0.0
2018/11/11 01:13:45.000  -74.407217045  163.437661368    78.0427   5  12   0.6139   0.5311   1.6984  -0.0932  -0.3947  -0.5676   0.00    0.0
2018/11/11 01:14:00.000  -74.407215505  163.437657225    77.6225   5  12   0.6138   0.5311   1.6974  -0.0914  -0.3977  -0.5671   0.00    0.0
2018/11/11 01:14:15.000  -74.407216890  163.437656127    78.5638   5  12   0.6137   0.5311   1.6967  -0.0895  -0.4008  -0.5666   0.00    0.0
2018/11/11 01:14:30.000  -74.407218530  163.437659685    79.0048   5  12   0.6136   0.5311   1.6963  -0.0877  -0.4040  -0.5662   0.00    0.0
2018/11/11 01:14:45.000  -74.407217625  163.437648745    79.0745   5  12   0.6136   0.5313   1.6962  -0.0858  -0.4072  -0.5659   0.00    0.0
2018/11/11 01:15:00.000  -74.407217267  163.437654112    78.7918   5  12   0.6136   0.5315   1.6964  -0.0839  -0.4105  -0.5656   0.00    0.0
2018/11/11 01:15:15.000  -74.407218508  163.437659237    78.2961   5  12   0.6137   0.5318   1.6969  -0.0819  -0.4138  -0.5653   0.00    0.0
2018/11/11 01:15:30.000  -74.407216434  163.437655379    78.4036   5  12   0.6139   0.5321   1.6977  -0.0800  -0.4172  -0.5651   0.00    0.0
2018/11/11 01:15:45.000  -74.407219765  163.437660366    78.9977   5  12   0.6141   0.5325   1.6988  -0.0780  -0.4206  -0.5650   0.00    0.0
2018/11/11 01:16:00.000  -74.407218318  163.437653705    78.3171   5  12   0.6143   0.5330   1.7002  -0.0760  -0.4241  -0.5649   0.00    0.0
2018/11/11 01:16:15.000  -74.407218826  163.437651131    79.1417   5  12   0.6147   0.5335   1.7018  -0.0739  -0.4276  -0.5648   0.00    0.0
2018/11/11 01:16:30.000  -74.407218390  163.437651608    79.0266   5  12   0.6150   0.5341   1.7038  -0.0718  -0.4312  -0.5648   0.00    0.0
2018/11/11 01:16:45.000  -74.407219329  163.437653100    78.5254   5  12   0.6154   0.5347   1.7060  -0.0697  -0.4349  -0.5648   0.00    0.0
2018/11/11 01:17:00.000  -74.407219592  163.437660192    78.4179   5  12   0.6159   0.5354   1.7086  -0.0675  -0.4386  -0.5649   0.00    0.0
2018/11/11 01:17:15.000  -74.407219264  163.437657322    78.7200   5  12   0.6164   0.5362   1.7114  -0.0653  -0.4423  -0.5650   0.00    0.0
2018/11/11 01:17:30.000  -74.407219672  163.437656587    78.8535   5  12   0.6169   0.5370   1.7145  -0.0630  -0.4462  -0.5652   0.00    0.0
2018/11/11 01:17:45.000  -74.407217872  163.437653551    78.5693   5  12   0.6166   0.5368   1.7126  -0.0601  -0.4485  -0.5646   0.00    0.0
2018/11/11 01:18:00.000  -74.407217148  163.437651800    78.3779   5  12   0.6163   0.5366   1.7108  -0.0572  -0.4508  -0.5641   0.00    0.0
2018/11/11 01:18:15.000  -74.407218394  163.437662541    78.1754   5  12   0.6160   0.5365   1.7094  -0.0541  -0.4532  -0.5637   0.00    0.0
2018/11/11 01:18:30.000  -74.407219331  163.437657486    79.4390   5  12   0.6158   0.5364   1.7083  -0.0509  -0.4556  -0.5632   0.00    0.0
2018/11/11 01:18:45.000  -74.407219342  163.437662294    78.7027   5  12   0.6157   0.5364   1.7074  -0.0475  -0.4581  -0.5629   0.00    0.0
2018/11/11 01:19:00.000  -74.407221368  163.437663604    78.3070   5  12   0.6155   0.5364   1.7068  -0.0438  -0.4607  -0.5625   0.00    0.0
2018/11/11 01:19:15.000  -74.407217036  163.437661614    77.7729   5  12   0.6155   0.5365   1.7065  -0.0399  -0.4633  -0.5623   0.00    0.0
2018/11/11 01:19:30.000  -74.407218256  163.437654730    78.1630   5  12   0.6155   0.5367   1.7065  -0.0356  -0.4660  -0.5620   0.00    0.0
2018/11/11 01:19:45.000  -74.407218185  163.437662995    78.4055   5  12   0.6155   0.5369   1.7068  -0.0307  -0.4688  -0.5619   0.00    0.0
2018/11/11 01:20:00.000  -74.407217190  163.437664730    77.6462   5  12   0.6156   0.5372   1.7073  -0.0249  -0.4716  -0.5617   0.00    0.0
2018/11/11 01:20:15.000  -74.407218796  163.437654231    78.7052   5  12   0.6158   0.5376   1.7083  -0.0173  -0.4745  -0.5617   0.00    0.0
2018/11/11 01:20:30.000  -74.407218997  163.437652278    78.7990   5  12   0.6160   0.5380   1.7095   0.0044  -0.4774  -0.5616   0.00    0.0
2018/11/11 01:20:45.000  -74.407218968  163.437658407    78.9713   5  12   0.6162   0.5385   1.7110   0.0183  -0.4804  -0.5616   0.00    0.0
2018/11/11 01:21:00.000  -74.407218978  163.437653355    77.7951   5  12   0.6166   0.5391   1.7128   0.0254  -0.4835  -0.5617   0.00    0.0
2018/11/11 01:21:15.000  -74.407218254  163.437659996    78.5345   5  12   0.6169   0.5397   1.7148   0.0310  -0.4867  -0.5618   0.00    0.0
2018/11/11 01:21:30.000  -74.407218234  163.437662264    77.6023   5  12   0.6173   0.5403   1.7172   0.0356  -0.4899  -0.5620   0.00    0.0
2018/11/11 01:21:45.000  -74.407217647  163.437661752    78.4169   5  12   0.6178   0.5411   1.7198   0.0397  -0.4931  -0.5622   0.00    0.0
2018/11/11 01:22:00.000  -74.407217778  163.437662029    78.2058   5  12   0.6183   0.5418   1.7227   0.0434  -0.4965  -0.5624   0.00    0.0
2018/11/11 01:22:15.000  -74.407217400  163.437663066    77.9025   5  12   0.6189   0.5427   1.7259   0.0467  -0.4998  -0.5627   0.00    0.0
2018/11/11 01:22:30.000  -74.407218928  163.437665741    77.7890   5  12   0.6195   0.5436   1.7294   0.0499  -0.5033  -0.5630   0.00    0.0
2018/11/11 01:22:45.000  -74.407221182  163.437658678    78.5920   5  12   0.6192   0.5434   1.7277   0.0532  -0.5052  -0.5627   0.00    0.0
2018/11/11 01:23:00.000  -74.407217702  163.437651630    78.5223   5  12   0.6189   0.5433   1.7264   0.0563  -0.5072  -0.5623   0.00    0.0
2018/11/11 01:23:15.000  -74.407219261  163.437655583    78.7771   5  12   0.6187   0.5433   1.7254   0.0592  -0.5092  -0.5621   0.00    0.0
2018/11/11 01:23:30.000  -74.407219691  163.437652791    78.1632   5  12   0.6186   0.5433   1.7246   0.0620  -0.5113  -0.5618   0.00    0.0
2018/11/11 01:23:45.000  -74.407218374  163.437656118    79.4620   5  12   0.6185   0.5433   1.7241   0.0647  -0.5135  -0.5616   0.00    0.0
2018/11/11 01:24:00.000  -74.407217200  163.437656977    78.9694   5  12   0.6184   0.5435   1.7239   0.0672  -0.5157  -0.5615   0.00    0.0
2018/11/11 01:24:15.000  -74.407221156  163.437656917    78.6109   5  12   0.6184   0.5436   1.7240   0.0696  -0.5180  -0.5614   0.00    0.0
2018/11/11 01:24:30.000  -74.407218009  163.437648896    77.8443   5  12   0.6185   0.5439   1.7244   0.0719  -0.5203  -0.5614   0.00    0.0
2018/11/11 01:24:45.000  -74.407218075  163.437655435    78.4625   5  12   0.6186   0.5442   1.7250   0.0741  -0.5228  -0.5614   0.00    0.0
2018/11/11 01:25:00.000  -74.407216624  163.437655643    77.7192   5  12   0.6187   0.5445   1.7260   0.0763  -0.5253  -0.5614   0.00    0.0
2018/11/11 01:25:15.000  -74.407218066  163.437659026    78.7472   5  12   0.6189   0.5450   1.7272   0.0784  -0.5278  -0.5615   0.00    0.0
2018/11/11 01:25:30.000  -74.407219674  163.437650945    78.3087   5  12   0.6192   0.5455   1.7288   0.0804  -0.5305  -0.5617   0.00    0.0
2018/11/11 01:25:45.000  -74.407218573  163.437649850    78.2112   5  12   0.6195   0.5460   1.7306   0.0824  -0.5332  -0.5618   0.00    0.0
2018/11/11 01:26:00.000  -74.407215580  163.437659826    78.4365   5  12   0.6199   0.5466   1.7327   0.0843  -0.5359  -0.5621   0.00    0.0
2018/11/11 01:26:15.000  -74.407216684  163.437654411    78.1462   5  12   0.6203   0.5473   1.7351   0.0861  -0.5387  -0.5624   0.00    0.0
2018/11/11 01:26:30.000  -74.407219531  163.437656756    78.3867   5  12   0.6208   0.5480   1.7377   0.0879  -0.5416  -0.5627   0.00    0.0
2018/11/11 01:26:45.000  -74.407217891  163.437660288    78.2088   5  12   0.6213   0.5488   1.7406   0.0897  -0.5446  -0.5630   0.00    0.0
2018/11/11 01:27:00.000  -74.407220367  163.437655206    78.8190   5  12   0.6219   0.5497   1.7437   0.0914  -0.5476  -0.5634   0.00    0.0
2018/11/11 01:27:15.000  -74.407219937  163.437657968    78.5905   5  12   0.6225   0.5506   1.7472   0.0931  -0.5506  -0.5639   0.00    0.0
2018/11/11 01:27:30.000  -74.407220090  163.437664066    78.9089   5  12   0.6232   0.5515   1.7508   0.0948  -0.5537  -0.5644   0.00    0.0
2018/11/11 01:27:45.000  -74.407218207  163.437664468    77.7960   5  12   0.6229   0.5514   1.7496   0.0965  -0.5554  -0.5642   0.00    0.0
2018/11/11 01:28:00.000  -74.407220143  163.437655624    78.1812   5  12   0.6227   0.5514   1.7486   0.0983  -0.5571  -0.5641   0.00    0.0
2018/11/11 01:28:15.000  -74.407218515  163.437662629    78.6173   5  12   0.6226   0.5514   1.7480   0.1000  -0.5588  -0.5640   0.00    0.0
2018/11/11 01:28:30.000  -74.407217567  163.437663433    79.0923   5  12   0.6225   0.5514   1.7476   0.1017  -0.5607  -0.5640   0.00    0.0
2018/11/11 01:28:45.000  -74.407218833  163.437656478    78.6869   5  12   0.6224   0.5516   1.7474   0.1033  -0.5625  -0.5640   0.00    0.0
2018/11/11 01:29:00.000  -74.407218689  163.437662073    77.9402   5  12   0.6224   0.5517   1.7476   0.1050  -0.5645  -0.5640   0.00    0.0
2018/11/11 01:29:15.000  -74.407216931  163.437665181    77.8395   5  12   0.6225   0.5520   1.7480   0.1065  -0.5665  -0.5641   0.00    0.0
2018/11/11 01:29:30.000  -74.407217201  163.437651873    78.2451   5  12   0.6226   0.5523   1.7486   0.1081  -0.5686  -0.5642   0.00    0.0
2018/11/11 01:29:45.000  -74.407219279  163.437663156    78.6308   5  12   0.6227   0.5526   1.7496   0.1096  -0.5707  -0.5644   0.00    0.0
2018/11/11 01:30:00.000  -74.407217422  163.437657915    78.1423   5  12   0.6229   0.5530   1.7508   0.1111  -0.5729  -0.5646   0.00    0.0
2018/11/11 01:30:15.000  -74.407219778  163.437656840    78.9155   5  12   0.6232   0.5535   1.7523   0.1126  -0.5752  -0.5649   0.00    0.0
2018/11/11 01:30:30.000  -74.407220486  163.437659403    78.1831   5  12   0.6235   0.5540   1.7541   0.1140  -0.5775  -0.5652   0.00    0.0
2018/11/11 01:30:45.000  -74.407218856  163.437655749    78.8114   5  12   0.6239   0.5546   1.7561   0.1154  -0.5799  -0.5656   0.00    0.0
2018/11/11 01:31:00.000  -74.407219712  163.437651557    78.6622   5  12   0.6243   0.5553   1.7584   0.1168  -0.5824  -0.5660   0.00    0.0
2018/11/11 01:31:15.000  -74.407219732  163.437662079    78.6692   5  12   0.6248   0.5560   1.7609   0.1182  -0.5849  -0.5664   0.00    0.0
2018/11/11 01:31:30.000  -74.407220626  163.437650757    78.1212   5  12   0.6254   0.5567   1.7637   0.1195  -0.5875  -0.5669   0.00    0.0
2018/11/11 01:31:45.000  -74.407220457  163.437660999    78.1559   5  12   0.6259   0.5576   1.7667   0.1208  -0.5901  -0.5674   0.00    0.0
2018/11/11 01:32:00.000  -74.407220500  163.437658764    78.2954   5  12   0.6266   0.5584   1.7700   0.1222  -0.5928  -0.5679   0.00    0.0
2018/11/11 01:32:15.000  -74.407217440  163.437654256    77.8836   5  12   0.6273   0.5594   1.7735   0.1234  -0.5955  -0.5685   0.00    0.0
2018/11/11 01:32:30.000  -74.407219341  163.437660090    78.5663   5  12   0.6280   0.5603   1.7772   0.1247  -0.5983  -0.5692   0.00    0.0
2018/11/11 01:32:45.000  -74.407219152  163.437658992    78.9795   5  12   0.6278   0.5603   1.7764   0.1261  -0.5997  -0.5692   0.00    0.0
2018/11/11 01:33:00.000  -74.407219701  163.437655911    78.7019   5  12   0.6277   0.5603   1.7757   0.1275  -0.6012  -0.5693   0.00    0.0
2018/11/11 01:33:15.000  -74.407219672  163.437654895    78.4894   5  12   0.6276   0.5603   1.7753   0.1288  -0.6027  -0.5694   0.00    0.0
2018/11/11 01:33:30.000  -74.407219514  163.437649825    78.7758   5  12   0.6275   0.5604   1.7752   0.1301  -0.6042  -0.5695   0.00    0.0
2018/11/11 01:33:45.000  -74.407219290  163.437655751    78.9419   5  12   0.6275   0.5605   1.7753   0.1314  -0.6058  -0.5697   0.00    0.0
2018/11/11 01:34:00.000  -74.407218718  163.437657429    78.7489   5  12   0.6276   0.5607   1.7757   0.1327  -0.6075  -0.5699   0.00    0.0
2018/11/11 01:34:15.000  -74.407220391  163.437655808    79.2326   5  12   0.6277   0.5610   1.7763   0.1340  -0.6092  -0.5702   0.00    0.0
2018/11/11 01:34:30.000  -74.407219739  163.437654877    79.1658   5  12   0.6279   0.5613   1.7772   0.1352  -0.6110  -0.5705   0.00    0.0
2018/11/11 01:34:45.000  -74.407220251  163.437656257    78.5998   5  12   0.6281   0.5616   1.7783   0.1365  -0.6129  -0.5708   0.00    0.0
2018/11/11 01:35:00.000  -74.407217361  163.437656365    77.8980   5  12   0.6284   0.5620   1.7796   0.1377  -0.6148  -0.5712   0.00    0.0
2018/11/11 01:35:15.000  -74.407220135  163.437659300    78.4511   5  12   0.6287   0.5625   1.7813   0.1389  -0.6167  -0.5717   0.00    0.0
2018/11/11 01:35:30.000  -74.407222361  163.437652560    78.3752   5  11   0.6603   0.5668   1.8193   0.1807  -0.5995  -0.5049   0.00    0.0
2018/11/11 01:35:45.000  -74.407221836  163.437655412    78.5632   5  11   0.6606   0.5674   1.8218   0.1814  -0.6016  -0.5053   0.00    0.0
2018/11/11 01:36:00.000  -74.407220061  163.437658619    77.8489   5  11   0.6609   0.5680   1.8244   0.1821  -0.6038  -0.5056   0.00    0.0
2018/11/11 01:36:15.000  -74.407219130  163.437652214    77.9603   5  11   0.6613   0.5687   1.8274   0.1828  -0.6060  -0.5060   0.00    0.0
2018/11/11 01:36:30.000  -74.407220250  163.437662719    78.0754   5  11   0.6618   0.5694   1.8305   0.1835  -0.6082  -0.5064   0.00    0.0
2018/11/11 01:36:45.000  -74.407221556  163.437650562    78.9905   5  11   0.6623   0.5702   1.8339   0.1842  -0.6105  -0.5068   0.00    0.0
2018/11/11 01:37:00.000  -74.407219507  163.437659073    77.5093   5  11   0.6629   0.5711   1.8375   0.1849  -0.6129  -0.5073   0.00    0.0
2018/11/11 01:37:15.000  -74.407220551  163.437664717    77.0937   5  10   0.6750   0.6308   2.0939   0.0387  -0.8024  -0.3665   0.00    0.0
2018/11/11 01:37:30.000  -74.407221022  163.437655021    78.5288   5  10   0.6756   0.6322   2.1011   0.0416  -0.8063  -0.3665   0.00    0.0
2018/11/11 01:37:45.000  -74.407222212  163.437666107    77.2073   5  10   0.6750   0.6322   2.1024   0.0473  -0.8080  -0.3678   0.00    0.0
2018/11/11 01:38:00.000  -74.407219566  163.437669319    76.7865   5  10   0.6746   0.6323   2.1040   0.0521  -0.8097  -0.3691   0.00    0.0
2018/11/11 01:38:15.000  -74.407221113  163.437661739    77.3829   5  10   0.6741   0.6325   2.1060   0.0565  -0.8116  -0.3704   0.00    0.0
2018/11/11 01:38:30.000  -74.407218995  163.437667423    76.4638   5   9   0.7746   0.6855   2.6379   0.3233  -1.0395  -0.8625   0.00    0.0
2018/11/11 01:38:45.000  -74.407219028  163.437671995    75.4906   5   9   0.7745   0.6867   2.6465   0.3255  -1.0442  -0.8656   0.00    0.0
2018/11/11 01:39:00.000  -74.407219467  163.437671845    77.2669   5   9   0.7744   0.6879   2.6555   0.3276  -1.0490  -0.8689   0.00    0.0
2018/11/11 01:39:15.000  -74.407222355  163.437665117    77.7855   5   9   0.7745   0.6892   2.6650   0.3298  -1.0541  -0.8723   0.00    0.0
2018/11/11 01:39:30.000  -74.407220546  163.437669301    76.7324   5   9   0.7746   0.6906   2.6749   0.3321  -1.0593  -0.8757   0.00    0.0
2018/11/11 01:39:45.000  -74.407219952  163.437671199    76.9033   5   9   0.7748   0.6921   2.6853   0.3343  -1.0646  -0.8793   0.00    0.0
2018/11/11 01:40:00.000  -74.407218019  163.437663281    76.9887   5   9   0.7751   0.6937   2.6962   0.3366  -1.0701  -0.8830   0.00    0.0
2018/11/11 01:40:15.000  -74.407219846  163.437674250    75.9220   5   9   0.7755   0.6954   2.7076   0.3389  -1.0759  -0.8868   0.00    0.0
2018/11/11 01:40:30.000  -74.407221344  163.437666181    77.1239   5   9   0.7759   0.6971   2.7195   0.3412  -1.0818  -0.8906   0.00    0.0
2018/11/11 01:40:45.000  -74.407216951  163.437671520    74.7660   5   9   0.7765   0.6990   2.7319   0.3436  -1.0879  -0.8946   0.00    0.0
2018/11/11 01:41:00.000  -74.407218761  163.437668787    76.8124   5   9   0.7771   0.7010   2.7447   0.3460  -1.0941  -0.8987   0.00    0.0
2018/11/11 01:41:15.000  -74.407217669  163.437665566    75.8255   5   9   0.7778   0.7031   2.7580   0.3484  -1.1005  -0.9029   0.00    0.0
2018/11/11 01:41:30.000  -74.407218756  163.437668072    76.2267   5   9   0.7786   0.7052   2.7717   0.3508  -1.1071  -0.9072   0.00    0.0
2018/11/11 01:41:45.000  -74.407219913  163.437664895    77.3625   5   9   0.7795   0.7074   2.7859   0.3533  -1.1138  -0.9115   0.00    0.0
2018/11/11 01:42:00.000  -74.407217609  163.437661008    76.9012   5   9   0.7804   0.7098   2.8005   0.3558  -1.1207  -0.9160   0.00    0.0
2018/11/11 01:42:15.000  -74.407219359  163.437663635    76.8633   5   9   0.7815   0.7122   2.8155   0.3583  -1.1277  -0.9206   0.00    0.0
2018/11/11 01:42:30.000  -74.407218688  163.437654882    77.6197   5   9   0.7826   0.7147   2.8309   0.3609  -1.1349  -0.9253   0.00    0.0
2018/11/11 01:42:45.000  -74.407217095  163.437662235    76.4762   5   9   0.7823   0.7154   2.8381   0.3628  -1.1386  -0.9284   0.00    0.0
2018/11/11 01:43:00.000  -74.407219565  163.437659891    77.1523   5   9   0.7821   0.7162   2.8455   0.3648  -1.1425  -0.9317   0.00    0.0
2018/11/11 01:43:15.000  -74.407219039  163.437665591    76.9893   5   9   0.7820   0.7171   2.8534   0.3667  -1.1465  -0.9350   0.00    0.0
2018/11/11 01:43:30.000  -74.407221402  163.437658305    76.6547   5   9   0.7820   0.7181   2.8617   0.3687  -1.1507  -0.9385   0.00    0.0
2018/11/11 01:43:45.000  -74.407218862  163.437658207    76.7323   5   9   0.7821   0.7192   2.8705   0.3708  -1.1550  -0.9420   0.00    0.0
2018/11/11 01:44:00.000  -74.407219105  163.437673780    75.0679   5   9   0.7822   0.7203   2.8796   0.3728  -1.1594  -0.9456   0.00    0.0
2018/11/11 01:44:15.000  -74.407219651  163.437654144    77.3092   5   9   0.7824   0.7216   2.8891   0.3749  -1.1640  -0.9493   0.00    0.0
