% program   : RTKLIB ver.2.4.3
% inp file  : _by_type/_obs/base/20181105.18o
% inp file  : _by_type/_sp3+clk/igs20261.clk
% inp file  : _by_type/_sp3+clk/igs20261.sp3
% inp file  : _by_type/_nav/base/20181105.18n
% obs start : 2018/11/05 08:55:15.0 GPST (week2026 118515.0s)
% obs end   : 2018/11/05 23:59:45.0 GPST (week2026 172785.0s)
% pos mode  : ppp-kinematic
% solution  : combined
% elev mask : 15.0 deg
% dynamics  : off
% tidecorr  : on
% tropo opt : est ztd+grad
% ephemeris : precise
% navi sys  : gps glonass
% antenna1  :                       ( 0.0000  0.0000  0.0000)
%
% (lat/lon/height=WGS84/ellipsoidal,Q=1:fix,2:float,3:sbas,4:dgps,5:single,6:ppp,ns=# of satellites)
%  GPST                  latitude(deg) longitude(deg)  height(m)   Q  ns   sdn(m)   sde(m)   sdu(m)  sdne(m)  sdeu(m)  sdun(m) age(s)  ratio
2018/11/05 08:55:15.000  -74.370534636  163.307937936  1021.8673   6   6   3.2546   1.9002   9.0084  -2.2762   3.7183  -5.2673   0.00    0.0
2018/11/05 08:55:30.000  -74.370507340  163.307889365  1012.5799   6   7   0.1321   0.0935   0.3810  -0.0758   0.1208  -0.2136   0.00    0.0
2018/11/05 08:55:45.000  -74.370507053  163.307887787  1012.4566   6   7   0.0670   0.0877   0.1908   0.0273  -0.0710  -0.0801   0.00    0.0
2018/11/05 08:56:00.000  -74.370507119  163.307887582  1012.4958   6   7   0.0770   0.0988   0.2197   0.0356  -0.0826  -0.0891   0.00    0.0
2018/11/05 08:56:15.000  -74.370506959  163.307887266  1012.5055   6   7   0.0883   0.1109   0.2499   0.0448  -0.0960  -0.1014   0.00    0.0
2018/11/05 08:56:30.000  -74.370506996  163.307886877  1012.5508   6   7   0.1000   0.1243   0.2811   0.0545  -0.1175  -0.1207   0.00    0.0
2018/11/05 08:56:45.000  -74.370507170  163.307885985  1012.6581   6   7   0.1172   0.1478   0.3316   0.0767  -0.1501  -0.1464   0.00    0.0
2018/11/05 08:57:00.000  -74.370507430  163.307885613  1012.7896   6   7   0.1361   0.1714   0.3658   0.0987  -0.1666  -0.1639   0.00    0.0
2018/11/05 08:57:15.000  -74.370507188  163.307887325  1012.7625   6   7   0.1254   0.1006   0.3460  -0.0322  -0.0349  -0.1264   0.00    0.0
2018/11/05 08:57:30.000  -74.370507328  163.307886915  1012.7715   6   7   0.1342   0.1056   0.3579  -0.0435  -0.0663  -0.1472   0.00    0.0
2018/11/05 08:57:45.000  -74.370507398  163.307886768  1012.7754   6   7   0.1254   0.0973   0.3301  -0.0448  -0.0573  -0.1345   0.00    0.0
2018/11/05 08:58:00.000  -74.370507461  163.307886994  1012.7950   6   7   0.1183   0.0901   0.3027  -0.0470  -0.0502  -0.1217   0.00    0.0
2018/11/05 08:58:15.000  -74.370507241  163.307886189  1012.7364   6   7   0.1168   0.0853   0.2764  -0.0551  -0.0452  -0.1072   0.00    0.0
2018/11/05 08:58:30.000  -74.370507294  163.307886204  1012.7177   6   7   0.1045   0.0765   0.2508  -0.0494  -0.0349  -0.0964   0.00    0.0
2018/11/05 08:58:45.000  -74.370507323  163.307886468  1012.6790   6   7   0.0802   0.0633   0.2268  -0.0274  -0.0093  -0.0896   0.00    0.0
2018/11/05 08:59:00.000  -74.370507285  163.307886723  1012.6160   6   7   0.0719   0.0570   0.2080  -0.0251   0.0265  -0.0778   0.00    0.0
2018/11/05 08:59:15.000  -74.370507282  163.307886680  1012.5904   6   7   0.0641   0.0504   0.1855  -0.0251   0.0279  -0.0699   0.00    0.0
2018/11/05 08:59:30.000  -74.370507235  163.307886193  1012.5559   6   7   0.0579   0.0441   0.1639  -0.0263   0.0230  -0.0645   0.00    0.0
2018/11/05 08:59:45.000  -74.370507218  163.307886381  1012.5347   6   7   0.0551   0.0411   0.1543  -0.0271   0.0266  -0.0584   0.00    0.0
2018/11/05 09:00:00.000  -74.370507127  163.307886471  1012.5496   6   7   0.0531   0.0394   0.1548  -0.0259   0.0283  -0.0530   0.00    0.0
2018/11/05 09:00:15.000  -74.370506788  163.307885955  1012.5654   6   7   0.0585   0.0416   0.1768  -0.0281   0.0248  -0.0413   0.00    0.0
2018/11/05 09:00:30.000  -74.370506545  163.307885870  1012.6864   6   7   0.0660   0.0457   0.2289  -0.0285   0.0245   0.0249   0.00    0.0
2018/11/05 09:00:45.000  -74.370506471  163.307885317  1012.5161   6   7   0.0681   0.0518   0.1840  -0.0361  -0.0062  -0.0747   0.00    0.0
2018/11/05 09:01:00.000  -74.370506367  163.307884982  1012.5499   6   7   0.0794   0.0590   0.2060  -0.0412  -0.0208  -0.0813   0.00    0.0
2018/11/05 09:01:15.000  -74.370506537  163.307885834  1012.6711   6   7   0.0833   0.0639   0.2299  -0.0382  -0.0249  -0.0916   0.00    0.0
2018/11/05 09:01:30.000  -74.370506472  163.307885644  1012.7404   6   7   0.0950   0.0717   0.2554  -0.0433  -0.0317  -0.1007   0.00    0.0
2018/11/05 09:01:45.000  -74.370506430  163.307885215  1012.7788   6   7   0.1085   0.0802   0.2819  -0.0504  -0.0379  -0.1100   0.00    0.0
2018/11/05 09:02:00.000  -74.370506072  163.307884109  1012.8068   6   7   0.1276   0.0908   0.3089  -0.0635  -0.0454  -0.1179   0.00    0.0
2018/11/05 09:02:15.000  -74.370506344  163.307885199  1012.8388   6   7   0.1311   0.0958   0.3357  -0.0602  -0.0458  -0.1306   0.00    0.0
2018/11/05 09:02:30.000  -74.370505868  163.307884560  1012.8230   6   7   0.1510   0.1066   0.3627  -0.0746  -0.0520  -0.1389   2.00    0.0
2018/11/05 09:02:45.000  -74.370506176  163.307884843  1012.7643   6   7   0.1404   0.0989   0.3401  -0.0704  -0.0512  -0.1252   2.00    0.0
2018/11/05 09:03:00.000  -74.370506459  163.307885379  1012.7666   6   7   0.1298   0.0911   0.3197  -0.0663  -0.0517  -0.1097   2.00    0.0
2018/11/05 09:03:15.000  -74.370506354  163.307884723  1012.8163   6   7   0.1213   0.0843   0.3096  -0.0643  -0.0603  -0.0838   2.00    0.0
2018/11/05 09:03:30.000  -74.370506943  163.307885583  1012.7195   6   7   0.1094   0.0760   0.2793  -0.0586  -0.0520  -0.0764   0.00    0.0
2018/11/05 09:03:45.000  -74.370507255  163.307886259  1012.5236   6   7   0.0911   0.0657   0.2202  -0.0469   0.0127  -0.0945   0.00    0.0
2018/11/05 09:04:00.000  -74.370507334  163.307886276  1012.5233   6   7   0.0795   0.0582   0.1966  -0.0418   0.0211  -0.0864   0.00    0.0
2018/11/05 09:04:15.000  -74.370507228  163.307886451  1012.5583   6   7   0.0608   0.0489   0.1750  -0.0295   0.0291  -0.0817   0.00    0.0
2018/11/05 09:04:30.000  -74.370507348  163.307886633  1012.5653   6   7   0.0541   0.0441   0.1579  -0.0283   0.0307  -0.0753   0.00    0.0
2018/11/05 09:04:45.000  -74.370507275  163.307886473  1012.5121   6   7   0.0494   0.0408   0.1462  -0.0278   0.0322  -0.0713   3.00    0.0
2018/11/05 09:05:00.000  -74.370507110  163.307886328  1012.4846   6   7   0.0477   0.0396   0.1419  -0.0280   0.0338  -0.0703   3.00    0.0
2018/11/05 09:05:15.000  -74.370507132  163.307886407  1012.5306   6   7   0.0503   0.0416   0.1498  -0.0292   0.0352  -0.0732   3.00    0.0
2018/11/05 09:05:30.000  -74.370507206  163.307886375  1012.5804   6   7   0.0553   0.0452   0.1632  -0.0305   0.0361  -0.0782   3.00    0.0
2018/11/05 09:05:45.000  -74.370507280  163.307886437  1012.6431   6   7   0.0621   0.0501   0.1807  -0.0321   0.0366  -0.0848   3.00    0.0
2018/11/05 09:06:00.000  -74.370507126  163.307886194  1012.6555   6   7   0.0700   0.0557   0.2012  -0.0341   0.0372  -0.0927   3.00    0.0
2018/11/05 09:06:15.000  -74.370507138  163.307885458  1012.6563   6   7   0.0786   0.0619   0.2237  -0.0364   0.0379  -0.1015   3.00    0.0
2018/11/05 09:06:30.000  -74.370506982  163.307885356  1012.6121   6   7   0.0875   0.0684   0.2475  -0.0390   0.0391  -0.1110   3.00    0.0
2018/11/05 09:06:45.000  -74.370506769  163.307885364  1012.5716   6   7   0.0965   0.0750   0.2719  -0.0418   0.0408  -0.1209   3.00    0.0
2018/11/05 09:07:00.000  -74.370506593  163.307885409  1012.6196   6   7   0.1056   0.0817   0.2965  -0.0448   0.0428  -0.1310   3.00    0.0
2018/11/05 09:07:15.000  -74.370506638  163.307885188  1012.7218   6   7   0.1146   0.0884   0.3211  -0.0480   0.0453  -0.1411   3.00    0.0
2018/11/05 09:07:30.000  -74.370506325  163.307884580  1012.7586   6   7   0.1234   0.0949   0.3455  -0.0512   0.0482  -0.1512   3.00    0.0
2018/11/05 09:07:45.000  -74.370506595  163.307885077  1012.7356   6   7   0.1144   0.0883   0.3212  -0.0480   0.0465  -0.1415   3.00    0.0
2018/11/05 09:08:00.000  -74.370506825  163.307885760  1012.7170   6   7   0.1054   0.0816   0.2965  -0.0453   0.0459  -0.1315   3.00    0.0
2018/11/05 09:08:15.000  -74.370506972  163.307885789  1012.7167   6   7   0.0964   0.0749   0.2719  -0.0427   0.0452  -0.1215   3.00    0.0
2018/11/05 09:08:30.000  -74.370507093  163.307885691  1012.7007   6   7   0.0874   0.0683   0.2476  -0.0402   0.0444  -0.1117   3.00    0.0
2018/11/05 09:08:45.000  -74.370507083  163.307886331  1012.6670   6   7   0.0787   0.0620   0.2241  -0.0379   0.0437  -0.1024   3.00    0.0
2018/11/05 09:09:00.000  -74.370507095  163.307886430  1012.6354   6   7   0.0704   0.0561   0.2020  -0.0360   0.0430  -0.0937   3.00    0.0
2018/11/05 09:09:15.000  -74.370506997  163.307886359  1012.5280   6   7   0.0628   0.0509   0.1823  -0.0344   0.0426  -0.0861   3.00    0.0
2018/11/05 09:09:30.000  -74.370507030  163.307886138  1012.4990   6   7   0.0565   0.0466   0.1661  -0.0333   0.0424  -0.0800   3.00    0.0
2018/11/05 09:09:45.000  -74.370506795  163.307885791  1012.4038   6   7   0.0522   0.0438   0.1550  -0.0329   0.0428  -0.0761   3.00    0.0
2018/11/05 09:10:00.000  -74.370506747  163.307885214  1012.3174   6   7   0.0507   0.0433   0.1511  -0.0336   0.0446  -0.0752   3.00    0.0
2018/11/05 09:10:15.000  -74.370506885  163.307884998  1012.2756   6   7   0.0538   0.0466   0.1593  -0.0360   0.0491  -0.0782   3.00    0.0
2018/11/05 09:10:30.000  -74.370506829  163.307884585  1012.2632   6   7   0.0591   0.0512   0.1739  -0.0385   0.0536  -0.0828   3.00    0.0
2018/11/05 09:10:45.000  -74.370506563  163.307884324  1012.2848   6   7   0.0656   0.0565   0.1938  -0.0407   0.0585  -0.0883   3.00    0.0
2018/11/05 09:11:00.000  -74.370506332  163.307884579  1012.3928   6   7   0.0728   0.0631   0.2225  -0.0428   0.0673  -0.0946   3.00    0.0
2018/11/05 09:11:15.000  -74.370506117  163.307884053  1012.4067   6   7   0.0806   0.0669   0.2306  -0.0456   0.0605  -0.1027   3.00    0.0
2018/11/05 09:11:30.000  -74.370505849  163.307883738  1012.4463   6   7   0.0885   0.0726   0.2520  -0.0479   0.0622  -0.1102   3.00    0.0
2018/11/05 09:11:45.000  -74.370505590  163.307883500  1012.4699   6   7   0.0965   0.0784   0.2739  -0.0503   0.0641  -0.1182   3.00    0.0
2018/11/05 09:12:00.000  -74.370505473  163.307883561  1012.5623   6   7   0.1045   0.0843   0.2962  -0.0529   0.0662  -0.1264   0.00    0.0
2018/11/05 09:12:15.000  -74.370505608  163.307884537  1012.7416   6   7   0.1125   0.0902   0.3185  -0.0556   0.0685  -0.1349   1.00    0.0
2018/11/05 09:12:30.000  -74.370505495  163.307884671  1012.8337   6   7   0.1205   0.0961   0.3408  -0.0583   0.0710  -0.1435   2.00    0.0
2018/11/05 09:12:45.000  -74.370505610  163.307884580  1012.8050   6   7   0.1132   0.0903   0.3195  -0.0565   0.0696  -0.1344   2.00    0.0
2018/11/05 09:13:00.000  -74.370505576  163.307884370  1012.7508   6   7   0.1065   0.0849   0.2986  -0.0553   0.0686  -0.1255   2.00    0.0
2018/11/05 09:13:15.000  -74.370505338  163.307884174  1012.6549   6   7   0.1008   0.0799   0.2787  -0.0550   0.0676  -0.1162   3.00    0.0
2018/11/05 09:13:30.000  -74.370505181  163.307884054  1012.6562   6   7   0.0987   0.0760   0.2610  -0.0574   0.0654  -0.1047   3.00    0.0
2018/11/05 09:13:45.000  -74.370505329  163.307884458  1012.6181   6   7   0.0908   0.0712   0.2440  -0.0552   0.0688  -0.0999   2.00    0.0
2018/11/05 09:14:00.000  -74.370505636  163.307884801  1012.5528   6   7   0.0816   0.0676   0.2344  -0.0524   0.0758  -0.0963   1.00    0.0
2018/11/05 09:14:15.000  -74.370505711  163.307883573  1012.3145   6   7   0.0723   0.0561   0.1760  -0.0457   0.0450  -0.0820   0.00    0.0
2018/11/05 09:14:30.000  -74.370506389  163.307884667  1012.3225   6   7   0.0629   0.0523   0.1722  -0.0427   0.0552  -0.0870   0.00    0.0
2018/11/05 09:14:45.000  -74.370506661  163.307884865  1012.3661   6   7   0.0355   0.0370   0.1002  -0.0141  -0.0361  -0.0305   0.00    0.0
2018/11/05 09:15:00.000  -74.370506601  163.307884357  1012.3549   6   7   0.0329   0.0361   0.0936  -0.0147  -0.0368  -0.0252   0.00    0.0
2018/11/05 09:15:15.000  -74.370506262  163.307883760  1012.4435   6   7   0.0376   0.0389   0.1059  -0.0173  -0.0356  -0.0297   0.00    0.0
2018/11/05 09:15:30.000  -74.370506161  163.307883697  1012.4447   6   7   0.0448   0.0435   0.1300  -0.0207  -0.0281  -0.0411   1.00    0.0
2018/11/05 09:15:45.000  -74.370505824  163.307883656  1012.5193   6   7   0.0584   0.0516   0.1683  -0.0302   0.0199  -0.0527   0.00    0.0
2018/11/05 09:16:00.000  -74.370505498  163.307882868  1012.4575   6   7   0.0700   0.0538   0.1703  -0.0345  -0.0331  -0.0577   0.00    0.0
2018/11/05 09:16:15.000  -74.370505370  163.307882954  1012.4858   6   7   0.0818   0.0605   0.1971  -0.0409  -0.0277  -0.0684   0.00    0.0
2018/11/05 09:16:30.000  -74.370505772  163.307883758  1012.4964   6   7   0.0834   0.0648   0.2219  -0.0381   0.0140  -0.0868   0.00    0.0
2018/11/05 09:16:45.000  -74.370505559  163.307883642  1012.5685   6   7   0.0932   0.0714   0.2484  -0.0431   0.0274  -0.0977   0.00    0.0
2018/11/05 09:17:00.000  -74.370505718  163.307884725  1012.5499   6   8   0.0988   0.0726   0.2673  -0.0380   0.0558  -0.1167   0.00    0.0
2018/11/05 09:17:15.000  -74.370505413  163.307884320  1012.5894   6   8   0.1110   0.0788   0.2926  -0.0436   0.0634  -0.1268   0.00    0.0
2018/11/05 09:17:30.000  -74.370505868  163.307883888  1012.5327   6   8   0.1151   0.0842   0.3170  -0.0439   0.0720  -0.1404   0.00    0.0
2018/11/05 09:17:45.000  -74.370505688  163.307883392  1012.4262   6   8   0.1071   0.0784   0.2931  -0.0410   0.0640  -0.1287   0.00    0.0
2018/11/05 09:18:00.000  -74.370505653  163.307883742  1012.4597   6   8   0.1018   0.0726   0.2688  -0.0396   0.0555  -0.1158   0.00    0.0
2018/11/05 09:18:15.000  -74.370506171  163.307883983  1012.3999   6   8   0.0874   0.0661   0.2435  -0.0325   0.0478  -0.1064   0.00    0.0
2018/11/05 09:18:30.000  -74.370506128  163.307883928  1012.3659   6   8   0.0790   0.0602   0.2182  -0.0293   0.0376  -0.0939   0.00    0.0
2018/11/05 09:18:45.000  -74.370506248  163.307883588  1012.3591   6   8   0.0726   0.0545   0.1930  -0.0271   0.0242  -0.0804   1.00    0.0
2018/11/05 09:19:00.000  -74.370506445  163.307884075  1012.3731   6   8   0.0582   0.0485   0.1676  -0.0201  -0.0081  -0.0698   1.00    0.0
2018/11/05 09:19:15.000  -74.370506215  163.307884305  1012.3280   6   8   0.0493   0.0433   0.1436  -0.0162  -0.0261  -0.0570   1.00    0.0
2018/11/05 09:19:30.000  -74.370506247  163.307884100  1012.3249   6   8   0.0411   0.0390   0.1226  -0.0126  -0.0340  -0.0447   1.00    0.0
2018/11/05 09:19:45.000  -74.370506446  163.307883907  1012.3279   6   8   0.0345   0.0360   0.1074  -0.0101  -0.0382  -0.0343   1.00    0.0
2018/11/05 09:20:00.000  -74.370506795  163.307884009  1012.4121   6   8   0.0314   0.0352   0.1031  -0.0100  -0.0394  -0.0299   1.00    0.0
2018/11/05 09:20:15.000  -74.370506975  163.307884005  1012.5138   6   8   0.0354   0.0384   0.1188  -0.0106  -0.0377  -0.0378   1.00    0.0
2018/11/05 09:20:30.000  -74.370507026  163.307883920  1012.6023   6   8   0.0433   0.0442   0.1524  -0.0143  -0.0220  -0.0530   1.00    0.0
2018/11/05 09:20:45.000  -74.370506824  163.307883506  1012.5837   6   8   0.0521   0.0479   0.1690  -0.0146  -0.0245  -0.0644   0.00    0.0
2018/11/05 09:21:00.000  -74.370506585  163.307883593  1012.6199   6   8   0.0619   0.0542   0.2022  -0.0184   0.0200  -0.0796   0.00    0.0
2018/11/05 09:21:15.000  -74.370506520  163.307884278  1012.6602   6   8   0.0718   0.0615   0.2405  -0.0229   0.0444  -0.0955   0.00    0.0
2018/11/05 09:21:30.000  -74.370506276  163.307884880  1012.8066   6   8   0.0821   0.0709   0.2935  -0.0295   0.0727  -0.1144   0.00    0.0
2018/11/05 09:21:45.000  -74.370505763  163.307883014  1012.5982   6   8   0.0911   0.0704   0.2780  -0.0249   0.0308  -0.1202   0.00    0.0
2018/11/05 09:22:00.000  -74.370505418  163.307883297  1012.6966   6   8   0.1014   0.0765   0.3092  -0.0259   0.0313  -0.1350   0.00    0.0
2018/11/05 09:22:15.000  -74.370505132  163.307883753  1012.7872   6   8   0.1131   0.0833   0.3458  -0.0245   0.0210  -0.1521   0.00    0.0
2018/11/05 09:22:30.000  -74.370504892  163.307883343  1012.9126   6   8   0.1291   0.0919   0.3985  -0.0118  -0.0473  -0.1762   0.00    0.0
2018/11/05 09:22:45.000  -74.370505194  163.307883486  1012.8591   6   8   0.1123   0.0786   0.3049  -0.0417   0.0710  -0.1284   1.00    0.0
2018/11/05 09:23:00.000  -74.370505547  163.307883277  1012.7997   6   8   0.0980   0.0722   0.2778  -0.0384   0.0667  -0.1175   1.00    0.0
2018/11/05 09:23:15.000  -74.370505520  163.307883852  1012.8199   6   8   0.0913   0.0664   0.2543  -0.0370   0.0598  -0.1028   1.00    0.0
2018/11/05 09:23:30.000  -74.370505769  163.307883758  1012.7637   6   8   0.0821   0.0607   0.2309  -0.0341   0.0535  -0.0914   1.00    0.0
2018/11/05 09:23:45.000  -74.370506066  163.307883593  1012.7357   6   8   0.0728   0.0554   0.2092  -0.0313   0.0477  -0.0804   1.00    0.0
2018/11/05 09:24:00.000  -74.370506473  163.307884026  1012.7876   6   8   0.0638   0.0509   0.1915  -0.0290   0.0442  -0.0700   1.00    0.0
2018/11/05 09:24:15.000  -74.370506708  163.307884655  1012.7858   6   8   0.0556   0.0488   0.1867  -0.0288   0.0496  -0.0628   1.00    0.0
2018/11/05 09:24:30.000  -74.370506553  163.307882935  1012.5580   6   8   0.0472   0.0374   0.1293  -0.0222  -0.0345  -0.0361   0.00    0.0
2018/11/05 09:24:45.000  -74.370506701  163.307883265  1012.4821   6   8   0.0364   0.0282   0.1039  -0.0084  -0.0253  -0.0378   0.00    0.0
2018/11/05 09:25:00.000  -74.370506716  163.307883154  1012.4474   6   8   0.0332   0.0270   0.1029  -0.0030  -0.0310  -0.0364   0.00    0.0
2018/11/05 09:25:15.000  -74.370506461  163.307883308  1012.4505   6   7   0.0383   0.0295   0.1179   0.0050  -0.0322  -0.0456   0.00    0.0
2018/11/05 09:25:30.000  -74.370506029  163.307883935  1012.4220   6   7   0.0480   0.0342   0.1448   0.0105  -0.0333  -0.0629   1.00    0.0
2018/11/05 09:25:45.000  -74.370505915  163.307884702  1012.5001   6   7   0.0596   0.0410   0.1827   0.0138  -0.0390  -0.0805   1.00    0.0
2018/11/05 09:26:00.000  -74.370505915  163.307885202  1012.6075   6   6   0.0714   0.0481   0.2200   0.0172  -0.0437  -0.0988   1.00    0.0
2018/11/05 09:26:15.000  -74.370505970  163.307885429  1012.7093   6   6   0.0832   0.0553   0.2578   0.0205  -0.0490  -0.1166   1.00    0.0
2018/11/05 09:26:30.000  -74.370505746  163.307885653  1012.7180   6   6   0.0949   0.0625   0.2954   0.0237  -0.0548  -0.1340   1.00    0.0
2018/11/05 09:26:45.000  -74.370505551  163.307885499  1012.6816   6   6   0.1065   0.0697   0.3328   0.0270  -0.0611  -0.1514   1.00    0.0
2018/11/05 09:27:00.000  -74.370505350  163.307885369  1012.6350   6   6   0.1180   0.0768   0.3701   0.0305  -0.0676  -0.1687   1.00    0.0
2018/11/05 09:27:15.000  -74.370505129  163.307885050  1012.6695   6   6   0.1296   0.0838   0.4073   0.0342  -0.0745  -0.1860   1.00    0.0
2018/11/05 09:27:30.000  -74.370504970  163.307884792  1012.7122   6   6   0.1412   0.0908   0.4445   0.0380  -0.0815  -0.2035   1.00    0.0
2018/11/05 09:27:45.000  -74.370504930  163.307883896  1012.6287   6   6   0.1298   0.0839   0.4109   0.0347  -0.0754  -0.1871   2.00    0.0
2018/11/05 09:28:00.000  -74.370505467  163.307883513  1012.6049   6   6   0.1182   0.0768   0.3761   0.0312  -0.0691  -0.1703   2.00    0.0
2018/11/05 09:28:15.000  -74.370505522  163.307883749  1012.5092   6   6   0.1066   0.0696   0.3407   0.0279  -0.0628  -0.1534   1.00    0.0
2018/11/05 09:28:30.000  -74.370505771  163.307884121  1012.5208   6   6   0.0950   0.0624   0.3046   0.0246  -0.0567  -0.1363   1.00    0.0
2018/11/05 09:28:45.000  -74.370506135  163.307884629  1012.5617   6   6   0.0833   0.0551   0.2678   0.0213  -0.0507  -0.1190   1.00    0.0
2018/11/05 09:29:00.000  -74.370506285  163.307884677  1012.5611   6   6   0.0715   0.0479   0.2304   0.0180  -0.0449  -0.1012   1.00    0.0
2018/11/05 09:29:15.000  -74.370506382  163.307884333  1012.5041   6   6   0.0596   0.0408   0.1930   0.0144  -0.0393  -0.0829   1.00    0.0
2018/11/05 09:29:30.000  -74.370506547  163.307884060  1012.4624   6   6   0.0482   0.0343   0.1574   0.0101  -0.0340  -0.0646   1.00    0.0
2018/11/05 09:29:45.000  -74.370506701  163.307883651  1012.4637   6   6   0.0385   0.0293   0.1287   0.0037  -0.0290  -0.0484   1.00    0.0
2018/11/05 09:30:00.000  -74.370506732  163.307882964  1012.4380   6   6   0.0336   0.0273   0.1177  -0.0074  -0.0238  -0.0410   1.00    0.0
2018/11/05 09:30:15.000  -74.370506661  163.307883035  1012.4112   6   6   0.0388   0.0309   0.1425  -0.0079  -0.0139  -0.0522   1.00    0.0
2018/11/05 09:30:30.000  -74.370506527  163.307884016  1012.4863   6   6   0.0489   0.0390   0.1944  -0.0113   0.0324  -0.0733   1.00    0.0
2018/11/05 09:30:45.000  -74.370506078  163.307883885  1012.3272   6   6   0.0588   0.0405   0.1915   0.0133  -0.0395  -0.0819   0.00    0.0
2018/11/05 09:31:00.000  -74.370505893  163.307884204  1012.4038   6   6   0.0702   0.0475   0.2301   0.0171  -0.0449  -0.0996   0.00    0.0
2018/11/05 09:31:15.000  -74.370505711  163.307884434  1012.4422   6   6   0.0816   0.0547   0.2694   0.0206  -0.0509  -0.1172   0.00    0.0
2018/11/05 09:31:30.000  -74.370505516  163.307884474  1012.4643   6   6   0.0930   0.0619   0.3087   0.0242  -0.0574  -0.1348   0.00    0.0
2018/11/05 09:31:45.000  -74.370505300  163.307884792  1012.4874   6   6   0.1045   0.0690   0.3482   0.0279  -0.0644  -0.1525   1.00    0.0
2018/11/05 09:32:00.000  -74.370505116  163.307884768  1012.4881   6   6   0.1161   0.0761   0.3880   0.0317  -0.0718  -0.1704   2.00    0.0
2018/11/05 09:32:15.000  -74.370505017  163.307885122  1012.4938   6   6   0.1277   0.0831   0.4279   0.0357  -0.0793  -0.1885   2.00    0.0
2018/11/05 09:32:30.000  -74.370504946  163.307885321  1012.6005   6   6   0.1393   0.0901   0.4682   0.0398  -0.0870  -0.2068   2.00    0.0
2018/11/05 09:32:45.000  -74.370505341  163.307885306  1012.7251   6   6   0.1276   0.0832   0.4321   0.0359  -0.0799  -0.1893   2.00    0.0
2018/11/05 09:33:00.000  -74.370505518  163.307885376  1012.6919   6   6   0.1159   0.0761   0.3944   0.0320  -0.0729  -0.1715   2.00    0.0
2018/11/05 09:33:15.000  -74.370505608  163.307885437  1012.5823   6   6   0.1042   0.0689   0.3564   0.0283  -0.0659  -0.1538   2.00    0.0
2018/11/05 09:33:30.000  -74.370505813  163.307884890  1012.5273   6   6   0.0926   0.0617   0.3180   0.0247  -0.0591  -0.1362   2.00    0.0
2018/11/05 09:33:45.000  -74.370506195  163.307884655  1012.5538   6   6   0.0811   0.0545   0.2791   0.0212  -0.0525  -0.1186   2.00    0.0
2018/11/05 09:34:00.000  -74.370506478  163.307884498  1012.5852   6   6   0.0696   0.0473   0.2397   0.0176  -0.0463  -0.1008   2.00    0.0
2018/11/05 09:34:15.000  -74.370506353  163.307884826  1012.5443   6   6   0.0583   0.0402   0.2002   0.0139  -0.0405  -0.0828   2.00    0.0
2018/11/05 09:34:30.000  -74.370506300  163.307884123  1012.4377   6   6   0.0473   0.0336   0.1617   0.0095  -0.0352  -0.0647   2.00    0.0
2018/11/05 09:34:45.000  -74.370507077  163.307882836  1012.4226   1   6   0.0398   0.0235   0.1345   0.0126  -0.0371  -0.0512   3.00    1.0
2018/11/05 09:35:00.000  -74.370507297  163.307882994  1012.4771   1   6   0.0339   0.0198   0.1146   0.0102  -0.0349  -0.0395   3.00    1.0
2018/11/05 09:35:15.000  -74.370506846  163.307883629  1012.4783   6   6   0.0379   0.0286   0.1291  -0.0015  -0.0298  -0.0478   3.00    0.0
2018/11/05 09:35:30.000  -74.370506623  163.307884036  1012.4771   6   6   0.0469   0.0338   0.1619   0.0086  -0.0340  -0.0641   3.00    0.0
2018/11/05 09:35:45.000  -74.370506348  163.307884527  1012.4944   6   6   0.0575   0.0402   0.2001   0.0132  -0.0396  -0.0815   3.00    0.0
2018/11/05 09:36:00.000  -74.370506261  163.307884859  1012.5784   6   6   0.0684   0.0471   0.2398   0.0173  -0.0461  -0.0989   3.00    0.0
2018/11/05 09:36:15.000  -74.370506098  163.307884851  1012.6432   6   6   0.0795   0.0542   0.2803   0.0211  -0.0533  -0.1164   3.00    0.0
2018/11/05 09:36:30.000  -74.370505823  163.307885071  1012.6757   6   6   0.0908   0.0613   0.3213   0.0249  -0.0608  -0.1341   3.00    0.0
2018/11/05 09:36:45.000  -74.370505664  163.307885696  1012.7535   6   6   0.1021   0.0683   0.3629   0.0287  -0.0687  -0.1522   3.00    0.0
2018/11/05 09:37:00.000  -74.370505390  163.307886237  1012.7495   6   6   0.1134   0.0753   0.4050   0.0327  -0.0766  -0.1705   3.00    0.0
2018/11/05 09:37:15.000  -74.370505166  163.307886403  1012.7227   6   6   0.1248   0.0823   0.4476   0.0368  -0.0847  -0.1890   3.00    0.0
2018/11/05 09:37:30.000  -74.370505262  163.307885948  1012.8219   6   6   0.1362   0.0892   0.4907   0.0410  -0.0929  -0.2077   3.00    0.0
2018/11/05 09:37:45.000  -74.370505346  163.307885842  1012.7906   6   6   0.1244   0.0821   0.4508   0.0362  -0.0836  -0.1894   3.00    0.0
2018/11/05 09:38:00.000  -74.370505359  163.307885964  1012.6653   6   6   0.1127   0.0751   0.4100   0.0321  -0.0757  -0.1708   3.00    0.0
2018/11/05 09:38:15.000  -74.370505510  163.307885772  1012.6331   6   6   0.1011   0.0680   0.3691   0.0281  -0.0679  -0.1523   3.00    0.0
2018/11/05 09:38:30.000  -74.370505808  163.307885362  1012.6661   6   6   0.0896   0.0609   0.3281   0.0242  -0.0601  -0.1340   3.00    0.0
2018/11/05 09:38:45.000  -74.370505918  163.307885013  1012.5865   6   6   0.0782   0.0538   0.2872   0.0203  -0.0523  -0.1160   3.00    0.0
2018/11/05 09:39:00.000  -74.370506210  163.307884688  1012.5539   6   6   0.0670   0.0468   0.2464   0.0163  -0.0448  -0.0982   3.00    0.0
2018/11/05 09:39:15.000  -74.370506633  163.307884576  1012.5965   6   6   0.0561   0.0398   0.2061   0.0119  -0.0377  -0.0806   3.00    0.0
2018/11/05 09:39:30.000  -74.370506908  163.307884323  1012.5811   6   6   0.0457   0.0334   0.1675   0.0062  -0.0310  -0.0632   3.00    0.0
2018/11/05 09:39:45.000  -74.370506989  163.307883969  1012.5430   6   6   0.0370   0.0284   0.1345  -0.0063  -0.0256  -0.0472   3.00    0.0
2018/11/05 09:40:00.000  -74.370507001  163.307884091  1012.5966   6   6   0.0325   0.0261   0.1173  -0.0089  -0.0227  -0.0380   3.00    0.0
2018/11/05 09:40:15.000  -74.370506837  163.307884508  1012.5910   6   6   0.0368   0.0287   0.1344  -0.0076  -0.0234  -0.0467   3.00    0.0
2018/11/05 09:40:30.000  -74.370506743  163.307884923  1012.6094   6   6   0.0449   0.0338   0.1658   0.0035  -0.0283  -0.0612   3.00    0.0
2018/11/05 09:40:45.000  -74.370506617  163.307885889  1012.6546   6   6   0.0546   0.0401   0.2029   0.0105  -0.0352  -0.0771   3.00    0.0
2018/11/05 09:41:00.000  -74.370506163  163.307886497  1012.5850   6   6   0.0649   0.0469   0.2426   0.0152  -0.0430  -0.0936   3.00    0.0
2018/11/05 09:41:15.000  -74.370506215  163.307885854  1012.8467   6   7   0.0600   0.0494   0.1918  -0.0246   0.0429  -0.0514   3.00    0.0
2018/11/05 09:41:30.000  -74.370505788  163.307886792  1012.8795   6   7   0.0668   0.0556   0.2133  -0.0274   0.0489  -0.0542   3.00    0.0
2018/11/05 09:41:45.000  -74.370505492  163.307887121  1012.9032   6   7   0.0739   0.0619   0.2361  -0.0304   0.0550  -0.0581   3.00    0.0
2018/11/05 09:42:00.000  -74.370505335  163.307887485  1012.9098   6   7   0.0809   0.0681   0.2595  -0.0334   0.0615  -0.0625   3.00    0.0
2018/11/05 09:42:15.000  -74.370505288  163.307887741  1012.9410   6   7   0.0881   0.0743   0.2834  -0.0365   0.0681  -0.0672   2.00    0.0
2018/11/05 09:42:30.000  -74.370505344  163.307887672  1012.9456   6   7   0.0952   0.0805   0.3077  -0.0395   0.0751  -0.0723   2.00    0.0
2018/11/05 09:42:45.000  -74.370505514  163.307887330  1012.8834   6   7   0.0881   0.0742   0.2837  -0.0364   0.0677  -0.0656   2.00    0.0
2018/11/05 09:43:00.000  -74.370505488  163.307887045  1012.8146   6   7   0.0806   0.0679   0.2601  -0.0333   0.0612  -0.0594   2.00    0.0
2018/11/05 09:43:15.000  -74.370505411  163.307886234  1012.7430   6   7   0.0732   0.0616   0.2365  -0.0302   0.0548  -0.0535   2.00    0.0
2018/11/05 09:43:30.000  -74.370505577  163.307885533  1012.7001   6   7   0.0657   0.0553   0.2129  -0.0271   0.0486  -0.0478   2.00    0.0
2018/11/05 09:43:45.000  -74.370505994  163.307885476  1012.6947   6   7   0.0583   0.0490   0.1894  -0.0240   0.0425  -0.0424   2.00    0.0
2018/11/05 09:44:00.000  -74.370506294  163.307885269  1012.6627   6   7   0.0510   0.0429   0.1663  -0.0212   0.0366  -0.0375   2.00    0.0
2018/11/05 09:44:15.000  -74.370506576  163.307885506  1012.7001   6   7   0.0439   0.0370   0.1442  -0.0185   0.0308  -0.0330   2.00    0.0
2018/11/05 09:44:30.000  -74.370506850  163.307885398  1012.7394   6   7   0.0375   0.0317   0.1243  -0.0163   0.0252  -0.0291   2.00    0.0
2018/11/05 09:44:45.000  -74.370507094  163.307885319  1012.7535   6   7   0.0323   0.0276   0.1088  -0.0147   0.0206  -0.0258   2.00    0.0
2018/11/05 09:45:00.000  -74.370507161  163.307885216  1012.7257   6   7   0.0297   0.0258   0.1019  -0.0142   0.0189  -0.0239   2.00    0.0
2018/11/05 09:45:15.000  -74.370507081  163.307885558  1012.7322   6   7   0.0322   0.0281   0.1099  -0.0150   0.0230  -0.0257   2.00    0.0
2018/11/05 09:45:30.000  -74.370506839  163.307885751  1012.7990   6   7   0.0371   0.0323   0.1251  -0.0165   0.0278  -0.0279   2.00    0.0
2018/11/05 09:45:45.000  -74.370506451  163.307885695  1012.8012   6   7   0.0432   0.0375   0.1443  -0.0185   0.0327  -0.0302   2.00    0.0
2018/11/05 09:46:00.000  -74.370506178  163.307885954  1012.8691   6   7   0.0499   0.0431   0.1659  -0.0208   0.0379  -0.0328   2.00    0.0
2018/11/05 09:46:15.000  -74.370505942  163.307886031  1012.8095   6   7   0.0569   0.0490   0.1891  -0.0235   0.0435  -0.0360   2.00    0.0
2018/11/05 09:46:30.000  -74.370505830  163.307886062  1012.7528   6   7   0.0640   0.0551   0.2134  -0.0263   0.0495  -0.0400   3.00    0.0
2018/11/05 09:46:45.000  -74.370505753  163.307886751  1012.7894   6   7   0.0711   0.0611   0.2385  -0.0292   0.0559  -0.0446   3.00    0.0
2018/11/05 09:47:00.000  -74.370505686  163.307887701  1012.8975   6   7   0.0783   0.0672   0.2643  -0.0321   0.0626  -0.0498   3.00    0.0
2018/11/05 09:47:15.000  -74.370505661  163.307888135  1012.9380   6   7   0.0856   0.0733   0.2906  -0.0350   0.0697  -0.0554   3.00    0.0
2018/11/05 09:47:30.000  -74.370505735  163.307888357  1012.8873   6   7   0.0929   0.0794   0.3173  -0.0380   0.0769  -0.0612   3.00    0.0
2018/11/05 09:47:45.000  -74.370505909  163.307888171  1012.8681   6   7   0.0854   0.0730   0.2920  -0.0347   0.0698  -0.0548   3.00    0.0
2018/11/05 09:48:00.000  -74.370506021  163.307887978  1012.7741   6   7   0.0781   0.0669   0.2671  -0.0316   0.0628  -0.0489   3.00    0.0
2018/11/05 09:48:15.000  -74.370506086  163.307887198  1012.7883   6   7   0.0708   0.0607   0.2422  -0.0285   0.0561  -0.0433   3.00    0.0
2018/11/05 09:48:30.000  -74.370506170  163.307886423  1012.7983   6   7   0.0636   0.0546   0.2176  -0.0256   0.0497  -0.0382   3.00    0.0
2018/11/05 09:48:45.000  -74.370506298  163.307885751  1012.7393   6   7   0.0564   0.0485   0.1933  -0.0227   0.0437  -0.0337   3.00    0.0
2018/11/05 09:49:00.000  -74.370506559  163.307885571  1012.7089   6   7   0.0494   0.0426   0.1699  -0.0200   0.0383  -0.0301   3.00    0.0
2018/11/05 09:49:15.000  -74.370506860  163.307886152  1012.6773   6   7   0.0426   0.0370   0.1479  -0.0177   0.0335  -0.0272   3.00    0.0
2018/11/05 09:49:30.000  -74.370507164  163.307886037  1012.7585   6   7   0.0364   0.0321   0.1285  -0.0159   0.0295  -0.0251   3.00    0.0
2018/11/05 09:49:45.000  -74.370507115  163.307886173  1012.7404   6   7   0.0316   0.0284   0.1138  -0.0148   0.0268  -0.0232   3.00    0.0
2018/11/05 09:50:00.000  -74.370507147  163.307885584  1012.7329   6   7   0.0292   0.0268   0.1071  -0.0144   0.0259  -0.0220   3.00    0.0
2018/11/05 09:50:15.000  -74.370506986  163.307885967  1012.7494   6   7   0.0314   0.0290   0.1142  -0.0148   0.0278  -0.0228   3.00    0.0
2018/11/05 09:50:30.000  -74.370506838  163.307886163  1012.7735   6   7   0.0361   0.0328   0.1289  -0.0157   0.0307  -0.0239   3.00    0.0
2018/11/05 09:50:45.000  -74.370506777  163.307886685  1012.7460   6   7   0.0421   0.0376   0.1486  -0.0173   0.0344  -0.0253   3.00    0.0
2018/11/05 09:51:00.000  -74.370506816  163.307887489  1012.8114   6   7   0.0486   0.0430   0.1714  -0.0194   0.0389  -0.0274   3.00    0.0
2018/11/05 09:51:15.000  -74.370506418  163.307887698  1012.8275   6   7   0.0555   0.0486   0.1962  -0.0219   0.0442  -0.0307   3.00    0.0
2018/11/05 09:51:30.000  -74.370506172  163.307887887  1012.8540   6   7   0.0625   0.0545   0.2224  -0.0245   0.0502  -0.0349   3.00    0.0
2018/11/05 09:51:45.000  -74.370506067  163.307888357  1012.8592   6   7   0.0696   0.0603   0.2495  -0.0272   0.0566  -0.0398   3.00    0.0
2018/11/05 09:52:00.000  -74.370505867  163.307888029  1012.8264   6   7   0.0768   0.0663   0.2774  -0.0299   0.0635  -0.0453   3.00    0.0
2018/11/05 09:52:15.000  -74.370505776  163.307888194  1012.8159   6   7   0.0840   0.0722   0.3059  -0.0327   0.0705  -0.0511   3.00    0.0
2018/11/05 09:52:30.000  -74.370505859  163.307888592  1012.8068   6   7   0.0912   0.0782   0.3349  -0.0354   0.0778  -0.0571   3.00    0.0
2018/11/05 09:52:45.000  -74.370505953  163.307889298  1012.7026   6   7   0.0840   0.0723   0.3095  -0.0326   0.0713  -0.0515   3.00    0.0
2018/11/05 09:53:00.000  -74.370505913  163.307889362  1012.6208   6   7   0.0767   0.0663   0.2823  -0.0297   0.0641  -0.0452   3.00    0.0
2018/11/05 09:53:15.000  -74.370506135  163.307889533  1012.6775   6   7   0.0695   0.0603   0.2552  -0.0268   0.0572  -0.0392   3.00    0.0
2018/11/05 09:53:30.000  -74.370506218  163.307889228  1012.6601   6   7   0.0623   0.0543   0.2284  -0.0240   0.0506  -0.0336   3.00    0.0
2018/11/05 09:53:45.000  -74.370506317  163.307888825  1012.6991   6   7   0.0552   0.0485   0.2022  -0.0213   0.0445  -0.0289   3.00    0.0
2018/11/05 09:54:00.000  -74.370506448  163.307888059  1012.7276   6   7   0.0483   0.0429   0.1770  -0.0187   0.0391  -0.0251   3.00    0.0
2018/11/05 09:54:15.000  -74.370506583  163.307887430  1012.7567   6   7   0.0417   0.0376   0.1534  -0.0166   0.0345  -0.0226   3.00    0.0
2018/11/05 09:54:30.000  -74.370506815  163.307886440  1012.7419   6   7   0.0357   0.0330   0.1328  -0.0149   0.0309  -0.0212   3.00    0.0
2018/11/05 09:54:45.000  -74.370506958  163.307885926  1012.7512   6   7   0.0310   0.0296   0.1174  -0.0138   0.0285  -0.0201   3.00    0.0
2018/11/05 09:55:00.000  -74.370507105  163.307886624  1012.7150   6   7   0.0287   0.0282   0.1106  -0.0133   0.0270  -0.0194   3.00    0.0
2018/11/05 09:55:15.000  -74.370507103  163.307887498  1012.5724   6   7   0.0313   0.0306   0.1218  -0.0122   0.0245  -0.0233   3.00    0.0
2018/11/05 09:55:30.000  -74.370506858  163.307888314  1012.3964   6   7   0.0369   0.0356   0.1467  -0.0086   0.0129  -0.0322   3.00    0.0
2018/11/05 09:55:45.000  -74.370506892  163.307888627  1012.4968   6   7   0.0443   0.0399   0.1812  -0.0100   0.0170  -0.0446   2.00    0.0
2018/11/05 09:56:00.000  -74.370506286  163.307889864  1012.3213   6   7   0.0518   0.0467   0.2154   0.0041  -0.0217  -0.0546   2.00    0.0
2018/11/05 09:56:15.000  -74.370506253  163.307890210  1012.5084   6   7   0.0620   0.0531   0.2678   0.0132  -0.0379  -0.0762   2.00    0.0
2018/11/05 09:56:30.000  -74.370506425  163.307890817  1012.8224   6   7   0.0681   0.0575   0.2890   0.0042  -0.0235  -0.0775   2.00    0.0
2018/11/05 09:56:45.000  -74.370505858  163.307891857  1012.6232   6   7   0.0758   0.0649   0.3251   0.0129  -0.0384  -0.0870   2.00    0.0
2018/11/05 09:57:00.000  -74.370506637  163.307890368  1013.0737   6   7   0.0784   0.0660   0.3139  -0.0245   0.0562  -0.0644   2.00    0.0
2018/11/05 09:57:15.000  -74.370506314  163.307890837  1012.9123   6   7   0.0846   0.0717   0.3371  -0.0277   0.0647  -0.0631   2.00    0.0
2018/11/05 09:57:30.000  -74.370506178  163.307891230  1012.8277   6   7   0.0913   0.0775   0.3643  -0.0305   0.0726  -0.0649   2.00    0.0
2018/11/05 09:57:45.000  -74.370506161  163.307890757  1012.8305   6   7   0.0836   0.0712   0.3304  -0.0279   0.0656  -0.0562   2.00    0.0
2018/11/05 09:58:00.000  -74.370506261  163.307890362  1012.7642   6   7   0.0761   0.0652   0.2989  -0.0256   0.0596  -0.0479   2.00    0.0
2018/11/05 09:58:15.000  -74.370506436  163.307889980  1012.8019   6   7   0.0687   0.0593   0.2679  -0.0234   0.0537  -0.0399   2.00    0.0
2018/11/05 09:58:30.000  -74.370506600  163.307889174  1012.8451   6   7   0.0614   0.0536   0.2375  -0.0212   0.0482  -0.0322   2.00    0.0
2018/11/05 09:58:45.000  -74.370506653  163.307887760  1012.8495   6   7   0.0542   0.0481   0.2077  -0.0190   0.0433  -0.0250   2.00    0.0
2018/11/05 09:59:00.000  -74.370506696  163.307887433  1012.7765   6   7   0.0473   0.0428   0.1790  -0.0170   0.0391  -0.0183   1.00    0.0
2018/11/05 09:59:15.000  -74.370506886  163.307886814  1012.6750   6   7   0.0406   0.0379   0.1520  -0.0153   0.0359  -0.0123   1.00    0.0
2018/11/05 09:59:30.000  -74.370506996  163.307886087  1012.6490   6   7   0.0346   0.0337   0.1283  -0.0141   0.0340  -0.0070   1.00    0.0
2018/11/05 09:59:45.000  -74.370507098  163.307885899  1012.6234   6   7   0.0299   0.0307   0.1108  -0.0134   0.0335  -0.0019   1.00    0.0
2018/11/05 10:00:00.000  -74.370507153  163.307886537  1012.7139   6   7   0.0278   0.0297   0.1049  -0.0134   0.0344   0.0018   1.00    0.0
2018/11/05 10:00:15.000  -74.370507247  163.307886934  1012.7672   6   7   0.0298   0.0316   0.1177  -0.0135   0.0371  -0.0048   2.00    0.0
2018/11/05 10:00:30.000  -74.370507215  163.307887248  1012.7574   6   7   0.0342   0.0352   0.1407  -0.0142   0.0414  -0.0081   2.00    0.0
2018/11/05 10:00:45.000  -74.370507081  163.307887896  1012.7597   6   7   0.0399   0.0400   0.1684  -0.0155   0.0469  -0.0121   2.00    0.0
2018/11/05 10:01:00.000  -74.370506919  163.307889044  1012.6472   6   7   0.0463   0.0454   0.1990  -0.0173   0.0537  -0.0173   2.00    0.0
2018/11/05 10:01:15.000  -74.370506777  163.307889546  1012.6379   6   7   0.0530   0.0512   0.2322  -0.0195   0.0619  -0.0236   2.00    0.0
2018/11/05 10:01:30.000  -74.370506611  163.307890371  1012.7085   6   7   0.0599   0.0576   0.2685  -0.0221   0.0718  -0.0308   2.00    0.0
2018/11/05 10:01:45.000  -74.370506221  163.307890953  1012.7368   6   7   0.0669   0.0646   0.3093  -0.0251   0.0845  -0.0391   2.00    0.0
2018/11/05 10:02:00.000  -74.370505875  163.307891067  1012.8373   6   7   0.0741   0.0729   0.3594  -0.0289   0.1026  -0.0498   2.00    0.0
2018/11/05 10:02:15.000  -74.370505616  163.307888823  1012.4896   6   7   0.0818   0.0761   0.3831  -0.0325   0.1014  -0.0612   0.00    0.0
2018/11/05 10:02:30.000  -74.370505640  163.307889172  1012.5718   6   7   0.0888   0.0803   0.4010  -0.0332   0.0999  -0.0610   0.00    0.0
2018/11/05 10:02:45.000  -74.370505632  163.307889611  1012.5675   6   7   0.0815   0.0736   0.3609  -0.0300   0.0867  -0.0520   0.00    0.0
2018/11/05 10:03:00.000  -74.370505744  163.307889385  1012.4712   6   7   0.0742   0.0669   0.3222  -0.0270   0.0751  -0.0438   0.00    0.0
2018/11/05 10:03:15.000  -74.370505882  163.307889423  1012.5177   6   7   0.0671   0.0606   0.2855  -0.0243   0.0649  -0.0362   1.00    0.0
2018/11/05 10:03:30.000  -74.370506115  163.307889063  1012.5311   6   7   0.0600   0.0545   0.2501  -0.0217   0.0556  -0.0290   2.00    0.0
2018/11/05 10:03:45.000  -74.370506325  163.307888755  1012.5557   6   7   0.0532   0.0486   0.2157  -0.0194   0.0472  -0.0222   2.00    0.0
2018/11/05 10:04:00.000  -74.370506399  163.307887978  1012.6443   6   7   0.0465   0.0431   0.1822  -0.0173   0.0397  -0.0155   2.00    0.0
2018/11/05 10:04:15.000  -74.370506559  163.307887342  1012.6971   6   7   0.0401   0.0380   0.1500  -0.0155   0.0334  -0.0088   2.00    0.0
2018/11/05 10:04:30.000  -74.370506923  163.307887419  1012.6863   6   7   0.0344   0.0335   0.1199  -0.0141   0.0286   0.0051   2.00    0.0
2018/11/05 10:04:45.000  -74.370507145  163.307887565  1012.6746   6   7   0.0299   0.0303   0.0948  -0.0132   0.0255   0.0096   2.00    0.0
2018/11/05 10:05:00.000  -74.370507168  163.307887516  1012.6839   6   7   0.0281   0.0288   0.0820  -0.0127   0.0243   0.0118   2.00    0.0
2018/11/05 10:05:15.000  -74.370507184  163.307887860  1012.6612   6   7   0.0302   0.0306   0.0944  -0.0122   0.0253   0.0105   2.00    0.0
2018/11/05 10:05:30.000  -74.370506938  163.307888523  1012.5928   6   7   0.0348   0.0341   0.1179  -0.0117   0.0264   0.0083   2.00    0.0
2018/11/05 10:05:45.000  -74.370506721  163.307889448  1012.5782   6   7   0.0411   0.0390   0.1457  -0.0099   0.0273  -0.0057   2.00    0.0
2018/11/05 10:06:00.000  -74.370506729  163.307889763  1012.5776   6   7   0.0481   0.0444   0.1754  -0.0077   0.0289  -0.0141   2.00    0.0
2018/11/05 10:06:15.000  -74.370506852  163.307889652  1012.6570   6   7   0.0530   0.0479   0.2046  -0.0160   0.0364  -0.0069   2.00    0.0
2018/11/05 10:06:30.000  -74.370506683  163.307889997  1012.6974   6   7   0.0595   0.0530   0.2351  -0.0181   0.0414  -0.0108   2.00    0.0
2018/11/05 10:06:45.000  -74.370506521  163.307890336  1012.6648   6   7   0.0663   0.0583   0.2662  -0.0201   0.0465  -0.0157   2.00    0.0
2018/11/05 10:07:00.000  -74.370506462  163.307891099  1012.4746   6   7   0.0733   0.0638   0.2977  -0.0219   0.0518  -0.0204   2.00    0.0
2018/11/05 10:07:15.000  -74.370506364  163.307891723  1012.4303   6   7   0.0803   0.0693   0.3294  -0.0238   0.0571  -0.0248   3.00    0.0
2018/11/05 10:07:30.000  -74.370506242  163.307892246  1012.3950   6   7   0.0875   0.0749   0.3613  -0.0256   0.0624  -0.0289   2.00    0.0
2018/11/05 10:07:45.000  -74.370506249  163.307892396  1012.4258   6   7   0.0806   0.0692   0.3293  -0.0238   0.0561  -0.0208   3.00    0.0
2018/11/05 10:08:00.000  -74.370506233  163.307892408  1012.4126   6   7   0.0734   0.0635   0.2973  -0.0219   0.0501  -0.0128   3.00    0.0
2018/11/05 10:08:15.000  -74.370506163  163.307892263  1012.5363   6   8   0.0641   0.0564   0.2354  -0.0131   0.0603  -0.0453   3.00    0.0
2018/11/05 10:08:30.000  -74.370506180  163.307893050  1012.7020   6   8   0.0573   0.0511   0.2056  -0.0121   0.0536  -0.0392   3.00    0.0
2018/11/05 10:08:45.000  -74.370506317  163.307892832  1012.7459   6   8   0.0508   0.0460   0.1787  -0.0115   0.0470  -0.0320   3.00    0.0
2018/11/05 10:09:00.000  -74.370506491  163.307891704  1012.6872   6   8   0.0445   0.0413   0.1532  -0.0112   0.0408  -0.0245   4.00    0.0
2018/11/05 10:09:15.000  -74.370506643  163.307890536  1012.6235   6   8   0.0385   0.0369   0.1291  -0.0112   0.0354  -0.0165   4.00    0.0
2018/11/05 10:09:30.000  -74.370507511  163.307888037  1012.7082   1   8   0.0377   0.0314   0.1143  -0.0178   0.0255  -0.0252   2.00    1.0
2018/11/05 10:09:45.000  -74.370507556  163.307887670  1012.6856   1   8   0.0322   0.0269   0.0866  -0.0177   0.0151  -0.0167   2.00    1.0
2018/11/05 10:10:00.000  -74.370507732  163.307887322  1012.7028   1   8   0.0297   0.0250   0.0721  -0.0176   0.0082  -0.0115   2.00    1.0
2018/11/05 10:10:15.000  -74.370507823  163.307887240  1012.7106   1   8   0.0323   0.0272   0.0879  -0.0177   0.0139  -0.0150   2.00    1.0
2018/11/05 10:10:30.000  -74.370507110  163.307889595  1012.5867   6   8   0.0334   0.0336   0.1098  -0.0119   0.0302   0.0099   2.00    0.0
2018/11/05 10:10:45.000  -74.370507036  163.307890228  1012.5698   6   8   0.0388   0.0373   0.1333  -0.0120   0.0329  -0.0029   2.00    0.0
2018/11/05 10:11:00.000  -74.370506937  163.307890804  1012.5485   6   8   0.0448   0.0417   0.1590  -0.0125   0.0362  -0.0118   3.00    0.0
2018/11/05 10:11:15.000  -74.370506772  163.307891711  1012.5069   6   8   0.0513   0.0465   0.1870  -0.0137   0.0394  -0.0154   4.00    0.0
2018/11/05 10:11:30.000  -74.370506689  163.307892504  1012.4535   6   8   0.0585   0.0519   0.2207  -0.0165   0.0395  -0.0027   3.00    0.0
2018/11/05 10:11:45.000  -74.370506572  163.307892769  1012.5454   6   8   0.0632   0.0557   0.2330  -0.0106   0.0558  -0.0404   2.00    0.0
2018/11/05 10:12:00.000  -74.370506570  163.307893102  1012.5148   6   8   0.0697   0.0608   0.2562  -0.0098   0.0627  -0.0488   3.00    0.0
2018/11/05 10:12:15.000  -74.370506469  163.307892839  1012.5211   6   8   0.0764   0.0660   0.2810  -0.0089   0.0695  -0.0562   3.00    0.0
2018/11/05 10:12:30.000  -74.370506409  163.307892707  1012.5398   6   8   0.0831   0.0712   0.3065  -0.0075   0.0762  -0.0633   3.00    0.0
2018/11/05 10:12:45.000  -74.370506461  163.307892367  1012.5598   6   8   0.0766   0.0663   0.2816  -0.0079   0.0705  -0.0574   3.00    0.0
2018/11/05 10:13:00.000  -74.370506528  163.307892271  1012.5571   6   8   0.0698   0.0610   0.2549  -0.0080   0.0634  -0.0502   3.00    0.0
2018/11/05 10:13:15.000  -74.370506422  163.307892189  1012.5885   6   8   0.0631   0.0558   0.2285  -0.0082   0.0567  -0.0431   3.00    0.0
2018/11/05 10:13:30.000  -74.370506519  163.307892129  1012.6596   6   8   0.0566   0.0507   0.2025  -0.0085   0.0502  -0.0361   3.00    0.0
2018/11/05 10:13:45.000  -74.370506803  163.307891905  1012.7256   6   8   0.0502   0.0459   0.1770  -0.0089   0.0442  -0.0292   3.00    0.0
2018/11/05 10:14:00.000  -74.370507009  163.307891294  1012.7502   6   8   0.0440   0.0414   0.1521  -0.0095   0.0389  -0.0223   3.00    0.0
2018/11/05 10:14:15.000  -74.370506950  163.307891178  1012.7592   6   8   0.0382   0.0373   0.1283  -0.0101   0.0343  -0.0153   3.00    0.0
2018/11/05 10:14:30.000  -74.370507098  163.307890499  1012.6988   6   8   0.0331   0.0338   0.1062  -0.0108   0.0308  -0.0063   3.00    0.0
2018/11/05 10:14:45.000  -74.370507251  163.307890128  1012.6942   6   8   0.0291   0.0313   0.0879  -0.0114   0.0286   0.0098   3.00    0.0
2018/11/05 10:15:00.000  -74.370507221  163.307889151  1012.6559   6   9   0.0270   0.0299   0.0762  -0.0118   0.0268   0.0115   3.00    0.0
2018/11/05 10:15:15.000  -74.370507059  163.307890124  1012.6768   6   9   0.0288   0.0312   0.0852  -0.0116   0.0274   0.0059   3.00    0.0
2018/11/05 10:15:30.000  -74.370506628  163.307890815  1012.5919   6   9   0.0326   0.0335   0.1009  -0.0114   0.0277  -0.0130   3.00    0.0
2018/11/05 10:15:45.000  -74.370506390  163.307891654  1012.5727   6   9   0.0374   0.0365   0.1195  -0.0114   0.0282  -0.0215   3.00    0.0
2018/11/05 10:16:00.000  -74.370506227  163.307892207  1012.5675   6   9   0.0429   0.0400   0.1397  -0.0118   0.0289  -0.0292   3.00    0.0
2018/11/05 10:16:15.000  -74.370506194  163.307892287  1012.5688   6   9   0.0487   0.0438   0.1607  -0.0124   0.0301  -0.0368   3.00    0.0
2018/11/05 10:16:30.000  -74.370505976  163.307892206  1012.5310   6   9   0.0547   0.0478   0.1823  -0.0130   0.0318  -0.0443   3.00    0.0
2018/11/05 10:16:45.000  -74.370506032  163.307892654  1012.5144   6   9   0.0609   0.0521   0.2045  -0.0138   0.0340  -0.0517   3.00    0.0
2018/11/05 10:17:00.000  -74.370506000  163.307893226  1012.5295   6   9   0.0672   0.0566   0.2273  -0.0144   0.0368  -0.0590   3.00    0.0
2018/11/05 10:17:15.000  -74.370505883  163.307893367  1012.5509   6   9   0.0735   0.0613   0.2506  -0.0147   0.0402  -0.0660   3.00    0.0
2018/11/05 10:17:30.000  -74.370505822  163.307893536  1012.5399   6   9   0.0801   0.0662   0.2750  -0.0144   0.0448  -0.0724   3.00    0.0
2018/11/05 10:17:45.000  -74.370505785  163.307893508  1012.5722   6   9   0.0739   0.0623   0.2582  -0.0073   0.0478  -0.0579   3.00    0.0
2018/11/05 10:18:00.000  -74.370505939  163.307893027  1012.4675   6   9   0.0662   0.0570   0.2290  -0.0135   0.0383  -0.0569   3.00    0.0
2018/11/05 10:18:15.000  -74.370505902  163.307893307  1012.4431   6   9   0.0597   0.0520   0.2037  -0.0137   0.0318  -0.0503   3.00    0.0
2018/11/05 10:18:30.000  -74.370506090  163.307893152  1012.5075   6   9   0.0535   0.0475   0.1806  -0.0131   0.0284  -0.0430   3.00    0.0
2018/11/05 10:18:45.000  -74.370506328  163.307892537  1012.5456   6   9   0.0476   0.0434   0.1585  -0.0124   0.0265  -0.0355   3.00    0.0
2018/11/05 10:19:00.000  -74.370506372  163.307891945  1012.5555   6   9   0.0419   0.0396   0.1373  -0.0117   0.0255  -0.0279   3.00    0.0
2018/11/05 10:19:15.000  -74.370506604  163.307891650  1012.5756   6   9   0.0366   0.0362   0.1170  -0.0113   0.0253  -0.0200   3.00    0.0
2018/11/05 10:19:30.000  -74.370506849  163.307891041  1012.6161   6   9   0.0320   0.0333   0.0985  -0.0110   0.0257  -0.0108   3.00    0.0
2018/11/05 10:19:45.000  -74.370507076  163.307890352  1012.6752   6   9   0.0285   0.0312   0.0836  -0.0109   0.0264   0.0089   2.00    0.0
2018/11/05 10:20:00.000  -74.370507136  163.307889417  1012.6360   6   9   0.0269   0.0301   0.0763  -0.0108   0.0266   0.0132   2.00    0.0
2018/11/05 10:20:15.000  -74.370507041  163.307889598  1012.5956   6   9   0.0287   0.0313   0.0861  -0.0099   0.0274   0.0128   3.00    0.0
2018/11/05 10:20:30.000  -74.370506757  163.307889844  1012.5838   6   9   0.0324   0.0337   0.1033  -0.0086   0.0288   0.0095   3.00    0.0
2018/11/05 10:20:45.000  -74.370506608  163.307889855  1012.5205   6   9   0.0363   0.0357   0.1161  -0.0111   0.0232  -0.0192   3.00    0.0
2018/11/05 10:21:00.000  -74.370506443  163.307890519  1012.4898   6   9   0.0415   0.0390   0.1357  -0.0114   0.0223  -0.0267   2.00    0.0
2018/11/05 10:21:15.000  -74.370506390  163.307890917  1012.5192   6   9   0.0470   0.0427   0.1563  -0.0118   0.0220  -0.0337   3.00    0.0
2018/11/05 10:21:30.000  -74.370506613  163.307890883  1012.6197   6  10   0.0481   0.0464   0.1635  -0.0158   0.0285  -0.0134   2.00    0.0
2018/11/05 10:21:45.000  -74.370506559  163.307891482  1012.5410   6  10   0.0525   0.0506   0.1803  -0.0172   0.0305  -0.0087   2.00    0.0
2018/11/05 10:22:00.000  -74.370506499  163.307891776  1012.4665   6  10   0.0572   0.0549   0.1984  -0.0187   0.0328  -0.0079   2.00    0.0
2018/11/05 10:22:15.000  -74.370506407  163.307892174  1012.4496   6  10   0.0620   0.0593   0.2170  -0.0202   0.0354  -0.0092   3.00    0.0
2018/11/05 10:22:30.000  -74.370506227  163.307892513  1012.4080   6  10   0.0670   0.0638   0.2360  -0.0218   0.0382  -0.0112   3.00    0.0
2018/11/05 10:22:45.000  -74.370506274  163.307892429  1012.3782   6  10   0.0620   0.0592   0.2165  -0.0204   0.0351  -0.0069   4.00    0.0
2018/11/05 10:23:00.000  -74.370506269  163.307891811  1012.3629   6  10   0.0569   0.0548   0.1974  -0.0188   0.0323   0.0067   3.00    0.0
2018/11/05 10:23:15.000  -74.370506342  163.307891294  1012.3854   6  10   0.0519   0.0506   0.1785  -0.0174   0.0299   0.0106   2.00    0.0
2018/11/05 10:23:30.000  -74.370506372  163.307891482  1012.4002   6  10   0.0470   0.0466   0.1599  -0.0162   0.0282   0.0123   2.00    0.0
2018/11/05 10:23:45.000  -74.370506513  163.307891568  1012.4562   6  10   0.0423   0.0430   0.1418  -0.0152   0.0274   0.0129   3.00    0.0
2018/11/05 10:24:00.000  -74.370506739  163.307891362  1012.4888   6  10   0.0379   0.0402   0.1250  -0.0148   0.0289   0.0117   3.00    0.0
2018/11/05 10:24:15.000  -74.370506886  163.307890521  1012.5249   6  10   0.0336   0.0357   0.1057  -0.0128   0.0241   0.0143   3.00    0.0
2018/11/05 10:24:30.000  -74.370506994  163.307889944  1012.5627   6  10   0.0299   0.0327   0.0891  -0.0117   0.0230   0.0150   3.00    0.0
2018/11/05 10:24:45.000  -74.370507105  163.307889681  1012.5906   6  10   0.0273   0.0308   0.0761  -0.0110   0.0231   0.0155   3.00    0.0
2018/11/05 10:25:00.000  -74.370507175  163.307889518  1012.5800   6  10   0.0261   0.0299   0.0697  -0.0104   0.0231   0.0161   3.00    0.0
2018/11/05 10:25:15.000  -74.370507092  163.307889669  1012.5444   6  10   0.0273   0.0310   0.0756  -0.0105   0.0227   0.0161   4.00    0.0
2018/11/05 10:25:30.000  -74.370506928  163.307890176  1012.5233   6  10   0.0298   0.0329   0.0879  -0.0108   0.0220   0.0162   3.00    0.0
2018/11/05 10:25:45.000  -74.370506729  163.307890588  1012.5190   6  10   0.0333   0.0355   0.1033  -0.0113   0.0215   0.0167   4.00    0.0
2018/11/05 10:26:00.000  -74.370506473  163.307890837  1012.5029   6  10   0.0373   0.0386   0.1203  -0.0121   0.0216   0.0174   4.00    0.0
2018/11/05 10:26:15.000  -74.370506407  163.307890839  1012.4887   6  10   0.0417   0.0421   0.1382  -0.0130   0.0223   0.0180   4.00    0.0
2018/11/05 10:26:30.000  -74.370506285  163.307890669  1012.4636   6  10   0.0464   0.0459   0.1567  -0.0142   0.0234   0.0184   5.00    0.0
2018/11/05 10:26:45.000  -74.370506206  163.307890899  1012.4602   6  10   0.0511   0.0499   0.1756  -0.0155   0.0249   0.0186   5.00    0.0
2018/11/05 10:27:00.000  -74.370506143  163.307891098  1012.4461   6  10   0.0560   0.0542   0.1949  -0.0168   0.0267   0.0187   5.00    0.0
2018/11/05 10:27:15.000  -74.370506013  163.307891007  1012.3854   6  10   0.0610   0.0585   0.2145  -0.0182   0.0285   0.0186   5.00    0.0
2018/11/05 10:27:30.000  -74.370506087  163.307890784  1012.3880   6  10   0.0661   0.0630   0.2342  -0.0197   0.0304   0.0185   5.00    0.0
2018/11/05 10:27:45.000  -74.370506168  163.307891009  1012.4304   6  10   0.0610   0.0586   0.2154  -0.0182   0.0274   0.0195   5.00    0.0
2018/11/05 10:28:00.000  -74.370506181  163.307891112  1012.4223   6  10   0.0560   0.0542   0.1958  -0.0166   0.0250   0.0198   5.00    0.0
2018/11/05 10:28:15.000  -74.370506187  163.307890858  1012.4136   6  10   0.0511   0.0500   0.1764  -0.0152   0.0230   0.0199   5.00    0.0
2018/11/05 10:28:30.000  -74.370506280  163.307890723  1012.4732   6  10   0.0463   0.0459   0.1572  -0.0139   0.0214   0.0196   5.00    0.0
2018/11/05 10:28:45.000  -74.370506376  163.307890945  1012.5537   6  10   0.0417   0.0421   0.1383  -0.0127   0.0203   0.0190   5.00    0.0
2018/11/05 10:29:00.000  -74.370506490  163.307890823  1012.6047   6  10   0.0373   0.0387   0.1199  -0.0117   0.0197   0.0183   5.00    0.0
2018/11/05 10:29:15.000  -74.370506649  163.307890683  1012.5504   6  10   0.0332   0.0357   0.1023  -0.0110   0.0198   0.0174   5.00    0.0
2018/11/05 10:29:30.000  -74.370506762  163.307890409  1012.5125   6  10   0.0297   0.0332   0.0862  -0.0103   0.0204   0.0165   5.00    0.0
2018/11/05 10:29:45.000  -74.370506961  163.307890008  1012.5698   6  10   0.0272   0.0314   0.0734  -0.0098   0.0211   0.0161   5.00    0.0
2018/11/05 10:30:00.000  -74.370507108  163.307889872  1012.5673   6  10   0.0261   0.0305   0.0675  -0.0092   0.0217   0.0160   5.00    0.0
2018/11/05 10:30:15.000  -74.370506985  163.307890327  1012.5265   6  10   0.0272   0.0316   0.0725  -0.0092   0.0208   0.0165   5.00    0.0
2018/11/05 10:30:30.000  -74.370506944  163.307890720  1012.5050   6  10   0.0297   0.0335   0.0844  -0.0092   0.0198   0.0171   5.00    0.0
2018/11/05 10:30:45.000  -74.370506817  163.307890855  1012.4622   6  10   0.0331   0.0361   0.0998  -0.0098   0.0195   0.0179   5.00    0.0
2018/11/05 10:31:00.000  -74.370506605  163.307890993  1012.4055   6  10   0.0371   0.0393   0.1170  -0.0107   0.0202   0.0187   4.00    0.0
2018/11/05 10:31:15.000  -74.370506524  163.307891256  1012.4105   6  10   0.0415   0.0430   0.1357  -0.0120   0.0222   0.0192   4.00    0.0
2018/11/05 10:31:30.000  -74.370506470  163.307891591  1012.4074   6  11   0.0448   0.0466   0.1494  -0.0089   0.0165   0.0291   4.00    0.0
2018/11/05 10:31:45.000  -74.370506471  163.307891762  1012.3640   6  11   0.0492   0.0508   0.1669  -0.0088   0.0149   0.0330   4.00    0.0
2018/11/05 10:32:00.000  -74.370506443  163.307892107  1012.3911   6  11   0.0537   0.0541   0.1840  -0.0075  -0.0074   0.0371   4.00    0.0
2018/11/05 10:32:15.000  -74.370506463  163.307892456  1012.4448   6  11   0.0584   0.0581   0.2021  -0.0066  -0.0159   0.0408   4.00    0.0
2018/11/05 10:32:30.000  -74.370506382  163.307892029  1012.4442   6  11   0.0631   0.0624   0.2208  -0.0060  -0.0200   0.0444   4.00    0.0
2018/11/05 10:32:45.000  -74.370506376  163.307892058  1012.4444   6  11   0.0584   0.0592   0.2038  -0.0063  -0.0058   0.0411   4.00    0.0
2018/11/05 10:33:00.000  -74.370506439  163.307891733  1012.4541   6  11   0.0537   0.0545   0.1845  -0.0064  -0.0071   0.0378   4.00    0.0
2018/11/05 10:33:15.000  -74.370506336  163.307891292  1012.5296   6  11   0.0491   0.0498   0.1653  -0.0059  -0.0093   0.0348   4.00    0.0
2018/11/05 10:33:30.000  -74.370506365  163.307890941  1012.6061   6  11   0.0445   0.0459   0.1471  -0.0060   0.0013   0.0317   4.00    0.0
2018/11/05 10:33:45.000  -74.370506505  163.307890755  1012.6477   6  11   0.0402   0.0427   0.1300  -0.0064   0.0127   0.0285   4.00    0.0
2018/11/05 10:34:00.000  -74.370506649  163.307890993  1012.6858   6  11   0.0360   0.0389   0.1114  -0.0066   0.0111   0.0257   4.00    0.0
2018/11/05 10:34:15.000  -74.370506815  163.307890861  1012.6906   6  11   0.0322   0.0357   0.0945  -0.0066   0.0122   0.0231   4.00    0.0
2018/11/05 10:34:30.000  -74.370506969  163.307890966  1012.5969   6  11   0.0290   0.0332   0.0794  -0.0067   0.0145   0.0209   4.00    0.0
2018/11/05 10:34:45.000  -74.370506998  163.307890384  1012.5764   6  11   0.0267   0.0313   0.0674  -0.0065   0.0162   0.0193   4.00    0.0
2018/11/05 10:35:00.000  -74.370507043  163.307890044  1012.5439   6  11   0.0257   0.0304   0.0612  -0.0060   0.0169   0.0189   4.00    0.0
2018/11/05 10:35:15.000  -74.370507930  163.307890797  1012.6471   1  11   0.0307   0.0268   0.0719  -0.0125  -0.0194   0.0200   2.00    1.0
2018/11/05 10:35:30.000  -74.370508065  163.307891047  1012.6690   1  11   0.0339   0.0300   0.0894  -0.0122  -0.0215   0.0224   2.00    1.0
2018/11/05 10:35:45.000  -74.370507239  163.307891384  1012.4863   6  11   0.0322   0.0353   0.0911  -0.0031   0.0073   0.0237   4.00    0.0
2018/11/05 10:36:00.000  -74.370507209  163.307891301  1012.5161   6  11   0.0359   0.0380   0.1070   0.0002  -0.0075   0.0264   4.00    0.0
2018/11/05 10:36:15.000  -74.370507057  163.307891425  1012.5309   6  11   0.0400   0.0412   0.1240   0.0032  -0.0135   0.0293   4.00    0.0
2018/11/05 10:36:30.000  -74.370506851  163.307892145  1012.5087   6  11   0.0443   0.0447   0.1419   0.0045  -0.0180   0.0324   4.00    0.0
2018/11/05 10:36:45.000  -74.370506664  163.307892100  1012.4665   6  11   0.0487   0.0484   0.1602   0.0054  -0.0222   0.0356   4.00    0.0
2018/11/05 10:37:00.000  -74.370506614  163.307892284  1012.4490   6  11   0.0533   0.0524   0.1789   0.0063  -0.0261   0.0388   4.00    0.0
2018/11/05 10:37:15.000  -74.370506584  163.307892127  1012.4581   6  11   0.0581   0.0565   0.1978   0.0070  -0.0299   0.0422   4.00    0.0
2018/11/05 10:37:30.000  -74.370506607  163.307892699  1012.4504   6  11   0.0629   0.0608   0.2168   0.0077  -0.0337   0.0456   4.00    0.0
2018/11/05 10:37:45.000  -74.370506584  163.307892803  1012.4619   6  11   0.0581   0.0567   0.1978   0.0071  -0.0300   0.0423   4.00    0.0
2018/11/05 10:38:00.000  -74.370506597  163.307892688  1012.5147   6  11   0.0534   0.0526   0.1788   0.0064  -0.0264   0.0389   4.00    0.0
2018/11/05 10:38:15.000  -74.370506650  163.307892163  1012.5401   6  11   0.0488   0.0487   0.1600   0.0057  -0.0227   0.0355   4.00    0.0
2018/11/05 10:38:30.000  -74.370506748  163.307892048  1012.5525   6  11   0.0443   0.0449   0.1415   0.0049  -0.0188   0.0322   4.00    0.0
2018/11/05 10:38:45.000  -74.370506681  163.307892384  1012.5135   6  11   0.0400   0.0414   0.1235   0.0038  -0.0146   0.0290   4.00    0.0
2018/11/05 10:39:00.000  -74.370506816  163.307892304  1012.4465   6  11   0.0359   0.0382   0.1062   0.0023  -0.0096   0.0259   4.00    0.0
2018/11/05 10:39:15.000  -74.370506893  163.307891816  1012.4253   6  11   0.0322   0.0354   0.0898  -0.0017   0.0028   0.0232   4.00    0.0
2018/11/05 10:39:30.000  -74.370506927  163.307891201  1012.4433   6  11   0.0291   0.0330   0.0751  -0.0030   0.0093   0.0208   4.00    0.0
2018/11/05 10:39:45.000  -74.370506939  163.307890432  1012.4686   6  11   0.0268   0.0311   0.0635  -0.0036   0.0119   0.0192   4.00    0.0
