% program   : RTKLIB ver.2.4.3
% inp file  : _by_type/_obs/shirase/20181106.18o
% inp file  : _by_type/_sp3+clk/igs20262.clk
% inp file  : _by_type/_sp3+clk/igs20262.sp3
% inp file  : _by_type/_nav/shirase/20181106.18n
% obs start : 2018/11/06 00:00:00.0 GPST (week2026 172800.0s)
% obs end   : 2018/11/06 23:59:45.0 GPST (week2026 259185.0s)
% pos mode  : ppp-kinematic
% solution  : combined
% elev mask : 15.0 deg
% dynamics  : off
% tidecorr  : on
% tropo opt : est ztd+grad
% ephemeris : precise
% navi sys  : gps glonass
% antenna1  :                       ( 0.0000  0.0000  0.0000)
%
% (lat/lon/height=WGS84/ellipsoidal,Q=1:fix,2:float,3:sbas,4:dgps,5:single,6:ppp,ns=# of satellites)
%  GPST                  latitude(deg) longitude(deg)  height(m)   Q  ns   sdn(m)   sde(m)   sdu(m)  sdne(m)  sdeu(m)  sdun(m) age(s)  ratio
2018/11/06 00:00:00.000  -74.525911289  163.457822100    26.1325   1   8   0.0233   0.0192   0.0717   0.0051  -0.0185  -0.0262   3.00    1.0
2018/11/06 00:00:15.000  -74.525911350  163.457821773    26.1370   1   8   0.0283   0.0232   0.0912   0.0076  -0.0217  -0.0361   3.00    1.0
2018/11/06 00:00:30.000  -74.525911491  163.457821742    26.1633   1   9   0.0321   0.0292   0.1006  -0.0053  -0.0126  -0.0362   3.00    1.0
2018/11/06 00:00:45.000  -74.525911596  163.457821385    26.1380   1   9   0.0397   0.0371   0.1262  -0.0084  -0.0057  -0.0461   3.00    1.0
2018/11/06 00:01:00.000  -74.525911569  163.457821173    26.1629   6   9   0.0478   0.0458   0.1534  -0.0119   0.0157  -0.0560   0.00    0.0
2018/11/06 00:01:15.000  -74.525911486  163.457821173    26.1140   6   9   0.0562   0.0545   0.1811  -0.0153   0.0232  -0.0659   0.00    0.0
2018/11/06 00:01:30.000  -74.525911364  163.457821065    26.0936   6   9   0.0648   0.0632   0.2092  -0.0187   0.0302  -0.0758   0.00    0.0
2018/11/06 00:01:45.000  -74.525911278  163.457821009    26.0871   6   9   0.0734   0.0720   0.2377  -0.0219   0.0368  -0.0858   1.00    0.0
2018/11/06 00:02:00.000  -74.525911286  163.457820814    26.0555   6   9   0.0820   0.0806   0.2663  -0.0250   0.0431  -0.0958   2.00    0.0
2018/11/06 00:02:15.000  -74.525911202  163.457820703    26.0146   6   9   0.0905   0.0891   0.2948  -0.0280   0.0489  -0.1058   2.00    0.0
2018/11/06 00:02:30.000  -74.525911182  163.457820665    26.0271   6   9   0.0989   0.0973   0.3233  -0.0307   0.0544  -0.1159   3.00    0.0
2018/11/06 00:02:45.000  -74.525911141  163.457820753    26.0019   6   9   0.0925   0.0890   0.3066  -0.0249   0.0413  -0.1142   3.00    0.0
2018/11/06 00:03:00.000  -74.525911092  163.457821101    26.0204   6   9   0.0880   0.0812   0.2980  -0.0132   0.0096  -0.1171   3.00    0.0
2018/11/06 00:03:15.000  -74.525911101  163.457821097    26.0559   6   9   0.0897   0.0747   0.3149   0.0257  -0.0551  -0.1349   3.00    0.0
2018/11/06 00:03:30.000  -74.525911132  163.457821248    26.0203   6   9   0.0647   0.0627   0.2148  -0.0191   0.0321  -0.0786   3.00    0.0
2018/11/06 00:03:45.000  -74.525911273  163.457821186    26.0130   6   9   0.0589   0.0545   0.1992  -0.0112   0.0131  -0.0770   3.00    0.0
2018/11/06 00:04:00.000  -74.525911356  163.457820955    26.0266   6   9   0.0568   0.0473   0.1994   0.0151  -0.0341  -0.0844   3.00    0.0
2018/11/06 00:04:15.000  -74.525911448  163.457821483    26.1067   6   9   0.0462   0.0385   0.1612   0.0116  -0.0275  -0.0675   3.00    0.0
2018/11/06 00:04:30.000  -74.525911452  163.457822167    26.1588   6   9   0.0307   0.0292   0.0994  -0.0093   0.0120  -0.0341   4.00    0.0
2018/11/06 00:04:45.000  -74.525911360  163.457822295    26.1542   6   9   0.0254   0.0230   0.0817  -0.0053  -0.0079  -0.0286   4.00    0.0
2018/11/06 00:05:00.000  -74.525911324  163.457822200    26.1153   6   9   0.0228   0.0197   0.0738   0.0021  -0.0135  -0.0267   4.00    0.0
2018/11/06 00:05:15.000  -74.525911248  163.457822638    26.1066   6   9   0.0250   0.0229   0.0801  -0.0061  -0.0045  -0.0273   4.00    0.0
2018/11/06 00:05:30.000  -74.525911197  163.457822540    26.0838   6   9   0.0312   0.0292   0.1025  -0.0087   0.0108  -0.0361   4.00    0.0
2018/11/06 00:05:45.000  -74.525911154  163.457822581    26.0602   6   9   0.0383   0.0369   0.1277  -0.0117   0.0189  -0.0450   4.00    0.0
2018/11/06 00:06:00.000  -74.525911094  163.457822473    26.0083   6   9   0.0458   0.0450   0.1536  -0.0150   0.0265  -0.0534   4.00    0.0
2018/11/06 00:06:15.000  -74.525911130  163.457822565    25.9675   6   9   0.0533   0.0532   0.1794  -0.0182   0.0338  -0.0614   4.00    0.0
2018/11/06 00:06:30.000  -74.525911097  163.457822417    25.9421   6   9   0.0608   0.0614   0.2049  -0.0214   0.0408  -0.0688   3.00    0.0
2018/11/06 00:06:45.000  -74.525911135  163.457822356    25.9308   6   9   0.0681   0.0695   0.2298  -0.0244   0.0475  -0.0758   3.00    0.0
2018/11/06 00:07:00.000  -74.525911224  163.457821912    25.9346   6   9   0.0753   0.0773   0.2542  -0.0272   0.0540  -0.0824   3.00    0.0
2018/11/06 00:07:15.000  -74.525911230  163.457821417    25.9244   6   9   0.0822   0.0849   0.2780  -0.0300   0.0603  -0.0888   3.00    0.0
2018/11/06 00:07:30.000  -74.525911092  163.457820935    25.8480   6   9   0.0890   0.0922   0.3014  -0.0326   0.0665  -0.0950   3.00    0.0
2018/11/06 00:07:45.000  -74.525911134  163.457821461    25.9164   6   9   0.0827   0.0848   0.2826  -0.0290   0.0589  -0.0922   3.00    0.0
2018/11/06 00:08:00.000  -74.525911190  163.457821150    25.9543   6   9   0.0768   0.0773   0.2656  -0.0246   0.0499  -0.0902   3.00    0.0
2018/11/06 00:08:15.000  -74.525911242  163.457821733    25.9927   6   9   0.0719   0.0699   0.2529  -0.0181   0.0367  -0.0911   3.00    0.0
2018/11/06 00:08:30.000  -74.525911202  163.457822215    26.0119   6   9   0.0704   0.0631   0.2548   0.0107  -0.0216  -0.1009   3.00    0.0
2018/11/06 00:08:45.000  -74.525911129  163.457822779    26.0055   6   9   0.0507   0.0525   0.1730  -0.0213   0.0424  -0.0546   3.00    0.0
2018/11/06 00:09:00.000  -74.525911040  163.457822639    26.0318   6   9   0.0433   0.0444   0.1474  -0.0180   0.0352  -0.0469   3.00    0.0
2018/11/06 00:09:15.000  -74.525911062  163.457822768    26.0711   6   9   0.0362   0.0364   0.1226  -0.0146   0.0275  -0.0395   3.00    0.0
2018/11/06 00:09:30.000  -74.525911074  163.457822626    26.0780   6   9   0.0296   0.0289   0.0991  -0.0111   0.0194  -0.0324   3.00    0.0
2018/11/06 00:09:45.000  -74.525911154  163.457822578    26.0902   6   9   0.0242   0.0227   0.0790  -0.0080   0.0109  -0.0259   3.00    0.0
2018/11/06 00:10:00.000  -74.525911302  163.457822174    26.0935   6   9   0.0212   0.0192   0.0674  -0.0058   0.0030  -0.0217   3.00    0.0
2018/11/06 00:10:15.000  -74.525911366  163.457822085    26.0879   6   9   0.0249   0.0228   0.0828  -0.0068   0.0082  -0.0286   3.00    0.0
2018/11/06 00:10:30.000  -74.525911352  163.457822125    26.0618   6   9   0.0311   0.0291   0.1078  -0.0089   0.0147  -0.0382   3.00    0.0
2018/11/06 00:10:45.000  -74.525911300  163.457821887    26.0566   6   9   0.0385   0.0368   0.1365  -0.0106   0.0201  -0.0487   3.00    0.0
2018/11/06 00:11:00.000  -74.525911305  163.457821813    26.0685   6   9   0.0468   0.0451   0.1683  -0.0109   0.0228  -0.0605   3.00    0.0
2018/11/06 00:11:15.000  -74.525911294  163.457821213    26.0734   6   9   0.0571   0.0539   0.2091  -0.0019   0.0124  -0.0779   3.00    0.0
2018/11/06 00:11:30.000  -74.525911493  163.457820687    26.1615   6   9   0.0562   0.0596   0.1980  -0.0242   0.0519  -0.0584   3.00    0.0
2018/11/06 00:11:45.000  -74.525911436  163.457820217    26.1316   6   9   0.0627   0.0672   0.2210  -0.0267   0.0584  -0.0632   3.00    0.0
2018/11/06 00:12:00.000  -74.525911396  163.457819819    26.0895   6   9   0.0692   0.0745   0.2445  -0.0293   0.0650  -0.0685   3.00    0.0
2018/11/06 00:12:15.000  -74.525911414  163.457819385    26.0498   6   9   0.0756   0.0817   0.2679  -0.0318   0.0717  -0.0741   3.00    0.0
2018/11/06 00:12:30.000  -74.525911320  163.457819310    26.0016   6   9   0.0819   0.0886   0.2913  -0.0345   0.0784  -0.0800   3.00    0.0
2018/11/06 00:12:45.000  -74.525911377  163.457819641    26.0063   6   9   0.0754   0.0816   0.2686  -0.0317   0.0725  -0.0735   3.00    0.0
2018/11/06 00:13:00.000  -74.525911403  163.457819876    26.0433   6   9   0.0688   0.0743   0.2455  -0.0291   0.0664  -0.0675   3.00    0.0
2018/11/06 00:13:15.000  -74.525911343  163.457819741    26.0779   6   9   0.0620   0.0669   0.2219  -0.0265   0.0602  -0.0615   3.00    0.0
2018/11/06 00:13:30.000  -74.525911360  163.457819848    26.0743   6   9   0.0552   0.0594   0.1979  -0.0239   0.0538  -0.0555   3.00    0.0
2018/11/06 00:13:45.000  -74.525911295  163.457820014    26.0652   6   9   0.0483   0.0517   0.1733  -0.0211   0.0471  -0.0493   3.00    0.0
2018/11/06 00:14:00.000  -74.525911297  163.457820662    26.0953   6   9   0.0414   0.0439   0.1481  -0.0183   0.0400  -0.0428   3.00    0.0
2018/11/06 00:14:15.000  -74.525911285  163.457820984    26.1142   6   9   0.0347   0.0361   0.1228  -0.0153   0.0326  -0.0359   3.00    0.0
2018/11/06 00:14:30.000  -74.525911362  163.457821178    26.1506   6   9   0.0283   0.0287   0.0980  -0.0122   0.0248  -0.0287   3.00    0.0
2018/11/06 00:14:45.000  -74.525911356  163.457821493    26.1455   6   9   0.0230   0.0224   0.0762  -0.0095   0.0173  -0.0218   3.00    0.0
2018/11/06 00:15:00.000  -74.525911523  163.457822304    26.1657   6   9   0.0200   0.0190   0.0631  -0.0078   0.0122  -0.0171   3.00    0.0
2018/11/06 00:15:15.000  -74.525911577  163.457822901    26.1708   6   9   0.0227   0.0223   0.0754  -0.0094   0.0174  -0.0212   3.00    0.0
2018/11/06 00:15:30.000  -74.525911583  163.457823138    26.1710   6   9   0.0278   0.0285   0.0969  -0.0121   0.0250  -0.0275   3.00    0.0
2018/11/06 00:15:45.000  -74.525911629  163.457822666    26.1851   6   9   0.0339   0.0358   0.1212  -0.0149   0.0328  -0.0338   3.00    0.0
2018/11/06 00:16:00.000  -74.525911658  163.457822127    26.1779   6  10   0.0397   0.0429   0.1373  -0.0189   0.0446  -0.0348   3.00    0.0
2018/11/06 00:16:15.000  -74.525911695  163.457821511    26.1665   6  10   0.0460   0.0504   0.1603  -0.0217   0.0526  -0.0391   3.00    0.0
2018/11/06 00:16:30.000  -74.525911742  163.457820835    26.1474   6  10   0.0523   0.0578   0.1837  -0.0244   0.0603  -0.0436   3.00    0.0
2018/11/06 00:16:45.000  -74.525911778  163.457820222    26.1584   6  10   0.0587   0.0651   0.2076  -0.0270   0.0678  -0.0487   3.00    0.0
2018/11/06 00:17:00.000  -74.525911864  163.457819687    26.1666   6  10   0.0650   0.0724   0.2330  -0.0295   0.0745  -0.0550   3.00    0.0
2018/11/06 00:17:15.000  -74.525911859  163.457818787    26.1745   6  10   0.0717   0.0800   0.2638  -0.0313   0.0785  -0.0645   3.00    0.0
2018/11/06 00:17:30.000  -74.525911789  163.457819183    26.0990   6  10   0.0774   0.0851   0.2726  -0.0377   0.0968  -0.0646   3.00    0.0
2018/11/06 00:17:45.000  -74.525911639  163.457819460    26.0905   6  10   0.0706   0.0782   0.2480  -0.0345   0.0887  -0.0569   3.00    0.0
2018/11/06 00:18:00.000  -74.525911659  163.457819585    26.0830   6  10   0.0642   0.0713   0.2257  -0.0314   0.0808  -0.0513   3.00    0.0
2018/11/06 00:18:15.000  -74.525911756  163.457819599    26.1082   6  10   0.0579   0.0643   0.2035  -0.0284   0.0728  -0.0462   3.00    0.0
2018/11/06 00:18:30.000  -74.525911752  163.457820250    26.1288   6  10   0.0515   0.0571   0.1813  -0.0254   0.0647  -0.0416   3.00    0.0
2018/11/06 00:18:45.000  -74.525911737  163.457820143    26.0905   6  10   0.0451   0.0498   0.1588  -0.0224   0.0564  -0.0372   3.00    0.0
2018/11/06 00:19:00.000  -74.525911774  163.457820536    26.0835   6  10   0.0387   0.0425   0.1360  -0.0194   0.0480  -0.0327   3.00    0.0
2018/11/06 00:19:15.000  -74.525911781  163.457821451    26.1177   6  10   0.0325   0.0351   0.1132  -0.0164   0.0392  -0.0281   3.00    0.0
2018/11/06 00:19:30.000  -74.525911677  163.457821981    26.1479   6  10   0.0266   0.0280   0.0909  -0.0133   0.0302  -0.0229   3.00    0.0
2018/11/06 00:19:45.000  -74.525911560  163.457822106    26.1271   6  10   0.0217   0.0220   0.0712  -0.0105   0.0216  -0.0177   3.00    0.0
2018/11/06 00:20:00.000  -74.525911520  163.457822159    26.1291   6  10   0.0190   0.0188   0.0596  -0.0085   0.0163  -0.0141   3.00    0.0
2018/11/06 00:20:15.000  -74.525911482  163.457822455    26.1263   6  10   0.0217   0.0220   0.0708  -0.0103   0.0217  -0.0173   3.00    0.0
2018/11/06 00:20:30.000  -74.525911564  163.457822005    26.1144   6  10   0.0263   0.0279   0.0901  -0.0129   0.0300  -0.0217   3.00    0.0
2018/11/06 00:20:45.000  -74.525911521  163.457821293    26.0627   6  10   0.0319   0.0348   0.1120  -0.0157   0.0388  -0.0259   3.00    0.0
2018/11/06 00:21:00.000  -74.525911518  163.457821079    26.0298   6  10   0.0379   0.0420   0.1349  -0.0185   0.0477  -0.0299   3.00    0.0
2018/11/06 00:21:15.000  -74.525911545  163.457820710    26.0607   6  10   0.0441   0.0492   0.1582  -0.0213   0.0565  -0.0342   3.00    0.0
2018/11/06 00:21:30.000  -74.525911560  163.457820335    26.0616   6  10   0.0503   0.0564   0.1818  -0.0243   0.0655  -0.0389   3.00    0.0
2018/11/06 00:21:45.000  -74.525911518  163.457820083    26.0448   6  10   0.0565   0.0635   0.2055  -0.0275   0.0745  -0.0442   3.00    0.0
2018/11/06 00:22:00.000  -74.525911535  163.457819661    26.0213   6  10   0.0628   0.0705   0.2293  -0.0308   0.0837  -0.0502   3.00    0.0
2018/11/06 00:22:15.000  -74.525911525  163.457819524    25.9904   6  10   0.0690   0.0774   0.2532  -0.0343   0.0931  -0.0567   3.00    0.0
2018/11/06 00:22:30.000  -74.525911504  163.457818859    25.9609   6  10   0.0751   0.0842   0.2772  -0.0379   0.1025  -0.0636   3.00    0.0
2018/11/06 00:22:45.000  -74.525911472  163.457818932    25.9649   6  10   0.0692   0.0777   0.2555  -0.0345   0.0943  -0.0576   3.00    0.0
2018/11/06 00:23:00.000  -74.525911512  163.457819359    25.9644   6  10   0.0630   0.0709   0.2327  -0.0312   0.0855  -0.0516   3.00    0.0
2018/11/06 00:23:15.000  -74.525911537  163.457820174    26.0240   6  10   0.0568   0.0639   0.2096  -0.0279   0.0767  -0.0459   3.00    0.0
2018/11/06 00:23:30.000  -74.525911597  163.457820666    26.0720   6  10   0.0505   0.0568   0.1863  -0.0247   0.0678  -0.0406   3.00    0.0
2018/11/06 00:23:45.000  -74.525911623  163.457821041    26.1117   6  10   0.0442   0.0496   0.1628  -0.0216   0.0589  -0.0356   3.00    0.0
2018/11/06 00:24:00.000  -74.525911576  163.457821323    26.1095   6  10   0.0380   0.0424   0.1392  -0.0186   0.0500  -0.0310   3.00    0.0
2018/11/06 00:24:15.000  -74.525911604  163.457822773    26.1686   1  10   0.0360   0.0383   0.1325  -0.0211   0.0502  -0.0396   3.00    1.0
2018/11/06 00:24:30.000  -74.525911492  163.457821785    26.0940   6  10   0.0263   0.0282   0.0930  -0.0130   0.0321  -0.0220   3.00    0.0
2018/11/06 00:24:45.000  -74.525911500  163.457822411    26.1350   6  10   0.0217   0.0222   0.0729  -0.0104   0.0236  -0.0173   3.00    0.0
2018/11/06 00:25:00.000  -74.525911546  163.457822252    26.1340   6  10   0.0190   0.0188   0.0607  -0.0086   0.0180  -0.0140   3.00    0.0
2018/11/06 00:25:15.000  -74.525911505  163.457821689    26.1035   6  10   0.0215   0.0222   0.0723  -0.0102   0.0234  -0.0168   3.00    0.0
2018/11/06 00:25:30.000  -74.525911450  163.457820977    26.0662   6  10   0.0259   0.0280   0.0918  -0.0125   0.0316  -0.0208   3.00    0.0
2018/11/06 00:25:45.000  -74.525911410  163.457821532    26.0591   1  10   0.0361   0.0386   0.1348  -0.0215   0.0513  -0.0406   3.00    1.0
2018/11/06 00:26:00.000  -74.525911293  163.457819689    25.9595   6  10   0.0375   0.0419   0.1383  -0.0180   0.0498  -0.0295   3.00    0.0
2018/11/06 00:26:15.000  -74.525911205  163.457819202    25.9215   6  10   0.0437   0.0491   0.1629  -0.0210   0.0593  -0.0349   3.00    0.0
2018/11/06 00:26:30.000  -74.525911165  163.457818371    25.8232   6  10   0.0499   0.0563   0.1879  -0.0243   0.0690  -0.0410   3.00    0.0
2018/11/06 00:26:45.000  -74.525911237  163.457817950    25.8236   6  10   0.0562   0.0633   0.2132  -0.0278   0.0789  -0.0478   3.00    0.0
2018/11/06 00:27:00.000  -74.525911310  163.457817451    25.8113   6  10   0.0625   0.0703   0.2386  -0.0315   0.0890  -0.0551   3.00    0.0
2018/11/06 00:27:15.000  -74.525911304  163.457817081    25.8058   6  10   0.0687   0.0773   0.2641  -0.0353   0.0991  -0.0629   3.00    0.0
2018/11/06 00:27:30.000  -74.525911303  163.457817363    25.8451   6  10   0.0749   0.0842   0.2898  -0.0392   0.1093  -0.0709   3.00    0.0
2018/11/06 00:27:45.000  -74.525911429  163.457818058    25.9374   6  10   0.0686   0.0769   0.2645  -0.0351   0.0986  -0.0630   3.00    0.0
2018/11/06 00:28:00.000  -74.525911437  163.457818780    25.9690   6  10   0.0624   0.0700   0.2399  -0.0314   0.0889  -0.0558   3.00    0.0
2018/11/06 00:28:15.000  -74.525911556  163.457819713    26.0288   6  10   0.0561   0.0630   0.2152  -0.0278   0.0792  -0.0488   3.00    0.0
2018/11/06 00:28:30.000  -74.525911552  163.457820260    26.0429   6  10   0.0498   0.0559   0.1903  -0.0243   0.0695  -0.0422   3.00    0.0
2018/11/06 00:28:45.000  -74.525911600  163.457820777    26.0544   6  10   0.0435   0.0487   0.1654  -0.0210   0.0598  -0.0361   3.00    0.0
2018/11/06 00:29:00.000  -74.525911582  163.457821386    26.0904   6  10   0.0373   0.0415   0.1406  -0.0179   0.0502  -0.0305   3.00    0.0
2018/11/06 00:29:15.000  -74.525911555  163.457821954    26.1310   6  10   0.0313   0.0344   0.1162  -0.0149   0.0408  -0.0254   3.00    0.0
2018/11/06 00:29:30.000  -74.525911623  163.457822271    26.1545   6  10   0.0258   0.0276   0.0931  -0.0123   0.0318  -0.0209   2.00    0.0
2018/11/06 00:29:45.000  -74.525911643  163.457822458    26.1361   6  11   0.0210   0.0218   0.0713  -0.0100   0.0237  -0.0187   2.00    0.0
2018/11/06 00:30:00.000  -74.525911631  163.457822265    26.1332   6  11   0.0188   0.0187   0.0611  -0.0087   0.0188  -0.0158   2.00    0.0
2018/11/06 00:30:15.000  -74.525911796  163.457822696    26.2104   6  11   0.0212   0.0216   0.0712  -0.0099   0.0234  -0.0191   2.00    0.0
2018/11/06 00:30:30.000  -74.525911889  163.457822965    26.2514   6  11   0.0255   0.0273   0.0895  -0.0119   0.0313  -0.0247   2.00    0.0
2018/11/06 00:30:45.000  -74.525911909  163.457822763    26.2342   6  11   0.0308   0.0340   0.1113  -0.0144   0.0406  -0.0314   2.00    0.0
2018/11/06 00:31:00.000  -74.525912039  163.457822557    26.2833   6  11   0.0367   0.0411   0.1348  -0.0174   0.0503  -0.0388   2.00    0.0
2018/11/06 00:31:15.000  -74.525912036  163.457822107    26.2859   6  11   0.0429   0.0482   0.1594  -0.0208   0.0605  -0.0470   2.00    0.0
2018/11/06 00:31:30.000  -74.525912105  163.457821567    26.2842   6  11   0.0493   0.0553   0.1847  -0.0245   0.0709  -0.0558   2.00    0.0
2018/11/06 00:31:45.000  -74.525912107  163.457820888    26.2796   6  11   0.0558   0.0624   0.2107  -0.0284   0.0815  -0.0652   2.00    0.0
2018/11/06 00:32:00.000  -74.525912020  163.457820482    26.2602   6  11   0.0626   0.0694   0.2374  -0.0326   0.0923  -0.0756   3.00    0.0
2018/11/06 00:32:15.000  -74.525911863  163.457819327    26.1637   6  11   0.0700   0.0765   0.2655  -0.0371   0.1034  -0.0874   2.00    0.0
2018/11/06 00:32:30.000  -74.525911779  163.457818728    26.1346   6  11   0.0794   0.0835   0.2976  -0.0425   0.1154  -0.1036   2.00    0.0
2018/11/06 00:32:45.000  -74.525911845  163.457819245    26.1675   6  11   0.0798   0.0781   0.2950  -0.0442   0.1128  -0.1117   1.00    0.0
2018/11/06 00:33:00.000  -74.525911795  163.457819267    26.1292   6  11   0.0723   0.0710   0.2674  -0.0396   0.1018  -0.1004   2.00    0.0
2018/11/06 00:33:15.000  -74.525911680  163.457819616    26.0872   6  11   0.0571   0.0635   0.2231  -0.0319   0.0873  -0.0725   2.00    0.0
2018/11/06 00:33:30.000  -74.525911654  163.457819698    26.0680   6  11   0.0494   0.0560   0.1926  -0.0267   0.0750  -0.0595   2.00    0.0
2018/11/06 00:33:45.000  -74.525911601  163.457820539    26.0846   6  11   0.0428   0.0488   0.1655  -0.0225   0.0639  -0.0495   2.00    0.0
2018/11/06 00:34:00.000  -74.525911574  163.457820852    26.0728   6  11   0.0365   0.0415   0.1398  -0.0188   0.0533  -0.0407   2.00    0.0
2018/11/06 00:34:15.000  -74.525911542  163.457821018    26.0731   6  11   0.0306   0.0343   0.1152  -0.0155   0.0431  -0.0328   2.00    0.0
2018/11/06 00:34:30.000  -74.525911489  163.457821341    26.0632   6  11   0.0253   0.0275   0.0923  -0.0125   0.0334  -0.0257   2.00    0.0
2018/11/06 00:34:45.000  -74.525911772  163.457822962    26.1611   1  11   0.0215   0.0227   0.0859  -0.0111   0.0314  -0.0304   3.00    1.0
2018/11/06 00:35:00.000  -74.525911870  163.457823031    26.1714   1  11   0.0183   0.0189   0.0728  -0.0082   0.0252  -0.0259   3.00    1.0
2018/11/06 00:35:15.000  -74.525911841  163.457822678    26.1589   1  11   0.0227   0.0228   0.0904  -0.0118   0.0324  -0.0336   3.00    1.0
2018/11/06 00:35:30.000  -74.525911880  163.457822071    26.1092   1  11   0.0310   0.0303   0.1225  -0.0178   0.0455  -0.0477   3.00    1.0
2018/11/06 00:35:45.000  -74.525911683  163.457820038    26.0234   6  11   0.0331   0.0339   0.1200  -0.0155   0.0427  -0.0391   2.00    0.0
2018/11/06 00:36:00.000  -74.525911675  163.457820411    26.0950   6  11   0.0375   0.0417   0.1451  -0.0204   0.0557  -0.0450   2.00    0.0
2018/11/06 00:36:15.000  -74.525911783  163.457820879    26.1890   6  11   0.0426   0.0484   0.1666  -0.0227   0.0644  -0.0503   2.00    0.0
2018/11/06 00:36:30.000  -74.525911822  163.457820615    26.1860   6  11   0.0483   0.0552   0.1906  -0.0259   0.0741  -0.0576   4.00    0.0
2018/11/06 00:36:45.000  -74.525911870  163.457819956    26.1560   6  11   0.0541   0.0621   0.2154  -0.0295   0.0843  -0.0657   4.00    0.0
2018/11/06 00:37:00.000  -74.525911917  163.457818729    26.0973   6  11   0.0600   0.0690   0.2407  -0.0332   0.0947  -0.0743   4.00    0.0
2018/11/06 00:37:15.000  -74.525911923  163.457817692    26.0066   6  11   0.0659   0.0759   0.2662  -0.0371   0.1052  -0.0831   4.00    0.0
2018/11/06 00:37:30.000  -74.525911932  163.457817441    26.0172   6  11   0.0718   0.0828   0.2918  -0.0410   0.1157  -0.0922   4.00    0.0
2018/11/06 00:37:45.000  -74.525911871  163.457818035    26.0377   6  11   0.0656   0.0758   0.2662  -0.0369   0.1053  -0.0829   4.00    0.0
2018/11/06 00:38:00.000  -74.525911899  163.457818399    26.0473   6  11   0.0596   0.0689   0.2406  -0.0329   0.0947  -0.0737   5.00    0.0
2018/11/06 00:38:15.000  -74.525911814  163.457818717    26.0333   6  11   0.0535   0.0619   0.2151  -0.0290   0.0842  -0.0648   5.00    0.0
2018/11/06 00:38:30.000  -74.525911781  163.457819094    26.0450   6  11   0.0475   0.0549   0.1895  -0.0252   0.0737  -0.0560   5.00    0.0
2018/11/06 00:38:45.000  -74.525911778  163.457819616    26.0496   6  11   0.0415   0.0479   0.1642  -0.0215   0.0633  -0.0475   5.00    0.0
2018/11/06 00:39:00.000  -74.525911811  163.457820320    26.1028   6  11   0.0356   0.0408   0.1391  -0.0181   0.0530  -0.0394   5.00    0.0
2018/11/06 00:39:15.000  -74.525911819  163.457820826    26.1157   6  11   0.0299   0.0339   0.1147  -0.0150   0.0431  -0.0318   5.00    0.0
2018/11/06 00:39:30.000  -74.525911808  163.457822507    26.1212   1  11   0.0291   0.0293   0.1127  -0.0171   0.0443  -0.0393   6.00    1.0
2018/11/06 00:39:45.000  -74.525911770  163.457822470    26.1020   1  11   0.0208   0.0220   0.0864  -0.0133   0.0334  -0.0315   6.00    2.0
2018/11/06 00:40:00.000  -74.525911824  163.457822723    26.1446   1  11   0.0174   0.0202   0.0722  -0.0105   0.0273  -0.0267   6.00    1.0
2018/11/06 00:40:15.000  -74.525911823  163.457822908    26.1480   1  11   0.0210   0.0239   0.0869  -0.0130   0.0335  -0.0320   6.00    1.0
2018/11/06 00:40:30.000  -74.525911697  163.457822758    26.1170   1  11   0.0270   0.0308   0.1131  -0.0172   0.0444  -0.0410   6.00    1.0
2018/11/06 00:40:45.000  -74.525911458  163.457820756    26.0498   6  11   0.0295   0.0334   0.1120  -0.0144   0.0418  -0.0302   5.00    0.0
2018/11/06 00:41:00.000  -74.525911485  163.457820464    26.0751   6  11   0.0350   0.0402   0.1358  -0.0173   0.0515  -0.0376   5.00    0.0
2018/11/06 00:41:15.000  -74.525911482  163.457819898    26.0656   6  11   0.0407   0.0470   0.1605  -0.0206   0.0615  -0.0456   5.00    0.0
2018/11/06 00:41:30.000  -74.525911533  163.457819327    26.0779   6  11   0.0465   0.0539   0.1855  -0.0242   0.0717  -0.0540   5.00    0.0
2018/11/06 00:41:45.000  -74.525911526  163.457818691    26.0526   6  11   0.0523   0.0607   0.2108  -0.0279   0.0820  -0.0627   5.00    0.0
2018/11/06 00:42:00.000  -74.525911502  163.457818442    26.0544   6  11   0.0582   0.0675   0.2360  -0.0317   0.0923  -0.0715   5.00    0.0
2018/11/06 00:42:15.000  -74.525911484  163.457817910    26.0319   6  11   0.0640   0.0742   0.2613  -0.0355   0.1026  -0.0804   5.00    0.0
2018/11/06 00:42:30.000  -74.525911378  163.457817125    25.9232   6  11   0.0699   0.0810   0.2866  -0.0393   0.1128  -0.0894   5.00    0.0
2018/11/06 00:42:45.000  -74.525911435  163.457817507    25.9241   6  11   0.0638   0.0741   0.2601  -0.0352   0.1018  -0.0797   5.00    0.0
2018/11/06 00:43:00.000  -74.525911421  163.457817626    25.8839   6  11   0.0578   0.0672   0.2344  -0.0312   0.0913  -0.0706   5.00    0.0
2018/11/06 00:43:15.000  -74.525911503  163.457818273    25.9353   6  11   0.0519   0.0604   0.2090  -0.0273   0.0808  -0.0616   5.00    0.0
2018/11/06 00:43:30.000  -74.525911631  163.457818956    26.0054   6  11   0.0460   0.0535   0.1837  -0.0236   0.0704  -0.0529   5.00    0.0
2018/11/06 00:43:45.000  -74.525911793  163.457819779    26.0814   6  11   0.0402   0.0466   0.1588  -0.0200   0.0602  -0.0445   5.00    0.0
2018/11/06 00:44:00.000  -74.525911809  163.457820052    26.0755   6  11   0.0345   0.0398   0.1344  -0.0167   0.0503  -0.0367   5.00    0.0
2018/11/06 00:44:15.000  -74.525911962  163.457822551    26.1268   1  11   0.0331   0.0389   0.1401  -0.0213   0.0556  -0.0489   6.00    2.0
2018/11/06 00:44:30.000  -74.525911957  163.457822735    26.1610   1  11   0.0259   0.0307   0.1095  -0.0168   0.0432  -0.0385   6.00    2.0
2018/11/06 00:44:45.000  -74.525911902  163.457822514    26.1539   1  11   0.0200   0.0241   0.0843  -0.0130   0.0330  -0.0299   6.00    2.0
2018/11/06 00:45:00.000  -74.525911896  163.457822697    26.1747   1  11   0.0167   0.0210   0.0708  -0.0110   0.0278  -0.0253   6.00    2.0
2018/11/06 00:45:15.000  -74.525911996  163.457823007    26.2209   1  11   0.0200   0.0246   0.0843  -0.0134   0.0331  -0.0300   6.00    2.0
2018/11/06 00:45:30.000  -74.525912014  163.457822396    26.2203   1  11   0.0259   0.0315   0.1091  -0.0171   0.0431  -0.0384   6.00    2.0
2018/11/06 00:45:45.000  -74.525912000  163.457822388    26.2374   1  11   0.0331   0.0398   0.1390  -0.0216   0.0551  -0.0485   6.00    2.0
2018/11/06 00:46:00.000  -74.525911756  163.457819885    26.1820   6  11   0.0343   0.0400   0.1320  -0.0167   0.0489  -0.0363   5.00    0.0
2018/11/06 00:46:15.000  -74.525911753  163.457819526    26.1819   6  11   0.0398   0.0465   0.1554  -0.0198   0.0584  -0.0438   5.00    0.0
2018/11/06 00:46:30.000  -74.525911798  163.457819212    26.1498   6  11   0.0454   0.0531   0.1792  -0.0231   0.0680  -0.0518   5.00    0.0
2018/11/06 00:46:45.000  -74.525911819  163.457819004    26.1356   6  11   0.0510   0.0597   0.2031  -0.0266   0.0777  -0.0599   5.00    0.0
2018/11/06 00:47:00.000  -74.525911884  163.457819145    26.1415   6  11   0.0567   0.0663   0.2270  -0.0301   0.0873  -0.0682   5.00    0.0
2018/11/06 00:47:15.000  -74.525911786  163.457819062    26.0982   6  11   0.0624   0.0729   0.2510  -0.0337   0.0970  -0.0766   5.00    0.0
2018/11/06 00:47:30.000  -74.525911726  163.457818966    26.0544   6  11   0.0681   0.0795   0.2748  -0.0373   0.1066  -0.0849   5.00    0.0
2018/11/06 00:47:45.000  -74.525911726  163.457819377    26.0646   6  11   0.0622   0.0729   0.2492  -0.0332   0.0960  -0.0755   5.00    0.0
2018/11/06 00:48:00.000  -74.525911774  163.457819723    26.0837   6  11   0.0565   0.0666   0.2245  -0.0296   0.0859  -0.0668   5.00    0.0
2018/11/06 00:48:15.000  -74.525911782  163.457820256    26.1276   6  11   0.0507   0.0607   0.2001  -0.0263   0.0759  -0.0582   5.00    0.0
2018/11/06 00:48:30.000  -74.525911792  163.457820232    26.1267   6  11   0.0452   0.0563   0.1760  -0.0237   0.0661  -0.0499   5.00    0.0
2018/11/06 00:48:45.000  -74.525911851  163.457821151    26.1585   6  11   0.0395   0.0461   0.1529  -0.0190   0.0574  -0.0425   4.00    0.0
2018/11/06 00:49:00.000  -74.525911778  163.457821052    26.1370   6  11   0.0339   0.0389   0.1298  -0.0154   0.0477  -0.0350   4.00    0.0
2018/11/06 00:49:15.000  -74.525911786  163.457821113    26.1017   6  11   0.0287   0.0322   0.1080  -0.0125   0.0386  -0.0284   4.00    0.0
2018/11/06 00:49:30.000  -74.525911988  163.457822913    26.1619   1  11   0.0280   0.0300   0.1138  -0.0170   0.0426  -0.0426   6.00    1.0
2018/11/06 00:49:45.000  -74.525912005  163.457822789    26.1799   1  11   0.0225   0.0236   0.0919  -0.0139   0.0336  -0.0357   6.00    1.0
2018/11/06 00:50:00.000  -74.525911980  163.457822628    26.1782   1  11   0.0196   0.0204   0.0809  -0.0125   0.0295  -0.0324   6.00    1.0
2018/11/06 00:50:15.000  -74.525911942  163.457822579    26.1755   1  11   0.0236   0.0237   0.0959  -0.0144   0.0344  -0.0383   6.00    1.0
2018/11/06 00:50:30.000  -74.525911931  163.457822224    26.1460   1  11   0.0299   0.0302   0.1216  -0.0182   0.0443  -0.0477   6.00    1.0
2018/11/06 00:50:45.000  -74.525911834  163.457820682    26.1505   6  11   0.0292   0.0317   0.1091  -0.0122   0.0377  -0.0306   5.00    0.0
2018/11/06 00:51:00.000  -74.525911912  163.457820887    26.1855   6  11   0.0344   0.0380   0.1303  -0.0148   0.0462  -0.0373   5.00    0.0
2018/11/06 00:51:15.000  -74.525911906  163.457820654    26.1906   6  11   0.0398   0.0444   0.1520  -0.0177   0.0550  -0.0442   5.00    0.0
2018/11/06 00:51:30.000  -74.525911880  163.457820049    26.1851   6  11   0.0452   0.0508   0.1739  -0.0209   0.0639  -0.0515   5.00    0.0
2018/11/06 00:51:45.000  -74.525911808  163.457819447    26.1448   6  11   0.0506   0.0572   0.1960  -0.0241   0.0728  -0.0588   5.00    0.0
2018/11/06 00:52:00.000  -74.525911639  163.457819150    26.1102   6  11   0.0561   0.0635   0.2180  -0.0273   0.0816  -0.0663   5.00    0.0
2018/11/06 00:52:15.000  -74.525911663  163.457819237    26.1084   6  11   0.0615   0.0699   0.2400  -0.0306   0.0904  -0.0738   5.00    0.0
2018/11/06 00:52:30.000  -74.525911627  163.457819500    26.1079   6  11   0.0670   0.0763   0.2619  -0.0338   0.0991  -0.0812   5.00    0.0
2018/11/06 00:52:45.000  -74.525911618  163.457819787    26.1118   6  11   0.0615   0.0698   0.2397  -0.0306   0.0902  -0.0738   5.00    0.0
2018/11/06 00:53:00.000  -74.525911640  163.457819667    26.1054   6  11   0.0560   0.0632   0.2172  -0.0272   0.0809  -0.0663   5.00    0.0
2018/11/06 00:53:15.000  -74.525911672  163.457820070    26.1350   6  11   0.0507   0.0568   0.1953  -0.0239   0.0718  -0.0592   5.00    0.0
2018/11/06 00:53:30.000  -74.525911740  163.457820274    26.1237   6  11   0.0455   0.0503   0.1742  -0.0207   0.0629  -0.0527   5.00    0.0
2018/11/06 00:53:45.000  -74.525911795  163.457820557    26.1102   6  11   0.0405   0.0439   0.1540  -0.0177   0.0542  -0.0470   5.00    0.0
2018/11/06 00:54:00.000  -74.525911817  163.457821296    26.1512   6  11   0.0358   0.0376   0.1355  -0.0151   0.0458  -0.0425   5.00    0.0
2018/11/06 00:54:15.000  -74.525911803  163.457821918    26.1710   6  11   0.0318   0.0313   0.1200  -0.0129   0.0380  -0.0399   5.00    0.0
2018/11/06 00:54:30.000  -74.525911837  163.457821932    26.1744   6  10   0.0310   0.0266   0.1190  -0.0155   0.0378  -0.0460   4.00    0.0
2018/11/06 00:54:45.000  -74.525912082  163.457823216    26.2333   1  10   0.0290   0.0242   0.1193  -0.0175   0.0394  -0.0517   5.00    1.0
2018/11/06 00:55:00.000  -74.525912036  163.457822566    26.1775   1  10   0.0232   0.0204   0.0954  -0.0143   0.0319  -0.0408   5.00    1.0
2018/11/06 00:55:15.000  -74.525911973  163.457822436    26.1216   1  10   0.0291   0.0240   0.1199  -0.0175   0.0390  -0.0517   5.00    1.0
2018/11/06 00:55:30.000  -74.525911692  163.457821105    26.0339   6  10   0.0307   0.0263   0.1189  -0.0152   0.0367  -0.0457   4.00    0.0
2018/11/06 00:55:45.000  -74.525911572  163.457820972    26.0249   6  10   0.0393   0.0327   0.1533  -0.0200   0.0482  -0.0616   4.00    0.0
2018/11/06 00:56:00.000  -74.525911577  163.457821059    26.0818   6  10   0.0484   0.0394   0.1895  -0.0254   0.0604  -0.0784   4.00    0.0
2018/11/06 00:56:15.000  -74.525911624  163.457820701    26.0840   6  10   0.0578   0.0461   0.2265  -0.0309   0.0728  -0.0955   4.00    0.0
2018/11/06 00:56:30.000  -74.525911715  163.457820409    26.0833   6  10   0.0673   0.0528   0.2638  -0.0365   0.0853  -0.1128   4.00    0.0
2018/11/06 00:56:45.000  -74.525911753  163.457820426    26.1090   6  10   0.0769   0.0596   0.3013  -0.0421   0.0977  -0.1301   4.00    0.0
2018/11/06 00:57:00.000  -74.525911943  163.457820751    26.1900   6  10   0.0865   0.0663   0.3386  -0.0477   0.1100  -0.1474   4.00    0.0
2018/11/06 00:57:15.000  -74.525911795  163.457820462    26.1495   6  10   0.0961   0.0730   0.3759  -0.0532   0.1221  -0.1646   4.00    0.0
2018/11/06 00:57:30.000  -74.525911750  163.457820546    26.1455   6  10   0.1056   0.0797   0.4129  -0.0587   0.1341  -0.1817   4.00    0.0
2018/11/06 00:57:45.000  -74.525911845  163.457820912    26.1887   6  10   0.0958   0.0727   0.3764  -0.0525   0.1205  -0.1641   4.00    0.0
2018/11/06 00:58:00.000  -74.525911945  163.457821097    26.2364   6  10   0.0861   0.0656   0.3415  -0.0465   0.1070  -0.1468   4.00    0.0
2018/11/06 00:58:15.000  -74.525912077  163.457821742    26.3125   6  10   0.0764   0.0587   0.3130  -0.0404   0.0934  -0.1306   4.00    0.0
2018/11/06 00:58:30.000  -74.525912093  163.457821500    26.3059   6   9   0.0681   0.0519   0.2919  -0.0349   0.0815  -0.1186   4.00    0.0
2018/11/06 00:58:45.000  -74.525912108  163.457821299    26.3016   6   9   0.0583   0.0451   0.2487  -0.0292   0.0686  -0.0999   4.00    0.0
2018/11/06 00:59:00.000  -74.525912132  163.457821262    26.3252   6   9   0.0487   0.0384   0.2061  -0.0237   0.0561  -0.0815   4.00    0.0
2018/11/06 00:59:15.000  -74.525912118  163.457821614    26.2990   6   9   0.0393   0.0319   0.1646  -0.0185   0.0441  -0.0635   4.00    0.0
2018/11/06 00:59:30.000  -74.525911978  163.457821711    26.2281   6   9   0.0306   0.0257   0.1254  -0.0137   0.0331  -0.0464   4.00    0.0
2018/11/06 00:59:45.000  -74.525911902  163.457821723    26.1594   6   9   0.0234   0.0204   0.0917  -0.0100   0.0239  -0.0312   4.00    0.0
2018/11/06 01:00:00.000  -74.525911878  163.457821928    26.1487   6   9   0.0194   0.0176   0.0720  -0.0079   0.0192  -0.0219   4.00    0.0
2018/11/06 01:00:15.000  -74.525912211  163.457823078    26.2125   1   9   0.0298   0.0214   0.1236  -0.0145   0.0363  -0.0493   5.00    1.0
2018/11/06 01:00:30.000  -74.525912042  163.457821736    26.1893   6   9   0.0303   0.0253   0.1236  -0.0132   0.0319  -0.0457   4.00    0.0
2018/11/06 01:00:45.000  -74.525912141  163.457821693    26.2367   6   9   0.0387   0.0313   0.1619  -0.0175   0.0420  -0.0625   4.00    0.0
2018/11/06 01:01:00.000  -74.525912283  163.457821734    26.3193   6   9   0.0478   0.0375   0.2022  -0.0221   0.0526  -0.0799   4.00    0.0
2018/11/06 01:01:15.000  -74.525912042  163.457821185    26.2189   6   9   0.0570   0.0438   0.2435  -0.0269   0.0634  -0.0976   4.00    0.0
2018/11/06 01:01:30.000  -74.525911871  163.457820833    26.1398   6  10   0.0535   0.0499   0.2123  -0.0290   0.0687  -0.0765   4.00    0.0
2018/11/06 01:01:45.000  -74.525911942  163.457820662    26.1630   6  10   0.0584   0.0558   0.2279  -0.0318   0.0752  -0.0801   4.00    0.0
2018/11/06 01:02:00.000  -74.525911965  163.457820784    26.1552   6  10   0.0640   0.0620   0.2478  -0.0352   0.0829  -0.0861   4.00    0.0
2018/11/06 01:02:15.000  -74.525911956  163.457820092    26.1277   6  10   0.0699   0.0682   0.2698  -0.0389   0.0911  -0.0933   4.00    0.0
2018/11/06 01:02:30.000  -74.525911916  163.457819883    26.1293   6  10   0.0761   0.0744   0.2930  -0.0427   0.0995  -0.1011   4.00    0.0
2018/11/06 01:02:45.000  -74.525911884  163.457820254    26.1708   6  10   0.0695   0.0680   0.2663  -0.0385   0.0900  -0.0914   4.00    0.0
2018/11/06 01:03:00.000  -74.525911848  163.457820377    26.2174   6  10   0.0629   0.0615   0.2406  -0.0342   0.0805  -0.0820   4.00    0.0
2018/11/06 01:03:15.000  -74.525911848  163.457820846    26.2550   6  10   0.0564   0.0551   0.2150  -0.0301   0.0711  -0.0726   4.00    0.0
2018/11/06 01:03:30.000  -74.525911780  163.457820700    26.1794   6  10   0.0499   0.0488   0.1897  -0.0259   0.0618  -0.0633   4.00    0.0
2018/11/06 01:03:45.000  -74.525911792  163.457820890    26.1835   6  10   0.0435   0.0425   0.1646  -0.0219   0.0526  -0.0541   4.00    0.0
2018/11/06 01:04:00.000  -74.525911760  163.457821218    26.1876   6  10   0.0372   0.0363   0.1400  -0.0180   0.0436  -0.0451   4.00    0.0
2018/11/06 01:04:15.000  -74.525911757  163.457821310    26.1607   6  10   0.0312   0.0302   0.1162  -0.0142   0.0348  -0.0365   4.00    0.0
2018/11/06 01:04:30.000  -74.525911994  163.457822770    26.1637   1  10   0.0321   0.0272   0.1246  -0.0164   0.0400  -0.0458   5.00    1.0
2018/11/06 01:04:45.000  -74.525912007  163.457822866    26.1484   1  10   0.0262   0.0207   0.1008  -0.0122   0.0315  -0.0376   5.00    1.0
2018/11/06 01:05:00.000  -74.525912073  163.457822642    26.1595   1  10   0.0234   0.0172   0.0898  -0.0097   0.0270  -0.0343   5.00    1.0
2018/11/06 01:05:15.000  -74.525912110  163.457822500    26.1707   1  10   0.0284   0.0206   0.1141  -0.0121   0.0317  -0.0450   5.00    1.0
2018/11/06 01:05:30.000  -74.525912109  163.457822327    26.1326   1  10   0.0288   0.0265   0.1130  -0.0167   0.0368  -0.0413   6.00    2.0
2018/11/06 01:05:45.000  -74.525911938  163.457821233    26.1839   6  10   0.0305   0.0298   0.1133  -0.0140   0.0341  -0.0353   4.00    0.0
2018/11/06 01:06:00.000  -74.525911922  163.457821460    26.1858   6  10   0.0362   0.0356   0.1349  -0.0171   0.0414  -0.0427   4.00    0.0
2018/11/06 01:06:15.000  -74.525911970  163.457821286    26.1994   6  10   0.0422   0.0415   0.1582  -0.0206   0.0493  -0.0509   4.00    0.0
2018/11/06 01:06:30.000  -74.525911944  163.457820928    26.1552   6  10   0.0483   0.0474   0.1823  -0.0242   0.0574  -0.0596   4.00    0.0
2018/11/06 01:06:45.000  -74.525911962  163.457820575    26.1573   6  10   0.0547   0.0534   0.2072  -0.0280   0.0655  -0.0685   4.00    0.0
2018/11/06 01:07:00.000  -74.525911954  163.457820464    26.1877   6  10   0.0611   0.0594   0.2324  -0.0317   0.0738  -0.0775   4.00    0.0
2018/11/06 01:07:15.000  -74.525911924  163.457820049    26.1611   6  10   0.0676   0.0654   0.2579  -0.0355   0.0819  -0.0866   4.00    0.0
2018/11/06 01:07:30.000  -74.525911866  163.457819796    26.1497   6  10   0.0741   0.0714   0.2836  -0.0393   0.0901  -0.0957   4.00    0.0
2018/11/06 01:07:45.000  -74.525911926  163.457820322    26.1607   6  10   0.0676   0.0653   0.2585  -0.0353   0.0812  -0.0867   4.00    0.0
2018/11/06 01:08:00.000  -74.525911891  163.457820782    26.1745   6  10   0.0610   0.0591   0.2327  -0.0312   0.0723  -0.0774   4.00    0.0
2018/11/06 01:08:15.000  -74.525911871  163.457820868    26.1509   6  10   0.0545   0.0530   0.2071  -0.0273   0.0635  -0.0681   4.00    0.0
2018/11/06 01:08:30.000  -74.525911860  163.457821064    26.1205   6  10   0.0481   0.0469   0.1816  -0.0234   0.0549  -0.0589   4.00    0.0
2018/11/06 01:08:45.000  -74.525911918  163.457821058    26.1243   6  10   0.0418   0.0409   0.1564  -0.0196   0.0464  -0.0497   4.00    0.0
2018/11/06 01:09:00.000  -74.525911930  163.457821379    26.1443   6  10   0.0356   0.0350   0.1317  -0.0159   0.0381  -0.0406   4.00    0.0
2018/11/06 01:09:15.000  -74.525911910  163.457821540    26.1370   6  10   0.0296   0.0292   0.1077  -0.0125   0.0302  -0.0317   5.00    0.0
2018/11/06 01:09:30.000  -74.525912150  163.457822931    26.1737   1  10   0.0284   0.0259   0.1111  -0.0156   0.0340  -0.0400   6.00    2.0
2018/11/06 01:09:45.000  -74.525912099  163.457822696    26.1577   1  10   0.0217   0.0194   0.0839  -0.0118   0.0257  -0.0310   6.00    2.0
2018/11/06 01:10:00.000  -74.525912053  163.457822407    26.1324   1  10   0.0181   0.0159   0.0682  -0.0099   0.0213  -0.0259   6.00    2.0
2018/11/06 01:10:15.000  -74.525912000  163.457822309    26.1466   1  10   0.0216   0.0194   0.0833  -0.0118   0.0253  -0.0307   6.00    2.0
2018/11/06 01:10:30.000  -74.525911897  163.457821974    26.1585   1  10   0.0283   0.0256   0.1101  -0.0152   0.0330  -0.0395   6.00    2.0
2018/11/06 01:10:45.000  -74.525911590  163.457820574    26.1329   6  10   0.0291   0.0288   0.1046  -0.0117   0.0286  -0.0305   5.00    0.0
2018/11/06 01:11:00.000  -74.525911524  163.457820381    26.1439   6  10   0.0349   0.0344   0.1282  -0.0149   0.0358  -0.0393   5.00    0.0
2018/11/06 01:11:15.000  -74.525911519  163.457820577    26.1543   6  10   0.0411   0.0400   0.1528  -0.0183   0.0432  -0.0483   5.00    0.0
2018/11/06 01:11:30.000  -74.525911441  163.457820440    26.1496   6  10   0.0473   0.0457   0.1779  -0.0218   0.0506  -0.0574   5.00    0.0
2018/11/06 01:11:45.000  -74.525911413  163.457820549    26.1641   6  10   0.0537   0.0514   0.2034  -0.0253   0.0580  -0.0666   5.00    0.0
2018/11/06 01:12:00.000  -74.525911415  163.457820086    26.1048   6  10   0.0602   0.0572   0.2290  -0.0288   0.0653  -0.0757   5.00    0.0
2018/11/06 01:12:15.000  -74.525911434  163.457819862    26.0962   6  10   0.0667   0.0629   0.2548  -0.0323   0.0725  -0.0849   5.00    0.0
2018/11/06 01:12:30.000  -74.525911522  163.457820369    26.1063   6  10   0.0732   0.0686   0.2807  -0.0357   0.0796  -0.0940   5.00    0.0
2018/11/06 01:12:45.000  -74.525911593  163.457820602    26.1140   6  10   0.0667   0.0627   0.2546  -0.0321   0.0716  -0.0846   5.00    0.0
2018/11/06 01:13:00.000  -74.525911529  163.457820500    26.0971   6  10   0.0601   0.0568   0.2285  -0.0283   0.0635  -0.0753   5.00    0.0
2018/11/06 01:13:15.000  -74.525911501  163.457820470    26.0693   6  10   0.0536   0.0510   0.2026  -0.0246   0.0556  -0.0660   5.00    0.0
2018/11/06 01:13:30.000  -74.525911502  163.457820643    26.0631   6  10   0.0472   0.0452   0.1768  -0.0209   0.0478  -0.0567   5.00    0.0
2018/11/06 01:13:45.000  -74.525911613  163.457821065    26.0884   6  10   0.0409   0.0394   0.1514  -0.0174   0.0401  -0.0474   5.00    1.0
2018/11/06 01:14:00.000  -74.525911590  163.457821077    26.1139   6  10   0.0347   0.0338   0.1266  -0.0140   0.0327  -0.0383   5.00    1.0
2018/11/06 01:14:15.000  -74.525911902  163.457821876    26.1246   1  10   0.0361   0.0323   0.1394  -0.0184   0.0385  -0.0486   6.00    2.0
2018/11/06 01:14:30.000  -74.525911944  163.457821983    26.1248   1  10   0.0280   0.0249   0.1071  -0.0142   0.0296  -0.0378   6.00    2.0
2018/11/06 01:14:45.000  -74.525911964  163.457822018    26.1149   1  10   0.0212   0.0187   0.0797  -0.0108   0.0224  -0.0288   6.00    2.0
2018/11/06 01:15:00.000  -74.525911982  163.457822141    26.1110   1  10   0.0178   0.0153   0.0639  -0.0092   0.0184  -0.0239   6.00    2.0
2018/11/06 01:15:15.000  -74.525912085  163.457822047    26.0887   1  10   0.0211   0.0186   0.0790  -0.0107   0.0220  -0.0285   6.00    2.0
2018/11/06 01:15:30.000  -74.525912197  163.457822162    26.1259   1  10   0.0278   0.0247   0.1060  -0.0139   0.0285  -0.0372   6.00    2.0
2018/11/06 01:15:45.000  -74.525912222  163.457822207    26.1590   1  10   0.0358   0.0319   0.1378  -0.0178   0.0365  -0.0477   6.00    2.0
2018/11/06 01:16:00.000  -74.525911893  163.457820776    26.0899   6  10   0.0343   0.0332   0.1244  -0.0130   0.0305  -0.0376   5.00    0.0
2018/11/06 01:16:15.000  -74.525911923  163.457820901    26.0982   6  10   0.0404   0.0386   0.1489  -0.0161   0.0367  -0.0466   5.00    0.0
2018/11/06 01:16:30.000  -74.525911899  163.457821097    26.0952   6  10   0.0466   0.0441   0.1737  -0.0192   0.0430  -0.0555   5.00    0.0
2018/11/06 01:16:45.000  -74.525911875  163.457820780    26.0560   6  10   0.0530   0.0496   0.1989  -0.0223   0.0491  -0.0644   5.00    0.0
2018/11/06 01:17:00.000  -74.525911684  163.457820430    25.9556   6  10   0.0594   0.0551   0.2242  -0.0255   0.0551  -0.0733   5.00    0.0
2018/11/06 01:17:15.000  -74.525911689  163.457820034    26.0072   6  10   0.0659   0.0606   0.2495  -0.0286   0.0610  -0.0821   5.00    0.0
2018/11/06 01:17:30.000  -74.525911737  163.457820166    26.0689   6  10   0.0723   0.0661   0.2748  -0.0316   0.0668  -0.0909   5.00    0.0
2018/11/06 01:17:45.000  -74.525911729  163.457819932    26.1009   6  10   0.0657   0.0602   0.2490  -0.0280   0.0595  -0.0816   5.00    0.0
2018/11/06 01:18:00.000  -74.525911793  163.457819870    26.1329   6  10   0.0591   0.0546   0.2231  -0.0245   0.0526  -0.0725   5.00    0.0
2018/11/06 01:18:15.000  -74.525911755  163.457820148    26.1829   6  10   0.0527   0.0490   0.1974  -0.0212   0.0458  -0.0634   5.00    0.0
2018/11/06 01:18:30.000  -74.525911769  163.457820415    26.1702   6  10   0.0463   0.0434   0.1719  -0.0178   0.0391  -0.0543   5.00    0.0
2018/11/06 01:18:45.000  -74.525911719  163.457820580    26.1375   6  10   0.0400   0.0379   0.1468  -0.0146   0.0327  -0.0453   5.00    0.0
2018/11/06 01:19:00.000  -74.525911791  163.457820947    26.1369   6  10   0.0340   0.0325   0.1222  -0.0116   0.0264  -0.0363   5.00    0.0
2018/11/06 01:19:15.000  -74.525912049  163.457822157    26.1199   1  10   0.0353   0.0310   0.1346  -0.0161   0.0315  -0.0458   6.00    2.0
2018/11/06 01:19:30.000  -74.525912030  163.457822229    26.1184   1  10   0.0274   0.0239   0.1026  -0.0125   0.0242  -0.0353   6.00    2.0
2018/11/06 01:19:45.000  -74.525912004  163.457822139    26.0982   1  10   0.0208   0.0181   0.0755  -0.0095   0.0186  -0.0266   6.00    2.0
2018/11/06 01:20:00.000  -74.525911949  163.457822052    26.0693   1  10   0.0174   0.0150   0.0600  -0.0081   0.0158  -0.0220   6.00    2.0
2018/11/06 01:20:15.000  -74.525911933  163.457822313    26.0573   1  10   0.0207   0.0181   0.0749  -0.0094   0.0181  -0.0263   6.00    2.0
2018/11/06 01:20:30.000  -74.525911959  163.457822351    26.0635   1  10   0.0272   0.0237   0.1015  -0.0121   0.0231  -0.0347   6.00    2.0
2018/11/06 01:20:45.000  -74.525911959  163.457822123    26.0520   1  10   0.0351   0.0307   0.1327  -0.0155   0.0292  -0.0449   6.00    2.0
2018/11/06 01:21:00.000  -74.525911648  163.457820864    26.0178   6  10   0.0336   0.0320   0.1200  -0.0104   0.0239  -0.0355   5.00    0.0
2018/11/06 01:21:15.000  -74.525911645  163.457820859    26.0572   6  10   0.0396   0.0372   0.1438  -0.0131   0.0288  -0.0441   5.00    0.0
2018/11/06 01:21:30.000  -74.525911695  163.457821058    26.0613   6  10   0.0457   0.0425   0.1681  -0.0159   0.0335  -0.0526   5.00    0.0
2018/11/06 01:21:45.000  -74.525911677  163.457821093    26.0844   6  10   0.0520   0.0478   0.1925  -0.0186   0.0381  -0.0611   5.00    0.0
2018/11/06 01:22:00.000  -74.525911593  163.457820890    26.1054   6  10   0.0583   0.0532   0.2169  -0.0214   0.0426  -0.0696   5.00    0.0
2018/11/06 01:22:15.000  -74.525911584  163.457820935    26.1022   6  10   0.0647   0.0585   0.2414  -0.0241   0.0469  -0.0779   5.00    0.0
2018/11/06 01:22:30.000  -74.525911378  163.457820424    26.0130   6  11   0.0624   0.0620   0.2284  -0.0134   0.0216  -0.0529   5.00    0.0
2018/11/06 01:22:45.000  -74.525911329  163.457820488    26.0048   6  11   0.0555   0.0566   0.2009  -0.0079   0.0110  -0.0408   5.00    0.0
2018/11/06 01:23:00.000  -74.525911429  163.457820470    26.0497   6  11   0.0497   0.0513   0.1784  -0.0035  -0.0032  -0.0333   5.00    0.0
2018/11/06 01:23:15.000  -74.525911556  163.457820485    26.0432   6  11   0.0442   0.0461   0.1576   0.0037  -0.0074  -0.0275   5.00    0.0
2018/11/06 01:23:30.000  -74.525911578  163.457820332    26.0303   6  11   0.0390   0.0410   0.1375   0.0053  -0.0080  -0.0225   5.00    0.0
2018/11/06 01:23:45.000  -74.525911651  163.457820343    25.9889   6  11   0.0340   0.0360   0.1180   0.0057  -0.0074  -0.0177   5.00    0.0
2018/11/06 01:24:00.000  -74.525911897  163.457821128    25.9334   1  11   0.0358   0.0364   0.1314  -0.0070  -0.0075  -0.0249   7.00    2.0
2018/11/06 01:24:15.000  -74.525911902  163.457821763    25.9586   1  11   0.0290   0.0293   0.1062  -0.0065   0.0045  -0.0219   7.00    2.0
2018/11/06 01:24:30.000  -74.525911851  163.457821809    25.9778   1  11   0.0230   0.0228   0.0826  -0.0060   0.0088  -0.0192   7.00    2.0
2018/11/06 01:24:45.000  -74.525911851  163.457821885    26.0221   1  11   0.0179   0.0174   0.0627  -0.0056   0.0102  -0.0168   7.00    2.0
2018/11/06 01:25:00.000  -74.525911903  163.457822143    26.0384   1  11   0.0156   0.0143   0.0517  -0.0057   0.0104  -0.0155   7.00    2.0
2018/11/06 01:25:15.000  -74.525911852  163.457822013    26.0368   1  11   0.0179   0.0176   0.0623  -0.0053   0.0098  -0.0166   7.00    2.0
2018/11/06 01:25:30.000  -74.525911831  163.457821902    26.0360   1  11   0.0228   0.0227   0.0822  -0.0059   0.0070  -0.0189   7.00    2.0
2018/11/06 01:25:45.000  -74.525911816  163.457821597    26.0432   1  11   0.0289   0.0292   0.1060  -0.0060  -0.0061  -0.0218   7.00    2.0
2018/11/06 01:26:00.000  -74.525911707  163.457821898    26.0597   1  12   0.0350   0.0344   0.1250  -0.0108  -0.0253  -0.0304   8.00    2.0
2018/11/06 01:26:15.000  -74.525911440  163.457821246    26.0710   6  12   0.0324   0.0339   0.1099  -0.0027  -0.0235  -0.0193   5.00    0.0
2018/11/06 01:26:30.000  -74.525911446  163.457821397    26.1057   6  12   0.0371   0.0386   0.1274  -0.0047  -0.0285  -0.0243   6.00    0.0
2018/11/06 01:26:45.000  -74.525911453  163.457821234    26.0926   6  12   0.0419   0.0433   0.1454  -0.0065  -0.0334  -0.0292   6.00    0.0
2018/11/06 01:27:00.000  -74.525911429  163.457821284    26.1099   6  12   0.0468   0.0481   0.1638  -0.0083  -0.0383  -0.0340   6.00    0.0
2018/11/06 01:27:15.000  -74.525911432  163.457821349    26.1127   6  12   0.0518   0.0529   0.1825  -0.0100  -0.0432  -0.0388   6.00    1.0
2018/11/06 01:27:30.000  -74.525911485  163.457821775    26.1119   6  12   0.0568   0.0577   0.2013  -0.0117  -0.0481  -0.0436   6.00    1.0
2018/11/06 01:27:45.000  -74.525911590  163.457821687    26.0952   6  12   0.0518   0.0529   0.1837  -0.0101  -0.0440  -0.0391   6.00    1.0
2018/11/06 01:28:00.000  -74.525911642  163.457821888    26.1063   6  12   0.0469   0.0481   0.1654  -0.0082  -0.0395  -0.0345   6.00    1.0
2018/11/06 01:28:15.000  -74.525911564  163.457821730    26.1056   6  12   0.0420   0.0433   0.1472  -0.0064  -0.0350  -0.0299   6.00    1.0
2018/11/06 01:28:30.000  -74.525911596  163.457821718    26.0915   6  12   0.0372   0.0385   0.1290  -0.0045  -0.0304  -0.0252   6.00    1.0
2018/11/06 01:28:45.000  -74.525911626  163.457821843    26.0939   6  12   0.0325   0.0338   0.1110  -0.0023  -0.0258  -0.0203   6.00    0.0
2018/11/06 01:29:00.000  -74.525911860  163.457822916    26.0950   1  12   0.0351   0.0344   0.1276  -0.0102  -0.0280  -0.0308   8.00    2.0
2018/11/06 01:29:15.000  -74.525911914  163.457822518    26.0737   1  12   0.0285   0.0278   0.1029  -0.0086  -0.0210  -0.0253   8.00    2.0
2018/11/06 01:29:30.000  -74.525911887  163.457822416    26.0372   1  12   0.0226   0.0218   0.0799  -0.0070  -0.0137  -0.0204   8.00    2.0
2018/11/06 01:29:45.000  -74.525911919  163.457822086    26.0230   1  12   0.0177   0.0168   0.0604  -0.0057  -0.0058  -0.0166   8.00    2.0
2018/11/06 01:30:00.000  -74.525911923  163.457822138    26.0357   1  12   0.0154   0.0140   0.0495  -0.0053   0.0040  -0.0149   8.00    2.0
2018/11/06 01:30:15.000  -74.525912016  163.457822541    26.0201   1  12   0.0177   0.0167   0.0601  -0.0060  -0.0063  -0.0165   8.00    2.0
2018/11/06 01:30:30.000  -74.525911966  163.457822731    26.0417   1  12   0.0225   0.0217   0.0798  -0.0069  -0.0143  -0.0202   8.00    2.0
2018/11/06 01:30:45.000  -74.525911984  163.457822967    26.0462   1  12   0.0285   0.0278   0.1031  -0.0082  -0.0218  -0.0252   7.00    2.0
2018/11/06 01:31:00.000  -74.525912001  163.457822890    26.0440   1  12   0.0350   0.0344   0.1284  -0.0098  -0.0293  -0.0308   7.00    2.0
2018/11/06 01:31:15.000  -74.525911815  163.457822145    26.0049   6  12   0.0323   0.0334   0.1116   0.0016  -0.0269  -0.0209   7.00    0.0
2018/11/06 01:31:30.000  -74.525911823  163.457822012    26.0348   6  12   0.0370   0.0381   0.1303  -0.0029  -0.0319  -0.0261   7.00    0.0
2018/11/06 01:31:45.000  -74.525911791  163.457821876    26.0380   6  12   0.0418   0.0428   0.1493  -0.0049  -0.0370  -0.0311   7.00    0.0
2018/11/06 01:32:00.000  -74.525911851  163.457821750    26.0295   6  12   0.0468   0.0476   0.1685  -0.0066  -0.0421  -0.0362   7.00    0.0
2018/11/06 01:32:15.000  -74.525911856  163.457821211    26.0108   6  12   0.0517   0.0525   0.1879  -0.0082  -0.0473  -0.0411   7.00    0.0
2018/11/06 01:32:30.000  -74.525911828  163.457821664    26.0082   6  12   0.0568   0.0574   0.2073  -0.0097  -0.0525  -0.0461   7.00    0.0
2018/11/06 01:32:45.000  -74.525911750  163.457821606    26.0338   6  12   0.0519   0.0525   0.1890  -0.0082  -0.0475  -0.0417   7.00    0.0
2018/11/06 01:33:00.000  -74.525911787  163.457821582    26.0110   6  12   0.0469   0.0476   0.1699  -0.0063  -0.0426  -0.0369   7.00    0.0
2018/11/06 01:33:15.000  -74.525911819  163.457821405    26.0230   6  12   0.0420   0.0428   0.1508  -0.0044  -0.0377  -0.0320   7.00    0.0
2018/11/06 01:33:30.000  -74.525911824  163.457821277    25.9888   6  12   0.0372   0.0380   0.1319  -0.0018  -0.0328  -0.0270   7.00    0.0
2018/11/06 01:33:45.000  -74.525911709  163.457821110    25.9687   6  12   0.0324   0.0334   0.1132   0.0027  -0.0279  -0.0219   7.00    0.0
2018/11/06 01:34:00.000  -74.525911928  163.457821741    25.9728   1  12   0.0353   0.0344   0.1304  -0.0092  -0.0308  -0.0316   7.00    2.0
2018/11/06 01:34:15.000  -74.525911979  163.457821649    25.9871   1  12   0.0287   0.0278   0.1047  -0.0076  -0.0236  -0.0257   7.00    2.0
2018/11/06 01:34:30.000  -74.525911978  163.457821710    26.0052   1  12   0.0227   0.0216   0.0807  -0.0063  -0.0165  -0.0203   8.00    2.0
2018/11/06 01:34:45.000  -74.525911945  163.457821893    26.0081   1  12   0.0180   0.0168   0.0603  -0.0049  -0.0095  -0.0161   9.00    2.0
2018/11/06 01:35:00.000  -74.525911905  163.457821906    26.0196   1  12   0.0157   0.0141   0.0488  -0.0041  -0.0035  -0.0140   9.00    2.0
2018/11/06 01:35:15.000  -74.525911868  163.457821834    26.0024   1  12   0.0179   0.0167   0.0602  -0.0053  -0.0100  -0.0158   9.00    2.0
2018/11/06 01:35:30.000  -74.525911791  163.457821832    25.9895   1  12   0.0228   0.0218   0.0806  -0.0062  -0.0169  -0.0201   9.00    2.0
2018/11/06 01:35:45.000  -74.525911761  163.457822051    26.0096   1  12   0.0288   0.0277   0.1047  -0.0074  -0.0242  -0.0256   9.00    2.0
2018/11/06 01:36:00.000  -74.525911735  163.457821976    26.0589   1  12   0.0353   0.0344   0.1306  -0.0086  -0.0317  -0.0316   9.00    2.0
2018/11/06 01:36:15.000  -74.525911498  163.457821364    26.0373   6  12   0.0323   0.0330   0.1135   0.0036  -0.0286  -0.0222   7.00    0.0
2018/11/06 01:36:30.000  -74.525911498  163.457821682    26.0163   6  12   0.0370   0.0377   0.1325   0.0024  -0.0338  -0.0275   7.00    0.0
2018/11/06 01:36:45.000  -74.525911398  163.457822200    26.0482   6  12   0.0419   0.0424   0.1518  -0.0022  -0.0390  -0.0326   7.00    0.0
2018/11/06 01:37:00.000  -74.525911445  163.457822108    26.0331   6  12   0.0469   0.0472   0.1712  -0.0043  -0.0444  -0.0377   7.00    0.0
2018/11/06 01:37:15.000  -74.525911469  163.457821965    25.9919   6  12   0.0519   0.0521   0.1908  -0.0059  -0.0497  -0.0427   7.00    0.0
2018/11/06 01:37:30.000  -74.525911412  163.457822013    26.0213   6  12   0.0569   0.0570   0.2104  -0.0074  -0.0551  -0.0478   7.00    0.0
2018/11/06 01:37:45.000  -74.525911440  163.457822494    26.0155   6  12   0.0519   0.0522   0.1910  -0.0063  -0.0500  -0.0427   7.00    0.0
2018/11/06 01:38:00.000  -74.525911410  163.457822514    26.0254   6  12   0.0469   0.0473   0.1715  -0.0045  -0.0448  -0.0377   7.00    0.0
2018/11/06 01:38:15.000  -74.525911462  163.457822155    26.0625   6  12   0.0419   0.0425   0.1521  -0.0022  -0.0396  -0.0326   7.00    0.0
2018/11/06 01:38:30.000  -74.525911527  163.457821870    26.0676   6  12   0.0371   0.0377   0.1328   0.0025  -0.0345  -0.0275   7.00    0.0
2018/11/06 01:38:45.000  -74.525911517  163.457822134    26.0643   6  12   0.0323   0.0331   0.1137   0.0037  -0.0294  -0.0222   7.00    0.0
2018/11/06 01:39:00.000  -74.525911837  163.457822326    26.0573   1  12   0.0354   0.0346   0.1309  -0.0082  -0.0330  -0.0316   9.00    2.0
2018/11/06 01:39:15.000  -74.525911833  163.457822233    26.0449   1  12   0.0289   0.0280   0.1049  -0.0070  -0.0256  -0.0255   9.00    2.0
2018/11/06 01:39:30.000  -74.525911845  163.457822053    26.0265   1  12   0.0229   0.0219   0.0806  -0.0056  -0.0184  -0.0199   9.00    2.0
2018/11/06 01:39:45.000  -74.525911824  163.457822014    25.9923   1  12   0.0182   0.0167   0.0602  -0.0044  -0.0120  -0.0156   9.00    2.0
2018/11/06 01:40:00.000  -74.525911872  163.457821907    26.0260   1  12   0.0160   0.0139   0.0487  -0.0036  -0.0073  -0.0135   9.00    2.0
2018/11/06 01:40:15.000  -74.525912009  163.457821688    26.0028   1  12   0.0194   0.0179   0.0608   0.0040  -0.0097  -0.0133   9.00    1.0
2018/11/06 01:40:30.000  -74.525912021  163.457821784    26.0197   1  12   0.0230   0.0220   0.0805  -0.0055  -0.0189  -0.0198   9.00    2.0
2018/11/06 01:40:45.000  -74.525912063  163.457821679    26.0174   1  12   0.0289   0.0280   0.1046  -0.0064  -0.0262  -0.0254   9.00    2.0
2018/11/06 01:41:00.000  -74.525912047  163.457821473    26.0131   1  12   0.0355   0.0346   0.1304  -0.0077  -0.0336  -0.0314   9.00    2.0
2018/11/06 01:41:15.000  -74.525911708  163.457821516    25.9750   6  12   0.0322   0.0327   0.1132   0.0041  -0.0298  -0.0223   7.00    0.0
2018/11/06 01:41:30.000  -74.525911737  163.457822082    25.9259   6  12   0.0370   0.0374   0.1321   0.0035  -0.0351  -0.0275   7.00    0.0
2018/11/06 01:41:45.000  -74.525911761  163.457822064    25.9439   6  12   0.0418   0.0421   0.1512   0.0022  -0.0404  -0.0326   7.00    0.0
2018/11/06 01:42:00.000  -74.525911868  163.457822328    25.9528   6  12   0.0468   0.0469   0.1704  -0.0023  -0.0458  -0.0377   7.00    0.0
2018/11/06 01:42:15.000  -74.525911950  163.457822216    25.9561   6  12   0.0518   0.0518   0.1897  -0.0041  -0.0512  -0.0427   7.00    0.0
2018/11/06 01:42:30.000  -74.525911899  163.457822351    25.9357   6  12   0.0569   0.0567   0.2090  -0.0054  -0.0567  -0.0476   7.00    0.0
2018/11/06 01:42:45.000  -74.525911835  163.457822484    25.9270   6  12   0.0520   0.0518   0.1890  -0.0029  -0.0515  -0.0429   7.00    0.0
2018/11/06 01:43:00.000  -74.525911833  163.457822418    25.9344   6  12   0.0469   0.0469   0.1695   0.0020  -0.0462  -0.0378   7.00    0.0
2018/11/06 01:43:15.000  -74.525911786  163.457822328    25.9532   6  12   0.0420   0.0421   0.1501   0.0037  -0.0409  -0.0327   7.00    0.0
2018/11/06 01:43:30.000  -74.525911735  163.457822395    25.9353   6  12   0.0371   0.0373   0.1310   0.0045  -0.0356  -0.0276   7.00    0.0
2018/11/06 01:43:45.000  -74.525911745  163.457822452    25.8955   6  12   0.0323   0.0327   0.1121   0.0049  -0.0305  -0.0223   7.00    0.0
2018/11/06 01:44:00.000  -74.525911928  163.457822455    25.8764   1  12   0.0358   0.0346   0.1288  -0.0065  -0.0346  -0.0315   9.00    2.0
2018/11/06 01:44:15.000  -74.525911845  163.457822138    25.9347   1  12   0.0292   0.0280   0.1033  -0.0053  -0.0274  -0.0255   9.00    2.0
2018/11/06 01:44:30.000  -74.525911786  163.457821715    25.9756   1  12   0.0233   0.0220   0.0797  -0.0039  -0.0204  -0.0200   9.00    2.0
