% program   : RTKLIB ver.2.4.3
% inp file  : _by_type/_obs/tuati/20181109.18o
% inp file  : _by_type/_sp3+clk/igs20265.clk
% inp file  : _by_type/_sp3+clk/igs20265.sp3
% inp file  : _by_type/_nav/tuati/20181109.18n
% obs start : 2018/11/09 00:00:00.0 GPST (week2026 432000.0s)
% obs end   : 2018/11/09 23:59:30.0 GPST (week2026 518370.0s)
% pos mode  : ppp-kinematic
% solution  : combined
% elev mask : 15.0 deg
% dynamics  : off
% tidecorr  : on
% tropo opt : est ztd+grad
% ephemeris : precise
% navi sys  : gps glonass
% antenna1  :                       ( 0.0000  0.0000  0.0000)
%
% (lat/lon/height=WGS84/ellipsoidal,Q=1:fix,2:float,3:sbas,4:dgps,5:single,6:ppp,ns=# of satellites)
%  GPST                  latitude(deg) longitude(deg)  height(m)   Q  ns   sdn(m)   sde(m)   sdu(m)  sdne(m)  sdeu(m)  sdun(m) age(s)  ratio
2018/11/09 00:00:00.000  -74.425543169  163.418462325    64.7416   1   9   0.0252   0.0237   0.0690  -0.0127   0.0225  -0.0164   4.00    1.0
2018/11/09 00:00:30.000  -74.425542991  163.418462640    64.6890   1   9   0.0328   0.0326   0.1047  -0.0165   0.0319  -0.0302   5.00    1.0
2018/11/09 00:01:00.000  -74.425542865  163.418462727    64.7104   6   9   0.0468   0.0484   0.1633  -0.0232   0.0477  -0.0506   0.00    0.0
2018/11/09 00:01:30.000  -74.425542950  163.418462334    64.7467   6   9   0.0629   0.0659   0.2267  -0.0312   0.0668  -0.0715   0.00    0.0
2018/11/09 00:02:00.000  -74.425542883  163.418462185    64.7048   6   9   0.0797   0.0838   0.2918  -0.0394   0.0863  -0.0926   0.00    0.0
2018/11/09 00:02:30.000  -74.425542949  163.418460778    64.6743   6   9   0.0965   0.1014   0.3565  -0.0475   0.1056  -0.1134   0.00    0.0
2018/11/09 00:03:00.000  -74.425543066  163.418460668    64.6124   6   9   0.0793   0.0834   0.2927  -0.0394   0.0875  -0.0928   0.00    0.0
2018/11/09 00:03:30.000  -74.425543065  163.418461126    64.6190   6  10   0.0604   0.0647   0.2036  -0.0341   0.0771  -0.0590   0.00    0.0
2018/11/09 00:04:00.000  -74.425543232  163.418461736    64.6819   6  10   0.0451   0.0478   0.1496  -0.0253   0.0558  -0.0425   0.00    0.0
2018/11/09 00:04:30.000  -74.425543319  163.418462633    64.7498   1  10   0.0320   0.0327   0.0992  -0.0179   0.0371  -0.0260   4.00    1.0
2018/11/09 00:05:00.000  -74.425543206  163.418462469    64.7088   1  10   0.0251   0.0244   0.0677  -0.0134   0.0251  -0.0147   4.00    1.0
2018/11/09 00:05:30.000  -74.425543278  163.418462936    64.7579   1  10   0.0321   0.0330   0.1002  -0.0182   0.0376  -0.0264   5.00    1.0
2018/11/09 00:06:00.000  -74.425543257  163.418462678    64.7441   6  10   0.0448   0.0478   0.1509  -0.0252   0.0565  -0.0423   4.00    0.0
2018/11/09 00:06:30.000  -74.425543240  163.418462024    64.6758   6  10   0.0594   0.0642   0.2049  -0.0333   0.0776  -0.0576   4.00    0.0
2018/11/09 00:07:00.000  -74.425543166  163.418461738    64.5978   6  10   0.0742   0.0806   0.2582  -0.0409   0.0976  -0.0719   4.00    0.0
2018/11/09 00:07:30.000  -74.425543061  163.418461530    64.6130   6  10   0.0886   0.0964   0.3097  -0.0480   0.1165  -0.0850   6.00    0.0
2018/11/09 00:08:00.000  -74.425543143  163.418462182    64.6498   6  10   0.0740   0.0805   0.2617  -0.0410   0.0988  -0.0729   5.00    0.0
2018/11/09 00:08:30.000  -74.425543261  163.418461845    64.6420   6  10   0.0592   0.0642   0.2102  -0.0334   0.0796  -0.0593   5.00    0.0
2018/11/09 00:09:00.000  -74.425543221  163.418461971    64.6446   6  10   0.0447   0.0480   0.1565  -0.0255   0.0591  -0.0441   7.00    0.0
2018/11/09 00:09:30.000  -74.425543247  163.418462643    64.7240   1  10   0.0323   0.0336   0.1053  -0.0189   0.0405  -0.0286   5.00    1.0
2018/11/09 00:10:00.000  -74.425543257  163.418462621    64.7049   1  10   0.0256   0.0254   0.0702  -0.0145   0.0273  -0.0164   5.00    1.0
2018/11/09 00:10:30.000  -74.425543534  163.418462315    64.7292   1  10   0.0330   0.0347   0.1064  -0.0203   0.0412  -0.0293   4.00    1.0
2018/11/09 00:11:00.000  -74.425543430  163.418461714    64.7637   6  10   0.0451   0.0492   0.1554  -0.0270   0.0583  -0.0419   5.00    0.0
2018/11/09 00:11:30.000  -74.425543264  163.418461954    64.7502   6  10   0.0592   0.0654   0.2077  -0.0349   0.0774  -0.0542   5.00    0.0
2018/11/09 00:12:00.000  -74.425543039  163.418461423    64.6470   6  10   0.0735   0.0820   0.2589  -0.0430   0.0955  -0.0652   4.00    0.0
2018/11/09 00:12:30.000  -74.425542884  163.418461164    64.6071   6  10   0.0888   0.0998   0.3095  -0.0536   0.1123  -0.0751   4.00    0.0
2018/11/09 00:13:00.000  -74.425542900  163.418461191    64.5573   6  10   0.0748   0.0837   0.2615  -0.0458   0.0953  -0.0645   4.00    0.0
2018/11/09 00:13:30.000  -74.425543300  163.418462175    64.6281   6  10   0.0573   0.0627   0.2114  -0.0308   0.0794  -0.0557   4.00    0.0
2018/11/09 00:14:00.000  -74.425543245  163.418461877    64.5956   6  10   0.0437   0.0470   0.1597  -0.0239   0.0602  -0.0430   4.00    0.0
2018/11/09 00:14:30.000  -74.425543258  163.418462295    64.6582   6  10   0.0314   0.0323   0.1083  -0.0167   0.0404  -0.0287   4.00    0.0
2018/11/09 00:15:00.000  -74.425543376  163.418462553    64.7073   6  10   0.0246   0.0237   0.0746  -0.0116   0.0264  -0.0175   4.00    0.0
2018/11/09 00:15:30.000  -74.425543152  163.418462394    64.6283   6  10   0.0314   0.0325   0.1085  -0.0170   0.0409  -0.0290   4.00    0.0
2018/11/09 00:16:00.000  -74.425542928  163.418461943    64.5889   6  10   0.0435   0.0471   0.1608  -0.0240   0.0611  -0.0435   4.00    0.0
2018/11/09 00:16:30.000  -74.425542938  163.418462451    64.6679   6  10   0.0569   0.0625   0.2140  -0.0307   0.0809  -0.0565   4.00    0.0
2018/11/09 00:17:00.000  -74.425542927  163.418462181    64.6772   6  10   0.0703   0.0777   0.2663  -0.0373   0.1003  -0.0692   5.00    0.0
2018/11/09 00:17:30.000  -74.425542842  163.418462080    64.6710   6  10   0.0834   0.0924   0.3183  -0.0441   0.1198  -0.0826   4.00    0.0
2018/11/09 00:18:00.000  -74.425542979  163.418462802    64.6620   6  11   0.0674   0.0777   0.2555  -0.0371   0.1016  -0.0801   4.00    0.0
2018/11/09 00:18:30.000  -74.425543228  163.418463394    64.7155   6  11   0.0547   0.0626   0.2069  -0.0306   0.0824  -0.0652   4.00    0.0
2018/11/09 00:19:00.000  -74.425543337  163.418462951    64.7445   6  11   0.0422   0.0473   0.1574  -0.0241   0.0628  -0.0495   4.00    0.0
2018/11/09 00:19:30.000  -74.425543342  163.418462404    64.7319   6  11   0.0310   0.0330   0.1086  -0.0175   0.0430  -0.0329   4.00    0.0
2018/11/09 00:20:00.000  -74.425543360  163.418462430    64.7141   6  11   0.0248   0.0247   0.0771  -0.0129   0.0295  -0.0212   3.00    0.0
2018/11/09 00:20:30.000  -74.425543377  163.418463112    64.7390   6  11   0.0310   0.0334   0.1092  -0.0177   0.0436  -0.0333   3.00    0.0
2018/11/09 00:21:00.000  -74.425543422  163.418462704    64.6609   6  11   0.0418   0.0473   0.1568  -0.0239   0.0627  -0.0489   3.00    0.0
2018/11/09 00:21:30.000  -74.425543407  163.418461990    64.6842   6  11   0.0539   0.0621   0.2062  -0.0300   0.0820  -0.0640   3.00    0.0
2018/11/09 00:22:00.000  -74.425543288  163.418461577    64.6884   6  11   0.0663   0.0768   0.2561  -0.0365   0.1016  -0.0794   3.00    0.0
2018/11/09 00:22:30.000  -74.425543162  163.418461747    64.6665   6  11   0.0787   0.0911   0.3064  -0.0434   0.1215  -0.0954   3.00    0.0
2018/11/09 00:23:00.000  -74.425543008  163.418461833    64.5867   6  11   0.0662   0.0766   0.2564  -0.0362   0.1013  -0.0792   3.00    0.0
2018/11/09 00:23:30.000  -74.425542887  163.418462994    64.5898   6  11   0.0537   0.0618   0.2070  -0.0296   0.0818  -0.0639   4.00    0.0
2018/11/09 00:24:00.000  -74.425543024  163.418462501    64.5859   6  11   0.0417   0.0472   0.1577  -0.0235   0.0626  -0.0489   3.00    0.0
2018/11/09 00:24:30.000  -74.425543184  163.418462547    64.6352   6  11   0.0311   0.0338   0.1109  -0.0179   0.0443  -0.0342   5.00    0.0
2018/11/09 00:25:00.000  -74.425543273  163.418461831    64.6300   6  11   0.0252   0.0265   0.0820  -0.0140   0.0328  -0.0244   5.00    0.0
2018/11/09 00:25:30.000  -74.425543291  163.418461403    64.6689   6  11   0.0310   0.0361   0.1106  -0.0184   0.0443  -0.0341   5.00    0.0
2018/11/09 00:26:00.000  -74.425543149  163.418460897    64.6424   6  11   0.0413   0.0512   0.1549  -0.0240   0.0609  -0.0472   4.00    0.0
2018/11/09 00:26:30.000  -74.425543035  163.418459970    64.5713   6  11   0.0529   0.0650   0.2027  -0.0297   0.0794  -0.0613   4.00    0.0
2018/11/09 00:27:00.000  -74.425542900  163.418459976    64.6204   6  11   0.0651   0.0823   0.2521  -0.0369   0.0979  -0.0763   4.00    0.0
2018/11/09 00:27:30.000  -74.425542989  163.418460434    64.6534   6  11   0.0771   0.0902   0.3022  -0.0423   0.1195  -0.0928   4.00    0.0
2018/11/09 00:28:00.000  -74.425543018  163.418460739    64.6538   6  11   0.0650   0.0753   0.2526  -0.0349   0.0994  -0.0768   4.00    0.0
2018/11/09 00:28:30.000  -74.425543143  163.418461472    64.6507   6  11   0.0528   0.0607   0.2031  -0.0284   0.0799  -0.0614   4.00    0.0
2018/11/09 00:29:00.000  -74.425543172  163.418462590    64.6337   6  11   0.0411   0.0466   0.1554  -0.0227   0.0617  -0.0474   4.00    0.0
2018/11/09 00:29:30.000  -74.425543248  163.418462308    64.6357   6  11   0.0311   0.0340   0.1123  -0.0181   0.0456  -0.0350   5.00    0.0
2018/11/09 00:30:00.000  -74.425543155  163.418461489    64.6001   6  11   0.0256   0.0271   0.0867  -0.0152   0.0363  -0.0270   6.00    0.0
2018/11/09 00:30:30.000  -74.425543090  163.418460982    64.5856   6  11   0.0310   0.0343   0.1115  -0.0181   0.0457  -0.0348   6.00    0.0
2018/11/09 00:31:00.000  -74.425542955  163.418460061    64.5859   6  11   0.0407   0.0463   0.1517  -0.0221   0.0602  -0.0457   6.00    0.0
2018/11/09 00:31:30.000  -74.425543162  163.418461554    64.7005   6  11   0.0519   0.0597   0.1972  -0.0271   0.0772  -0.0585   6.00    0.0
2018/11/09 00:32:00.000  -74.425543172  163.418460923    64.6208   6  11   0.0636   0.0732   0.2447  -0.0329   0.0955  -0.0730   6.00    0.0
2018/11/09 00:32:30.000  -74.425543070  163.418460336    64.6077   6  11   0.0754   0.0866   0.2930  -0.0394   0.1143  -0.0885   6.00    0.0
2018/11/09 00:33:00.000  -74.425542906  163.418460339    64.5534   6  11   0.0634   0.0730   0.2440  -0.0327   0.0949  -0.0722   6.00    0.0
2018/11/09 00:33:30.000  -74.425542907  163.418460375    64.5206   6  11   0.0516   0.0593   0.1959  -0.0266   0.0762  -0.0574   6.00    0.0
2018/11/09 00:34:00.000  -74.425543097  163.418461455    64.6490   6  11   0.0404   0.0459   0.1507  -0.0216   0.0592  -0.0448   6.00    0.0
2018/11/09 00:34:30.000  -74.425543218  163.418461292    64.6043   6  11   0.0310   0.0343   0.1119  -0.0180   0.0454  -0.0348   5.00    0.0
2018/11/09 00:35:00.000  -74.425543345  163.418462088    64.6834   6  11   0.0257   0.0281   0.0888  -0.0155   0.0374  -0.0280   5.00    0.0
2018/11/09 00:35:30.000  -74.425543235  163.418462476    64.7373   6  11   0.0309   0.0353   0.1105  -0.0180   0.0446  -0.0343   6.00    0.0
2018/11/09 00:36:00.000  -74.425543286  163.418462157    64.8078   6  11   0.0403   0.0476   0.1468  -0.0218   0.0571  -0.0434   6.00    0.0
2018/11/09 00:36:30.000  -74.425543423  163.418462134    64.8860   6  11   0.0512   0.0617   0.1890  -0.0269   0.0726  -0.0548   5.00    0.0
2018/11/09 00:37:00.000  -74.425543252  163.418462144    64.8352   6  11   0.0626   0.0776   0.2334  -0.0337   0.0895  -0.0680   5.00    0.0
2018/11/09 00:37:30.000  -74.425543118  163.418462441    64.8276   6  11   0.0738   0.0859   0.2791  -0.0380   0.1087  -0.0829   5.00    0.0
2018/11/09 00:38:00.000  -74.425542996  163.418462000    64.7394   6  11   0.0621   0.0713   0.2316  -0.0305   0.0892  -0.0675   4.00    0.0
2018/11/09 00:38:30.000  -74.425543133  163.418462731    64.7909   6  11   0.0507   0.0576   0.1864  -0.0245   0.0713  -0.0539   5.00    0.0
2018/11/09 00:39:00.000  -74.425543329  163.418462862    64.8424   6  11   0.0399   0.0447   0.1447  -0.0198   0.0556  -0.0427   5.00    0.0
2018/11/09 00:39:30.000  -74.425543358  163.418462312    64.7945   6  11   0.0309   0.0334   0.1099  -0.0166   0.0431  -0.0343   4.00    0.0
2018/11/09 00:40:00.000  -74.425543484  163.418462529    64.7723   6  11   0.0256   0.0273   0.0884  -0.0140   0.0357  -0.0276   6.00    0.0
2018/11/09 00:40:30.000  -74.425543455  163.418462751    64.7346   6  11   0.0318   0.0330   0.1118  -0.0155   0.0411  -0.0368   6.00    0.0
2018/11/09 00:41:00.000  -74.425543418  163.418463226    64.7653   6  11   0.0429   0.0438   0.1513  -0.0188   0.0530  -0.0509   6.00    0.0
2018/11/09 00:41:30.000  -74.425543386  163.418462735    64.8196   6  11   0.0558   0.0560   0.1983  -0.0241   0.0686  -0.0686   6.00    0.0
2018/11/09 00:42:00.000  -74.425543301  163.418462377    64.8581   6  11   0.0707   0.0685   0.2535  -0.0313   0.0868  -0.0922   6.00    0.0
2018/11/09 00:42:30.000  -74.425542893  163.418461452    64.7224   6  10   0.1117   0.0877   0.4285  -0.0629   0.1453  -0.1866   4.00    0.0
2018/11/09 00:43:00.000  -74.425543135  163.418461917    64.7170   6  10   0.0918   0.0734   0.3494  -0.0504   0.1177  -0.1503   5.00    0.0
2018/11/09 00:43:30.000  -74.425543280  163.418461500    64.7143   6  10   0.0720   0.0594   0.2717  -0.0385   0.0912  -0.1147   5.00    0.0
2018/11/09 00:44:00.000  -74.425543593  163.418461615    64.7965   6  10   0.0528   0.0458   0.1974  -0.0276   0.0665  -0.0806   5.00    0.0
2018/11/09 00:44:30.000  -74.425543648  163.418462253    64.8443   6  10   0.0357   0.0339   0.1312  -0.0185   0.0455  -0.0494   5.00    0.0
2018/11/09 00:45:00.000  -74.425543557  163.418462436    64.8046   6  10   0.0259   0.0272   0.0889  -0.0130   0.0336  -0.0279   5.00    0.0
2018/11/09 00:45:30.000  -74.425543320  163.418461137    64.6874   6  10   0.0355   0.0346   0.1332  -0.0167   0.0429  -0.0480   5.00    0.0
2018/11/09 00:46:00.000  -74.425543330  163.418461419    64.7511   6   9   0.0535   0.0472   0.2133  -0.0246   0.0627  -0.0830   5.00    0.0
2018/11/09 00:46:30.000  -74.425543448  163.418461184    64.8093   6   9   0.0730   0.0619   0.2971  -0.0326   0.0851  -0.1187   5.00    0.0
2018/11/09 00:47:00.000  -74.425543191  163.418460656    64.7438   6   9   0.0917   0.0713   0.3823  -0.0456   0.1067  -0.1554   5.00    0.0
2018/11/09 00:47:30.000  -74.425543032  163.418460269    64.6686   6   9   0.1111   0.0835   0.4674  -0.0556   0.1288  -0.1919   5.00    0.0
2018/11/09 00:48:00.000  -74.425543248  163.418460431    64.6783   6   9   0.0908   0.0697   0.3781  -0.0441   0.1028  -0.1533   5.00    0.0
2018/11/09 00:48:30.000  -74.425543641  163.418461290    64.8724   6   9   0.0711   0.0564   0.2915  -0.0335   0.0785  -0.1160   5.00    0.0
2018/11/09 00:49:00.000  -74.425543749  163.418461583    64.8840   6  10   0.0519   0.0438   0.2070  -0.0237   0.0562  -0.0798   5.00    0.0
2018/11/09 00:49:30.000  -74.425543681  163.418462114    64.8165   6  10   0.0324   0.0326   0.1154  -0.0165   0.0398  -0.0378   5.00    0.0
2018/11/09 00:50:00.000  -74.425543670  163.418462233    64.7700   6  10   0.0247   0.0263   0.0783  -0.0101   0.0283  -0.0209   5.00    0.0
2018/11/09 00:50:30.000  -74.425543588  163.418462019    64.7073   6  10   0.0325   0.0336   0.1125  -0.0102   0.0319  -0.0364   5.00    0.0
2018/11/09 00:51:00.000  -74.425543598  163.418462182    64.7731   6  10   0.0510   0.0424   0.2013  -0.0223   0.0519  -0.0776   5.00    0.0
2018/11/09 00:51:30.000  -74.425543661  163.418462533    64.8773   6  10   0.0579   0.0543   0.2179  -0.0303   0.0704  -0.0756   5.00    0.0
2018/11/09 00:52:00.000  -74.425543445  163.418461893    64.8929   6  10   0.0693   0.0657   0.2580  -0.0355   0.0831  -0.0874   5.00    0.0
2018/11/09 00:52:30.000  -74.425543527  163.418461751    64.8768   6  10   0.0814   0.0775   0.3033  -0.0421   0.0980  -0.1025   4.00    0.0
2018/11/09 00:53:00.000  -74.425543615  163.418461714    64.8518   6  10   0.0683   0.0655   0.2518  -0.0344   0.0804  -0.0835   4.00    0.0
2018/11/09 00:53:30.000  -74.425543488  163.418461391    64.7816   6  10   0.0552   0.0531   0.2000  -0.0270   0.0629  -0.0647   4.00    0.0
2018/11/09 00:54:00.000  -74.425543727  163.418462076    64.8106   6  10   0.0424   0.0412   0.1493  -0.0203   0.0465  -0.0469   4.00    0.0
2018/11/09 00:54:30.000  -74.425543762  163.418462265    64.7796   6  10   0.0308   0.0305   0.1021  -0.0144   0.0321  -0.0303   4.00    0.0
2018/11/09 00:55:00.000  -74.425543582  163.418462289    64.7515   6  10   0.0239   0.0244   0.0694  -0.0107   0.0231  -0.0168   4.00    0.0
2018/11/09 00:55:30.000  -74.425543495  163.418461544    64.7334   6  10   0.0316   0.0332   0.1015  -0.0158   0.0303  -0.0316   4.00    0.0
2018/11/09 00:56:00.000  -74.425543538  163.418461765    64.7754   6  10   0.0439   0.0422   0.1538  -0.0196   0.0429  -0.0524   3.00    0.0
2018/11/09 00:56:30.000  -74.425543440  163.418461499    64.6864   6  10   0.0576   0.0543   0.2081  -0.0257   0.0563  -0.0732   3.00    0.0
2018/11/09 00:57:00.000  -74.425543464  163.418462497    64.6381   6  10   0.0735   0.0679   0.2727  -0.0336   0.0716  -0.1005   3.00    0.0
2018/11/09 00:57:30.000  -74.425543533  163.418462026    64.6757   6  10   0.0935   0.0775   0.3702  -0.0428   0.0937  -0.1435   3.00    0.0
2018/11/09 00:58:00.000  -74.425543476  163.418461822    64.6340   6  10   0.0794   0.0642   0.3112  -0.0305   0.0685  -0.1216   3.00    0.0
2018/11/09 00:58:30.000  -74.425543733  163.418462016    64.7391   6  10   0.0559   0.0515   0.2060  -0.0261   0.0586  -0.0701   3.00    0.0
2018/11/09 00:59:00.000  -74.425543599  163.418461660    64.6932   6  10   0.0415   0.0395   0.1447  -0.0184   0.0416  -0.0453   4.00    0.0
2018/11/09 00:59:30.000  -74.425543733  163.418461221    64.7024   1  10   0.0328   0.0295   0.1157  -0.0148   0.0393  -0.0375   5.00    1.0
2018/11/09 01:00:00.000  -74.425543707  163.418462015    64.7811   1  10   0.0246   0.0222   0.0772  -0.0098   0.0312  -0.0225   5.00    1.0
2018/11/09 01:00:30.000  -74.425543796  163.418462656    64.8359   1  10   0.0327   0.0292   0.1144  -0.0144   0.0385  -0.0370   5.00    1.0
2018/11/09 01:01:00.000  -74.425543579  163.418462275    64.7081   6  10   0.0396   0.0383   0.1308  -0.0156   0.0348  -0.0362   4.00    0.0
2018/11/09 01:01:30.000  -74.425543595  163.418462836    64.7046   6  10   0.0519   0.0494   0.1797  -0.0214   0.0474  -0.0539   4.00    0.0
2018/11/09 01:02:00.000  -74.425543552  163.418463297    64.7014   6  10   0.0646   0.0605   0.2301  -0.0276   0.0605  -0.0721   4.00    0.0
2018/11/09 01:02:30.000  -74.425543312  163.418463262    64.6859   6  10   0.0773   0.0715   0.2810  -0.0338   0.0734  -0.0904   4.00    0.0
2018/11/09 01:03:00.000  -74.425543416  163.418462709    64.6560   6  10   0.0646   0.0601   0.2302  -0.0269   0.0583  -0.0720   4.00    0.0
2018/11/09 01:03:30.000  -74.425543557  163.418462780    64.7315   6  10   0.0519   0.0488   0.1790  -0.0203   0.0439  -0.0533   4.00    0.0
2018/11/09 01:04:00.000  -74.425543550  163.418462420    64.7251   6  10   0.0394   0.0377   0.1292  -0.0143   0.0308  -0.0350   5.00    0.0
2018/11/09 01:04:30.000  -74.425543813  163.418461609    64.7345   1  10   0.0325   0.0285   0.1117  -0.0129   0.0351  -0.0356   5.00    1.0
2018/11/09 01:05:00.000  -74.425543731  163.418461857    64.7722   1  10   0.0244   0.0216   0.0724  -0.0083   0.0288  -0.0204   5.00    1.0
2018/11/09 01:05:30.000  -74.425543754  163.418461999    64.8625   1  10   0.0324   0.0283   0.1105  -0.0125   0.0343  -0.0351   5.00    1.0
2018/11/09 01:06:00.000  -74.425543534  163.418462399    64.9440   6  10   0.0391   0.0373   0.1266  -0.0134   0.0279  -0.0334   5.00    0.0
2018/11/09 01:06:30.000  -74.425543541  163.418462960    65.0693   6  10   0.0513   0.0479   0.1750  -0.0185   0.0381  -0.0511   5.00    0.0
2018/11/09 01:07:00.000  -74.425543413  163.418462932    65.0273   6  10   0.0637   0.0585   0.2244  -0.0239   0.0485  -0.0689   5.00    0.0
2018/11/09 01:07:30.000  -74.425543359  163.418462746    64.8400   6  10   0.0763   0.0692   0.2740  -0.0293   0.0586  -0.0865   5.00    0.0
2018/11/09 01:08:00.000  -74.425543438  163.418463341    64.8002   6  10   0.0635   0.0582   0.2229  -0.0233   0.0459  -0.0680   5.00    0.0
2018/11/09 01:08:30.000  -74.425543467  163.418462961    64.7881   6  10   0.0509   0.0474   0.1726  -0.0175   0.0340  -0.0497   5.00    0.0
2018/11/09 01:09:00.000  -74.425543422  163.418462307    64.7309   6  10   0.0387   0.0368   0.1238  -0.0123   0.0235  -0.0316   5.00    0.0
2018/11/09 01:09:30.000  -74.425543618  163.418461177    64.7852   1  10   0.0321   0.0278   0.1066  -0.0109   0.0308  -0.0331   5.00    1.0
2018/11/09 01:10:00.000  -74.425543673  163.418461941    64.7581   1  11   0.0242   0.0212   0.0684  -0.0067   0.0266  -0.0186   5.00    1.0
2018/11/09 01:10:30.000  -74.425543709  163.418462096    64.7319   1  11   0.0320   0.0276   0.1054  -0.0104   0.0299  -0.0326   5.00    1.0
2018/11/09 01:11:00.000  -74.425543422  163.418462559    64.6622   6  11   0.0384   0.0364   0.1215  -0.0114   0.0204  -0.0303   5.00    0.0
2018/11/09 01:11:30.000  -74.425543374  163.418462102    64.6711   6  11   0.0450   0.0457   0.1497  -0.0057   0.0048  -0.0227   5.00    0.0
2018/11/09 01:12:00.000  -74.425543444  163.418462595    64.6342   6  11   0.0542   0.0555   0.1824  -0.0014  -0.0174  -0.0236   5.00    0.0
2018/11/09 01:12:30.000  -74.425543435  163.418463541    64.6456   6  11   0.0637   0.0654   0.2185   0.0044  -0.0259  -0.0286   5.00    0.0
2018/11/09 01:13:00.000  -74.425543414  163.418463192    64.6679   6  11   0.0537   0.0554   0.1807   0.0042  -0.0220  -0.0203   5.00    0.0
2018/11/09 01:13:30.000  -74.425543480  163.418462193    64.6949   6  11   0.0438   0.0454   0.1424   0.0035  -0.0174  -0.0095   5.00    0.0
2018/11/09 01:14:00.000  -74.425543699  163.418461894    64.8018   1  12   0.0386   0.0370   0.1306  -0.0093  -0.0169  -0.0291   7.00    1.0
2018/11/09 01:14:30.000  -74.425543645  163.418462125    64.8116   1  12   0.0279   0.0258   0.0868  -0.0053   0.0163  -0.0183   7.00    1.0
2018/11/09 01:15:00.000  -74.425543669  163.418462008    64.7604   1  12   0.0230   0.0200   0.0603  -0.0036   0.0218  -0.0115   7.00    1.0
2018/11/09 01:15:30.000  -74.425543804  163.418462596    64.7109   1  12   0.0279   0.0258   0.0866  -0.0049   0.0156  -0.0183   7.00    1.0
2018/11/09 01:16:00.000  -74.425543827  163.418462915    64.7438   1  12   0.0386   0.0369   0.1315  -0.0087  -0.0194  -0.0295   7.00    1.0
2018/11/09 01:16:30.000  -74.425543743  163.418464118    64.6975   6  12   0.0421   0.0430   0.1332  -0.0083  -0.0320  -0.0165   5.00    0.0
2018/11/09 01:17:00.000  -74.425543756  163.418464566    64.7152   6  12   0.0516   0.0522   0.1701  -0.0099  -0.0419  -0.0283   5.00    0.0
2018/11/09 01:17:30.000  -74.425543656  163.418464856    64.7080   6  12   0.0612   0.0616   0.2079  -0.0119  -0.0518  -0.0393   5.00    0.0
2018/11/09 01:18:00.000  -74.425543791  163.418464090    64.7768   6  12   0.0517   0.0523   0.1708  -0.0099  -0.0425  -0.0287   5.00    0.0
2018/11/09 01:18:30.000  -74.425543806  163.418464355    64.7328   6  12   0.0422   0.0430   0.1341  -0.0081  -0.0331  -0.0174   6.00    0.0
2018/11/09 01:19:00.000  -74.425544051  163.418463320    64.7298   1  12   0.0388   0.0370   0.1325  -0.0081  -0.0222  -0.0301   7.00    1.0
2018/11/09 01:19:30.000  -74.425543893  163.418462896    64.7539   1  12   0.0281   0.0258   0.0861  -0.0042   0.0125  -0.0184   7.00    1.0
2018/11/09 01:20:00.000  -74.425543672  163.418461901    64.7525   1  12   0.0227   0.0201   0.0587   0.0015   0.0202  -0.0114   7.00    1.0
2018/11/09 01:20:30.000  -74.425543582  163.418462245    64.7768   1  12   0.0282   0.0260   0.0861  -0.0038   0.0119  -0.0188   7.00    1.0
2018/11/09 01:21:00.000  -74.425543553  163.418461674    64.8057   1  12   0.0390   0.0371   0.1332  -0.0073  -0.0238  -0.0308   7.00    1.0
2018/11/09 01:21:30.000  -74.425543190  163.418463501    64.7139   6  12   0.0420   0.0425   0.1351  -0.0066  -0.0341  -0.0186   7.00    0.0
2018/11/09 01:22:00.000  -74.425543106  163.418463648    64.6490   6  12   0.0515   0.0516   0.1732  -0.0077  -0.0445  -0.0306   7.00    0.0
2018/11/09 01:22:30.000  -74.425543003  163.418463797    64.6143   6  12   0.0611   0.0610   0.2119  -0.0093  -0.0549  -0.0418   7.00    0.0
2018/11/09 01:23:00.000  -74.425543170  163.418463941    64.6160   6  12   0.0515   0.0517   0.1740  -0.0068  -0.0449  -0.0308   7.00    0.0
2018/11/09 01:23:30.000  -74.425543325  163.418463060    64.6371   6  12   0.0420   0.0425   0.1361  -0.0054  -0.0349  -0.0192   7.00    0.0
2018/11/09 01:24:00.000  -74.425543498  163.418461313    64.7248   1  12   0.0391   0.0372   0.1346  -0.0056  -0.0257  -0.0313   7.00    1.0
2018/11/09 01:24:30.000  -74.425543567  163.418461295    64.7749   1  12   0.0284   0.0260   0.0870   0.0014   0.0081  -0.0196   7.00    1.0
2018/11/09 01:25:00.000  -74.425543655  163.418461515    64.7288   1  12   0.0233   0.0205   0.0587   0.0035   0.0188  -0.0132   7.00    1.0
2018/11/09 01:25:30.000  -74.425543437  163.418462038    64.6934   1  12   0.0290   0.0266   0.0880   0.0016   0.0083  -0.0216   7.00    1.0
2018/11/09 01:26:00.000  -74.425543533  163.418462367    64.6331   1  12   0.0399   0.0381   0.1364  -0.0054  -0.0254  -0.0341   7.00    1.0
2018/11/09 01:26:30.000  -74.425543346  163.418462749    64.6054   6  12   0.0421   0.0425   0.1368  -0.0038  -0.0348  -0.0213   6.00    0.0
2018/11/09 01:27:00.000  -74.425543368  163.418462976    64.6564   6  12   0.0515   0.0519   0.1753  -0.0055  -0.0447  -0.0331   6.00    0.0
2018/11/09 01:27:30.000  -74.425543303  163.418462681    64.6190   6  12   0.0613   0.0620   0.2145  -0.0090  -0.0539  -0.0447   6.00    0.0
2018/11/09 01:28:00.000  -74.425543283  163.418462698    64.6042   6  12   0.0517   0.0514   0.1754  -0.0058  -0.0452  -0.0344   6.00    0.0
2018/11/09 01:28:30.000  -74.425543217  163.418461912    64.5892   6  12   0.0423   0.0419   0.1367  -0.0014  -0.0359  -0.0228   6.00    0.0
2018/11/09 01:29:00.000  -74.425543555  163.418460410    64.5998   1  12   0.0406   0.0373   0.1368   0.0057  -0.0301  -0.0363   7.00    1.0
2018/11/09 01:29:30.000  -74.425543624  163.418460737    64.6438   1  12   0.0311   0.0262   0.0925   0.0082  -0.0125  -0.0287   7.00    1.0
2018/11/09 01:30:00.000  -74.425543597  163.418461399    64.7428   1  12   0.0233   0.0201   0.0586   0.0054   0.0174  -0.0134   7.00    1.0
2018/11/09 01:30:30.000  -74.425543602  163.418461471    64.7660   1  12   0.0288   0.0261   0.0871   0.0051  -0.0067  -0.0212   7.00    1.0
2018/11/09 01:31:00.000  -74.425543578  163.418461097    64.7663   1  12   0.0396   0.0372   0.1341   0.0036  -0.0293  -0.0330   7.00    1.0
2018/11/09 01:31:30.000  -74.425543364  163.418461974    64.6902   6  12   0.0419   0.0411   0.1353   0.0049  -0.0370  -0.0218   6.00    0.0
2018/11/09 01:32:00.000  -74.425543414  163.418461837    64.6978   6  12   0.0513   0.0502   0.1724   0.0055  -0.0474  -0.0329   6.00    0.0
2018/11/09 01:32:30.000  -74.425543446  163.418462062    64.7082   6  12   0.0610   0.0595   0.2099   0.0054  -0.0580  -0.0435   6.00    0.0
2018/11/09 01:33:00.000  -74.425543500  163.418462211    64.6911   6  12   0.0514   0.0501   0.1720   0.0061  -0.0475  -0.0331   7.00    0.0
2018/11/09 01:33:30.000  -74.425543504  163.418461368    64.7801   6  12   0.0420   0.0411   0.1347   0.0056  -0.0372  -0.0219   7.00    0.0
2018/11/09 01:34:00.000  -74.425543538  163.418460959    64.7518   1  12   0.0399   0.0373   0.1337   0.0054  -0.0302  -0.0335   7.00    1.0
2018/11/09 01:34:30.000  -74.425543418  163.418461049    64.7221   1  12   0.0294   0.0263   0.0883   0.0065  -0.0106  -0.0226   7.00    1.0
2018/11/09 01:35:00.000  -74.425543590  163.418461320    64.7287   1  12   0.0244   0.0206   0.0622   0.0069   0.0152  -0.0172   7.00    1.0
2018/11/09 01:35:30.000  -74.425543604  163.418460862    64.8016   1  12   0.0311   0.0267   0.0934   0.0088  -0.0151  -0.0283   6.00    1.0
2018/11/09 01:36:00.000  -74.425543321  163.418461905    64.7863   6  12   0.0347   0.0325   0.1013   0.0086  -0.0293  -0.0174   7.00    0.0
2018/11/09 01:36:30.000  -74.425543176  163.418462370    64.7684   6  12   0.0453   0.0411   0.1393   0.0127  -0.0411  -0.0339   7.00    0.0
2018/11/09 01:37:00.000  -74.425543275  163.418462612    64.8052   6  12   0.0559   0.0501   0.1831   0.0150  -0.0530  -0.0510   7.00    0.0
2018/11/09 01:37:30.000  -74.425543283  163.418462605    64.8392   6  12   0.0644   0.0592   0.2140   0.0147  -0.0619  -0.0557   7.00    0.0
2018/11/09 01:38:00.000  -74.425543366  163.418462514    64.8034   6  12   0.0550   0.0500   0.1777   0.0142  -0.0520  -0.0460   7.00    0.0
2018/11/09 01:38:30.000  -74.425543275  163.418462476    64.7377   6  12   0.0469   0.0414   0.1444   0.0149  -0.0436  -0.0401   7.00    0.0
2018/11/09 01:39:00.000  -74.425543278  163.418462098    64.7121   6  12   0.0375   0.0329   0.1113   0.0123  -0.0335  -0.0304   7.00    0.0
2018/11/09 01:39:30.000  -74.425543483  163.418461444    64.7674   1  12   0.0335   0.0274   0.1001   0.0114  -0.0207  -0.0339   5.00    1.0
2018/11/09 01:40:00.000  -74.425543689  163.418461295    64.7220   1  12   0.0250   0.0215   0.0647   0.0072   0.0136  -0.0177   5.00    1.0
2018/11/09 01:40:30.000  -74.425543615  163.418461611    64.7136   1  12   0.0284   0.0274   0.0927   0.0097  -0.0186  -0.0186   6.00    1.0
2018/11/09 01:41:00.000  -74.425543650  163.418461975    64.7020   1  12   0.0403   0.0385   0.1364   0.0110  -0.0351  -0.0302   6.00    1.0
2018/11/09 01:41:30.000  -74.425543217  163.418463090    64.6137   6  12   0.0426   0.0403   0.1323   0.0086  -0.0383  -0.0183   6.00    0.0
2018/11/09 01:42:00.000  -74.425543148  163.418463905    64.6353   6  12   0.0520   0.0491   0.1651   0.0096  -0.0479  -0.0286   6.00    0.0
2018/11/09 01:42:30.000  -74.425543166  163.418463571    64.6680   6  12   0.0616   0.0584   0.1984   0.0103  -0.0577  -0.0382   6.00    0.0
2018/11/09 01:43:00.000  -74.425543161  163.418463048    64.7008   6  12   0.0525   0.0493   0.1650   0.0107  -0.0475  -0.0270   6.00    0.0
2018/11/09 01:43:30.000  -74.425543236  163.418463051    64.7750   6  12   0.0444   0.0406   0.1336   0.0114  -0.0374  -0.0082   6.00    0.0
2018/11/09 01:44:00.000  -74.425543402  163.418463290    64.7373   6  11   0.0354   0.0325   0.1035   0.0099  -0.0294   0.0117   5.00    0.0
2018/11/09 01:44:30.000  -74.425543709  163.418461519    64.7773   1  11   0.0321   0.0291   0.1076   0.0138  -0.0277  -0.0287   6.00    1.0
2018/11/09 01:45:00.000  -74.425543701  163.418461282    64.7152   1  11   0.0227   0.0224   0.0722   0.0100  -0.0078  -0.0127   6.00    1.0
2018/11/09 01:45:30.000  -74.425543905  163.418461179    64.7102   1  10   0.0322   0.0325   0.1267   0.0137  -0.0412  -0.0285   6.00    1.0
2018/11/09 01:46:00.000  -74.425543905  163.418462412    64.6837   6  10   0.0391   0.0397   0.1512   0.0142  -0.0582  -0.0255   5.00    0.0
2018/11/09 01:46:30.000  -74.425543860  163.418462573    64.6979   6   9   0.0517   0.0529   0.2118   0.0201  -0.0830  -0.0421   5.00    0.0
2018/11/09 01:47:00.000  -74.425543619  163.418463405    64.6184   6   9   0.0649   0.0669   0.2743   0.0262  -0.1087  -0.0584   5.00    0.0
2018/11/09 01:47:30.000  -74.425543490  163.418463765    64.5480   6   9   0.0785   0.0815   0.3379   0.0324  -0.1348  -0.0745   5.00    0.0
2018/11/09 01:48:00.000  -74.425543274  163.418463165    64.6408   6   9   0.0649   0.0675   0.2749   0.0269  -0.1099  -0.0590   5.00    0.0
2018/11/09 01:48:30.000  -74.425543413  163.418462505    64.6983   6   9   0.0517   0.0537   0.2137   0.0212  -0.0852  -0.0433   5.00    0.0
2018/11/09 01:49:00.000  -74.425543583  163.418461958    64.7232   6   9   0.0391   0.0406   0.1540   0.0155  -0.0606  -0.0275   5.00    0.0
2018/11/09 01:49:30.000  -74.425543861  163.418460955    64.8074   1   9   0.0325   0.0334   0.1316   0.0151  -0.0443  -0.0318   6.00    1.0
2018/11/09 01:50:00.000  -74.425543673  163.418461367    64.7346   1   9   0.0234   0.0235   0.0808   0.0116  -0.0149  -0.0198   6.00    1.0
2018/11/09 01:50:30.000  -74.425543266  163.418462393    64.5231   1   9   0.0328   0.0337   0.1343   0.0155  -0.0449  -0.0336   6.00    1.0
2018/11/09 01:51:00.000  -74.425542805  163.418464049    64.3105   6   9   0.0391   0.0411   0.1565   0.0162  -0.0620  -0.0293   5.00    0.0
2018/11/09 01:51:30.000  -74.425542980  163.418463941    64.3820   6   9   0.0518   0.0548   0.2175   0.0226  -0.0880  -0.0455   5.00    0.0
2018/11/09 01:52:00.000  -74.425543069  163.418463923    64.4181   6   9   0.0650   0.0695   0.2804   0.0292  -0.1147  -0.0617   5.00    0.0
2018/11/09 01:52:30.000  -74.425543249  163.418463764    64.4918   6   9   0.0787   0.0846   0.3441   0.0359  -0.1418  -0.0777   5.00    0.0
2018/11/09 01:53:00.000  -74.425543391  163.418463178    64.5174   6   9   0.0650   0.0698   0.2804   0.0297  -0.1154  -0.0622   5.00    0.0
2018/11/09 01:53:30.000  -74.425543486  163.418461923    64.6405   6   9   0.0518   0.0554   0.2182   0.0234  -0.0892  -0.0466   5.00    0.0
2018/11/09 01:54:00.000  -74.425543431  163.418462912    64.6049   6   9   0.0392   0.0417   0.1584   0.0172  -0.0636  -0.0314   5.00    0.0
2018/11/09 01:54:30.000  -74.425543731  163.418461847    64.6933   1   9   0.0336   0.0345   0.1415   0.0171  -0.0479  -0.0387   5.00    1.0
2018/11/09 01:55:00.000  -74.425543649  163.418461060    64.7358   1   9   0.0246   0.0242   0.0927   0.0130  -0.0199  -0.0272   5.00    1.0
2018/11/09 01:55:30.000  -74.425543462  163.418462297    64.5939   6   9   0.0287   0.0300   0.1096   0.0124  -0.0409  -0.0226   5.00    0.0
2018/11/09 01:56:00.000  -74.425543474  163.418462364    64.6295   6   9   0.0406   0.0421   0.1679   0.0189  -0.0657  -0.0405   5.00    0.0
2018/11/09 01:56:30.000  -74.425543603  163.418462401    64.6333   6   9   0.0540   0.0562   0.2318   0.0260  -0.0926  -0.0591   5.00    0.0
2018/11/09 01:57:00.000  -74.425543421  163.418463264    64.5881   6   9   0.0682   0.0713   0.2982   0.0335  -0.1203  -0.0783   5.00    0.0
2018/11/09 01:57:30.000  -74.425543700  163.418462174    64.6833   6   9   0.0830   0.0868   0.3665   0.0414  -0.1486  -0.0985   5.00    0.0
2018/11/09 01:58:00.000  -74.425543592  163.418462094    64.6395   6   9   0.0712   0.0719   0.3149   0.0361  -0.1239  -0.0900   5.00    0.0
2018/11/09 01:58:30.000  -74.425543808  163.418461067    64.7004   6   8   0.0688   0.0596   0.3222   0.0387  -0.1135  -0.1138   4.00    0.0
2018/11/09 01:59:00.000  -74.425543715  163.418461217    64.5964   6   8   0.0503   0.0446   0.2300   0.0280  -0.0810  -0.0792   4.00    0.0
2018/11/09 01:59:30.000  -74.425543905  163.418460053    64.7191   1   9   0.0304   0.0342   0.1311   0.0139  -0.0432  -0.0251   5.00    1.0
2018/11/09 02:00:00.000  -74.425543675  163.418460989    64.7345   1   9   0.0221   0.0247   0.0901   0.0122  -0.0188  -0.0197   5.00    1.0
2018/11/09 02:00:30.000  -74.425543658  163.418460458    64.8299   1   9   0.0304   0.0343   0.1326   0.0142  -0.0437  -0.0254   5.00    1.0
2018/11/09 02:01:00.000  -74.425543262  163.418462853    64.5980   6   9   0.0368   0.0413   0.1521   0.0150  -0.0604  -0.0219   4.00    0.0
2018/11/09 02:01:30.000  -74.425543142  163.418462778    64.5751   6   9   0.0482   0.0547   0.2047   0.0193  -0.0834  -0.0314   4.00    0.0
2018/11/09 02:02:00.000  -74.425542980  163.418464074    64.4802   6   9   0.0603   0.0689   0.2610   0.0240  -0.1074  -0.0421   4.00    0.0
2018/11/09 02:02:30.000  -74.425542928  163.418464757    64.4320   6   9   0.0728   0.0836   0.3194   0.0291  -0.1321  -0.0538   4.00    0.0
2018/11/09 02:03:00.000  -74.425542925  163.418464093    64.4045   6   9   0.0605   0.0694   0.2632   0.0255  -0.1085  -0.0461   4.00    0.0
2018/11/09 02:03:30.000  -74.425543060  163.418463637    64.4668   6   9   0.0485   0.0553   0.2080   0.0214  -0.0851  -0.0371   4.00    0.0
2018/11/09 02:04:00.000  -74.425543306  163.418461800    64.6225   6   9   0.0370   0.0419   0.1547   0.0171  -0.0621  -0.0275   4.00    0.0
2018/11/09 02:04:30.000  -74.425543687  163.418460052    64.7365   1   9   0.0305   0.0352   0.1358   0.0159  -0.0457  -0.0291   5.00    1.0
2018/11/09 02:05:00.000  -74.425543693  163.418460883    64.7054   1   9   0.0222   0.0254   0.0947   0.0127  -0.0213  -0.0211   5.00    1.0
2018/11/09 02:05:30.000  -74.425543637  163.418462177    64.6264   1   9   0.0306   0.0355   0.1373   0.0161  -0.0461  -0.0295   5.00    1.0
2018/11/09 02:06:00.000  -74.425543233  163.418463420    64.5401   6   9   0.0370   0.0420   0.1551   0.0182  -0.0623  -0.0298   4.00    0.0
2018/11/09 02:06:30.000  -74.425543264  163.418462557    64.6168   6   9   0.0487   0.0556   0.2116   0.0240  -0.0865  -0.0433   4.00    0.0
2018/11/09 02:07:00.000  -74.425543291  163.418463085    64.4989   6   9   0.0612   0.0701   0.2716   0.0302  -0.1118  -0.0579   4.00    0.0
2018/11/09 02:07:30.000  -74.425543269  163.418462969    64.5180   6   9   0.0742   0.0850   0.3334   0.0368  -0.1375  -0.0732   4.00    0.0
2018/11/09 02:08:00.000  -74.425543559  163.418461906    64.6350   6   9   0.0615   0.0701   0.2732   0.0310  -0.1122  -0.0599   4.00    0.0
2018/11/09 02:08:30.000  -74.425543688  163.418461620    64.7074   6   9   0.0492   0.0557   0.2140   0.0253  -0.0872  -0.0469   4.00    0.0
2018/11/09 02:09:00.000  -74.425543845  163.418460650    64.8326   6   9   0.0374   0.0421   0.1569   0.0196  -0.0628  -0.0335   4.00    0.0
2018/11/09 02:09:30.000  -74.425543820  163.418460487    64.8496   1   9   0.0308   0.0358   0.1401   0.0170  -0.0466  -0.0321   5.00    1.0
2018/11/09 02:10:00.000  -74.425543714  163.418460799    64.7515   1   9   0.0223   0.0263   0.1003   0.0130  -0.0217  -0.0228   5.00    1.0
2018/11/09 02:10:30.000  -74.425543797  163.418460480    64.8079   1   9   0.0309   0.0356   0.1408   0.0174  -0.0472  -0.0323   5.00    1.0
2018/11/09 02:11:00.000  -74.425543643  163.418461034    64.7813   6   9   0.0376   0.0417   0.1576   0.0203  -0.0619  -0.0364   4.00    0.0
2018/11/09 02:11:30.000  -74.425543677  163.418461035    64.7939   6   9   0.0498   0.0554   0.2163   0.0273  -0.0871  -0.0530   4.00    0.0
2018/11/09 02:12:00.000  -74.425543735  163.418461233    64.7939   6   9   0.0628   0.0700   0.2781   0.0348  -0.1130  -0.0705   4.00    0.0
2018/11/09 02:12:30.000  -74.425543666  163.418461593    64.7694   6   9   0.0763   0.0850   0.3414   0.0426  -0.1392  -0.0886   4.00    0.0
2018/11/09 02:13:00.000  -74.425543801  163.418460488    64.9197   6   9   0.0634   0.0701   0.2794   0.0357  -0.1134  -0.0727   4.00    0.0
2018/11/09 02:13:30.000  -74.425543724  163.418460838    64.8264   6   9   0.0506   0.0555   0.2178   0.0287  -0.0875  -0.0565   4.00    0.0
2018/11/09 02:14:00.000  -74.425543400  163.418461880    64.6937   6   9   0.0383   0.0417   0.1587   0.0217  -0.0622  -0.0401   4.00    0.0
2018/11/09 02:14:30.000  -74.425543734  163.418460416    64.8329   1   9   0.0316   0.0359   0.1421   0.0184  -0.0475  -0.0351   5.00    1.0
2018/11/09 02:15:00.000  -74.425543777  163.418460659    64.8024   1   9   0.0225   0.0264   0.1013   0.0135  -0.0242  -0.0228   5.00    1.0
2018/11/09 02:15:30.000  -74.425543734  163.418460970    64.7485   6   9   0.0274   0.0293   0.1056   0.0152  -0.0379  -0.0248   4.00    0.0
2018/11/09 02:16:00.000  -74.425543641  163.418460716    64.8029   6   9   0.0386   0.0411   0.1573   0.0224  -0.0611  -0.0420   4.00    0.0
2018/11/09 02:16:30.000  -74.425543710  163.418459707    64.9743   6   9   0.0514   0.0548   0.2165   0.0303  -0.0863  -0.0609   4.00    0.0
2018/11/09 02:17:00.000  -74.425543827  163.418459388    65.0767   6   9   0.0651   0.0693   0.2782   0.0387  -0.1120  -0.0806   4.00    0.0
2018/11/09 02:17:30.000  -74.425543574  163.418460926    64.9295   6   9   0.0792   0.0841   0.3409   0.0473  -0.1379  -0.1007   4.00    0.0
2018/11/09 02:18:00.000  -74.425543300  163.418462005    64.7463   6   9   0.0656   0.0692   0.2779   0.0394  -0.1117  -0.0825   4.00    0.0
2018/11/09 02:18:30.000  -74.425543467  163.418460898    64.8162   6   9   0.0522   0.0546   0.2156   0.0313  -0.0856  -0.0637   4.00    0.0
2018/11/09 02:19:00.000  -74.425543450  163.418461450    64.7209   6   9   0.0393   0.0408   0.1561   0.0234  -0.0601  -0.0449   4.00    0.0
2018/11/09 02:19:30.000  -74.425543499  163.418461133    64.7290   1   9   0.0324   0.0359   0.1418   0.0191  -0.0463  -0.0376   5.00    1.0
2018/11/09 02:20:00.000  -74.425543758  163.418460587    64.8117   1   9   0.0227   0.0268   0.1018   0.0133  -0.0234  -0.0229   5.00    1.0
2018/11/09 02:20:30.000  -74.425543432  163.418461868    64.6726   1   9   0.0327   0.0359   0.1418   0.0191  -0.0458  -0.0375   5.00    1.0
2018/11/09 02:21:00.000  -74.425542911  163.418464149    64.4074   6   9   0.0396   0.0401   0.1534   0.0235  -0.0581  -0.0458   4.00    0.0
2018/11/09 02:21:30.000  -74.425543208  163.418462993    64.6024   6   9   0.0530   0.0535   0.2110   0.0320  -0.0827  -0.0662   4.00    0.0
2018/11/09 02:22:00.000  -74.425543216  163.418463461    64.5731   6   9   0.0672   0.0677   0.2706   0.0410  -0.1076  -0.0871   4.00    0.0
2018/11/09 02:22:30.000  -74.425543282  163.418462909    64.5947   6   9   0.0818   0.0821   0.3307   0.0501  -0.1323  -0.1083   4.00    0.0
2018/11/09 02:23:00.000  -74.425543249  163.418462561    64.5932   6   9   0.0677   0.0673   0.2685   0.0413  -0.1062  -0.0882   4.00    0.0
2018/11/09 02:23:30.000  -74.425543143  163.418461806    64.6222   6   9   0.0537   0.0529   0.2076   0.0325  -0.0806  -0.0677   4.00    0.0
2018/11/09 02:24:00.000  -74.425543032  163.418462033    64.4935   6   9   0.0403   0.0395   0.1498   0.0239  -0.0556  -0.0473   4.00    0.0
2018/11/09 02:24:30.000  -74.425543310  163.418462086    64.5550   1   9   0.0330   0.0337   0.1363   0.0126  -0.0474  -0.0430   6.00    1.0
2018/11/09 02:25:00.000  -74.425543789  163.418460419    64.8222   1   9   0.0226   0.0245   0.0974  -0.0068  -0.0286  -0.0289   6.00    1.0
2018/11/09 02:25:30.000  -74.425543587  163.418460605    64.8489   1   9   0.0262   0.0248   0.0958   0.0105  -0.0347  -0.0317   4.00    1.0
2018/11/09 02:26:00.000  -74.425543658  163.418459328    64.9444   6   9   0.0404   0.0388   0.1468   0.0236  -0.0530  -0.0475   4.00    0.0
2018/11/09 02:26:30.000  -74.425543635  163.418459124    64.8759   6   9   0.0543   0.0517   0.2011   0.0325  -0.0766  -0.0685   4.00    0.0
2018/11/09 02:27:00.000  -74.425543717  163.418459275    64.8426   6   9   0.0689   0.0654   0.2571   0.0417  -0.1001  -0.0899   4.00    0.0
2018/11/09 02:27:30.000  -74.425543448  163.418460663    64.7187   6   9   0.0840   0.0794   0.3133   0.0511  -0.1233  -0.1115   4.00    0.0
2018/11/09 02:28:00.000  -74.425543410  163.418460466    64.7157   6   9   0.0693   0.0651   0.2541   0.0419  -0.0987  -0.0906   4.00    0.0
2018/11/09 02:28:30.000  -74.425543394  163.418460322    64.6963   6   9   0.0548   0.0512   0.1966   0.0327  -0.0743  -0.0693   4.00    0.0
2018/11/09 02:29:00.000  -74.425543512  163.418459612    64.7859   6   9   0.0409   0.0382   0.1425   0.0237  -0.0502  -0.0484   4.00    0.0
2018/11/09 02:29:30.000  -74.425543616  163.418460094    64.7928   1   9   0.0345   0.0332   0.1362   0.0123  -0.0422  -0.0459   5.00    1.0
2018/11/09 02:30:00.000  -74.425543852  163.418460040    64.8362   1   9   0.0240   0.0248   0.1028  -0.0086  -0.0232  -0.0319   5.00    1.0
2018/11/09 02:30:30.000  -74.425543266  163.418461467    64.6708   6   8   0.0296   0.0279   0.1061   0.0144  -0.0237  -0.0337   3.00    0.0
2018/11/09 02:31:00.000  -74.425543158  163.418461701    64.6169   6   8   0.0432   0.0396   0.1631   0.0213  -0.0437  -0.0582   3.00    0.0
2018/11/09 02:31:30.000  -74.425543025  163.418461991    64.6307   6   8   0.0588   0.0544   0.2269   0.0282  -0.0649  -0.0844   2.00    0.0
2018/11/09 02:32:00.000  -74.425542760  163.418463593    64.4755   6   8   0.0753   0.0681   0.2923   0.0363  -0.0844  -0.1114   2.00    0.0
2018/11/09 02:32:30.000  -74.425543131  163.418463079    64.5957   6   8   0.0922   0.0810   0.3582   0.0450  -0.1028  -0.1389   2.00    0.0
2018/11/09 02:33:00.000  -74.425543262  163.418462488    64.6559   6   8   0.0758   0.0656   0.2910   0.0371  -0.0806  -0.1125   2.00    0.0
2018/11/09 02:33:30.000  -74.425543239  163.418462694    64.6728   6   8   0.0597   0.0516   0.2251   0.0289  -0.0592  -0.0862   2.00    0.0
2018/11/09 02:34:00.000  -74.425543470  163.418461504    64.8121   6   8   0.0442   0.0389   0.1628   0.0207  -0.0373  -0.0602   2.00    0.0
2018/11/09 02:34:30.000  -74.425543659  163.418460829    64.8720   6   8   0.0303   0.0275   0.1062   0.0138  -0.0176  -0.0351   1.00    0.0
2018/11/09 02:35:00.000  -74.425543811  163.418459940    64.8377   1   8   0.0232   0.0184   0.1017   0.0107  -0.0130  -0.0350   4.00    2.0
2018/11/09 02:35:30.000  -74.425543791  163.418460379    64.7528   6   8   0.0305   0.0275   0.1059   0.0140  -0.0171  -0.0333   2.00    0.0
2018/11/09 02:36:00.000  -74.425543688  163.418460461    64.7161   6   8   0.0447   0.0390   0.1615   0.0205  -0.0368  -0.0588   1.00    0.0
2018/11/09 02:36:30.000  -74.425543846  163.418460643    64.7404   6   8   0.0610   0.0511   0.2224   0.0281  -0.0541  -0.0865   1.00    0.0
2018/11/09 02:37:00.000  -74.425543610  163.418461547    64.6415   6   9   0.0777   0.0643   0.2695   0.0361  -0.0689  -0.1178   1.00    0.0
2018/11/09 02:37:30.000  -74.425543825  163.418460384    64.7736   6   9   0.0954   0.0788   0.3249   0.0435  -0.0840  -0.1470   1.00    0.0
2018/11/09 02:38:00.000  -74.425543795  163.418460793    64.7899   6   9   0.0784   0.0671   0.2648   0.0342  -0.0658  -0.1188   2.00    0.0
2018/11/09 02:38:30.000  -74.425543739  163.418460577    64.7722   6   9   0.0613   0.0510   0.2061   0.0278  -0.0472  -0.0905   2.00    0.0
2018/11/09 02:39:00.000  -74.425543624  163.418461051    64.7166   6   9   0.0451   0.0384   0.1512   0.0210  -0.0266  -0.0618   2.00    0.0
2018/11/09 02:39:30.000  -74.425543722  163.418460657    64.7565   1   8   0.0371   0.0299   0.1384   0.0175  -0.0163  -0.0561   5.00    2.0
2018/11/09 02:40:00.000  -74.425543862  163.418460177    64.8257   1   8   0.0250   0.0200   0.0945   0.0119  -0.0102  -0.0383   5.00    2.0
2018/11/09 02:40:30.000  -74.425543966  163.418459928    64.8849   1   8   0.0390   0.0304   0.1397   0.0195  -0.0176  -0.0584   6.00    2.0
2018/11/09 02:41:00.000  -74.425543833  163.418459725    64.8223   6   8   0.0459   0.0387   0.1571   0.0218  -0.0156  -0.0630   3.00    0.0
2018/11/09 02:41:30.000  -74.425543866  163.418460505    64.7949   6   8   0.0628   0.0517   0.2193   0.0292  -0.0252  -0.0910   3.00    0.0
2018/11/09 02:42:00.000  -74.425544122  163.418460885    64.8247   6   8   0.0803   0.0654   0.2841   0.0366  -0.0324  -0.1195   3.00    0.0
2018/11/09 02:42:30.000  -74.425544148  163.418460948    64.8769   6   8   0.0982   0.0795   0.3501   0.0438  -0.0376  -0.1483   3.00    0.0
2018/11/09 02:43:00.000  -74.425544273  163.418460624    64.9067   6   8   0.0810   0.0656   0.2863   0.0362  -0.0272  -0.1210   4.00    0.0
2018/11/09 02:43:30.000  -74.425544113  163.418460156    64.8751   6   8   0.0642   0.0521   0.2228   0.0292  -0.0181  -0.0938   4.00    0.0
2018/11/09 02:44:00.000  -74.425543569  163.418460680    64.7598   6   8   0.0493   0.0400   0.1618   0.0242  -0.0142  -0.0683   4.00    0.0
2018/11/09 02:44:30.000  -74.425543517  163.418460579    64.7163   1   9   0.0353   0.0287   0.1173   0.0113   0.0275  -0.0480   6.00    2.0
2018/11/09 02:45:00.000  -74.425543736  163.418460511    64.7839   1   9   0.0257   0.0196   0.0860   0.0104   0.0154  -0.0370   6.00    2.0
2018/11/09 02:45:30.000  -74.425543905  163.418460533    64.7727   1   9   0.0355   0.0285   0.1190   0.0091   0.0289  -0.0493   6.00    2.0
2018/11/09 02:46:00.000  -74.425543918  163.418460733    64.8053   6   9   0.0426   0.0372   0.1301   0.0134   0.0350  -0.0509   3.00    0.0
2018/11/09 02:46:30.000  -74.425544024  163.418459961    64.8370   6   9   0.0571   0.0495   0.1773   0.0150   0.0503  -0.0711   3.00    0.0
2018/11/09 02:47:00.000  -74.425543956  163.418460583    64.8111   6   9   0.0724   0.0626   0.2278   0.0160   0.0663  -0.0923   3.00    0.0
2018/11/09 02:47:30.000  -74.425543902  163.418461781    64.7822   6   9   0.0882   0.0763   0.2802   0.0166   0.0829  -0.1143   4.00    0.0
2018/11/09 02:48:00.000  -74.425543849  163.418462132    64.7485   6   9   0.0729   0.0631   0.2315   0.0146   0.0684  -0.0940   4.00    0.0
2018/11/09 02:48:30.000  -74.425543628  163.418462263    64.6492   6   9   0.0577   0.0501   0.1823   0.0129   0.0535  -0.0735   4.00    0.0
2018/11/09 02:49:00.000  -74.425543643  163.418461990    64.6980   6   9   0.0432   0.0378   0.1346   0.0114   0.0387  -0.0534   4.00    0.0
2018/11/09 02:49:30.000  -74.425543889  163.418460782    64.7604   1   9   0.0368   0.0297   0.1242   0.0037   0.0342  -0.0528   4.00    2.0
2018/11/09 02:50:00.000  -74.425543788  163.418460658    64.8270   1   9   0.0285   0.0240   0.0920  -0.0129   0.0198  -0.0387   4.00    1.0
2018/11/09 02:50:30.000  -74.425543865  163.418460985    64.8764   6   9   0.0310   0.0285   0.0969   0.0046   0.0304  -0.0377   4.00    0.0
2018/11/09 02:51:00.000  -74.425543825  163.418460878    64.9128   6   9   0.0465   0.0432   0.1618  -0.0162   0.0586  -0.0664   2.00    0.0
2018/11/09 02:51:30.000  -74.425543805  163.418460434    64.8282   6   9   0.0601   0.0535   0.2019  -0.0139   0.0680  -0.0831   3.00    0.0
2018/11/09 02:52:00.000  -74.425544012  163.418461325    64.9719   6   9   0.0751   0.0663   0.2504  -0.0144   0.0824  -0.1032   3.00    0.0
2018/11/09 02:52:30.000  -74.425544208  163.418461497    64.9582   6   9   0.0910   0.0800   0.3036  -0.0172   0.0995  -0.1254   3.00    0.0
2018/11/09 02:53:00.000  -74.425544340  163.418460890    64.9281   6   9   0.0751   0.0660   0.2495  -0.0141   0.0821  -0.1031   3.00    0.0
2018/11/09 02:53:30.000  -74.425543962  163.418460767    64.8314   6   9   0.0594   0.0523   0.1957  -0.0100   0.0644  -0.0806   3.00    0.0
2018/11/09 02:54:00.000  -74.425543990  163.418460246    64.8130   6   9   0.0444   0.0392   0.1429  -0.0041   0.0463  -0.0583   5.00    0.0
2018/11/09 02:54:30.000  -74.425543827  163.418460372    64.7590   1   9   0.0386   0.0319   0.1227  -0.0105   0.0309  -0.0517   6.00    1.0
2018/11/09 02:55:00.000  -74.425543767  163.418460274    64.8039   1   9   0.0281   0.0220   0.0836  -0.0095   0.0097  -0.0358   7.00    1.0
2018/11/09 02:55:30.000  -74.425543860  163.418460092    64.8194   1   9   0.0388   0.0320   0.1231  -0.0107   0.0313  -0.0521   7.00    1.0
2018/11/09 02:56:00.000  -74.425543928  163.418460435    64.8197   6   9   0.0439   0.0385   0.1396   0.0041   0.0448  -0.0568   5.00    0.0
2018/11/09 02:56:30.000  -74.425543905  163.418460506    64.8380   6   9   0.0591   0.0520   0.1939  -0.0093   0.0642  -0.0799   5.00    0.0
2018/11/09 02:57:00.000  -74.425543627  163.418461234    64.7542   6   9   0.0752   0.0663   0.2508  -0.0161   0.0844  -0.1039   5.00    0.0
2018/11/09 02:57:30.000  -74.425543944  163.418461034    64.8319   6   9   0.0917   0.0810   0.3088  -0.0224   0.1051  -0.1283   5.00    0.0
2018/11/09 02:58:00.000  -74.425543834  163.418460625    64.7450   6   9   0.0755   0.0668   0.2529  -0.0177   0.0860  -0.1049   5.00    0.0
2018/11/09 02:58:30.000  -74.425543836  163.418460888    64.7719   6   9   0.0595   0.0526   0.1966  -0.0122   0.0666  -0.0812   5.00    0.0
2018/11/09 02:59:00.000  -74.425543892  163.418460397    64.7806   6   9   0.0442   0.0392   0.1420  -0.0055   0.0473  -0.0581   4.00    0.0
2018/11/09 02:59:30.000  -74.425543872  163.418460221    64.7551   1   9   0.0394   0.0325   0.1250  -0.0125   0.0340  -0.0535   6.00    1.0
2018/11/09 03:00:00.000  -74.425543909  163.418460408    64.7714   6   9   0.0233   0.0212   0.0644   0.0065   0.0178  -0.0241   4.00    0.0
2018/11/09 03:00:30.000  -74.425543915  163.418460893    64.7965   6   9   0.0306   0.0273   0.0921   0.0054   0.0292  -0.0366   4.00    0.0
2018/11/09 03:01:00.000  -74.425543863  163.418460181    64.7575   6   9   0.0441   0.0393   0.1418  -0.0073   0.0483  -0.0581   4.00    0.0
2018/11/09 03:01:30.000  -74.425544011  163.418460691    64.7854   6   9   0.0595   0.0533   0.1975  -0.0150   0.0692  -0.0818   4.00    0.0
2018/11/09 03:02:00.000  -74.425544218  163.418459100    64.7888   6   9   0.0758   0.0682   0.2552  -0.0220   0.0908  -0.1063   4.00    0.0
2018/11/09 03:02:30.000  -74.425544101  163.418458679    64.7642   6   9   0.0924   0.0835   0.3136  -0.0288   0.1127  -0.1310   4.00    0.0
2018/11/09 03:03:00.000  -74.425544010  163.418459497    64.7215   6  10   0.0732   0.0542   0.2068   0.0165   0.0470  -0.0919   4.00    0.0
2018/11/09 03:03:30.000  -74.425544135  163.418459511    64.8374   6  10   0.0575   0.0423   0.1585   0.0150   0.0336  -0.0702   4.00    0.0
2018/11/09 03:04:00.000  -74.425544137  163.418460111    64.7898   6  10   0.0427   0.0323   0.1159   0.0121   0.0249  -0.0504   4.00    0.0
2018/11/09 03:04:30.000  -74.425544202  163.418459679    64.8403   6  10   0.0299   0.0241   0.0794   0.0091   0.0181  -0.0326   4.00    0.0
2018/11/09 03:05:00.000  -74.425543972  163.418460175    64.7698   6  10   0.0229   0.0199   0.0592   0.0073   0.0137  -0.0217   4.00    0.0
2018/11/09 03:05:30.000  -74.425544014  163.418460512    64.8266   6  10   0.0296   0.0238   0.0776   0.0099   0.0156  -0.0315   4.00    0.0
2018/11/09 03:06:00.000  -74.425543970  163.418460617    64.8635   6  10   0.0422   0.0314   0.1111   0.0141   0.0174  -0.0483   4.00    0.0
2018/11/09 03:06:30.000  -74.425543917  163.418460333    64.8275   6  10   0.0568   0.0406   0.1503   0.0185   0.0189  -0.0673   5.00    0.0
2018/11/09 03:07:00.000  -74.425543918  163.418460713    64.8495   6  10   0.0724   0.0510   0.1928   0.0235   0.0177  -0.0875   5.00    0.0
2018/11/09 03:07:30.000  -74.425544080  163.418459722    64.9345   6  10   0.0886   0.0635   0.2403   0.0304  -0.0186  -0.1097   4.00    0.0
2018/11/09 03:08:00.000  -74.425544069  163.418459873    64.8583   6  10   0.0721   0.0507   0.1922   0.0220   0.0231  -0.0869   4.00    0.0
2018/11/09 03:08:30.000  -74.425544151  163.418459681    64.8687   6  10   0.0566   0.0403   0.1494   0.0167   0.0238  -0.0666   4.00    0.0
2018/11/09 03:09:00.000  -74.425544024  163.418459615    64.7868   6  10   0.0419   0.0311   0.1098   0.0124   0.0211  -0.0474   4.00    0.0
2018/11/09 03:09:30.000  -74.425543839  163.418459690    64.7542   6  10   0.0293   0.0234   0.0757   0.0085   0.0177  -0.0301   4.00    0.0
2018/11/09 03:10:00.000  -74.425543873  163.418460457    64.7883   6  10   0.0226   0.0196   0.0584   0.0066   0.0153  -0.0197   5.00    0.0
2018/11/09 03:10:30.000  -74.425543853  163.418460227    64.8067   6  10   0.0292   0.0236   0.0800   0.0084   0.0200  -0.0290   5.00    0.0
2018/11/09 03:11:00.000  -74.425543871  163.418459434    64.8119   6  10   0.0418   0.0314   0.1256   0.0108   0.0274  -0.0472   0.00    0.0
2018/11/09 03:11:30.000  -74.425543898  163.418458911    64.8178   6  10   0.0562   0.0406   0.1641   0.0137   0.0342  -0.0654   0.00    0.0
2018/11/09 03:12:00.000  -74.425543834  163.418459639    64.7722   6  10   0.0714   0.0504   0.2115   0.0170   0.0446  -0.0848   1.00    0.0
2018/11/09 03:12:30.000  -74.425543872  163.418459343    64.7619   6  10   0.0870   0.0604   0.2518   0.0197   0.0518  -0.1053   0.00    0.0
2018/11/09 03:13:00.000  -74.425544004  163.418459446    64.7915   6  10   0.0714   0.0504   0.2015   0.0162   0.0428  -0.0853   0.00    0.0
2018/11/09 03:13:30.000  -74.425544025  163.418459582    64.8017   6  10   0.0561   0.0405   0.1571   0.0131   0.0350  -0.0657   0.00    0.0
2018/11/09 03:14:00.000  -74.425543899  163.418459850    64.8022   6  10   0.0416   0.0314   0.1170   0.0102   0.0282  -0.0469   3.00    0.0
2018/11/09 03:14:30.000  -74.425543786  163.418460242    64.7971   6  10   0.0292   0.0239   0.0855   0.0077   0.0234  -0.0298   3.00    0.0
2018/11/09 03:15:00.000  -74.425543780  163.418460349    64.7579   6  10   0.0227   0.0198   0.0557   0.0055   0.0161  -0.0224   0.00    0.0
2018/11/09 03:15:30.000  -74.425544058  163.418460068    64.7758   6  10   0.0294   0.0236   0.0733   0.0068   0.0198  -0.0302   0.00    0.0
2018/11/09 03:16:00.000  -74.425543966  163.418460719    64.7696   6  10   0.0421   0.0313   0.1072   0.0088   0.0268  -0.0457   1.00    0.0
2018/11/09 03:16:30.000  -74.425543829  163.418461284    64.7595   6  11   0.0553   0.0401   0.1397  -0.0021   0.0389  -0.0580   2.00    0.0
2018/11/09 03:17:00.000  -74.425543833  163.418460738    64.7991   6  11   0.0691   0.0498   0.1737  -0.0106   0.0514  -0.0726   3.00    0.0
2018/11/09 03:17:30.000  -74.425543920  163.418460642    64.8746   6  11   0.0825   0.0597   0.2101  -0.0134   0.0640  -0.0891   3.00    0.0
2018/11/09 03:18:00.000  -74.425543881  163.418461331    64.9127   6  11   0.0679   0.0497   0.1728  -0.0095   0.0527  -0.0729   3.00    0.0
2018/11/09 03:18:30.000  -74.425543885  163.418460907    64.8678   6  11   0.0536   0.0400   0.1361  -0.0054   0.0417  -0.0569   4.00    0.0
2018/11/09 03:19:00.000  -74.425543829  163.418460756    64.7754   6  11   0.0401   0.0310   0.1011   0.0030   0.0310  -0.0414   5.00    0.0
2018/11/09 03:19:30.000  -74.425543781  163.418460843    64.7151   6  12   0.0279   0.0235   0.0700   0.0031   0.0208  -0.0288   5.00    0.0
2018/11/09 03:20:00.000  -74.425543838  163.418460643    64.7609   6  12   0.0220   0.0201   0.0534   0.0039   0.0155  -0.0212   5.00    0.0
2018/11/09 03:20:30.000  -74.425543972  163.418460641    64.6900   6  12   0.0280   0.0242   0.0706   0.0034   0.0196  -0.0288   5.00    0.0
2018/11/09 03:21:00.000  -74.425544088  163.418460075    64.7493   6  12   0.0394   0.0326   0.1023  -0.0036   0.0278  -0.0439   5.00    0.0
2018/11/09 03:21:30.000  -74.425544037  163.418459906    64.7452   6  12   0.0519   0.0416   0.1374  -0.0116   0.0399  -0.0599   4.00    0.0
2018/11/09 03:22:00.000  -74.425544139  163.418460163    64.7578   6  12   0.0649   0.0508   0.1725  -0.0170   0.0529  -0.0754   4.00    0.0
2018/11/09 03:22:30.000  -74.425544442  163.418460947    64.7966   6  12   0.0790   0.0609   0.2101  -0.0227   0.0652  -0.0912   4.00    0.0
2018/11/09 03:23:00.000  -74.425544358  163.418460599    64.7905   6  12   0.0656   0.0508   0.1725  -0.0189   0.0533  -0.0736   4.00    0.0
2018/11/09 03:23:30.000  -74.425544126  163.418460030    64.7794   6  12   0.0522   0.0409   0.1361  -0.0146   0.0418  -0.0561   5.00    0.0
2018/11/09 03:24:00.000  -74.425543951  163.418460106    64.7339   6  12   0.0393   0.0316   0.1007  -0.0101   0.0311  -0.0401   5.00    0.0
2018/11/09 03:24:30.000  -74.425543884  163.418460034    64.6859   6  12   0.0273   0.0237   0.0689  -0.0054   0.0221  -0.0280   5.00    0.0
2018/11/09 03:25:00.000  -74.425543715  163.418459984    64.7431   6  12   0.0214   0.0200   0.0526  -0.0031   0.0169  -0.0206   5.00    0.0
2018/11/09 03:25:30.000  -74.425543529  163.418459593    64.7616   6  12   0.0271   0.0236   0.0689  -0.0044   0.0222  -0.0282   5.00    0.0
2018/11/09 03:26:00.000  -74.425543445  163.418459494    64.6919   6  12   0.0377   0.0312   0.0989  -0.0083   0.0327  -0.0422   5.00    0.0
2018/11/09 03:26:30.000  -74.425543629  163.418459042    64.6784   6  12   0.0501   0.0405   0.1332  -0.0131   0.0446  -0.0582   5.00    0.0
2018/11/09 03:27:00.000  -74.425543736  163.418459364    64.6702   6  12   0.0632   0.0505   0.1692  -0.0180   0.0571  -0.0748   5.00    0.0
2018/11/09 03:27:30.000  -74.425543935  163.418459574    64.7483   6  12   0.0766   0.0610   0.2058  -0.0229   0.0699  -0.0916   5.00    0.0
2018/11/09 03:28:00.000  -74.425543783  163.418459920    64.7472   6  12   0.0634   0.0509   0.1695  -0.0183   0.0578  -0.0750   5.00    0.0
2018/11/09 03:28:30.000  -74.425543693  163.418459511    64.6973   6  12   0.0503   0.0410   0.1335  -0.0136   0.0454  -0.0583   5.00    0.0
2018/11/09 03:29:00.000  -74.425543727  163.418459653    64.6902   6  12   0.0381   0.0317   0.0997  -0.0089   0.0334  -0.0426   5.00    0.0
