% program   : RTKLIB ver.2.4.3
% inp file  : _by_type/_obs/base/20181114.18o
% inp file  : _by_type/_sp3+clk/igs20273.clk
% inp file  : _by_type/_sp3+clk/igs20273.sp3
% inp file  : _by_type/_nav/base/20181114.18n
% obs start : 2018/11/14 00:00:00.0 GPST (week2027 259200.0s)
% obs end   : 2018/11/14 05:40:45.0 GPST (week2027 279645.0s)
% pos mode  : ppp-kinematic
% solution  : combined
% elev mask : 15.0 deg
% dynamics  : off
% tidecorr  : on
% tropo opt : est ztd+grad
% ephemeris : precise
% navi sys  : gps glonass
% antenna1  :                       ( 0.0000  0.0000  0.0000)
%
% (lat/lon/height=WGS84/ellipsoidal,Q=1:fix,2:float,3:sbas,4:dgps,5:single,6:ppp,ns=# of satellites)
%  GPST                  latitude(deg) longitude(deg)  height(m)   Q  ns   sdn(m)   sde(m)   sdu(m)  sdne(m)  sdeu(m)  sdun(m) age(s)  ratio
2018/11/14 00:00:00.000  -74.370508372  163.307882139  1012.4500   6  11   0.0258   0.0262   0.0751  -0.0150   0.0268  -0.0216   0.00    0.0
2018/11/14 00:00:15.000  -74.370508323  163.307881780  1012.4143   6  11   0.0285   0.0293   0.0901  -0.0170   0.0336  -0.0284   0.00    0.0
2018/11/14 00:00:30.000  -74.370508216  163.307881316  1012.3588   6  11   0.0335   0.0353   0.1157  -0.0206   0.0448  -0.0388   0.00    0.0
2018/11/14 00:00:45.000  -74.370508310  163.307881410  1012.3808   6  11   0.0399   0.0430   0.1462  -0.0251   0.0579  -0.0505   0.00    0.0
2018/11/14 00:01:00.000  -74.370508275  163.307881730  1012.4026   6  11   0.0471   0.0515   0.1790  -0.0300   0.0718  -0.0628   0.00    0.0
2018/11/14 00:01:15.000  -74.370508191  163.307881591  1012.3601   6  11   0.0547   0.0605   0.2128  -0.0351   0.0859  -0.0752   0.00    0.0
2018/11/14 00:01:30.000  -74.370508103  163.307881375  1012.3315   6  11   0.0625   0.0696   0.2469  -0.0402   0.1000  -0.0876   1.00    0.0
2018/11/14 00:01:45.000  -74.370507979  163.307880642  1012.2649   6  11   0.0704   0.0787   0.2808  -0.0453   0.1138  -0.0998   2.00    0.0
2018/11/14 00:02:00.000  -74.370507954  163.307880436  1012.2229   6  11   0.0782   0.0877   0.3141  -0.0502   0.1273  -0.1117   2.00    0.0
2018/11/14 00:02:15.000  -74.370507887  163.307879774  1012.1201   6  11   0.0860   0.0965   0.3466  -0.0550   0.1403  -0.1233   3.00    0.0
2018/11/14 00:02:30.000  -74.370507932  163.307878734  1012.0652   6  11   0.0935   0.1050   0.3781  -0.0595   0.1528  -0.1343   3.00    0.0
2018/11/14 00:02:45.000  -74.370508167  163.307879880  1012.2228   6  11   0.0856   0.0960   0.3453  -0.0545   0.1393  -0.1227   3.00    0.0
2018/11/14 00:03:00.000  -74.370508360  163.307880516  1012.3116   6  11   0.0776   0.0868   0.3120  -0.0494   0.1257  -0.1107   3.00    0.0
2018/11/14 00:03:15.000  -74.370508343  163.307880282  1012.2782   6  11   0.0697   0.0777   0.2786  -0.0444   0.1120  -0.0986   3.00    0.0
2018/11/14 00:03:30.000  -74.370508404  163.307881031  1012.3496   6  11   0.0618   0.0686   0.2453  -0.0393   0.0983  -0.0865   3.00    0.0
2018/11/14 00:03:45.000  -74.370508527  163.307881966  1012.4548   6  11   0.0541   0.0597   0.2121  -0.0343   0.0845  -0.0744   4.00    0.0
2018/11/14 00:04:00.000  -74.370508505  163.307882108  1012.4465   6  11   0.0467   0.0509   0.1794  -0.0295   0.0708  -0.0623   4.00    0.0
2018/11/14 00:04:15.000  -74.370508415  163.307881882  1012.3880   6  11   0.0398   0.0427   0.1479  -0.0249   0.0572  -0.0503   4.00    0.0
2018/11/14 00:04:30.000  -74.370508294  163.307881553  1012.3308   6  11   0.0338   0.0354   0.1193  -0.0210   0.0439  -0.0384   4.00    0.0
2018/11/14 00:04:45.000  -74.370508269  163.307881460  1012.3530   1  11   0.0284   0.0268   0.0943  -0.0179   0.0352  -0.0305   6.00    1.0
2018/11/14 00:05:00.000  -74.370508367  163.307881901  1012.4230   1  11   0.0256   0.0236   0.0796  -0.0159   0.0285  -0.0237   6.00    1.0
2018/11/14 00:05:15.000  -74.370508417  163.307882007  1012.4463   1  11   0.0286   0.0272   0.0950  -0.0182   0.0357  -0.0309   6.00    1.0
2018/11/14 00:05:30.000  -74.370508327  163.307881431  1012.3965   1  11   0.0337   0.0339   0.1209  -0.0219   0.0470  -0.0414   6.00    1.0
2018/11/14 00:05:45.000  -74.370508296  163.307880966  1012.3350   6  11   0.0395   0.0422   0.1465  -0.0242   0.0572  -0.0506   2.00    0.0
2018/11/14 00:06:00.000  -74.370508318  163.307881096  1012.3225   6  11   0.0461   0.0500   0.1759  -0.0284   0.0692  -0.0610   4.00    0.0
2018/11/14 00:06:15.000  -74.370508455  163.307881064  1012.3574   6  11   0.0529   0.0581   0.2052  -0.0324   0.0810  -0.0711   5.00    0.0
2018/11/14 00:06:30.000  -74.370508639  163.307881214  1012.4130   6  11   0.0597   0.0661   0.2340  -0.0362   0.0923  -0.0807   7.00    0.0
2018/11/14 00:06:45.000  -74.370508638  163.307881201  1012.3838   6  11   0.0665   0.0739   0.2620  -0.0400   0.1032  -0.0900   7.00    0.0
2018/11/14 00:07:00.000  -74.370508640  163.307881385  1012.4075   6  11   0.0732   0.0816   0.2892  -0.0435   0.1137  -0.0988   7.00    0.0
2018/11/14 00:07:15.000  -74.370508673  163.307880440  1012.3387   6  11   0.0798   0.0891   0.3158  -0.0470   0.1238  -0.1074   7.00    0.0
2018/11/14 00:07:30.000  -74.370508654  163.307879820  1012.2925   6  11   0.0862   0.0963   0.3417  -0.0504   0.1337  -0.1157   7.00    0.0
2018/11/14 00:07:45.000  -74.370508620  163.307880782  1012.3375   6  11   0.0793   0.0885   0.3142  -0.0465   0.1228  -0.1066   7.00    0.0
2018/11/14 00:08:00.000  -74.370508569  163.307880633  1012.3146   6  11   0.0725   0.0808   0.2870  -0.0428   0.1121  -0.0976   7.00    0.0
2018/11/14 00:08:15.000  -74.370508570  163.307880780  1012.3241   6  11   0.0657   0.0729   0.2593  -0.0391   0.1012  -0.0883   7.00    0.0
2018/11/14 00:08:30.000  -74.370508567  163.307881091  1012.3747   6  11   0.0589   0.0650   0.2310  -0.0353   0.0900  -0.0789   7.00    0.0
2018/11/14 00:08:45.000  -74.370508594  163.307881289  1012.3964   6  11   0.0522   0.0571   0.2023  -0.0315   0.0786  -0.0692   7.00    0.0
2018/11/14 00:09:00.000  -74.370508619  163.307881175  1012.3738   6  11   0.0457   0.0494   0.1733  -0.0277   0.0668  -0.0592   7.00    0.0
2018/11/14 00:09:15.000  -74.370508603  163.307881792  1012.4021   6  11   0.0397   0.0422   0.1448  -0.0245   0.0548  -0.0489   7.00    0.0
2018/11/14 00:09:30.000  -74.370508597  163.307882577  1012.4721   1  11   0.0343   0.0347   0.1222  -0.0223   0.0463  -0.0412   5.00    1.0
2018/11/14 00:09:45.000  -74.370508441  163.307882323  1012.4698   1  11   0.0290   0.0280   0.0984  -0.0180   0.0357  -0.0324   5.00    1.0
2018/11/14 00:10:00.000  -74.370508399  163.307881727  1012.4354   1  11   0.0263   0.0248   0.0840  -0.0166   0.0305  -0.0252   5.00    1.0
2018/11/14 00:10:15.000  -74.370508549  163.307881847  1012.4460   1  11   0.0290   0.0284   0.0982  -0.0188   0.0366  -0.0317   5.00    1.0
2018/11/14 00:10:30.000  -74.370508497  163.307881673  1012.4120   1  11   0.0344   0.0350   0.1228  -0.0225   0.0467  -0.0414   5.00    1.0
2018/11/14 00:10:45.000  -74.370508366  163.307880178  1012.2652   6  11   0.0383   0.0406   0.1399  -0.0217   0.0529  -0.0473   6.00    0.0
2018/11/14 00:11:00.000  -74.370508312  163.307879691  1012.1756   6  11   0.0441   0.0478   0.1647  -0.0248   0.0628  -0.0553   6.00    0.0
2018/11/14 00:11:15.000  -74.370508342  163.307879283  1012.1670   6  11   0.0502   0.0552   0.1894  -0.0278   0.0724  -0.0630   6.00    0.0
2018/11/14 00:11:30.000  -74.370508379  163.307878724  1012.1290   6  11   0.0564   0.0625   0.2138  -0.0307   0.0818  -0.0706   6.00    0.0
2018/11/14 00:11:45.000  -74.370508488  163.307878403  1012.1478   6  11   0.0625   0.0698   0.2380  -0.0337   0.0910  -0.0780   6.00    0.0
2018/11/14 00:12:00.000  -74.370508611  163.307878244  1012.1986   6  11   0.0686   0.0769   0.2620  -0.0366   0.1001  -0.0854   6.00    0.0
2018/11/14 00:12:15.000  -74.370508633  163.307877891  1012.1770   6  11   0.0747   0.0839   0.2859  -0.0396   0.1092  -0.0928   6.00    0.0
2018/11/14 00:12:30.000  -74.370508640  163.307877651  1012.1970   6  11   0.0807   0.0909   0.3096  -0.0427   0.1183  -0.1003   6.00    0.0
2018/11/14 00:12:45.000  -74.370508533  163.307878145  1012.2109   6  11   0.0741   0.0843   0.2834  -0.0385   0.1081  -0.0912   6.00    0.0
2018/11/14 00:13:00.000  -74.370508430  163.307878533  1012.2029   6  11   0.0681   0.0786   0.2588  -0.0339   0.0976  -0.0836   6.00    0.0
2018/11/14 00:13:15.000  -74.370508370  163.307878727  1012.1800   6  11   0.0618   0.0712   0.2340  -0.0308   0.0881  -0.0757   6.00    0.0
2018/11/14 00:13:30.000  -74.370508301  163.307879237  1012.2367   6  11   0.0551   0.0611   0.2088  -0.0299   0.0799  -0.0673   6.00    0.0
2018/11/14 00:13:45.000  -74.370508335  163.307879843  1012.3317   6  11   0.0490   0.0537   0.1840  -0.0269   0.0703  -0.0596   6.00    0.0
2018/11/14 00:14:00.000  -74.370508410  163.307879993  1012.3936   6  11   0.0430   0.0465   0.1593  -0.0239   0.0607  -0.0518   6.00    0.0
2018/11/14 00:14:15.000  -74.370508445  163.307880367  1012.4123   6  11   0.0373   0.0395   0.1350  -0.0209   0.0511  -0.0441   6.00    0.0
2018/11/14 00:14:30.000  -74.370508409  163.307880762  1012.4301   1  11   0.0334   0.0342   0.1206  -0.0213   0.0474  -0.0405   5.00    1.0
2018/11/14 00:14:45.000  -74.370508347  163.307880667  1012.3967   1  11   0.0287   0.0284   0.0981  -0.0184   0.0381  -0.0318   5.00    1.0
2018/11/14 00:15:00.000  -74.370508372  163.307881270  1012.4184   1  11   0.0263   0.0255   0.0859  -0.0167   0.0329  -0.0263   5.00    1.0
2018/11/14 00:15:15.000  -74.370508387  163.307881277  1012.4127   1  11   0.0290   0.0286   0.0991  -0.0187   0.0383  -0.0322   5.00    1.0
2018/11/14 00:15:30.000  -74.370508431  163.307881787  1012.4125   1  11   0.0339   0.0345   0.1222  -0.0216   0.0476  -0.0411   5.00    1.0
2018/11/14 00:15:45.000  -74.370508449  163.307881158  1012.3354   6  11   0.0372   0.0385   0.1294  -0.0198   0.0476  -0.0407   6.00    0.0
2018/11/14 00:16:00.000  -74.370508427  163.307880943  1012.3193   6  11   0.0427   0.0451   0.1502  -0.0221   0.0556  -0.0464   6.00    0.0
2018/11/14 00:16:15.000  -74.370508484  163.307880372  1012.3227   6  11   0.0485   0.0518   0.1716  -0.0245   0.0637  -0.0521   6.00    0.0
2018/11/14 00:16:30.000  -74.370508508  163.307880314  1012.3202   6  11   0.0545   0.0586   0.1935  -0.0271   0.0719  -0.0578   6.00    0.0
2018/11/14 00:16:45.000  -74.370508447  163.307879604  1012.3066   6  11   0.0609   0.0654   0.2159  -0.0299   0.0801  -0.0634   7.00    0.0
2018/11/14 00:17:00.000  -74.370508396  163.307879671  1012.2727   6  11   0.0683   0.0721   0.2391  -0.0332   0.0883  -0.0675   7.00    0.0
2018/11/14 00:17:15.000  -74.370508224  163.307878692  1012.2444   6  11   0.0745   0.0786   0.2616  -0.0363   0.0967  -0.0735   6.00    0.0
2018/11/14 00:17:30.000  -74.370508350  163.307878914  1012.2514   6  11   0.0784   0.0851   0.2824  -0.0387   0.1056  -0.0835   6.00    0.0
2018/11/14 00:17:45.000  -74.370508425  163.307879247  1012.2564   6  11   0.0742   0.0784   0.2605  -0.0361   0.0961  -0.0736   6.00    0.0
2018/11/14 00:18:00.000  -74.370508442  163.307879680  1012.2795   6  11   0.0681   0.0716   0.2371  -0.0329   0.0870  -0.0666   6.00    0.0
2018/11/14 00:18:15.000  -74.370508434  163.307879610  1012.3068   6  11   0.0586   0.0646   0.2118  -0.0286   0.0788  -0.0650   6.00    0.0
2018/11/14 00:18:30.000  -74.370508479  163.307879372  1012.3250   6  11   0.0527   0.0577   0.1894  -0.0257   0.0700  -0.0584   6.00    0.0
2018/11/14 00:18:45.000  -74.370508542  163.307879912  1012.3898   6  11   0.0470   0.0509   0.1675  -0.0231   0.0615  -0.0522   6.00    0.0
2018/11/14 00:19:00.000  -74.370508550  163.307880353  1012.4062   6  11   0.0415   0.0441   0.1464  -0.0207   0.0533  -0.0463   6.00    0.0
2018/11/14 00:19:15.000  -74.370508542  163.307880949  1012.4453   6  11   0.0364   0.0376   0.1264  -0.0185   0.0453  -0.0408   6.00    0.0
2018/11/14 00:19:30.000  -74.370508458  163.307881467  1012.4625   1  11   0.0339   0.0343   0.1226  -0.0212   0.0469  -0.0428   4.00    1.0
2018/11/14 00:19:45.000  -74.370508530  163.307881143  1012.4395   6  11   0.0283   0.0270   0.0927  -0.0147   0.0312  -0.0308   6.00    0.0
2018/11/14 00:20:00.000  -74.370508544  163.307880839  1012.4149   6  11   0.0267   0.0246   0.0841  -0.0136   0.0270  -0.0276   6.00    0.0
2018/11/14 00:20:15.000  -74.370508586  163.307880845  1012.4334   6  11   0.0295   0.0269   0.0956  -0.0147   0.0305  -0.0331   6.00    0.0
2018/11/14 00:20:30.000  -74.370508529  163.307880267  1012.4300   6  11   0.0343   0.0314   0.1138  -0.0165   0.0364  -0.0404   6.00    0.0
2018/11/14 00:20:45.000  -74.370508437  163.307879976  1012.3974   6  11   0.0400   0.0370   0.1346  -0.0185   0.0430  -0.0481   6.00    0.0
2018/11/14 00:21:00.000  -74.370508552  163.307880155  1012.4365   6  11   0.0464   0.0432   0.1576  -0.0209   0.0503  -0.0566   7.00    0.0
2018/11/14 00:21:15.000  -74.370508631  163.307879941  1012.4348   6  11   0.0536   0.0497   0.1834  -0.0238   0.0583  -0.0670   7.00    0.0
2018/11/14 00:21:30.000  -74.370508678  163.307879615  1012.4164   6  11   0.0625   0.0563   0.2151  -0.0277   0.0677  -0.0816   7.00    0.0
2018/11/14 00:21:45.000  -74.370508789  163.307879491  1012.4021   6  10   0.0859   0.0669   0.3207  -0.0461   0.1033  -0.1379   6.00    0.0
2018/11/14 00:22:00.000  -74.370508704  163.307879280  1012.3426   6  10   0.0959   0.0739   0.3613  -0.0519   0.1160  -0.1558   6.00    0.0
2018/11/14 00:22:15.000  -74.370508598  163.307878991  1012.3070   6  10   0.1059   0.0809   0.4040  -0.0577   0.1284  -0.1740   6.00    0.0
2018/11/14 00:22:30.000  -74.370508653  163.307879165  1012.3352   6  10   0.1160   0.0878   0.4538  -0.0633   0.1400  -0.1930   6.00    0.0
2018/11/14 00:22:45.000  -74.370508770  163.307879166  1012.4212   6  10   0.1080   0.0805   0.4084  -0.0580   0.1300  -0.1787   6.00    0.0
2018/11/14 00:23:00.000  -74.370508842  163.307878966  1012.4114   6  10   0.0989   0.0732   0.3641  -0.0519   0.1152  -0.1596   6.00    0.0
2018/11/14 00:23:15.000  -74.370509018  163.307879385  1012.4957   6  10   0.0929   0.0660   0.3275  -0.0468   0.1014  -0.1445   6.00    0.0
2018/11/14 00:23:30.000  -74.370509365  163.307880280  1012.6306   6  10   0.0859   0.0593   0.3068  -0.0426   0.0897  -0.1344   5.00    0.0
2018/11/14 00:23:45.000  -74.370509181  163.307880448  1012.5980   6  10   0.0669   0.0517   0.2467  -0.0348   0.0782  -0.1073   5.00    0.0
2018/11/14 00:24:00.000  -74.370509052  163.307880251  1012.5243   6  10   0.0557   0.0443   0.2032  -0.0283   0.0637  -0.0866   5.00    0.0
2018/11/14 00:24:15.000  -74.370508907  163.307880277  1012.4990   6  10   0.0460   0.0375   0.1659  -0.0229   0.0510  -0.0689   5.00    0.0
2018/11/14 00:24:30.000  -74.370508757  163.307880480  1012.4733   6  10   0.0374   0.0313   0.1328  -0.0184   0.0397  -0.0529   5.00    0.0
2018/11/14 00:24:45.000  -74.370508699  163.307881090  1012.5162   1  10   0.0344   0.0286   0.1237  -0.0213   0.0379  -0.0573   4.00    1.0
2018/11/14 00:25:00.000  -74.370508607  163.307881074  1012.4705   1  10   0.0296   0.0259   0.1031  -0.0189   0.0308  -0.0481   4.00    1.0
2018/11/14 00:25:15.000  -74.370508396  163.307880228  1012.3557   1  10   0.0352   0.0295   0.1312  -0.0219   0.0390  -0.0594   4.00    1.0
2018/11/14 00:25:30.000  -74.370508350  163.307879458  1012.3101   6   9   0.0373   0.0323   0.1389  -0.0188   0.0379  -0.0530   4.00    0.0
2018/11/14 00:25:45.000  -74.370508526  163.307879872  1012.3781   6   9   0.0458   0.0386   0.1751  -0.0232   0.0481  -0.0690   4.00    0.0
2018/11/14 00:26:00.000  -74.370508543  163.307879743  1012.3754   6   9   0.0551   0.0456   0.2146  -0.0281   0.0592  -0.0861   4.00    0.0
2018/11/14 00:26:15.000  -74.370508501  163.307879547  1012.3295   6   9   0.0648   0.0528   0.2558  -0.0335   0.0710  -0.1040   4.00    0.0
2018/11/14 00:26:30.000  -74.370508490  163.307879224  1012.3486   6   9   0.0747   0.0603   0.2980  -0.0392   0.0833  -0.1223   4.00    0.0
2018/11/14 00:26:45.000  -74.370508369  163.307878666  1012.2712   6   9   0.0850   0.0684   0.3412  -0.0457   0.0965  -0.1412   4.00    0.0
2018/11/14 00:27:00.000  -74.370508391  163.307878478  1012.2641   6   9   0.0961   0.0789   0.3861  -0.0545   0.1127  -0.1615   4.00    0.0
2018/11/14 00:27:15.000  -74.370508368  163.307879014  1012.2470   6   9   0.1053   0.0798   0.4328  -0.0557   0.1221  -0.1808   3.00    0.0
2018/11/14 00:27:30.000  -74.370508398  163.307879466  1012.2139   6   9   0.1137   0.0847   0.4707  -0.0585   0.1294  -0.1962   3.00    0.0
2018/11/14 00:27:45.000  -74.370508542  163.307879986  1012.2571   6   9   0.1032   0.0771   0.4248  -0.0516   0.1146  -0.1759   3.00    0.0
2018/11/14 00:28:00.000  -74.370508735  163.307880556  1012.3761   6   9   0.0929   0.0699   0.3805  -0.0454   0.1010  -0.1565   3.00    0.0
2018/11/14 00:28:15.000  -74.370508614  163.307879978  1012.4005   6   9   0.0828   0.0628   0.3367  -0.0396   0.0881  -0.1375   3.00    0.0
2018/11/14 00:28:30.000  -74.370508630  163.307879693  1012.4133   6  10   0.0589   0.0558   0.2162  -0.0323   0.0718  -0.0750   3.00    0.0
2018/11/14 00:28:45.000  -74.370508677  163.307879826  1012.4384   6  10   0.0508   0.0488   0.1818  -0.0270   0.0597  -0.0605   3.00    0.0
2018/11/14 00:29:00.000  -74.370508625  163.307879764  1012.4068   6  10   0.0437   0.0421   0.1534  -0.0227   0.0493  -0.0493   3.00    0.0
2018/11/14 00:29:15.000  -74.370508600  163.307879982  1012.3814   6  10   0.0371   0.0357   0.1282  -0.0188   0.0399  -0.0397   3.00    0.0
2018/11/14 00:29:30.000  -74.370508589  163.307880332  1012.3370   6  10   0.0313   0.0301   0.1064  -0.0155   0.0316  -0.0312   3.00    0.0
2018/11/14 00:29:45.000  -74.370508599  163.307880467  1012.3502   6  10   0.0268   0.0258   0.0897  -0.0132   0.0249  -0.0240   3.00    0.0
2018/11/14 00:30:00.000  -74.370508558  163.307880207  1012.3838   6  10   0.0245   0.0238   0.0828  -0.0122   0.0212  -0.0199   3.00    0.0
2018/11/14 00:30:15.000  -74.370508531  163.307880102  1012.4078   6  10   0.0268   0.0261   0.0919  -0.0135   0.0233  -0.0226   3.00    0.0
2018/11/14 00:30:30.000  -74.370508560  163.307880444  1012.4266   6  10   0.0311   0.0306   0.1080  -0.0159   0.0282  -0.0277   3.00    0.0
2018/11/14 00:30:45.000  -74.370508501  163.307880245  1012.4660   6  10   0.0365   0.0361   0.1277  -0.0187   0.0345  -0.0339   3.00    0.0
2018/11/14 00:31:00.000  -74.370508510  163.307879588  1012.4522   6  10   0.0425   0.0421   0.1496  -0.0217   0.0418  -0.0410   3.00    0.0
2018/11/14 00:31:15.000  -74.370508468  163.307878848  1012.3762   6  10   0.0487   0.0482   0.1728  -0.0249   0.0496  -0.0489   3.00    0.0
2018/11/14 00:31:30.000  -74.370508469  163.307878452  1012.3325   6  10   0.0550   0.0544   0.1969  -0.0282   0.0577  -0.0573   3.00    0.0
2018/11/14 00:31:45.000  -74.370508454  163.307878327  1012.2757   6  10   0.0614   0.0605   0.2217  -0.0317   0.0661  -0.0661   3.00    0.0
2018/11/14 00:32:00.000  -74.370508399  163.307877612  1012.2190   6  10   0.0678   0.0666   0.2470  -0.0353   0.0747  -0.0752   3.00    0.0
2018/11/14 00:32:15.000  -74.370508367  163.307877403  1012.2020   6  10   0.0743   0.0727   0.2728  -0.0390   0.0833  -0.0844   3.00    0.0
2018/11/14 00:32:30.000  -74.370508362  163.307877554  1012.1651   6  10   0.0807   0.0787   0.2988  -0.0427   0.0918  -0.0937   3.00    0.0
2018/11/14 00:32:45.000  -74.370508400  163.307877864  1012.1878   6  10   0.0745   0.0730   0.2778  -0.0393   0.0824  -0.0845   3.00    0.0
2018/11/14 00:33:00.000  -74.370508413  163.307878015  1012.1923   6  10   0.0682   0.0674   0.2592  -0.0362   0.0726  -0.0745   3.00    0.0
2018/11/14 00:33:15.000  -74.370508413  163.307877761  1012.1837   6  10   0.0621   0.0626   0.2493  -0.0338   0.0625  -0.0637   3.00    0.0
2018/11/14 00:33:30.000  -74.370508419  163.307878147  1012.3059   6  10   0.0569   0.0601   0.2534  -0.0339   0.0554  -0.0596   0.00    0.0
2018/11/14 00:33:45.000  -74.370508484  163.307878794  1012.3338   6  10   0.0507   0.0537   0.1796  -0.0306   0.0592  -0.0585   0.00    0.0
2018/11/14 00:34:00.000  -74.370508484  163.307879247  1012.3599   6  10   0.0426   0.0407   0.1491  -0.0208   0.0456  -0.0468   0.00    0.0
2018/11/14 00:34:15.000  -74.370508410  163.307879249  1012.3629   6  10   0.0364   0.0345   0.1232  -0.0172   0.0373  -0.0380   0.00    0.0
2018/11/14 00:34:30.000  -74.370508377  163.307879288  1012.3406   6  10   0.0310   0.0292   0.1007  -0.0146   0.0310  -0.0308   2.00    0.0
2018/11/14 00:34:45.000  -74.370508458  163.307879565  1012.3470   6  10   0.0270   0.0253   0.0828  -0.0130   0.0267  -0.0252   3.00    0.0
2018/11/14 00:35:00.000  -74.370508461  163.307880020  1012.3455   6  10   0.0254   0.0241   0.0742  -0.0130   0.0257  -0.0231   4.00    0.0
2018/11/14 00:35:15.000  -74.370508456  163.307880287  1012.3594   6  10   0.0282   0.0267   0.0832  -0.0149   0.0286  -0.0272   4.00    0.0
2018/11/14 00:35:30.000  -74.370508386  163.307879780  1012.3387   6  10   0.0326   0.0301   0.0996  -0.0165   0.0319  -0.0325   4.00    0.0
2018/11/14 00:35:45.000  -74.370508426  163.307879696  1012.3521   6  10   0.0382   0.0357   0.1195  -0.0194   0.0372  -0.0388   4.00    0.0
2018/11/14 00:36:00.000  -74.370508391  163.307879395  1012.2898   6  10   0.0445   0.0417   0.1418  -0.0227   0.0437  -0.0463   5.00    0.0
2018/11/14 00:36:15.000  -74.370508367  163.307879036  1012.2577   6  10   0.0512   0.0481   0.1654  -0.0265   0.0510  -0.0548   5.00    0.0
2018/11/14 00:36:30.000  -74.370508307  163.307878730  1012.2372   6  10   0.0584   0.0547   0.1900  -0.0309   0.0590  -0.0641   7.00    0.0
2018/11/14 00:36:45.000  -74.370508307  163.307878664  1012.2313   6  10   0.0664   0.0621   0.2155  -0.0363   0.0680  -0.0746   6.00    0.0
2018/11/14 00:37:00.000  -74.370508354  163.307878634  1012.2568   6  10   0.0768   0.0715   0.2425  -0.0444   0.0794  -0.0877   7.00    0.0
2018/11/14 00:37:15.000  -74.370508569  163.307879025  1012.2885   6  10   0.0794   0.0727   0.2721  -0.0432   0.0871  -0.0978   6.00    0.0
2018/11/14 00:37:30.000  -74.370508569  163.307879087  1012.3105   6  10   0.0836   0.0767   0.2941  -0.0436   0.0909  -0.1029   5.00    0.0
2018/11/14 00:37:45.000  -74.370508588  163.307879292  1012.2680   6  10   0.0764   0.0699   0.2676  -0.0385   0.0811  -0.0923   5.00    0.0
2018/11/14 00:38:00.000  -74.370508613  163.307879420  1012.2726   6  10   0.0694   0.0634   0.2415  -0.0338   0.0719  -0.0822   5.00    0.0
2018/11/14 00:38:15.000  -74.370508557  163.307879173  1012.2470   6  10   0.0627   0.0570   0.2159  -0.0296   0.0631  -0.0727   5.00    0.0
2018/11/14 00:38:30.000  -74.370508597  163.307879460  1012.2583   6  10   0.0563   0.0508   0.1907  -0.0258   0.0549  -0.0637   5.00    0.0
2018/11/14 00:38:45.000  -74.370508517  163.307879599  1012.2646   6  10   0.0506   0.0447   0.1661  -0.0223   0.0471  -0.0554   6.00    0.0
2018/11/14 00:39:00.000  -74.370508490  163.307879732  1012.2528   6  10   0.0464   0.0388   0.1428  -0.0195   0.0401  -0.0493   6.00    0.0
2018/11/14 00:39:15.000  -74.370508518  163.307880171  1012.2851   6  10   0.0362   0.0331   0.1187  -0.0156   0.0333  -0.0374   5.00    0.0
2018/11/14 00:39:30.000  -74.370508509  163.307879813  1012.3010   6  10   0.0305   0.0280   0.0965  -0.0127   0.0274  -0.0293   5.00    0.0
2018/11/14 00:39:45.000  -74.370508507  163.307879458  1012.3335   6  10   0.0262   0.0240   0.0784  -0.0107   0.0232  -0.0227   5.00    0.0
2018/11/14 00:40:00.000  -74.370508594  163.307879884  1012.3558   6  10   0.0242   0.0219   0.0693  -0.0095   0.0211  -0.0194   5.00    0.0
2018/11/14 00:40:15.000  -74.370508596  163.307880284  1012.3215   6  10   0.0269   0.0239   0.0779  -0.0104   0.0227  -0.0236   5.00    0.0
2018/11/14 00:40:30.000  -74.370508579  163.307880045  1012.2874   6  10   0.0319   0.0277   0.0952  -0.0122   0.0263  -0.0305   5.00    0.0
2018/11/14 00:40:45.000  -74.370508511  163.307880149  1012.2871   6  10   0.0390   0.0325   0.1165  -0.0148   0.0312  -0.0395   5.00    0.0
2018/11/14 00:41:00.000  -74.370508527  163.307880122  1012.3147   6  10   0.0467   0.0380   0.1415  -0.0185   0.0381  -0.0505   5.00    0.0
2018/11/14 00:41:15.000  -74.370508556  163.307880238  1012.3220   6  10   0.0518   0.0435   0.1648  -0.0211   0.0442  -0.0577   5.00    0.0
2018/11/14 00:41:30.000  -74.370508507  163.307880181  1012.3303   6  10   0.0601   0.0489   0.1889  -0.0241   0.0501  -0.0677   5.00    0.0
2018/11/14 00:41:45.000  -74.370508517  163.307880014  1012.3379   6  10   0.0690   0.0546   0.2168  -0.0287   0.0582  -0.0808   5.00    0.0
2018/11/14 00:42:00.000  -74.370508562  163.307879745  1012.3300   6  10   0.0687   0.0600   0.2379  -0.0297   0.0632  -0.0820   5.00    0.0
2018/11/14 00:42:15.000  -74.370508586  163.307880025  1012.3276   6  10   0.0739   0.0653   0.2609  -0.0317   0.0684  -0.0884   5.00    0.0
2018/11/14 00:42:30.000  -74.370508663  163.307880450  1012.3714   6  10   0.0797   0.0708   0.2852  -0.0344   0.0743  -0.0964   5.00    0.0
2018/11/14 00:42:45.000  -74.370508580  163.307879948  1012.3319   6  10   0.0730   0.0650   0.2597  -0.0307   0.0667  -0.0868   5.00    0.0
2018/11/14 00:43:00.000  -74.370508603  163.307880352  1012.3705   6  10   0.0664   0.0593   0.2341  -0.0272   0.0593  -0.0773   5.00    1.0
2018/11/14 00:43:15.000  -74.370508545  163.307880242  1012.3523   6  10   0.0599   0.0537   0.2088  -0.0239   0.0522  -0.0681   5.00    0.0
2018/11/14 00:43:30.000  -74.370508589  163.307880145  1012.3299   6  10   0.0534   0.0481   0.1838  -0.0207   0.0453  -0.0590   5.00    0.0
2018/11/14 00:43:45.000  -74.370508610  163.307879894  1012.3162   6  10   0.0470   0.0425   0.1592  -0.0178   0.0388  -0.0502   6.00    0.0
2018/11/14 00:44:00.000  -74.370508648  163.307879713  1012.3146   6  10   0.0408   0.0371   0.1353  -0.0152   0.0328  -0.0416   6.00    0.0
2018/11/14 00:44:15.000  -74.370508680  163.307879580  1012.2663   6  10   0.0349   0.0319   0.1124  -0.0128   0.0275  -0.0335   6.00    0.0
2018/11/14 00:44:30.000  -74.370508635  163.307879505  1012.2733   6  10   0.0295   0.0271   0.0910  -0.0109   0.0232  -0.0257   6.00    0.0
2018/11/14 00:44:45.000  -74.370508641  163.307879496  1012.3326   6  10   0.0253   0.0235   0.0731  -0.0094   0.0203  -0.0188   6.00    0.0
2018/11/14 00:45:00.000  -74.370508759  163.307879768  1012.3622   6  10   0.0230   0.0217   0.0636  -0.0086   0.0190  -0.0144   6.00    0.0
2018/11/14 00:45:15.000  -74.370508759  163.307879669  1012.3662   6  10   0.0251   0.0234   0.0719  -0.0092   0.0200  -0.0184   6.00    0.0
2018/11/14 00:45:30.000  -74.370508824  163.307879999  1012.3627   6  10   0.0293   0.0269   0.0888  -0.0105   0.0226  -0.0249   6.00    0.0
2018/11/14 00:45:45.000  -74.370508783  163.307879555  1012.3325   6  10   0.0345   0.0315   0.1092  -0.0121   0.0262  -0.0322   6.00    0.0
2018/11/14 00:46:00.000  -74.370508744  163.307879428  1012.3458   6  10   0.0403   0.0364   0.1312  -0.0140   0.0306  -0.0399   6.00    0.0
2018/11/14 00:46:15.000  -74.370508798  163.307879635  1012.3514   6  10   0.0462   0.0416   0.1542  -0.0161   0.0354  -0.0480   6.00    0.0
2018/11/14 00:46:30.000  -74.370508832  163.307879726  1012.3588   6  10   0.0523   0.0468   0.1777  -0.0184   0.0403  -0.0562   6.00    0.0
2018/11/14 00:46:45.000  -74.370508886  163.307880087  1012.3801   6  10   0.0585   0.0521   0.2017  -0.0208   0.0453  -0.0646   6.00    0.0
2018/11/14 00:47:00.000  -74.370508853  163.307879840  1012.3429   6  10   0.0647   0.0573   0.2258  -0.0234   0.0502  -0.0731   6.00    0.0
2018/11/14 00:47:15.000  -74.370508873  163.307879884  1012.3213   6  10   0.0709   0.0626   0.2501  -0.0260   0.0551  -0.0816   6.00    0.0
2018/11/14 00:47:30.000  -74.370508872  163.307879854  1012.3168   6  10   0.0771   0.0679   0.2745  -0.0286   0.0598  -0.0901   6.00    0.0
2018/11/14 00:47:45.000  -74.370508901  163.307879877  1012.2883   6  10   0.0709   0.0624   0.2499  -0.0254   0.0535  -0.0815   5.00    0.0
2018/11/14 00:48:00.000  -74.370508854  163.307879935  1012.2585   6  10   0.0646   0.0570   0.2248  -0.0225   0.0475  -0.0727   5.00    0.0
2018/11/14 00:48:15.000  -74.370508802  163.307879597  1012.2594   6  10   0.0583   0.0516   0.2001  -0.0196   0.0417  -0.0639   5.00    0.0
2018/11/14 00:48:30.000  -74.370508761  163.307879283  1012.2246   6  10   0.0521   0.0463   0.1756  -0.0170   0.0361  -0.0552   5.00    0.0
2018/11/14 00:48:45.000  -74.370508646  163.307879064  1012.2546   6  10   0.0460   0.0410   0.1517  -0.0145   0.0309  -0.0468   5.00    0.0
2018/11/14 00:49:00.000  -74.370508629  163.307879234  1012.2749   6  10   0.0400   0.0358   0.1284  -0.0124   0.0262  -0.0386   5.00    0.0
2018/11/14 00:49:15.000  -74.370508551  163.307879332  1012.2484   6  11   0.0311   0.0305   0.0940  -0.0061   0.0153  -0.0151   5.00    0.0
2018/11/14 00:49:30.000  -74.370508543  163.307879316  1012.2737   6  11   0.0268   0.0261   0.0766  -0.0065   0.0149  -0.0105   5.00    0.0
2018/11/14 00:49:45.000  -74.370508617  163.307879576  1012.2830   6  11   0.0236   0.0228   0.0631  -0.0069   0.0153  -0.0074   5.00    0.0
2018/11/14 00:50:00.000  -74.370508660  163.307879401  1012.3158   6  11   0.0219   0.0211   0.0561  -0.0073   0.0156  -0.0046   5.00    0.0
2018/11/14 00:50:15.000  -74.370508619  163.307879402  1012.3175   6  11   0.0236   0.0227   0.0625  -0.0068   0.0152  -0.0071   5.00    0.0
2018/11/14 00:50:30.000  -74.370508667  163.307879685  1012.3277   6  11   0.0267   0.0259   0.0747  -0.0061   0.0143  -0.0092   6.00    0.0
2018/11/14 00:50:45.000  -74.370508674  163.307879799  1012.2911   6  11   0.0307   0.0301   0.0895  -0.0048   0.0130  -0.0111   6.00    0.0
2018/11/14 00:51:00.000  -74.370508696  163.307879271  1012.2753   6  11   0.0351   0.0346   0.1056  -0.0019   0.0112  -0.0132   6.00    0.0
2018/11/14 00:51:15.000  -74.370508642  163.307879183  1012.2400   6  11   0.0397   0.0393   0.1227   0.0041   0.0082  -0.0156   6.00    0.0
2018/11/14 00:51:30.000  -74.370508663  163.307879431  1012.2521   6  11   0.0445   0.0441   0.1405   0.0060  -0.0026  -0.0185   6.00    0.0
2018/11/14 00:51:45.000  -74.370508639  163.307879523  1012.2223   6  11   0.0492   0.0490   0.1588   0.0074  -0.0100  -0.0217   7.00    0.0
2018/11/14 00:52:00.000  -74.370508626  163.307879630  1012.2383   6  11   0.0541   0.0539   0.1774   0.0084  -0.0148  -0.0251   7.00    0.0
2018/11/14 00:52:15.000  -74.370508699  163.307879670  1012.2431   6  11   0.0589   0.0588   0.1963   0.0092  -0.0189  -0.0287   7.00    0.0
2018/11/14 00:52:30.000  -74.370508671  163.307879514  1012.2107   6  11   0.0638   0.0638   0.2155   0.0099  -0.0229  -0.0325   7.00    0.0
2018/11/14 00:52:45.000  -74.370508707  163.307879709  1012.2289   6  11   0.0588   0.0588   0.1963   0.0091  -0.0204  -0.0295   7.00    0.0
2018/11/14 00:53:00.000  -74.370508641  163.307879481  1012.2671   6  11   0.0540   0.0538   0.1776   0.0085  -0.0177  -0.0264   7.00    0.0
2018/11/14 00:53:15.000  -74.370508630  163.307879247  1012.2722   6  12   0.0482   0.0469   0.1533  -0.0085  -0.0283  -0.0306   7.00    0.0
2018/11/14 00:53:30.000  -74.370508585  163.307879223  1012.2350   6  12   0.0435   0.0421   0.1349  -0.0080  -0.0250  -0.0270   7.00    0.0
2018/11/14 00:53:45.000  -74.370508551  163.307879029  1012.2392   6  12   0.0390   0.0375   0.1176  -0.0076  -0.0207  -0.0232   7.00    0.0
2018/11/14 00:54:00.000  -74.370508570  163.307879408  1012.2507   6  12   0.0345   0.0330   0.1010  -0.0073  -0.0157  -0.0194   7.00    0.0
2018/11/14 00:54:15.000  -74.370508619  163.307879449  1012.2542   6  12   0.0303   0.0288   0.0854  -0.0072  -0.0097  -0.0157   8.00    0.0
2018/11/14 00:54:30.000  -74.370508638  163.307879472  1012.2619   6  12   0.0267   0.0250   0.0711  -0.0072   0.0054  -0.0122   8.00    0.0
2018/11/14 00:54:45.000  -74.370508667  163.307879483  1012.2957   6  12   0.0238   0.0221   0.0595  -0.0072   0.0108  -0.0092   8.00    0.0
2018/11/14 00:55:00.000  -74.370508637  163.307879350  1012.3020   6  12   0.0227   0.0209   0.0542  -0.0072   0.0127  -0.0088   8.00    0.0
2018/11/14 00:55:15.000  -74.370508683  163.307879247  1012.2886   6  12   0.0238   0.0221   0.0594  -0.0074   0.0110  -0.0090   7.00    0.0
2018/11/14 00:55:30.000  -74.370508740  163.307879605  1012.3445   1  12   0.0292   0.0249   0.0837  -0.0151  -0.0172  -0.0259   6.00    1.0
2018/11/14 00:55:45.000  -74.370508720  163.307879716  1012.3280   1  12   0.0349   0.0304   0.1073  -0.0162  -0.0224  -0.0325   6.00    1.0
2018/11/14 00:56:00.000  -74.370508770  163.307880047  1012.3123   1  12   0.0415   0.0366   0.1332  -0.0175  -0.0283  -0.0401   6.00    1.0
2018/11/14 00:56:15.000  -74.370508720  163.307879834  1012.2145   6  12   0.0401   0.0372   0.1198  -0.0091  -0.0203  -0.0284   7.00    0.0
2018/11/14 00:56:30.000  -74.370508855  163.307879912  1012.2254   6  12   0.0451   0.0416   0.1383  -0.0100  -0.0252  -0.0343   7.00    0.0
2018/11/14 00:56:45.000  -74.370508842  163.307879939  1012.2589   6  12   0.0506   0.0462   0.1579  -0.0114  -0.0298  -0.0414   7.00    0.0
2018/11/14 00:57:00.000  -74.370508861  163.307880055  1012.2735   6  12   0.0575   0.0510   0.1804  -0.0142  -0.0333  -0.0521   7.00    0.0
2018/11/14 00:57:15.000  -74.370508785  163.307879990  1012.1873   6  12   0.0676   0.0559   0.2139  -0.0194  -0.0324  -0.0727   7.00    0.0
2018/11/14 00:57:30.000  -74.370508803  163.307879839  1012.1821   6  12   0.0672   0.0604   0.2220  -0.0163  -0.0431  -0.0642   7.00    0.0
2018/11/14 00:57:45.000  -74.370508827  163.307879598  1012.1755   6  12   0.0609   0.0556   0.1994  -0.0142  -0.0397  -0.0546   7.00    0.0
2018/11/14 00:58:00.000  -74.370508800  163.307879284  1012.1500   6  12   0.0563   0.0509   0.1805  -0.0133  -0.0348  -0.0499   7.00    0.0
2018/11/14 00:58:15.000  -74.370508708  163.307879284  1012.1391   6  12   0.0533   0.0464   0.1649  -0.0139  -0.0283  -0.0496   7.00    0.0
2018/11/14 00:58:30.000  -74.370508712  163.307879204  1012.1746   6  12   0.0446   0.0416   0.1412  -0.0096  -0.0264  -0.0350   8.00    0.0
2018/11/14 00:58:45.000  -74.370508707  163.307879160  1012.1371   6  12   0.0392   0.0371   0.1207  -0.0083  -0.0223  -0.0270   8.00    0.0
2018/11/14 00:59:00.000  -74.370508721  163.307879233  1012.2505   1  12   0.0397   0.0365   0.1300  -0.0165  -0.0318  -0.0342   6.00    1.0
2018/11/14 00:59:15.000  -74.370508735  163.307879396  1012.2656   1  12   0.0341   0.0304   0.1056  -0.0157  -0.0254  -0.0290   6.00    1.0
2018/11/14 00:59:30.000  -74.370508740  163.307879737  1012.3079   1  12   0.0293   0.0251   0.0835  -0.0152  -0.0195  -0.0250   6.00    1.0
2018/11/14 00:59:45.000  -74.370508658  163.307879551  1012.3339   1  12   0.0264   0.0209   0.0669  -0.0151  -0.0143  -0.0233   6.00    1.0
2018/11/14 01:00:00.000  -74.370508636  163.307879705  1012.3457   1  12   0.0235   0.0188   0.0547  -0.0145  -0.0133  -0.0177   6.00    1.0
2018/11/14 01:00:15.000  -74.370508643  163.307879440  1012.3155   1  12   0.0267   0.0213   0.0671  -0.0157  -0.0143  -0.0232   6.00    1.0
2018/11/14 01:00:30.000  -74.370508630  163.307879126  1012.3390   1  12   0.0319   0.0259   0.0884  -0.0170  -0.0179  -0.0306   6.00    1.0
2018/11/14 01:00:45.000  -74.370508632  163.307878590  1012.3463   1  12   0.0330   0.0310   0.1043  -0.0156  -0.0278  -0.0249   8.00    1.0
2018/11/14 01:01:00.000  -74.370508715  163.307878236  1012.3266   1  12   0.0389   0.0373   0.1296  -0.0166  -0.0344  -0.0309   8.00    1.0
2018/11/14 01:01:15.000  -74.370508725  163.307878202  1012.2336   6  12   0.0381   0.0371   0.1186  -0.0081  -0.0242  -0.0230   7.00    0.0
2018/11/14 01:01:30.000  -74.370508755  163.307878251  1012.2119   6  12   0.0426   0.0415   0.1366  -0.0083  -0.0296  -0.0277   7.00    0.0
2018/11/14 01:01:45.000  -74.370508704  163.307877959  1012.2213   6  12   0.0472   0.0460   0.1551  -0.0087  -0.0350  -0.0325   7.00    0.0
2018/11/14 01:02:00.000  -74.370508742  163.307877973  1012.1650   6  12   0.0519   0.0506   0.1740  -0.0092  -0.0405  -0.0375   7.00    0.0
2018/11/14 01:02:15.000  -74.370508784  163.307878377  1012.2017   6  12   0.0567   0.0552   0.1930  -0.0099  -0.0459  -0.0425   7.00    0.0
2018/11/14 01:02:30.000  -74.370508835  163.307878776  1012.2437   6  12   0.0615   0.0600   0.2123  -0.0106  -0.0513  -0.0475   7.00    0.0
2018/11/14 01:02:45.000  -74.370508810  163.307878456  1012.2891   6  12   0.0568   0.0553   0.1937  -0.0096  -0.0462  -0.0425   7.00    0.0
2018/11/14 01:03:00.000  -74.370508726  163.307878377  1012.3004   6  12   0.0520   0.0507   0.1747  -0.0091  -0.0411  -0.0375   6.00    0.0
2018/11/14 01:03:15.000  -74.370508613  163.307878212  1012.2958   6  12   0.0473   0.0463   0.1558  -0.0090  -0.0359  -0.0324   6.00    0.0
2018/11/14 01:03:30.000  -74.370508539  163.307878407  1012.2766   6  12   0.0428   0.0421   0.1372  -0.0095  -0.0308  -0.0274   7.00    0.0
2018/11/14 01:03:45.000  -74.370508569  163.307878465  1012.2246   6  12   0.0385   0.0386   0.1189  -0.0113  -0.0256  -0.0224   6.00    0.0
2018/11/14 01:04:00.000  -74.370508572  163.307878334  1012.2299   6  12   0.0343   0.0347   0.1013  -0.0118  -0.0203  -0.0173   5.00    0.0
2018/11/14 01:04:15.000  -74.370508595  163.307878400  1012.2278   6  12   0.0295   0.0291   0.0846  -0.0081  -0.0160  -0.0112   5.00    0.0
2018/11/14 01:04:30.000  -74.370508523  163.307878863  1012.2191   6  12   0.0259   0.0259   0.0700  -0.0085  -0.0125   0.0035   5.00    0.0
2018/11/14 01:04:45.000  -74.370508556  163.307878997  1012.2259   6  12   0.0228   0.0223   0.0568  -0.0071   0.0027   0.0063   4.00    0.0
2018/11/14 01:05:00.000  -74.370508619  163.307879191  1012.2934   6  12   0.0213   0.0212   0.0505  -0.0070   0.0072   0.0082   4.00    0.0
2018/11/14 01:05:15.000  -74.370508641  163.307879598  1012.3515   6  12   0.0228   0.0226   0.0568  -0.0073   0.0006   0.0070   4.00    0.0
2018/11/14 01:05:30.000  -74.370508612  163.307879779  1012.3597   6  12   0.0256   0.0256   0.0692  -0.0076  -0.0111  -0.0032   4.00    0.0
2018/11/14 01:05:45.000  -74.370508584  163.307879700  1012.3777   6  12   0.0292   0.0293   0.0846  -0.0079  -0.0172  -0.0103   4.00    0.0
2018/11/14 01:06:00.000  -74.370508531  163.307879402  1012.3764   6  12   0.0334   0.0334   0.1016  -0.0082  -0.0230  -0.0155   4.00    0.0
2018/11/14 01:06:15.000  -74.370508605  163.307879067  1012.3567   6  12   0.0378   0.0378   0.1196  -0.0086  -0.0289  -0.0205   5.00    0.0
2018/11/14 01:06:30.000  -74.370508771  163.307878828  1012.2986   6  12   0.0424   0.0425   0.1384  -0.0094  -0.0350  -0.0253   4.00    0.0
2018/11/14 01:06:45.000  -74.370508756  163.307879160  1012.2817   6  12   0.0471   0.0475   0.1579  -0.0109  -0.0417  -0.0297   5.00    0.0
2018/11/14 01:07:00.000  -74.370508707  163.307879493  1012.2851   6  12   0.0521   0.0535   0.1789  -0.0141  -0.0505  -0.0326   5.00    0.0
2018/11/14 01:07:15.000  -74.370508669  163.307879351  1012.2821   6  12   0.0566   0.0574   0.1979  -0.0127  -0.0549  -0.0392   4.00    0.0
2018/11/14 01:07:30.000  -74.370508667  163.307879413  1012.2690   6  12   0.0613   0.0612   0.2151  -0.0113  -0.0576  -0.0459   4.00    0.0
2018/11/14 01:07:45.000  -74.370508657  163.307878847  1012.3400   6  12   0.0564   0.0560   0.1948  -0.0099  -0.0513  -0.0414   4.00    0.0
2018/11/14 01:08:00.000  -74.370508670  163.307878888  1012.3643   6  12   0.0516   0.0512   0.1753  -0.0090  -0.0454  -0.0366   4.00    0.0
2018/11/14 01:08:15.000  -74.370508609  163.307879112  1012.3717   6  12   0.0469   0.0466   0.1561  -0.0087  -0.0396  -0.0317   4.00    0.0
2018/11/14 01:08:30.000  -74.370508555  163.307879133  1012.3525   6  12   0.0424   0.0422   0.1372  -0.0091  -0.0339  -0.0269   3.00    0.0
2018/11/14 01:08:45.000  -74.370508704  163.307879270  1012.3265   6  12   0.0382   0.0386   0.1189  -0.0109  -0.0279  -0.0223   0.00    0.0
2018/11/14 01:09:00.000  -74.370508693  163.307879168  1012.3032   6  12   0.0334   0.0331   0.1011  -0.0075  -0.0231  -0.0167   0.00    0.0
2018/11/14 01:09:15.000  -74.370508679  163.307879037  1012.2961   6  12   0.0291   0.0289   0.0843  -0.0069  -0.0182  -0.0110   0.00    0.0
2018/11/14 01:09:30.000  -74.370508690  163.307878840  1012.2772   6  12   0.0255   0.0255   0.0694  -0.0071  -0.0133  -0.0030   3.00    0.0
2018/11/14 01:09:45.000  -74.370508724  163.307878890  1012.2703   6  12   0.0229   0.0231   0.0579  -0.0077  -0.0094   0.0085   5.00    0.0
2018/11/14 01:10:00.000  -74.370508643  163.307878981  1012.2754   6  12   0.0217   0.0216   0.0518  -0.0074  -0.0043   0.0094   5.00    0.0
2018/11/14 01:10:15.000  -74.370508606  163.307879125  1012.2632   6  12   0.0228   0.0227   0.0566  -0.0067  -0.0042   0.0054   5.00    0.0
2018/11/14 01:10:30.000  -74.370508598  163.307879112  1012.2531   6  12   0.0257   0.0258   0.0687  -0.0077  -0.0107  -0.0073   5.00    0.0
2018/11/14 01:10:45.000  -74.370508605  163.307879161  1012.2390   6  12   0.0289   0.0286   0.0835  -0.0058  -0.0172  -0.0121   5.00    0.0
2018/11/14 01:11:00.000  -74.370508573  163.307878851  1012.2292   6  12   0.0329   0.0324   0.1000  -0.0049  -0.0227  -0.0171   6.00    0.0
2018/11/14 01:11:15.000  -74.370508619  163.307878933  1012.2458   6  12   0.0372   0.0365   0.1173  -0.0041  -0.0281  -0.0221   4.00    0.0
2018/11/14 01:11:30.000  -74.370508643  163.307878944  1012.2445   6  12   0.0417   0.0409   0.1352  -0.0034  -0.0336  -0.0271   4.00    0.0
2018/11/14 01:11:45.000  -74.370508693  163.307878617  1012.2715   6  12   0.0463   0.0453   0.1534  -0.0029  -0.0390  -0.0322   4.00    0.0
2018/11/14 01:12:00.000  -74.370508701  163.307878863  1012.3011   6  12   0.0510   0.0499   0.1718  -0.0026  -0.0444  -0.0372   3.00    0.0
2018/11/14 01:12:15.000  -74.370508674  163.307878419  1012.3133   6  12   0.0558   0.0545   0.1903  -0.0026  -0.0499  -0.0422   3.00    0.0
2018/11/14 01:12:30.000  -74.370508693  163.307878241  1012.3281   6  12   0.0606   0.0592   0.2089  -0.0029  -0.0554  -0.0471   4.00    0.0
2018/11/14 01:12:45.000  -74.370508649  163.307878773  1012.2792   6  12   0.0559   0.0546   0.1904   0.0014  -0.0501  -0.0422   5.00    0.0
2018/11/14 01:13:00.000  -74.370508698  163.307879111  1012.2323   6  12   0.0511   0.0499   0.1715   0.0020  -0.0447  -0.0371   5.00    0.0
2018/11/14 01:13:15.000  -74.370508608  163.307878892  1012.2451   6  12   0.0464   0.0453   0.1529   0.0020  -0.0394  -0.0320   6.00    0.0
2018/11/14 01:13:30.000  -74.370508518  163.307878896  1012.2445   6  12   0.0417   0.0409   0.1346   0.0013  -0.0341  -0.0269   6.00    0.0
2018/11/14 01:13:45.000  -74.370508550  163.307878665  1012.2353   6  12   0.0372   0.0365   0.1168  -0.0017  -0.0288  -0.0218   6.00    0.0
2018/11/14 01:14:00.000  -74.370508515  163.307878962  1012.2319   6  12   0.0329   0.0323   0.0997  -0.0029  -0.0237  -0.0168   7.00    0.0
2018/11/14 01:14:15.000  -74.370508433  163.307878705  1012.2542   6  12   0.0289   0.0285   0.0835  -0.0039  -0.0186  -0.0115   7.00    0.0
2018/11/14 01:14:30.000  -74.370508538  163.307878644  1012.2403   6  12   0.0253   0.0251   0.0690  -0.0047  -0.0134  -0.0054   7.00    0.0
2018/11/14 01:14:45.000  -74.370508597  163.307878410  1012.2561   6  12   0.0226   0.0226   0.0573  -0.0051  -0.0080   0.0061   6.00    0.0
2018/11/14 01:15:00.000  -74.370508587  163.307878626  1012.2549   6  12   0.0212   0.0214   0.0516  -0.0051  -0.0031   0.0077   6.00    0.0
2018/11/14 01:15:15.000  -74.370508609  163.307879006  1012.2425   6  12   0.0226   0.0225   0.0574  -0.0048  -0.0083   0.0058   6.00    0.0
2018/11/14 01:15:30.000  -74.370508573  163.307879467  1012.2162   6  12   0.0253   0.0251   0.0691  -0.0041  -0.0138  -0.0052   6.00    0.0
2018/11/14 01:15:45.000  -74.370508527  163.307879564  1012.2034   6  12   0.0288   0.0284   0.0833  -0.0029  -0.0190  -0.0112   6.00    0.0
2018/11/14 01:16:00.000  -74.370508571  163.307879506  1012.1845   6  12   0.0327   0.0321   0.0990  -0.0006  -0.0241  -0.0164   6.00    0.0
2018/11/14 01:16:15.000  -74.370508581  163.307879191  1012.1499   6  12   0.0370   0.0362   0.1155   0.0028  -0.0293  -0.0213   6.00    0.0
2018/11/14 01:16:30.000  -74.370508554  163.307878642  1012.2054   6  12   0.0415   0.0405   0.1325   0.0038  -0.0345  -0.0262   6.00    0.0
2018/11/14 01:16:45.000  -74.370508472  163.307878535  1012.1813   6  12   0.0460   0.0449   0.1499   0.0045  -0.0398  -0.0310   5.00    0.0
2018/11/14 01:17:00.000  -74.370508579  163.307878222  1012.1624   6  12   0.0507   0.0494   0.1675   0.0050  -0.0451  -0.0359   5.00    0.0
2018/11/14 01:17:15.000  -74.370508515  163.307878139  1012.1418   6  12   0.0555   0.0541   0.1851   0.0053  -0.0504  -0.0407   5.00    0.0
2018/11/14 01:17:30.000  -74.370508540  163.307878283  1012.1728   6  12   0.0604   0.0588   0.2028   0.0055  -0.0557  -0.0454   5.00    0.0
2018/11/14 01:17:45.000  -74.370508432  163.307878515  1012.1800   6  12   0.0555   0.0540   0.1849   0.0056  -0.0503  -0.0403   5.00    0.0
2018/11/14 01:18:00.000  -74.370508490  163.307878633  1012.2104   6  12   0.0507   0.0494   0.1667   0.0054  -0.0450  -0.0354   5.00    0.0
2018/11/14 01:18:15.000  -74.370508487  163.307878615  1012.2079   6  12   0.0460   0.0448   0.1489   0.0050  -0.0398  -0.0304   5.00    0.0
2018/11/14 01:18:30.000  -74.370508549  163.307878680  1012.2257   6  12   0.0414   0.0404   0.1315   0.0044  -0.0346  -0.0255   5.00    0.0
2018/11/14 01:18:45.000  -74.370508573  163.307879027  1012.2151   6  12   0.0369   0.0361   0.1146   0.0036  -0.0296  -0.0205   5.00    0.0
2018/11/14 01:19:00.000  -74.370508576  163.307878971  1012.2137   6  12   0.0327   0.0321   0.0985   0.0023  -0.0247  -0.0155   5.00    0.0
2018/11/14 01:19:15.000  -74.370508607  163.307878881  1012.2151   6  12   0.0288   0.0283   0.0835  -0.0016  -0.0199  -0.0103   5.00    0.0
2018/11/14 01:19:30.000  -74.370508581  163.307878756  1012.1947   6  12   0.0254   0.0251   0.0701  -0.0034  -0.0154  -0.0040   5.00    0.0
2018/11/14 01:19:45.000  -74.370508582  163.307878527  1012.2109   6  12   0.0228   0.0227   0.0595  -0.0042  -0.0112   0.0061   5.00    0.0
2018/11/14 01:20:00.000  -74.370508602  163.307878333  1012.2236   6  12   0.0216   0.0215   0.0541  -0.0044  -0.0084   0.0076   6.00    0.0
2018/11/14 01:20:15.000  -74.370508556  163.307878502  1012.2158   6  12   0.0231   0.0227   0.0604  -0.0039  -0.0119   0.0064   6.00    0.0
2018/11/14 01:20:30.000  -74.370508273  163.307877136  1012.0967   1  12   0.0360   0.0383   0.1072  -0.0235  -0.0422  -0.0287   6.00    1.0
2018/11/14 01:20:45.000  -74.370508520  163.307878242  1012.2062   6  12   0.0293   0.0284   0.0849   0.0003  -0.0213  -0.0080   8.00    0.0
2018/11/14 01:21:00.000  -74.370508453  163.307878288  1012.1610   6  12   0.0332   0.0321   0.0994   0.0029  -0.0259  -0.0130   8.00    0.0
2018/11/14 01:21:15.000  -74.370508449  163.307878011  1012.1184   6  12   0.0374   0.0361   0.1148   0.0043  -0.0306  -0.0178   8.00    0.0
2018/11/14 01:21:30.000  -74.370508539  163.307878332  1012.0798   6  12   0.0419   0.0403   0.1306   0.0052  -0.0355  -0.0224   7.00    0.0
2018/11/14 01:21:45.000  -74.370508473  163.307878226  1012.0598   6  12   0.0465   0.0446   0.1468   0.0060  -0.0404  -0.0270   7.00    0.0
2018/11/14 01:22:00.000  -74.370508463  163.307878297  1012.0706   6  12   0.0512   0.0491   0.1633   0.0067  -0.0453  -0.0314   8.00    0.0
2018/11/14 01:22:15.000  -74.370508440  163.307878060  1012.0772   6  12   0.0560   0.0537   0.1799   0.0074  -0.0502  -0.0357   8.00    0.0
2018/11/14 01:22:30.000  -74.370508617  163.307878066  1012.0828   6  12   0.0610   0.0584   0.1966   0.0082  -0.0552  -0.0399   7.00    0.0
2018/11/14 01:22:45.000  -74.370508692  163.307878116  1012.1158   6  12   0.0567   0.0540   0.1806   0.0091  -0.0500  -0.0339   7.00    0.0
2018/11/14 01:23:00.000  -74.370508759  163.307877910  1012.1286   6  12   0.0530   0.0495   0.1652   0.0107  -0.0440  -0.0245   6.00    0.0
2018/11/14 01:23:15.000  -74.370508773  163.307877713  1012.1347   6  11   0.0494   0.0451   0.1503   0.0112  -0.0385  -0.0115   6.00    0.0
2018/11/14 01:23:30.000  -74.370508740  163.307878043  1012.1250   6  11   0.0444   0.0408   0.1336   0.0096  -0.0343  -0.0061   7.00    0.0
2018/11/14 01:23:45.000  -74.370508730  163.307878240  1012.1154   6  11   0.0397   0.0366   0.1176   0.0078  -0.0303   0.0063   7.00    0.0
2018/11/14 01:24:00.000  -74.370508652  163.307878335  1012.1424   6  11   0.0352   0.0327   0.1027   0.0055  -0.0269   0.0099   6.00    0.0
2018/11/14 01:24:15.000  -74.370508681  163.307878329  1012.1615   6  11   0.0312   0.0292   0.0894  -0.0008  -0.0241   0.0120   6.00    0.0
2018/11/14 01:24:30.000  -74.370508568  163.307878228  1012.1851   6  11   0.0283   0.0265   0.0793  -0.0062  -0.0230   0.0140   6.00    0.0
2018/11/14 01:24:45.000  -74.370508543  163.307878091  1012.2107   6  10   0.0250   0.0240   0.0681  -0.0055  -0.0191   0.0102   5.00    0.0
2018/11/14 01:25:00.000  -74.370508566  163.307878165  1012.1850   6  10   0.0228   0.0223   0.0612  -0.0040  -0.0152   0.0059   5.00    0.0
2018/11/14 01:25:15.000  -74.370508430  163.307878321  1012.1530   6  10   0.0253   0.0242   0.0702  -0.0036  -0.0204   0.0057   5.00    0.0
2018/11/14 01:25:30.000  -74.370508383  163.307878587  1012.1168   6  10   0.0296   0.0277   0.0862  -0.0052  -0.0282   0.0082   5.00    0.0
2018/11/14 01:25:45.000  -74.370508457  163.307878833  1012.1092   6  10   0.0321   0.0322   0.1063  -0.0024  -0.0372   0.0110   5.00    0.0
2018/11/14 01:26:00.000  -74.370508435  163.307879087  1012.0896   6  10   0.0375   0.0377   0.1315   0.0058  -0.0481  -0.0071   5.00    0.0
2018/11/14 01:26:15.000  -74.370508473  163.307878936  1012.1233   6   9   0.0458   0.0465   0.1818   0.0176  -0.0703  -0.0400   5.00    0.0
2018/11/14 01:26:30.000  -74.370508571  163.307878685  1012.1705   6   9   0.0521   0.0533   0.2121   0.0207  -0.0830  -0.0475   5.00    0.0
2018/11/14 01:26:45.000  -74.370508452  163.307878869  1012.1862   6   9   0.0586   0.0603   0.2431   0.0238  -0.0958  -0.0551   5.00    0.0
2018/11/14 01:27:00.000  -74.370508484  163.307878819  1012.2226   6   9   0.0652   0.0674   0.2744   0.0269  -0.1088  -0.0628   6.00    0.0
2018/11/14 01:27:15.000  -74.370508461  163.307878927  1012.1704   6   9   0.0720   0.0747   0.3060   0.0301  -0.1219  -0.0706   6.00    0.0
2018/11/14 01:27:30.000  -74.370508386  163.307878640  1012.0629   6   9   0.0788   0.0821   0.3378   0.0333  -0.1351  -0.0784   6.00    0.0
2018/11/14 01:27:45.000  -74.370508214  163.307878646  1012.0215   6   9   0.0719   0.0747   0.3056   0.0303  -0.1220  -0.0709   6.00    0.0
2018/11/14 01:28:00.000  -74.370508236  163.307878446  1012.0666   6   9   0.0652   0.0677   0.2749   0.0274  -0.1096  -0.0634   6.00    0.0
2018/11/14 01:28:15.000  -74.370508335  163.307878043  1012.1066   6   9   0.0585   0.0607   0.2442   0.0244  -0.0972  -0.0559   6.00    0.0
2018/11/14 01:28:30.000  -74.370508369  163.307877891  1012.0976   6   9   0.0520   0.0539   0.2138   0.0215  -0.0847  -0.0484   6.00    0.0
2018/11/14 01:28:45.000  -74.370508356  163.307877573  1012.1553   6   9   0.0456   0.0472   0.1838   0.0185  -0.0723  -0.0409   6.00    0.0
2018/11/14 01:29:00.000  -74.370508481  163.307877190  1012.2202   6   9   0.0394   0.0407   0.1546   0.0156  -0.0600  -0.0336   6.00    0.0
2018/11/14 01:29:15.000  -74.370508558  163.307877318  1012.2304   6   9   0.0336   0.0347   0.1266   0.0126  -0.0481  -0.0263   6.00    0.0
2018/11/14 01:29:30.000  -74.370508597  163.307877336  1012.2142   6   9   0.0283   0.0293   0.1011   0.0097  -0.0367  -0.0194   6.00    0.0
2018/11/14 01:29:45.000  -74.370508631  163.307877647  1012.1866   6   9   0.0241   0.0252   0.0801   0.0072  -0.0268  -0.0126   6.00    0.0
2018/11/14 01:30:00.000  -74.370508613  163.307877973  1012.1523   6   9   0.0219   0.0230   0.0694   0.0052  -0.0213  -0.0075   6.00    0.0
2018/11/14 01:30:15.000  -74.370508578  163.307878129  1012.1669   6   9   0.0241   0.0251   0.0808   0.0073  -0.0270  -0.0129   6.00    0.0
2018/11/14 01:30:30.000  -74.370508586  163.307878110  1012.2027   6   9   0.0283   0.0294   0.1023   0.0100  -0.0373  -0.0200   6.00    0.0
2018/11/14 01:30:45.000  -74.370508724  163.307877576  1012.2377   6   9   0.0335   0.0349   0.1283   0.0131  -0.0490  -0.0272   6.00    0.0
2018/11/14 01:31:00.000  -74.370508768  163.307877627  1012.2358   6   9   0.0393   0.0411   0.1567   0.0163  -0.0615  -0.0346   6.00    0.0
2018/11/14 01:31:15.000  -74.370508722  163.307877532  1012.1954   6   9   0.0455   0.0479   0.1865   0.0196  -0.0745  -0.0422   6.00    0.0
2018/11/14 01:31:30.000  -74.370508774  163.307876788  1012.2095   6   9   0.0519   0.0549   0.2171   0.0229  -0.0876  -0.0499   6.00    0.0
2018/11/14 01:31:45.000  -74.370508763  163.307876706  1012.2439   6   9   0.0585   0.0622   0.2482   0.0262  -0.1010  -0.0577   6.00    0.0
2018/11/14 01:32:00.000  -74.370508724  163.307877322  1012.1792   6   9   0.0652   0.0696   0.2797   0.0296  -0.1144  -0.0655   6.00    0.0
2018/11/14 01:32:15.000  -74.370508919  163.307877656  1012.2082   6   9   0.0720   0.0771   0.3113   0.0330  -0.1280  -0.0733   6.00    0.0
2018/11/14 01:32:30.000  -74.370508919  163.307877720  1012.1673   6   9   0.0789   0.0847   0.3431   0.0365  -0.1416  -0.0811   6.00    0.0
2018/11/14 01:32:45.000  -74.370509021  163.307876809  1012.2960   6   9   0.0722   0.0773   0.3115   0.0331  -0.1283  -0.0734   6.00    0.0
2018/11/14 01:33:00.000  -74.370508940  163.307876769  1012.2594   6   9   0.0654   0.0700   0.2800   0.0299  -0.1152  -0.0657   6.00    0.0
2018/11/14 01:33:15.000  -74.370508800  163.307876960  1012.2375   6   9   0.0587   0.0627   0.2488   0.0267  -0.1020  -0.0582   6.00    0.0
2018/11/14 01:33:30.000  -74.370508688  163.307877374  1012.1777   6   9   0.0522   0.0555   0.2181   0.0235  -0.0890  -0.0506   6.00    0.0
2018/11/14 01:33:45.000  -74.370508643  163.307877227  1012.1858   6   9   0.0458   0.0485   0.1879   0.0203  -0.0760  -0.0433   6.00    0.0
2018/11/14 01:34:00.000  -74.370508524  163.307877869  1012.1238   6   9   0.0396   0.0418   0.1588   0.0171  -0.0633  -0.0361   6.00    1.0
2018/11/14 01:34:15.000  -74.370508361  163.307878138  1012.0645   6   9   0.0339   0.0355   0.1312   0.0141  -0.0510  -0.0293   6.00    0.0
2018/11/14 01:34:30.000  -74.370508532  163.307878180  1012.1102   6   9   0.0287   0.0299   0.1063   0.0111  -0.0395  -0.0229   6.00    0.0
2018/11/14 01:34:45.000  -74.370508576  163.307878015  1012.1356   6   9   0.0245   0.0256   0.0861   0.0085  -0.0296  -0.0172   6.00    0.0
2018/11/14 01:35:00.000  -74.370508638  163.307877844  1012.1368   6   9   0.0224   0.0235   0.0761   0.0069  -0.0241  -0.0136   6.00    0.0
2018/11/14 01:35:15.000  -74.370508700  163.307877301  1012.1833   6   9   0.0249   0.0256   0.0882   0.0089  -0.0301  -0.0194   6.00    0.0
2018/11/14 01:35:30.000  -74.370508619  163.307877140  1012.1566   6   9   0.0294   0.0300   0.1107   0.0119  -0.0405  -0.0271   6.00    0.0
2018/11/14 01:35:45.000  -74.370508497  163.307877304  1012.1033   6   9   0.0349   0.0357   0.1374   0.0152  -0.0525  -0.0350   6.00    0.0
2018/11/14 01:36:00.000  -74.370508576  163.307877233  1012.1161   6   9   0.0410   0.0421   0.1664   0.0185  -0.0652  -0.0431   6.00    0.0
2018/11/14 01:36:15.000  -74.370508620  163.307877110  1012.1458   6   9   0.0474   0.0490   0.1968   0.0221  -0.0784  -0.0514   6.00    0.0
2018/11/14 01:36:30.000  -74.370508774  163.307877442  1012.1717   6   9   0.0541   0.0563   0.2281   0.0257  -0.0918  -0.0600   6.00    0.0
2018/11/14 01:36:45.000  -74.370508764  163.307877385  1012.1695   6   9   0.0610   0.0637   0.2601   0.0294  -0.1055  -0.0688   6.00    0.0
2018/11/14 01:37:00.000  -74.370508659  163.307877467  1012.1338   6   9   0.0681   0.0713   0.2928   0.0332  -0.1193  -0.0779   6.00    0.0
2018/11/14 01:37:15.000  -74.370508632  163.307877524  1012.1081   6   9   0.0753   0.0790   0.3260   0.0371  -0.1333  -0.0874   6.00    0.0
2018/11/14 01:37:30.000  -74.370508557  163.307877097  1012.0742   6   9   0.0828   0.0868   0.3601   0.0411  -0.1474  -0.0974   6.00    0.0
2018/11/14 01:37:45.000  -74.370508445  163.307877666  1012.0316   6   9   0.0771   0.0793   0.3362   0.0387  -0.1354  -0.0948   6.00    0.0
2018/11/14 01:38:00.000  -74.370508455  163.307877718  1011.9934   6   9   0.0723   0.0721   0.3175   0.0369  -0.1244  -0.0955   6.00    0.0
2018/11/14 01:38:15.000  -74.370508626  163.307877796  1012.0637   6   8   0.0792   0.0676   0.3689   0.0448  -0.1303  -0.1342   4.00    0.0
2018/11/14 01:38:30.000  -74.370508588  163.307877338  1012.1999   6   9   0.0524   0.0551   0.2263   0.0219  -0.0873  -0.0558   4.00    0.0
2018/11/14 01:38:45.000  -74.370508530  163.307877033  1012.2531   6   9   0.0451   0.0480   0.1907   0.0182  -0.0738  -0.0440   4.00    0.0
2018/11/14 01:39:00.000  -74.370508524  163.307877079  1012.2586   6   9   0.0388   0.0414   0.1604   0.0155  -0.0616  -0.0358   4.00    0.0
2018/11/14 01:39:15.000  -74.370508529  163.307876831  1012.2751   6   9   0.0332   0.0353   0.1334   0.0131  -0.0502  -0.0293   4.00    0.0
2018/11/14 01:39:30.000  -74.370508559  163.307876766  1012.2791   6   9   0.0283   0.0300   0.1095   0.0109  -0.0398  -0.0239   4.00    0.0
2018/11/14 01:39:45.000  -74.370508626  163.307876747  1012.2759   6   9   0.0244   0.0258   0.0904   0.0090  -0.0309  -0.0192   4.00    0.0
2018/11/14 01:40:00.000  -74.370508609  163.307877656  1012.1566   6   9   0.0225   0.0238   0.0809   0.0077  -0.0262  -0.0167   4.00    0.0
2018/11/14 01:40:15.000  -74.370508614  163.307877530  1012.1453   6   9   0.0250   0.0260   0.0926   0.0100  -0.0321  -0.0220   4.00    0.0
2018/11/14 01:40:30.000  -74.370508482  163.307877264  1012.2054   6   9   0.0293   0.0303   0.1131   0.0126  -0.0416  -0.0285   4.00    0.0
2018/11/14 01:40:45.000  -74.370508448  163.307877454  1012.1740   6   9   0.0343   0.0358   0.1371   0.0151  -0.0522  -0.0346   4.00    0.0
2018/11/14 01:41:00.000  -74.370508383  163.307877741  1012.1389   6   9   0.0399   0.0419   0.1634   0.0177  -0.0636  -0.0407   4.00    0.0
2018/11/14 01:41:15.000  -74.370508385  163.307877428  1012.1539   6   9   0.0458   0.0486   0.1917   0.0204  -0.0755  -0.0472   4.00    0.0
2018/11/14 01:41:30.000  -74.370508346  163.307877594  1012.1574   6   9   0.0520   0.0555   0.2215   0.0233  -0.0879  -0.0544   4.00    0.0
2018/11/14 01:41:45.000  -74.370508359  163.307877740  1012.1373   6   9   0.0585   0.0627   0.2527   0.0264  -0.1007  -0.0624   4.00    0.0
2018/11/14 01:42:00.000  -74.370508397  163.307877775  1012.1552   6   9   0.0654   0.0701   0.2855   0.0299  -0.1140  -0.0714   4.00    0.0
2018/11/14 01:42:15.000  -74.370508487  163.307878012  1012.1395   6   9   0.0727   0.0777   0.3203   0.0337  -0.1278  -0.0818   4.00    0.0
2018/11/14 01:42:30.000  -74.370508543  163.307877219  1012.2141   6   9   0.0806   0.0855   0.3581   0.0382  -0.1425  -0.0945   4.00    0.0
2018/11/14 01:42:45.000  -74.370508598  163.307876527  1012.2445   6   9   0.0771   0.0792   0.3431   0.0386  -0.1344  -0.0989   4.00    0.0
2018/11/14 01:43:00.000  -74.370508675  163.307875898  1012.3145   6   9   0.0676   0.0713   0.3039   0.0331  -0.1191  -0.0830   4.00    0.0
2018/11/14 01:43:15.000  -74.370508683  163.307875518  1012.3505   6   9   0.0592   0.0635   0.2626   0.0283  -0.1038  -0.0678   4.00    0.0
2018/11/14 01:43:30.000  -74.370508574  163.307875453  1012.3556   6   9   0.0519   0.0562   0.2272   0.0245  -0.0900  -0.0566   4.00    0.0
2018/11/14 01:43:45.000  -74.370508524  163.307875754  1012.2954   6   9   0.0452   0.0491   0.1946   0.0211  -0.0769  -0.0472   4.00    0.0
2018/11/14 01:44:00.000  -74.370508558  163.307876314  1012.2414   6   9   0.0389   0.0423   0.1640   0.0179  -0.0643  -0.0387   4.00    0.0
2018/11/14 01:44:15.000  -74.370508560  163.307876236  1012.2375   6   9   0.0330   0.0361   0.1354   0.0148  -0.0523  -0.0308   4.00    0.0
2018/11/14 01:44:30.000  -74.370508512  163.307876689  1012.1733   6   9   0.0278   0.0305   0.1094   0.0119  -0.0410  -0.0233   4.00    0.0
