% program   : RTKLIB ver.2.4.3
% inp file  : _by_type/_obs/shirase/20181111.18o
% inp file  : _by_type/_sp3+clk/igs20270.clk
% inp file  : _by_type/_sp3+clk/igs20270.sp3
% inp file  : _by_type/_nav/shirase/20181111.18n
% obs start : 2018/11/11 00:00:00.0 GPST (week2027      0.0s)
% obs end   : 2018/11/11 23:59:45.0 GPST (week2027  86385.0s)
% pos mode  : ppp-kinematic
% solution  : combined
% elev mask : 15.0 deg
% dynamics  : off
% tidecorr  : on
% tropo opt : est ztd+grad
% ephemeris : precise
% navi sys  : gps glonass
% antenna1  :                       ( 0.0000  0.0000  0.0000)
%
% (lat/lon/height=WGS84/ellipsoidal,Q=1:fix,2:float,3:sbas,4:dgps,5:single,6:ppp,ns=# of satellites)
%  GPST                  latitude(deg) longitude(deg)  height(m)   Q  ns   sdn(m)   sde(m)   sdu(m)  sdne(m)  sdeu(m)  sdun(m) age(s)  ratio
2018/11/11 00:00:00.000  -74.525923802  163.457844547    26.2989   1  10   0.0236   0.0230   0.0654  -0.0178   0.0173  -0.0208   2.00    1.0
2018/11/11 00:00:15.000  -74.525923725  163.457843718    26.2609   1  10   0.0263   0.0266   0.0784  -0.0193   0.0242  -0.0246   2.00    1.0
2018/11/11 00:00:30.000  -74.525923800  163.457843721    26.2609   1  10   0.0318   0.0333   0.1017  -0.0227   0.0352  -0.0313   2.00    1.0
2018/11/11 00:00:45.000  -74.525923797  163.457844089    26.2672   1  10   0.0391   0.0420   0.1299  -0.0275   0.0476  -0.0398   2.00    1.0
2018/11/11 00:01:00.000  -74.525923718  163.457843776    26.2223   6  10   0.0484   0.0542   0.1604  -0.0333   0.0618  -0.0488   0.00    0.0
2018/11/11 00:01:15.000  -74.525923705  163.457843836    26.2186   6  10   0.0528   0.0580   0.1915  -0.0312   0.0727  -0.0565   0.00    0.0
2018/11/11 00:01:30.000  -74.525923712  163.457844041    26.2391   6  10   0.0609   0.0668   0.2234  -0.0359   0.0854  -0.0661   0.00    0.0
2018/11/11 00:01:45.000  -74.525923743  163.457843930    26.2350   6  10   0.0690   0.0757   0.2554  -0.0407   0.0979  -0.0758   1.00    0.0
2018/11/11 00:02:00.000  -74.525923683  163.457843725    26.1856   6  10   0.0771   0.0844   0.2871  -0.0454   0.1103  -0.0854   2.00    0.0
2018/11/11 00:02:15.000  -74.525923834  163.457844085    26.2201   6  10   0.0850   0.0930   0.3184  -0.0499   0.1223  -0.0948   2.00    0.0
2018/11/11 00:02:30.000  -74.525923782  163.457843489    26.1778   6  10   0.0929   0.1014   0.3490  -0.0543   0.1339  -0.1040   2.00    0.0
2018/11/11 00:02:45.000  -74.525923871  163.457843383    26.2046   6  10   0.0845   0.0926   0.3183  -0.0498   0.1222  -0.0949   3.00    0.0
2018/11/11 00:03:00.000  -74.525923871  163.457843539    26.2034   6  10   0.0764   0.0838   0.2878  -0.0452   0.1104  -0.0858   4.00    0.0
2018/11/11 00:03:15.000  -74.525923858  163.457842876    26.1642   6  10   0.0683   0.0750   0.2571  -0.0406   0.0985  -0.0766   4.00    0.0
2018/11/11 00:03:30.000  -74.525923948  163.457843671    26.2634   6  10   0.0603   0.0663   0.2260  -0.0359   0.0865  -0.0673   4.00    0.0
2018/11/11 00:03:45.000  -74.525924060  163.457843765    26.3011   6  10   0.0524   0.0577   0.1949  -0.0314   0.0742  -0.0579   4.00    0.0
2018/11/11 00:04:00.000  -74.525924113  163.457844107    26.3258   6  10   0.0447   0.0492   0.1640  -0.0268   0.0620  -0.0486   4.00    0.0
2018/11/11 00:04:15.000  -74.525924005  163.457844570    26.3168   1  10   0.0374   0.0396   0.1352  -0.0246   0.0494  -0.0409   3.00    1.0
2018/11/11 00:04:30.000  -74.525924017  163.457844795    26.3021   1  10   0.0307   0.0316   0.1059  -0.0209   0.0368  -0.0322   3.00    1.0
2018/11/11 00:04:45.000  -74.525923965  163.457844707    26.2963   1  10   0.0255   0.0253   0.0813  -0.0181   0.0255  -0.0249   3.00    1.0
2018/11/11 00:05:00.000  -74.525923905  163.457844459    26.2891   1  10   0.0227   0.0220   0.0676  -0.0165   0.0183  -0.0206   3.00    1.0
2018/11/11 00:05:15.000  -74.525923863  163.457844520    26.2883   1  10   0.0256   0.0254   0.0817  -0.0182   0.0258  -0.0252   3.00    1.0
2018/11/11 00:05:30.000  -74.525923999  163.457844494    26.3324   1  10   0.0310   0.0319   0.1070  -0.0213   0.0376  -0.0329   3.00    1.0
2018/11/11 00:05:45.000  -74.525924078  163.457844884    26.3793   1  10   0.0378   0.0399   0.1374  -0.0252   0.0507  -0.0421   3.00    1.0
2018/11/11 00:06:00.000  -74.525924006  163.457844080    26.2948   6  10   0.0446   0.0491   0.1650  -0.0270   0.0625  -0.0489   4.00    0.0
2018/11/11 00:06:15.000  -74.525923998  163.457843783    26.2739   6  10   0.0520   0.0572   0.1955  -0.0311   0.0744  -0.0578   4.00    0.0
2018/11/11 00:06:30.000  -74.525923946  163.457843396    26.2333   6  10   0.0594   0.0653   0.2256  -0.0351   0.0859  -0.0664   4.00    0.0
2018/11/11 00:06:45.000  -74.525923885  163.457843403    26.2136   6  10   0.0667   0.0732   0.2551  -0.0391   0.0970  -0.0747   4.00    0.0
2018/11/11 00:07:00.000  -74.525923856  163.457843566    26.2073   6  10   0.0740   0.0810   0.2838  -0.0429   0.1076  -0.0827   4.00    0.0
2018/11/11 00:07:15.000  -74.525923776  163.457842833    26.1153   6  10   0.0810   0.0886   0.3118  -0.0465   0.1180  -0.0905   4.00    0.0
2018/11/11 00:07:30.000  -74.525923866  163.457842413    26.0689   6  10   0.0879   0.0960   0.3392  -0.0501   0.1280  -0.0981   4.00    0.0
2018/11/11 00:07:45.000  -74.525923918  163.457842696    26.0923   6  10   0.0809   0.0882   0.3127  -0.0464   0.1179  -0.0910   4.00    0.0
2018/11/11 00:08:00.000  -74.525923962  163.457843322    26.1623   6  10   0.0737   0.0804   0.2854  -0.0426   0.1077  -0.0834   4.00    0.0
2018/11/11 00:08:15.000  -74.525923956  163.457842864    26.1363   6  10   0.0665   0.0726   0.2572  -0.0388   0.0973  -0.0756   4.00    0.0
2018/11/11 00:08:30.000  -74.525923941  163.457842838    26.1416   6  10   0.0591   0.0647   0.2283  -0.0349   0.0864  -0.0674   4.00    0.0
2018/11/11 00:08:45.000  -74.525923876  163.457842867    26.1252   6  10   0.0518   0.0567   0.1986  -0.0310   0.0751  -0.0590   4.00    0.0
2018/11/11 00:09:00.000  -74.525923960  163.457842943    26.1412   6  11   0.0435   0.0488   0.1610  -0.0270   0.0635  -0.0549   4.00    0.0
2018/11/11 00:09:15.000  -74.525924070  163.457843826    26.2092   1  11   0.0376   0.0401   0.1369  -0.0258   0.0529  -0.0479   4.00    1.0
2018/11/11 00:09:30.000  -74.525924027  163.457844002    26.2092   1  11   0.0313   0.0320   0.1077  -0.0220   0.0397  -0.0374   4.00    1.0
2018/11/11 00:09:45.000  -74.525924064  163.457844482    26.2854   1  11   0.0264   0.0256   0.0834  -0.0191   0.0280  -0.0285   4.00    1.0
2018/11/11 00:10:00.000  -74.525924068  163.457844609    26.2857   1  11   0.0237   0.0223   0.0698  -0.0176   0.0208  -0.0235   4.00    1.0
2018/11/11 00:10:15.000  -74.525924040  163.457844303    26.2371   1  11   0.0265   0.0257   0.0839  -0.0193   0.0284  -0.0288   4.00    1.0
2018/11/11 00:10:30.000  -74.525924169  163.457844385    26.2498   1  11   0.0316   0.0322   0.1089  -0.0224   0.0404  -0.0380   4.00    1.0
2018/11/11 00:10:45.000  -74.525924272  163.457844288    26.2744   1  11   0.0380   0.0404   0.1391  -0.0264   0.0539  -0.0489   4.00    1.0
2018/11/11 00:11:00.000  -74.525924109  163.457843206    26.1639   6  11   0.0426   0.0481   0.1577  -0.0260   0.0616  -0.0523   3.00    0.0
2018/11/11 00:11:15.000  -74.525924125  163.457842495    26.1466   6  11   0.0489   0.0555   0.1841  -0.0292   0.0721  -0.0607   3.00    0.0
2018/11/11 00:11:30.000  -74.525924200  163.457843014    26.1824   6  11   0.0553   0.0629   0.2101  -0.0324   0.0823  -0.0688   3.00    0.0
2018/11/11 00:11:45.000  -74.525924160  163.457842412    26.1144   6  11   0.0616   0.0702   0.2357  -0.0355   0.0923  -0.0768   4.00    0.0
2018/11/11 00:12:00.000  -74.525924146  163.457842041    26.1278   6  11   0.0679   0.0774   0.2611  -0.0388   0.1021  -0.0847   4.00    0.0
2018/11/11 00:12:15.000  -74.525924206  163.457841914    26.1616   6  11   0.0741   0.0845   0.2863  -0.0420   0.1120  -0.0926   4.00    0.0
2018/11/11 00:12:30.000  -74.525924232  163.457842175    26.1722   6  11   0.0802   0.0915   0.3115  -0.0454   0.1218  -0.1006   4.00    0.0
2018/11/11 00:12:45.000  -74.525924132  163.457842219    26.1872   6  11   0.0737   0.0841   0.2856  -0.0416   0.1113  -0.0921   4.00    0.0
2018/11/11 00:13:00.000  -74.525924161  163.457842767    26.2182   6  11   0.0674   0.0769   0.2608  -0.0382   0.1015  -0.0841   4.00    0.0
2018/11/11 00:13:15.000  -74.525924167  163.457843391    26.2557   6  11   0.0610   0.0696   0.2356  -0.0349   0.0916  -0.0762   4.00    0.0
2018/11/11 00:13:30.000  -74.525924166  163.457843958    26.2782   6  11   0.0546   0.0622   0.2100  -0.0317   0.0816  -0.0682   5.00    0.0
2018/11/11 00:13:45.000  -74.525924108  163.457843779    26.2390   6  11   0.0483   0.0548   0.1839  -0.0285   0.0713  -0.0600   5.00    0.0
2018/11/11 00:14:00.000  -74.525924150  163.457844162    26.2559   6  11   0.0420   0.0475   0.1575  -0.0253   0.0608  -0.0516   5.00    0.0
2018/11/11 00:14:15.000  -74.525924135  163.457844256    26.2704   6  11   0.0361   0.0404   0.1310  -0.0222   0.0501  -0.0430   5.00    0.0
2018/11/11 00:14:30.000  -74.525924312  163.457845235    26.3705   1  11   0.0319   0.0322   0.1113  -0.0227   0.0412  -0.0393   4.00    1.0
2018/11/11 00:14:45.000  -74.525924246  163.457845022    26.3329   1  11   0.0273   0.0257   0.0866  -0.0198   0.0297  -0.0306   4.00    1.0
2018/11/11 00:15:00.000  -74.525924199  163.457844787    26.3063   1  11   0.0249   0.0226   0.0736  -0.0186   0.0232  -0.0260   4.00    1.0
2018/11/11 00:15:15.000  -74.525924140  163.457844759    26.2800   1  11   0.0273   0.0258   0.0866  -0.0201   0.0299  -0.0308   4.00    1.0
2018/11/11 00:15:30.000  -74.525924199  163.457844617    26.2738   1  11   0.0323   0.0323   0.1119  -0.0230   0.0417  -0.0398   4.00    1.0
2018/11/11 00:15:45.000  -74.525923951  163.457843102    26.1258   6  11   0.0353   0.0397   0.1260  -0.0212   0.0477  -0.0400   6.00    0.0
2018/11/11 00:16:00.000  -74.525924059  163.457843038    26.1502   6  11   0.0408   0.0464   0.1501  -0.0236   0.0572  -0.0471   6.00    0.0
2018/11/11 00:16:15.000  -74.525924048  163.457842748    26.1288   6  11   0.0467   0.0533   0.1746  -0.0263   0.0668  -0.0542   6.00    0.0
2018/11/11 00:16:30.000  -74.525923995  163.457842475    26.0927   6  11   0.0526   0.0603   0.1993  -0.0291   0.0765  -0.0616   6.00    0.0
2018/11/11 00:16:45.000  -74.525924200  163.457842456    26.1309   6  11   0.0587   0.0673   0.2242  -0.0321   0.0863  -0.0692   6.00    0.0
2018/11/11 00:17:00.000  -74.525924424  163.457842763    26.1743   6  11   0.0647   0.0743   0.2493  -0.0353   0.0963  -0.0771   6.00    0.0
2018/11/11 00:17:15.000  -74.525924543  163.457842666    26.2043   6  11   0.0707   0.0812   0.2745  -0.0386   0.1063  -0.0852   6.00    0.0
2018/11/11 00:17:30.000  -74.525924641  163.457842632    26.2462   6  11   0.0767   0.0880   0.2998  -0.0421   0.1164  -0.0936   6.00    0.0
2018/11/11 00:17:45.000  -74.525924584  163.457843177    26.2535   6  11   0.0707   0.0813   0.2756  -0.0389   0.1069  -0.0858   6.00    0.0
2018/11/11 00:18:00.000  -74.525924423  163.457843112    26.2080   6  11   0.0646   0.0742   0.2504  -0.0354   0.0967  -0.0776   6.00    0.0
2018/11/11 00:18:15.000  -74.525924265  163.457843134    26.1756   6  11   0.0585   0.0671   0.2253  -0.0321   0.0866  -0.0696   6.00    0.0
2018/11/11 00:18:30.000  -74.525924147  163.457843285    26.1718   6  11   0.0524   0.0600   0.2002  -0.0290   0.0767  -0.0618   6.00    0.0
2018/11/11 00:18:45.000  -74.525924130  163.457843211    26.1420   6  11   0.0464   0.0530   0.1753  -0.0261   0.0669  -0.0543   6.00    0.0
2018/11/11 00:19:00.000  -74.525924147  163.457843632    26.1423   6  11   0.0406   0.0461   0.1507  -0.0234   0.0571  -0.0469   6.00    0.0
2018/11/11 00:19:15.000  -74.525924101  163.457843856    26.1333   6  11   0.0351   0.0394   0.1265  -0.0209   0.0475  -0.0398   6.00    0.0
2018/11/11 00:19:30.000  -74.525924266  163.457845742    26.2812   1  11   0.0329   0.0342   0.1143  -0.0234   0.0425  -0.0421   6.00    1.0
2018/11/11 00:19:45.000  -74.525924231  163.457845518    26.3031   1  11   0.0282   0.0280   0.0891  -0.0205   0.0308  -0.0337   6.00    1.0
2018/11/11 00:20:00.000  -74.525924226  163.457845295    26.3127   1  11   0.0260   0.0251   0.0754  -0.0190   0.0236  -0.0289   6.00    1.0
2018/11/11 00:20:15.000  -74.525924290  163.457845183    26.3375   1  11   0.0287   0.0280   0.0898  -0.0205   0.0308  -0.0343   6.00    1.0
2018/11/11 00:20:30.000  -74.525924251  163.457845533    26.3232   1  11   0.0335   0.0341   0.1156  -0.0236   0.0427  -0.0432   6.00    1.0
2018/11/11 00:20:45.000  -74.525924021  163.457844492    26.2016   6  11   0.0346   0.0387   0.1219  -0.0199   0.0451  -0.0373   6.00    0.0
2018/11/11 00:21:00.000  -74.525924142  163.457844654    26.2498   6  11   0.0398   0.0450   0.1445  -0.0220   0.0540  -0.0437   6.00    0.0
2018/11/11 00:21:15.000  -74.525924002  163.457843645    26.1607   6  11   0.0454   0.0516   0.1680  -0.0245   0.0632  -0.0505   6.00    0.0
2018/11/11 00:21:30.000  -74.525924090  163.457843840    26.1920   6  11   0.0512   0.0583   0.1921  -0.0272   0.0728  -0.0578   6.00    0.0
2018/11/11 00:21:45.000  -74.525924117  163.457843866    26.2089   6  11   0.0570   0.0651   0.2166  -0.0302   0.0825  -0.0654   6.00    0.0
2018/11/11 00:22:00.000  -74.525924166  163.457843602    26.1992   6  11   0.0629   0.0718   0.2413  -0.0334   0.0924  -0.0733   6.00    0.0
2018/11/11 00:22:15.000  -74.525924292  163.457843848    26.2028   6  11   0.0687   0.0785   0.2661  -0.0367   0.1023  -0.0815   6.00    0.0
2018/11/11 00:22:30.000  -74.525924222  163.457843759    26.1710   6  11   0.0745   0.0852   0.2910  -0.0402   0.1123  -0.0898   6.00    0.0
2018/11/11 00:22:45.000  -74.525924144  163.457843612    26.1321   6  11   0.0689   0.0785   0.2667  -0.0366   0.1022  -0.0820   6.00    0.0
2018/11/11 00:23:00.000  -74.525924255  163.457843828    26.1675   6  11   0.0629   0.0716   0.2415  -0.0331   0.0919  -0.0736   6.00    0.0
2018/11/11 00:23:15.000  -74.525924227  163.457843622    26.1325   6  11   0.0570   0.0647   0.2165  -0.0297   0.0818  -0.0655   6.00    0.0
2018/11/11 00:23:30.000  -74.525924080  163.457843093    26.0830   6  11   0.0511   0.0579   0.1919  -0.0266   0.0719  -0.0577   6.00    0.0
2018/11/11 00:23:45.000  -74.525924161  163.457842822    26.1122   6  11   0.0453   0.0511   0.1677  -0.0238   0.0622  -0.0504   6.00    0.0
2018/11/11 00:24:00.000  -74.525924140  163.457842895    26.1116   6  11   0.0398   0.0444   0.1442  -0.0213   0.0528  -0.0435   6.00    0.0
2018/11/11 00:24:15.000  -74.525924032  163.457843054    26.1042   6  11   0.0346   0.0381   0.1219  -0.0192   0.0439  -0.0373   6.00    0.0
2018/11/11 00:24:30.000  -74.525924198  163.457845084    26.2682   1  11   0.0345   0.0337   0.1189  -0.0236   0.0424  -0.0453   5.00    1.0
2018/11/11 00:24:45.000  -74.525924211  163.457844762    26.2706   1  11   0.0300   0.0276   0.0949  -0.0208   0.0310  -0.0374   5.00    1.0
2018/11/11 00:25:00.000  -74.525924391  163.457845089    26.3428   1  11   0.0280   0.0244   0.0824  -0.0193   0.0243  -0.0333   5.00    1.0
2018/11/11 00:25:15.000  -74.525924605  163.457845408    26.4126   1  11   0.0315   0.0277   0.1017  -0.0215   0.0327  -0.0417   5.00    1.0
2018/11/11 00:25:30.000  -74.525924668  163.457845593    26.4485   1  11   0.0386   0.0342   0.1366  -0.0257   0.0471  -0.0566   5.00    1.0
2018/11/11 00:25:45.000  -74.525924292  163.457843521    26.1938   6  11   0.0370   0.0375   0.1294  -0.0193   0.0432  -0.0448   6.00    0.0
2018/11/11 00:26:00.000  -74.525924301  163.457843323    26.1746   6  11   0.0449   0.0436   0.1600  -0.0223   0.0532  -0.0585   6.00    0.0
2018/11/11 00:26:15.000  -74.525924687  163.457843955    26.3608   6  11   0.0549   0.0525   0.2081  -0.0316   0.0747  -0.0803   5.00    0.0
2018/11/11 00:26:30.000  -74.525924660  163.457843437    26.3014   6  11   0.0609   0.0583   0.2295  -0.0334   0.0815  -0.0875   5.00    0.0
2018/11/11 00:26:45.000  -74.525924578  163.457842602    26.2112   6  11   0.0699   0.0647   0.2634  -0.0376   0.0922  -0.1031   4.00    0.0
2018/11/11 00:27:00.000  -74.525924865  163.457842831    26.3044   6  11   0.0750   0.0729   0.2936  -0.0438   0.1079  -0.1122   4.00    0.0
2018/11/11 00:27:15.000  -74.525924855  163.457843078    26.2730   6  11   0.0785   0.0783   0.3051  -0.0442   0.1122  -0.1131   4.00    0.0
2018/11/11 00:27:30.000  -74.525924910  163.457844106    26.2870   6  11   0.0836   0.0842   0.3244  -0.0464   0.1195  -0.1187   4.00    0.0
2018/11/11 00:27:45.000  -74.525924779  163.457844137    26.2834   6  11   0.0792   0.0776   0.3044  -0.0434   0.1101  -0.1139   4.00    0.0
2018/11/11 00:28:00.000  -74.525924605  163.457843577    26.2112   6  11   0.0773   0.0711   0.2939  -0.0418   0.1030  -0.1156   4.00    0.0
2018/11/11 00:28:15.000  -74.525924622  163.457843757    26.2688   6  11   0.0804   0.0674   0.3118  -0.0470   0.1085  -0.1316   4.00    0.0
2018/11/11 00:28:30.000  -74.525924346  163.457843377    26.1832   6  11   0.0572   0.0582   0.2193  -0.0326   0.0806  -0.0792   4.00    0.0
2018/11/11 00:28:45.000  -74.525924317  163.457843427    26.1693   6  11   0.0500   0.0508   0.1866  -0.0274   0.0670  -0.0663   4.00    0.0
2018/11/11 00:29:00.000  -74.525924225  163.457843449    26.1519   6  11   0.0444   0.0440   0.1625  -0.0240   0.0563  -0.0588   4.00    0.0
2018/11/11 00:29:15.000  -74.525924099  163.457843331    26.1025   6  11   0.0405   0.0377   0.1461  -0.0216   0.0473  -0.0560   4.00    0.0
2018/11/11 00:29:30.000  -74.525924393  163.457845044    26.2815   1  11   0.0347   0.0327   0.1163  -0.0226   0.0395  -0.0441   5.00    1.0
2018/11/11 00:29:45.000  -74.525924422  163.457844792    26.2897   1  11   0.0304   0.0268   0.0945  -0.0202   0.0287  -0.0372   5.00    1.0
2018/11/11 00:30:00.000  -74.525924363  163.457844726    26.2631   1  11   0.0284   0.0238   0.0830  -0.0188   0.0222  -0.0333   5.00    1.0
2018/11/11 00:30:15.000  -74.525924386  163.457845001    26.2968   1  11   0.0315   0.0268   0.1001  -0.0206   0.0301  -0.0405   5.00    1.0
2018/11/11 00:30:30.000  -74.525924463  163.457844984    26.2985   1  11   0.0377   0.0329   0.1304  -0.0242   0.0429  -0.0529   5.00    1.0
2018/11/11 00:30:45.000  -74.525924276  163.457843616    26.1886   6  11   0.0350   0.0361   0.1195  -0.0174   0.0389  -0.0381   4.00    0.0
2018/11/11 00:31:00.000  -74.525924272  163.457843080    26.1529   6  11   0.0406   0.0418   0.1416  -0.0194   0.0471  -0.0458   4.00    0.0
2018/11/11 00:31:15.000  -74.525924355  163.457843037    26.1722   6  11   0.0467   0.0479   0.1653  -0.0219   0.0560  -0.0545   4.00    0.0
2018/11/11 00:31:30.000  -74.525924278  163.457843146    26.1582   6  11   0.0533   0.0541   0.1908  -0.0249   0.0653  -0.0645   4.00    0.0
2018/11/11 00:31:45.000  -74.525924255  163.457842985    26.1594   6  11   0.0605   0.0604   0.2191  -0.0285   0.0753  -0.0766   5.00    0.0
2018/11/11 00:32:00.000  -74.525924257  163.457843215    26.1616   6  11   0.0694   0.0669   0.2536  -0.0333   0.0867  -0.0932   5.00    0.0
2018/11/11 00:32:15.000  -74.525924340  163.457843276    26.1990   6  11   0.1004   0.0793   0.3899  -0.0581   0.1326  -0.1690   4.00    0.0
2018/11/11 00:32:30.000  -74.525924374  163.457843588    26.2362   6  11   0.0915   0.0832   0.3547  -0.0520   0.1258  -0.1417   4.00    0.0
2018/11/11 00:32:45.000  -74.525924347  163.457843744    26.2303   6  11   0.0838   0.0758   0.3202  -0.0461   0.1118  -0.1277   5.00    0.0
2018/11/11 00:33:00.000  -74.525924407  163.457843554    26.3011   6  11   0.0805   0.0692   0.3043  -0.0433   0.1029  -0.1251   4.00    0.0
2018/11/11 00:33:15.000  -74.525924598  163.457843896    26.4005   6  11   0.0807   0.0646   0.3091  -0.0455   0.1035  -0.1327   4.00    0.0
2018/11/11 00:33:30.000  -74.525924531  163.457843598    26.3625   6  11   0.0629   0.0564   0.2374  -0.0347   0.0815  -0.0948   4.00    0.0
2018/11/11 00:33:45.000  -74.525924390  163.457843524    26.2989   6  11   0.0574   0.0493   0.2129  -0.0302   0.0694  -0.0868   4.00    0.0
2018/11/11 00:34:00.000  -74.525924322  163.457843135    26.2291   6  10   0.0518   0.0436   0.1925  -0.0281   0.0622  -0.0797   4.00    0.0
2018/11/11 00:34:15.000  -74.525924261  163.457843282    26.2047   6  10   0.0428   0.0371   0.1559  -0.0231   0.0491  -0.0628   4.00    0.0
2018/11/11 00:34:30.000  -74.525924204  163.457843510    26.1689   6  10   0.0345   0.0312   0.1221  -0.0189   0.0368  -0.0468   4.00    0.0
2018/11/11 00:34:45.000  -74.525924466  163.457844276    26.2336   1  10   0.0345   0.0252   0.1161  -0.0226   0.0351  -0.0492   5.00    2.0
2018/11/11 00:35:00.000  -74.525924579  163.457844544    26.2923   1  10   0.0298   0.0216   0.0924  -0.0201   0.0260  -0.0377   5.00    2.0
2018/11/11 00:35:15.000  -74.525924685  163.457844779    26.3268   1  10   0.0344   0.0251   0.1166  -0.0225   0.0346  -0.0490   5.00    2.0
2018/11/11 00:35:30.000  -74.525924425  163.457843874    26.2369   6  10   0.0342   0.0308   0.1216  -0.0184   0.0354  -0.0460   4.00    0.0
2018/11/11 00:35:45.000  -74.525924528  163.457843801    26.2848   6  10   0.0423   0.0364   0.1550  -0.0224   0.0468  -0.0617   4.00    0.0
2018/11/11 00:36:00.000  -74.525924789  163.457844371    26.4326   6  10   0.0512   0.0425   0.1908  -0.0270   0.0589  -0.0781   4.00    0.0
2018/11/11 00:36:15.000  -74.525924790  163.457844079    26.4428   6  10   0.0604   0.0489   0.2276  -0.0320   0.0712  -0.0950   4.00    0.0
2018/11/11 00:36:30.000  -74.525924681  163.457843469    26.3863   6  10   0.0698   0.0554   0.2649  -0.0372   0.0835  -0.1121   4.00    0.0
2018/11/11 00:36:45.000  -74.525924650  163.457843064    26.3565   6  10   0.0793   0.0619   0.3024  -0.0424   0.0957  -0.1292   4.00    0.0
2018/11/11 00:37:00.000  -74.525924747  163.457843352    26.3891   6  10   0.0887   0.0684   0.3400  -0.0478   0.1079  -0.1464   4.00    0.0
2018/11/11 00:37:15.000  -74.525924813  163.457843482    26.4358   6  10   0.0982   0.0749   0.3776  -0.0531   0.1199  -0.1635   4.00    0.0
2018/11/11 00:37:30.000  -74.525924653  163.457843251    26.3375   6  10   0.1076   0.0814   0.4154  -0.0584   0.1318  -0.1806   4.00    0.0
2018/11/11 00:37:45.000  -74.525924838  163.457843621    26.3970   6  10   0.0979   0.0745   0.3807  -0.0521   0.1177  -0.1631   4.00    0.0
2018/11/11 00:38:00.000  -74.525924729  163.457843219    26.3038   6  10   0.0883   0.0676   0.3535  -0.0461   0.1037  -0.1468   4.00    0.0
2018/11/11 00:38:15.000  -74.525924836  163.457843560    26.3539   6   9   0.0802   0.0609   0.3346  -0.0409   0.0921  -0.1360   5.00    0.0
2018/11/11 00:38:30.000  -74.525924828  163.457843689    26.3587   6   9   0.0704   0.0543   0.2910  -0.0353   0.0790  -0.1172   5.00    0.0
2018/11/11 00:38:45.000  -74.525924837  163.457843539    26.3553   6   9   0.0607   0.0477   0.2478  -0.0300   0.0662  -0.0985   4.00    0.0
2018/11/11 00:39:00.000  -74.525924752  163.457843627    26.3356   6   9   0.0512   0.0414   0.2054  -0.0250   0.0536  -0.0802   4.00    0.0
2018/11/11 00:39:15.000  -74.525924718  163.457843632    26.3186   6   9   0.0421   0.0354   0.1644  -0.0205   0.0416  -0.0624   4.00    0.0
2018/11/11 00:39:30.000  -74.525924692  163.457843816    26.3098   6   9   0.0338   0.0299   0.1263  -0.0167   0.0304  -0.0454   4.00    0.0
2018/11/11 00:39:45.000  -74.525924710  163.457844678    26.2876   1   9   0.0343   0.0253   0.1218  -0.0192   0.0249  -0.0490   5.00    1.0
2018/11/11 00:40:00.000  -74.525924606  163.457844721    26.2229   1   9   0.0299   0.0223   0.0965  -0.0170   0.0140  -0.0378   5.00    1.0
2018/11/11 00:40:15.000  -74.525924565  163.457844835    26.1652   1   9   0.0343   0.0253   0.1210  -0.0190   0.0239  -0.0486   5.00    1.0
2018/11/11 00:40:30.000  -74.525924310  163.457843617    26.0280   6   9   0.0335   0.0296   0.1246  -0.0163   0.0292  -0.0447   5.00    0.0
2018/11/11 00:40:45.000  -74.525924355  163.457843212    26.0135   6   9   0.0416   0.0348   0.1616  -0.0196   0.0395  -0.0612   4.00    0.0
2018/11/11 00:41:00.000  -74.525924374  163.457843073    25.9975   6  10   0.0423   0.0404   0.1556  -0.0227   0.0484  -0.0516   4.00    0.0
2018/11/11 00:41:15.000  -74.525924413  163.457843313    26.0501   6  10   0.0474   0.0459   0.1725  -0.0249   0.0547  -0.0560   4.00    0.0
2018/11/11 00:41:30.000  -74.525924363  163.457843091    26.0314   6  10   0.0531   0.0517   0.1932  -0.0279   0.0624  -0.0625   4.00    0.0
2018/11/11 00:41:45.000  -74.525924374  163.457843109    26.0152   6  10   0.0591   0.0576   0.2156  -0.0312   0.0706  -0.0701   4.00    0.0
2018/11/11 00:42:00.000  -74.525924334  163.457842744    25.9449   6  10   0.0652   0.0637   0.2390  -0.0348   0.0792  -0.0782   5.00    0.0
2018/11/11 00:42:15.000  -74.525924289  163.457842540    25.9482   6  10   0.0714   0.0697   0.2632  -0.0385   0.0879  -0.0868   5.00    0.0
2018/11/11 00:42:30.000  -74.525924325  163.457842419    25.9539   6  10   0.0777   0.0758   0.2878  -0.0423   0.0967  -0.0956   5.00    0.0
2018/11/11 00:42:45.000  -74.525924401  163.457842501    25.9685   6  10   0.0713   0.0695   0.2624  -0.0382   0.0871  -0.0863   5.00    0.0
2018/11/11 00:43:00.000  -74.525924377  163.457842528    25.9725   6  10   0.0648   0.0632   0.2374  -0.0341   0.0777  -0.0772   5.00    0.0
2018/11/11 00:43:15.000  -74.525924466  163.457843117    26.0245   6  10   0.0585   0.0570   0.2123  -0.0302   0.0682  -0.0680   4.00    0.0
2018/11/11 00:43:30.000  -74.525924361  163.457843111    26.0499   6  10   0.0521   0.0508   0.1874  -0.0265   0.0589  -0.0589   4.00    0.0
2018/11/11 00:43:45.000  -74.525924367  163.457843343    26.0730   6  10   0.0459   0.0448   0.1628  -0.0229   0.0497  -0.0499   4.00    0.0
2018/11/11 00:44:00.000  -74.525924308  163.457843003    26.0768   6  10   0.0398   0.0390   0.1387  -0.0196   0.0405  -0.0410   4.00    0.0
2018/11/11 00:44:15.000  -74.525924286  163.457843314    26.1403   6  10   0.0339   0.0335   0.1154  -0.0166   0.0316  -0.0323   4.00    0.0
2018/11/11 00:44:30.000  -74.525924509  163.457844319    26.1475   1  10   0.0333   0.0257   0.1129  -0.0159   0.0349  -0.0422   6.00    2.0
2018/11/11 00:44:45.000  -74.525924466  163.457844274    26.1115   1  10   0.0279   0.0188   0.0863  -0.0120   0.0250  -0.0336   6.00    2.0
2018/11/11 00:45:00.000  -74.525924566  163.457844731    26.1216   1  10   0.0253   0.0150   0.0715  -0.0101   0.0197  -0.0288   6.00    2.0
2018/11/11 00:45:15.000  -74.525924566  163.457844886    26.1102   1  10   0.0278   0.0185   0.0861  -0.0118   0.0246  -0.0332   6.00    2.0
2018/11/11 00:45:30.000  -74.525924520  163.457844961    26.0725   1  10   0.0332   0.0254   0.1122  -0.0156   0.0340  -0.0416   6.00    2.0
2018/11/11 00:45:45.000  -74.525924236  163.457843581    26.0461   6  10   0.0332   0.0329   0.1108  -0.0158   0.0292  -0.0298   4.00    0.0
2018/11/11 00:46:00.000  -74.525924152  163.457843374    26.0561   6  10   0.0388   0.0382   0.1333  -0.0185   0.0376  -0.0384   5.00    0.0
2018/11/11 00:46:15.000  -74.525924150  163.457843500    26.0741   6  10   0.0448   0.0437   0.1570  -0.0215   0.0461  -0.0472   5.00    0.0
2018/11/11 00:46:30.000  -74.525924101  163.457843385    26.0767   6  10   0.0509   0.0494   0.1816  -0.0248   0.0546  -0.0563   5.00    0.0
2018/11/11 00:46:45.000  -74.525924090  163.457843565    26.0737   6  10   0.0571   0.0551   0.2067  -0.0283   0.0630  -0.0655   5.00    0.0
2018/11/11 00:47:00.000  -74.525924041  163.457843183    26.0191   6  10   0.0634   0.0609   0.2321  -0.0319   0.0714  -0.0748   5.00    0.0
2018/11/11 00:47:15.000  -74.525924030  163.457842575    25.9908   6  10   0.0698   0.0667   0.2577  -0.0355   0.0797  -0.0841   5.00    0.0
2018/11/11 00:47:30.000  -74.525924025  163.457842467    26.0153   6  10   0.0762   0.0726   0.2835  -0.0391   0.0878  -0.0935   5.00    0.0
2018/11/11 00:47:45.000  -74.525924030  163.457842868    26.0398   6  10   0.0697   0.0665   0.2572  -0.0353   0.0789  -0.0836   5.00    0.0
2018/11/11 00:48:00.000  -74.525924043  163.457843207    26.0599   6  10   0.0633   0.0605   0.2315  -0.0314   0.0699  -0.0743   5.00    0.0
2018/11/11 00:48:15.000  -74.525924034  163.457843326    26.0317   6  10   0.0569   0.0545   0.2060  -0.0277   0.0610  -0.0649   5.00    0.0
2018/11/11 00:48:30.000  -74.525924018  163.457843072    26.0232   6  10   0.0507   0.0487   0.1807  -0.0241   0.0522  -0.0556   5.00    0.0
2018/11/11 00:48:45.000  -74.525924113  163.457843234    26.0446   6  10   0.0445   0.0429   0.1559  -0.0207   0.0434  -0.0464   5.00    0.0
2018/11/11 00:49:00.000  -74.525924164  163.457843522    26.0833   6  10   0.0385   0.0374   0.1317  -0.0177   0.0348  -0.0373   5.00    0.0
2018/11/11 00:49:15.000  -74.525924154  163.457843668    26.0618   6  10   0.0329   0.0322   0.1087  -0.0150   0.0263  -0.0283   5.00    0.0
2018/11/11 00:49:30.000  -74.525924447  163.457844536    26.0641   1  10   0.0341   0.0293   0.1133  -0.0186   0.0215  -0.0361   5.00    1.0
2018/11/11 00:49:45.000  -74.525924439  163.457844166    26.0778   1  10   0.0289   0.0241   0.0880  -0.0156  -0.0044  -0.0262   5.00    1.0
2018/11/11 00:50:00.000  -74.525924552  163.457844196    26.1470   1  10   0.0264   0.0215   0.0748  -0.0145  -0.0149  -0.0205   5.00    1.0
2018/11/11 00:50:15.000  -74.525924506  163.457843815    26.1483   1  10   0.0289   0.0241   0.0877  -0.0156  -0.0070  -0.0259   5.00    1.0
2018/11/11 00:50:30.000  -74.525924532  163.457844087    26.1397   1  10   0.0328   0.0244   0.1083  -0.0138   0.0298  -0.0393   5.00    2.0
2018/11/11 00:50:45.000  -74.525924469  163.457844006    26.1398   1  10   0.0398   0.0321   0.1398  -0.0182   0.0396  -0.0496   5.00    2.0
2018/11/11 00:51:00.000  -74.525924096  163.457842517    26.1321   6  10   0.0381   0.0367   0.1298  -0.0168   0.0329  -0.0371   6.00    0.0
2018/11/11 00:51:15.000  -74.525924032  163.457842378    26.0847   6  10   0.0439   0.0419   0.1538  -0.0196   0.0406  -0.0461   5.00    0.0
2018/11/11 00:51:30.000  -74.525924033  163.457842184    26.0115   6  10   0.0500   0.0473   0.1785  -0.0226   0.0482  -0.0553   5.00    0.0
2018/11/11 00:51:45.000  -74.525924051  163.457842539    26.0150   6  10   0.0561   0.0528   0.2037  -0.0257   0.0557  -0.0645   5.00    0.0
2018/11/11 00:52:00.000  -74.525924093  163.457842642    26.0192   6  10   0.0624   0.0583   0.2291  -0.0290   0.0631  -0.0737   5.00    0.0
2018/11/11 00:52:15.000  -74.525924104  163.457842564    26.0016   6  10   0.0687   0.0639   0.2547  -0.0323   0.0703  -0.0829   5.00    0.0
2018/11/11 00:52:30.000  -74.525924205  163.457842488    26.0765   6  10   0.0751   0.0695   0.2803  -0.0355   0.0774  -0.0921   6.00    0.0
2018/11/11 00:52:45.000  -74.525924147  163.457842713    26.1335   6  10   0.0687   0.0636   0.2550  -0.0318   0.0691  -0.0829   6.00    0.0
2018/11/11 00:53:00.000  -74.525924146  163.457842835    26.1466   6  10   0.0623   0.0579   0.2291  -0.0283   0.0610  -0.0735   6.00    0.0
2018/11/11 00:53:15.000  -74.525924124  163.457842889    26.1627   6  10   0.0560   0.0522   0.2034  -0.0248   0.0529  -0.0642   6.00    0.0
2018/11/11 00:53:30.000  -74.525924136  163.457842914    26.1521   6  10   0.0498   0.0467   0.1780  -0.0215   0.0450  -0.0548   6.00    1.0
2018/11/11 00:53:45.000  -74.525924221  163.457843018    26.1928   6  10   0.0437   0.0412   0.1530  -0.0184   0.0371  -0.0455   5.00    0.0
2018/11/11 00:54:00.000  -74.525924197  163.457842639    26.1467   6  10   0.0378   0.0360   0.1287  -0.0157   0.0292  -0.0362   6.00    0.0
2018/11/11 00:54:15.000  -74.525924301  163.457842960    26.1310   6  10   0.0322   0.0311   0.1055  -0.0134   0.0214  -0.0270   6.00    0.0
2018/11/11 00:54:30.000  -74.525924439  163.457842534    26.0820   1  10   0.0261   0.0198   0.0810  -0.0094   0.0236  -0.0212   6.00    1.0
2018/11/11 00:54:45.000  -74.525924470  163.457842806    26.0610   1  10   0.0219   0.0161   0.0627  -0.0069   0.0196  -0.0145   6.00    1.0
2018/11/11 00:55:00.000  -74.525924519  163.457844080    26.0642   1  10   0.0253   0.0189   0.0795  -0.0103   0.0281  -0.0292   5.00    1.0
2018/11/11 00:55:15.000  -74.525924489  163.457844193    26.0665   1  10   0.0276   0.0216   0.0910  -0.0115   0.0300  -0.0328   5.00    1.0
2018/11/11 00:55:30.000  -74.525924507  163.457844285    26.0725   1  10   0.0328   0.0269   0.1144  -0.0142   0.0347  -0.0403   5.00    1.0
2018/11/11 00:55:45.000  -74.525924213  163.457843289    26.1050   6  10   0.0319   0.0306   0.1040  -0.0127   0.0201  -0.0268   5.00    0.0
2018/11/11 00:56:00.000  -74.525924147  163.457843331    26.1357   6  10   0.0373   0.0353   0.1267  -0.0147   0.0271  -0.0359   6.00    1.0
2018/11/11 00:56:15.000  -74.525924095  163.457843098    26.1365   6  10   0.0431   0.0403   0.1505  -0.0170   0.0338  -0.0449   6.00    1.0
2018/11/11 00:56:30.000  -74.525924113  163.457843101    26.1144   6  10   0.0491   0.0454   0.1749  -0.0197   0.0402  -0.0539   5.00    0.0
2018/11/11 00:56:45.000  -74.525924137  163.457842917    26.0884   6  10   0.0552   0.0506   0.1996  -0.0225   0.0464  -0.0628   5.00    0.0
2018/11/11 00:57:00.000  -74.525924178  163.457843162    26.0804   6  10   0.0614   0.0560   0.2246  -0.0253   0.0525  -0.0717   5.00    0.0
2018/11/11 00:57:15.000  -74.525924189  163.457843106    26.0657   6  10   0.0676   0.0613   0.2496  -0.0282   0.0584  -0.0806   5.00    0.0
2018/11/11 00:57:30.000  -74.525924136  163.457843228    26.0646   6  10   0.0740   0.0667   0.2747  -0.0311   0.0641  -0.0894   5.00    0.0
2018/11/11 00:57:45.000  -74.525924212  163.457843349    26.0388   6  10   0.0676   0.0612   0.2488  -0.0280   0.0570  -0.0803   5.00    0.0
2018/11/11 00:58:00.000  -74.525924195  163.457843622    26.0489   6  10   0.0613   0.0557   0.2232  -0.0247   0.0500  -0.0711   5.00    0.0
2018/11/11 00:58:15.000  -74.525924195  163.457843441    26.0309   6  10   0.0550   0.0502   0.1978  -0.0216   0.0432  -0.0620   5.00    0.0
2018/11/11 00:58:30.000  -74.525924160  163.457843222    26.0465   6  10   0.0489   0.0449   0.1727  -0.0187   0.0363  -0.0528   5.00    0.0
2018/11/11 00:58:45.000  -74.525924207  163.457843114    26.0547   6  10   0.0428   0.0397   0.1480  -0.0160   0.0295  -0.0437   5.00    0.0
2018/11/11 00:59:00.000  -74.525924164  163.457843088    26.0354   6  10   0.0371   0.0348   0.1241  -0.0136   0.0227  -0.0346   5.00    0.0
2018/11/11 00:59:15.000  -74.525924526  163.457843978    26.0003   1  10   0.0395   0.0328   0.1398  -0.0162   0.0367  -0.0483   5.00    1.0
2018/11/11 00:59:30.000  -74.525924555  163.457844055    26.0032   1  10   0.0326   0.0263   0.1103  -0.0129   0.0311  -0.0387   5.00    1.0
2018/11/11 00:59:45.000  -74.525924404  163.457842674    26.0193   1  10   0.0216   0.0159   0.0592  -0.0057   0.0175  -0.0129   6.00    1.0
2018/11/11 01:00:00.000  -74.525924489  163.457843763    26.0162   1  10   0.0250   0.0189   0.0753  -0.0090   0.0255  -0.0276   5.00    1.0
2018/11/11 01:00:15.000  -74.525924454  163.457843850    26.0479   1  10   0.0274   0.0212   0.0863  -0.0102   0.0269  -0.0310   5.00    1.0
2018/11/11 01:00:30.000  -74.525924471  163.457843870    26.0483   1  10   0.0325   0.0261   0.1092  -0.0124   0.0301  -0.0382   5.00    1.0
2018/11/11 01:00:45.000  -74.525924524  163.457843898    26.0413   1  10   0.0393   0.0325   0.1379  -0.0155   0.0346  -0.0474   5.00    1.0
2018/11/11 01:01:00.000  -74.525924202  163.457842728    26.0507   6  10   0.0366   0.0341   0.1219  -0.0125   0.0200  -0.0338   5.00    0.0
2018/11/11 01:01:15.000  -74.525924135  163.457842580    26.0718   6  10   0.0423   0.0388   0.1450  -0.0144   0.0254  -0.0425   6.00    1.0
2018/11/11 01:01:30.000  -74.525924112  163.457843055    26.0898   6  10   0.0481   0.0438   0.1686  -0.0167   0.0304  -0.0512   6.00    1.0
2018/11/11 01:01:45.000  -74.525924117  163.457842863    26.0698   6  10   0.0542   0.0489   0.1926  -0.0191   0.0352  -0.0597   6.00    1.0
2018/11/11 01:02:00.000  -74.525924093  163.457842867    26.0508   6  11   0.0556   0.0531   0.1968  -0.0150   0.0253  -0.0504   6.00    1.0
2018/11/11 01:02:15.000  -74.525924141  163.457842919    26.0387   6  11   0.0592   0.0578   0.2087  -0.0130   0.0175  -0.0472   6.00    1.0
2018/11/11 01:02:30.000  -74.525924088  163.457842639    26.0245   6  11   0.0637   0.0627   0.2254  -0.0126   0.0116  -0.0482   6.00    1.0
2018/11/11 01:02:45.000  -74.525924103  163.457842417    26.0204   6  11   0.0592   0.0577   0.2089  -0.0127   0.0146  -0.0470   6.00    1.0
2018/11/11 01:03:00.000  -74.525923987  163.457842513    26.0168   6  11   0.0557   0.0529   0.1955  -0.0144   0.0209  -0.0498   6.00    1.0
2018/11/11 01:03:15.000  -74.525924001  163.457842469    26.0472   6  11   0.0512   0.0481   0.1801  -0.0144   0.0228  -0.0485   6.00    1.0
2018/11/11 01:03:30.000  -74.525923992  163.457842409    26.0169   6  11   0.0463   0.0431   0.1593  -0.0132   0.0199  -0.0433   6.00    1.0
2018/11/11 01:03:45.000  -74.525923996  163.457842345    26.0015   6  11   0.0419   0.0385   0.1429  -0.0131   0.0201  -0.0409   6.00    1.0
2018/11/11 01:04:00.000  -74.525924077  163.457842326    25.9917   6  11   0.0338   0.0333   0.1099  -0.0075  -0.0065  -0.0201   6.00    1.0
2018/11/11 01:04:15.000  -74.525924185  163.457842034    25.9418   1  11   0.0280   0.0230   0.0861  -0.0055   0.0148  -0.0147   6.00    1.0
2018/11/11 01:04:30.000  -74.525924227  163.457842222    25.9212   1  11   0.0239   0.0189   0.0681  -0.0040   0.0144  -0.0097   6.00    1.0
2018/11/11 01:04:45.000  -74.525924328  163.457842579    25.9683   1  11   0.0206   0.0156   0.0535  -0.0026   0.0141  -0.0054   6.00    1.0
2018/11/11 01:05:00.000  -74.525924402  163.457842643    26.0130   1  11   0.0189   0.0140   0.0458  -0.0015   0.0139  -0.0020   6.00    1.0
2018/11/11 01:05:15.000  -74.525923789  163.457840986    26.1491   1  11   0.0411   0.0242   0.0883   0.0028   0.0198   0.0360   6.00    1.0
2018/11/11 01:05:30.000  -74.525923796  163.457840896    26.1385   1  12   0.0431   0.0282   0.1019   0.0037   0.0178   0.0355   6.00    1.0
2018/11/11 01:05:45.000  -74.525923766  163.457840673    26.1203   1  12   0.0463   0.0329   0.1186  -0.0036   0.0058   0.0322   6.00    1.0
2018/11/11 01:06:00.000  -74.525924145  163.457841859    26.0188   6  12   0.0323   0.0312   0.0988  -0.0080  -0.0222  -0.0177   6.00    1.0
2018/11/11 01:06:15.000  -74.525924105  163.457841850    26.0085   6  12   0.0369   0.0354   0.1161  -0.0086  -0.0260  -0.0240   6.00    1.0
2018/11/11 01:06:30.000  -74.525923988  163.457842069    26.0260   6  12   0.0419   0.0398   0.1349  -0.0098  -0.0299  -0.0312   6.00    1.0
2018/11/11 01:06:45.000  -74.525923944  163.457841876    25.9922   6  12   0.0481   0.0444   0.1563  -0.0121  -0.0332  -0.0411   6.00    1.0
2018/11/11 01:07:00.000  -74.525924040  163.457842000    26.0068   6  12   0.0525   0.0491   0.1766  -0.0138  -0.0368  -0.0466   6.00    1.0
2018/11/11 01:07:15.000  -74.525924103  163.457842047    25.9836   6  12   0.0559   0.0538   0.1909  -0.0135  -0.0432  -0.0461   6.00    1.0
2018/11/11 01:07:30.000  -74.525924139  163.457841769    25.9737   6  12   0.0601   0.0585   0.2078  -0.0142  -0.0487  -0.0485   6.00    1.0
2018/11/11 01:07:45.000  -74.525924217  163.457841798    26.0361   6  12   0.0551   0.0537   0.1892  -0.0123  -0.0445  -0.0431   6.00    1.0
2018/11/11 01:08:00.000  -74.525924306  163.457841965    26.0738   6  12   0.0500   0.0490   0.1705  -0.0107  -0.0403  -0.0376   6.00    1.0
2018/11/11 01:08:15.000  -74.525924258  163.457842212    26.0846   6  12   0.0452   0.0443   0.1521  -0.0093  -0.0361  -0.0322   6.00    1.0
2018/11/11 01:08:30.000  -74.525924192  163.457841924    26.0381   6  12   0.0404   0.0397   0.1338  -0.0081  -0.0319  -0.0267   6.00    1.0
2018/11/11 01:08:45.000  -74.525924127  163.457841560    26.0240   6  12   0.0358   0.0353   0.1160  -0.0073  -0.0278  -0.0210   6.00    1.0
2018/11/11 01:09:00.000  -74.525924492  163.457842485    26.0019   1  12   0.0394   0.0390   0.1316  -0.0148  -0.0367  -0.0196   6.00    1.0
2018/11/11 01:09:15.000  -74.525924254  163.457841401    26.0103   1  12   0.0270   0.0232   0.0787  -0.0082  -0.0176   0.0084   6.00    1.0
2018/11/11 01:09:30.000  -74.525924299  163.457841676    26.0345   1  12   0.0235   0.0196   0.0630  -0.0076  -0.0140   0.0135   6.00    1.0
2018/11/11 01:09:45.000  -74.525924290  163.457841826    26.0609   1  12   0.0210   0.0169   0.0501  -0.0072  -0.0112   0.0158   6.00    1.0
2018/11/11 01:10:00.000  -74.525924229  163.457841992    26.0609   1  12   0.0199   0.0156   0.0433  -0.0071  -0.0100   0.0167   8.00    1.0
2018/11/11 01:10:15.000  -74.525924214  163.457841941    26.0614   1  12   0.0211   0.0169   0.0499  -0.0070  -0.0114   0.0165   8.00    1.0
2018/11/11 01:10:30.000  -74.525924452  163.457843116    26.0249   1  12   0.0305   0.0290   0.0875  -0.0126  -0.0276   0.0166   6.00    1.0
2018/11/11 01:10:45.000  -74.525924422  163.457843212    25.9921   1  12   0.0339   0.0337   0.1084  -0.0141  -0.0328  -0.0083   7.00    1.0
2018/11/11 01:11:00.000  -74.525924419  163.457843133    25.9824   1  12   0.0395   0.0394   0.1326  -0.0151  -0.0384  -0.0195   7.00    1.0
2018/11/11 01:11:15.000  -74.525924153  163.457842104    25.9662   6  12   0.0352   0.0349   0.1151  -0.0059  -0.0296  -0.0181   7.00    0.0
2018/11/11 01:11:30.000  -74.525924160  163.457841957    25.9142   6  12   0.0397   0.0393   0.1333  -0.0063  -0.0342  -0.0239   7.00    0.0
2018/11/11 01:11:45.000  -74.525924090  163.457842040    25.9652   6  12   0.0443   0.0439   0.1520  -0.0071  -0.0390  -0.0293   7.00    0.0
2018/11/11 01:12:00.000  -74.525924085  163.457842375    25.9801   6  12   0.0490   0.0485   0.1709  -0.0080  -0.0439  -0.0346   7.00    0.0
2018/11/11 01:12:15.000  -74.525924067  163.457842385    26.0399   6  12   0.0538   0.0532   0.1901  -0.0091  -0.0489  -0.0398   7.00    0.0
2018/11/11 01:12:30.000  -74.525924038  163.457842170    26.0712   6  12   0.0587   0.0580   0.2094  -0.0103  -0.0540  -0.0449   8.00    0.0
2018/11/11 01:12:45.000  -74.525924085  163.457842169    26.1096   6  12   0.0538   0.0532   0.1897  -0.0089  -0.0487  -0.0399   7.00    0.0
2018/11/11 01:13:00.000  -74.525924113  163.457841950    26.1453   6  12   0.0490   0.0484   0.1708  -0.0076  -0.0440  -0.0349   8.00    0.0
2018/11/11 01:13:15.000  -74.525924213  163.457841996    26.1554   6  12   0.0442   0.0438   0.1520  -0.0066  -0.0394  -0.0297   8.00    0.0
2018/11/11 01:13:30.000  -74.525924204  163.457842329    26.1475   6  12   0.0396   0.0393   0.1335  -0.0059  -0.0349  -0.0243   8.00    0.0
2018/11/11 01:13:45.000  -74.525924186  163.457842339    26.1126   6  12   0.0352   0.0350   0.1153  -0.0057  -0.0306  -0.0185   8.00    0.0
2018/11/11 01:14:00.000  -74.525924434  163.457842857    26.0844   1  12   0.0399   0.0403   0.1338  -0.0161  -0.0413  -0.0174   8.00    1.0
2018/11/11 01:14:15.000  -74.525924429  163.457842915    26.0437   1  12   0.0347   0.0360   0.1109  -0.0166  -0.0381   0.0103   8.00    1.0
2018/11/11 01:14:30.000  -74.525924512  163.457843125    26.0139   1  12   0.0292   0.0288   0.0859  -0.0130  -0.0290   0.0131   8.00    1.0
2018/11/11 01:14:45.000  -74.525924588  163.457843016    26.0024   1  12   0.0259   0.0253   0.0684  -0.0128  -0.0259   0.0179   8.00    1.0
2018/11/11 01:15:00.000  -74.525924526  163.457843066    26.0229   1  12   0.0245   0.0239   0.0604  -0.0126  -0.0247   0.0195   8.00    1.0
2018/11/11 01:15:15.000  -74.525924526  163.457842986    26.0112   1  12   0.0261   0.0255   0.0686  -0.0130  -0.0263   0.0182   8.00    1.0
2018/11/11 01:15:30.000  -74.525924138  163.457842619    26.0195   6  12   0.0237   0.0235   0.0665  -0.0070  -0.0198   0.0112   8.00    0.0
2018/11/11 01:15:45.000  -74.525924070  163.457842729    26.0297   6  12   0.0270   0.0268   0.0814  -0.0065  -0.0232   0.0038   8.00    0.0
2018/11/11 01:16:00.000  -74.525924424  163.457843518    26.0315   1  12   0.0400   0.0395   0.1334  -0.0147  -0.0406  -0.0192   8.00    1.0
2018/11/11 01:16:15.000  -74.525924072  163.457843025    26.0282   6  12   0.0351   0.0348   0.1161  -0.0058  -0.0317  -0.0187   8.00    0.0
2018/11/11 01:16:30.000  -74.525924116  163.457842855    25.9851   6  12   0.0395   0.0392   0.1345  -0.0060  -0.0364  -0.0246   8.00    0.0
2018/11/11 01:16:45.000  -74.525924077  163.457842443    25.9751   6  12   0.0441   0.0437   0.1534  -0.0065  -0.0413  -0.0302   8.00    0.0
2018/11/11 01:17:00.000  -74.525924053  163.457842486    25.9429   6  12   0.0489   0.0484   0.1725  -0.0072  -0.0464  -0.0356   8.00    0.0
2018/11/11 01:17:15.000  -74.525924049  163.457842729    25.9441   6  12   0.0537   0.0531   0.1917  -0.0080  -0.0515  -0.0408   9.00    0.0
2018/11/11 01:17:30.000  -74.525924074  163.457842711    25.9722   6  12   0.0586   0.0579   0.2111  -0.0089  -0.0567  -0.0460   9.00    0.0
2018/11/11 01:17:45.000  -74.525924229  163.457842548    25.9553   6  12   0.0538   0.0533   0.1925  -0.0079  -0.0522  -0.0409   9.00    0.0
2018/11/11 01:18:00.000  -74.525924219  163.457842310    25.9569   6  12   0.0490   0.0486   0.1733  -0.0070  -0.0473  -0.0356   9.00    1.0
2018/11/11 01:18:15.000  -74.525924308  163.457842370    26.0154   6  12   0.0443   0.0440   0.1543  -0.0062  -0.0425  -0.0302   9.00    0.0
2018/11/11 01:18:30.000  -74.525924383  163.457842325    26.0232   6  12   0.0397   0.0395   0.1356  -0.0059  -0.0378  -0.0245   8.00    0.0
2018/11/11 01:18:45.000  -74.525924333  163.457842233    26.0489   6  12   0.0353   0.0352   0.1174  -0.0059  -0.0334  -0.0184   9.00    0.0
2018/11/11 01:19:00.000  -74.525924762  163.457842954    26.0414   1  12   0.0406   0.0410   0.1369  -0.0158  -0.0449  -0.0158   7.00    1.0
2018/11/11 01:19:15.000  -74.525924357  163.457842367    26.0466   6  12   0.0273   0.0279   0.0842  -0.0077  -0.0268   0.0082   8.00    0.0
2018/11/11 01:19:30.000  -74.525924346  163.457842967    26.0184   6  12   0.0239   0.0240   0.0689  -0.0071  -0.0223   0.0124   8.00    0.0
2018/11/11 01:19:45.000  -74.525924263  163.457842702    26.0205   6  12   0.0215   0.0214   0.0569  -0.0072  -0.0193   0.0146   8.00    0.0
2018/11/11 01:20:00.000  -74.525924672  163.457843367    25.9222   1  12   0.0242   0.0182   0.0652   0.0024   0.0142  -0.0240   6.00    1.0
2018/11/11 01:20:15.000  -74.525924767  163.457843083    25.9160   1  12   0.0267   0.0207   0.0745   0.0037   0.0111  -0.0253   6.00    1.0
2018/11/11 01:20:30.000  -74.525924302  163.457843304    25.9486   1  12   0.0222   0.0181   0.0624  -0.0052  -0.0167  -0.0120   7.00    1.0
2018/11/11 01:20:45.000  -74.525924245  163.457843341    25.9432   1  12   0.0260   0.0221   0.0790  -0.0064  -0.0216  -0.0160   7.00    1.0
2018/11/11 01:21:00.000  -74.525924128  163.457842781    25.9891   6  12   0.0323   0.0310   0.1014  -0.0008  -0.0292  -0.0118   7.00    1.0
2018/11/11 01:21:15.000  -74.525924017  163.457842794    26.0132   6  12   0.0374   0.0352   0.1198   0.0055  -0.0332  -0.0170   7.00    1.0
2018/11/11 01:21:30.000  -74.525923971  163.457842556    26.0158   6  12   0.0412   0.0393   0.1380   0.0015  -0.0389  -0.0255   7.00    1.0
2018/11/11 01:21:45.000  -74.525923886  163.457842459    26.0020   6  12   0.0457   0.0439   0.1564   0.0025  -0.0441  -0.0328   7.00    0.0
2018/11/11 01:22:00.000  -74.525923869  163.457842515    26.0036   6  12   0.0506   0.0485   0.1755   0.0036  -0.0494  -0.0393   7.00    0.0
2018/11/11 01:22:15.000  -74.525923886  163.457842313    26.0404   6  12   0.0557   0.0533   0.1951   0.0050  -0.0549  -0.0458   7.00    0.0
2018/11/11 01:22:30.000  -74.525923816  163.457842186    26.0741   6  12   0.0612   0.0582   0.2153   0.0070  -0.0608  -0.0529   7.00    0.0
2018/11/11 01:22:45.000  -74.525923851  163.457841728    26.0771   6  12   0.0580   0.0536   0.1992   0.0113  -0.0572  -0.0531   7.00    0.0
2018/11/11 01:23:00.000  -74.525924075  163.457841584    26.1161   6  12   0.0522   0.0487   0.1811   0.0081  -0.0514  -0.0473   7.00    0.0
2018/11/11 01:23:15.000  -74.525923974  163.457842295    26.0710   6  12   0.0460   0.0439   0.1586   0.0047  -0.0452  -0.0374   7.00    0.0
2018/11/11 01:23:30.000  -74.525924042  163.457842262    26.0481   6  12   0.0409   0.0394   0.1387   0.0020  -0.0399  -0.0302   7.00    0.0
2018/11/11 01:23:45.000  -74.525924164  163.457842208    26.0705   6  12   0.0361   0.0351   0.1200  -0.0030  -0.0350  -0.0236   7.00    0.0
2018/11/11 01:24:00.000  -74.525924630  163.457842785    26.0110   1  12   0.0405   0.0372   0.1357  -0.0081  -0.0292  -0.0390   6.00    1.0
2018/11/11 01:24:15.000  -74.525924670  163.457842707    25.9958   1  12   0.0354   0.0322   0.1125  -0.0099  -0.0189  -0.0351   7.00    1.0
2018/11/11 01:24:30.000  -74.525924708  163.457842572    25.9370   1  12   0.0304   0.0261   0.0918  -0.0070  -0.0084  -0.0310   6.00    1.0
2018/11/11 01:24:45.000  -74.525924703  163.457842950    25.9182   1  12   0.0262   0.0208   0.0757   0.0030   0.0093  -0.0278   7.00    1.0
2018/11/11 01:25:00.000  -74.525924745  163.457843104    25.9308   1  12   0.0248   0.0189   0.0688   0.0025   0.0134  -0.0271   7.00    1.0
2018/11/11 01:25:15.000  -74.525924870  163.457842926    25.9543   1  12   0.0267   0.0209   0.0777   0.0034   0.0088  -0.0291   7.00    1.0
2018/11/11 01:25:30.000  -74.525924464  163.457841895    26.0022   6  12   0.0242   0.0238   0.0731  -0.0052  -0.0241   0.0093   7.00    0.0
2018/11/11 01:25:45.000  -74.525924476  163.457841912    25.9974   6  12   0.0276   0.0270   0.0874  -0.0034  -0.0276  -0.0072   7.00    0.0
2018/11/11 01:26:00.000  -74.525924453  163.457842003    25.9578   6  12   0.0315   0.0308   0.1033   0.0011  -0.0317  -0.0155   7.00    0.0
2018/11/11 01:26:15.000  -74.525924434  163.457841942    25.9351   6  12   0.0358   0.0349   0.1201   0.0035  -0.0361  -0.0219   7.00    0.0
2018/11/11 01:26:30.000  -74.525924394  163.457841901    25.9244   6  12   0.0403   0.0392   0.1375   0.0046  -0.0408  -0.0277   7.00    0.0
2018/11/11 01:26:45.000  -74.525924379  163.457842285    25.9670   6  12   0.0450   0.0437   0.1553   0.0054  -0.0457  -0.0332   8.00    0.0
2018/11/11 01:27:00.000  -74.525924379  163.457842416    25.9732   6  12   0.0498   0.0483   0.1733   0.0059  -0.0507  -0.0386   8.00    0.0
2018/11/11 01:27:15.000  -74.525924341  163.457842726    25.9474   6  12   0.0547   0.0530   0.1915   0.0064  -0.0558  -0.0439   8.00    0.0
2018/11/11 01:27:30.000  -74.525924516  163.457842124    25.9561   6  12   0.0597   0.0578   0.2098   0.0069  -0.0610  -0.0491   8.00    0.0
2018/11/11 01:27:45.000  -74.525924478  163.457841976    26.0120   6  12   0.0552   0.0531   0.1919   0.0079  -0.0563  -0.0454   8.00    0.0
2018/11/11 01:28:00.000  -74.525924448  163.457841729    26.0329   6  12   0.0510   0.0485   0.1749   0.0093  -0.0520  -0.0423   7.00    0.0
2018/11/11 01:28:15.000  -74.525924416  163.457841928    26.0117   6  12   0.0477   0.0441   0.1598   0.0117  -0.0487  -0.0418   7.00    0.0
2018/11/11 01:28:30.000  -74.525924364  163.457842208    26.0045   6  12   0.0421   0.0393   0.1449   0.0084  -0.0433  -0.0367   8.00    0.0
2018/11/11 01:28:45.000  -74.525924312  163.457842290    25.9740   6  12   0.0365   0.0349   0.1242   0.0054  -0.0376  -0.0267   8.00    0.0
2018/11/11 01:29:00.000  -74.525924691  163.457842853    25.9155   1  12   0.0407   0.0365   0.1357   0.0018  -0.0303  -0.0403   8.00    1.0
2018/11/11 01:29:15.000  -74.525924334  163.457842276    25.9593   6  12   0.0278   0.0271   0.0912  -0.0029  -0.0291  -0.0106   7.00    0.0
2018/11/11 01:29:30.000  -74.525924416  163.457842189    25.9424   6  12   0.0244   0.0239   0.0776  -0.0049  -0.0260   0.0079   7.00    0.0
2018/11/11 01:29:45.000  -74.525924430  163.457842166    25.9644   6  12   0.0219   0.0215   0.0670  -0.0060  -0.0237   0.0135   7.00    0.0
2018/11/11 01:30:00.000  -74.525924306  163.457842337    25.9667   6  12   0.0208   0.0204   0.0622  -0.0066  -0.0229   0.0158   7.00    0.0
2018/11/11 01:30:15.000  -74.525924196  163.457841973    25.9755   6  12   0.0219   0.0215   0.0680  -0.0064  -0.0244   0.0154   7.00    0.0
2018/11/11 01:30:30.000  -74.525924263  163.457842227    25.9953   6  12   0.0243   0.0239   0.0794  -0.0055  -0.0272   0.0132   7.00    0.0
2018/11/11 01:30:45.000  -74.525924349  163.457842174    25.9629   6  12   0.0275   0.0271   0.0932  -0.0043  -0.0306   0.0082   7.00    0.0
2018/11/11 01:31:00.000  -74.525924306  163.457842433    25.9193   6  12   0.0312   0.0308   0.1081  -0.0031  -0.0345  -0.0092   7.00    0.0
2018/11/11 01:31:15.000  -74.525924212  163.457842444    25.9232   6  12   0.0353   0.0349   0.1236  -0.0013  -0.0386  -0.0166   7.00    0.0
2018/11/11 01:31:30.000  -74.525924136  163.457842890    25.9108   6  12   0.0397   0.0391   0.1395   0.0019  -0.0429  -0.0225   7.00    0.0
2018/11/11 01:31:45.000  -74.525924058  163.457842632    25.9309   6  12   0.0443   0.0436   0.1557   0.0027  -0.0474  -0.0278   7.00    0.0
2018/11/11 01:32:00.000  -74.525923943  163.457842820    25.8845   6  12   0.0490   0.0481   0.1720   0.0031  -0.0520  -0.0329   7.00    0.0
2018/11/11 01:32:15.000  -74.525923882  163.457843021    25.8958   6  12   0.0538   0.0528   0.1886   0.0034  -0.0567  -0.0377   7.00    0.0
2018/11/11 01:32:30.000  -74.525923864  163.457842936    25.8996   6  12   0.0586   0.0575   0.2052   0.0035  -0.0614  -0.0424   7.00    0.0
2018/11/11 01:32:45.000  -74.525923967  163.457842733    25.8932   6  12   0.0538   0.0530   0.1883   0.0034  -0.0566  -0.0374   7.00    0.0
2018/11/11 01:33:00.000  -74.525924084  163.457843122    25.8751   6  12   0.0490   0.0483   0.1714   0.0033  -0.0520  -0.0322   7.00    0.0
2018/11/11 01:33:15.000  -74.525924164  163.457843090    25.8868   6  12   0.0443   0.0437   0.1549   0.0030  -0.0474  -0.0269   7.00    0.0
2018/11/11 01:33:30.000  -74.525924335  163.457843093    25.9330   6  12   0.0398   0.0393   0.1389   0.0022  -0.0431  -0.0212   7.00    0.0
2018/11/11 01:33:45.000  -74.525924406  163.457842734    25.9355   6  12   0.0354   0.0351   0.1235  -0.0010  -0.0390  -0.0147   7.00    0.0
2018/11/11 01:34:00.000  -74.525924294  163.457842474    25.9518   6  12   0.0314   0.0311   0.1089  -0.0030  -0.0352  -0.0048   7.00    0.0
2018/11/11 01:34:15.000  -74.525924345  163.457842361    25.9318   6  12   0.0277   0.0274   0.0953  -0.0043  -0.0317   0.0115   7.00    0.0
2018/11/11 01:34:30.000  -74.525924363  163.457842432    25.9267   6  12   0.0246   0.0243   0.0832  -0.0054  -0.0288   0.0158   7.00    0.0
2018/11/11 01:34:45.000  -74.525924385  163.457842737    25.9020   6  12   0.0224   0.0220   0.0736  -0.0063  -0.0267   0.0182   7.00    0.0
2018/11/11 01:35:00.000  -74.525924381  163.457842707    25.9051   6  12   0.0215   0.0209   0.0691  -0.0068  -0.0258   0.0195   7.00    0.0
2018/11/11 01:35:15.000  -74.525924327  163.457842663    25.9031   6  12   0.0228   0.0222   0.0752  -0.0064  -0.0274   0.0196   7.00    0.0
2018/11/11 01:35:30.000  -74.525924312  163.457842771    25.8493   6  12   0.0255   0.0248   0.0864  -0.0051  -0.0304   0.0187   7.00    0.0
2018/11/11 01:35:45.000  -74.525924313  163.457842544    25.8625   6  12   0.0292   0.0282   0.1002  -0.0014  -0.0340   0.0169   7.00    0.0
2018/11/11 01:36:00.000  -74.525924463  163.457842387    25.8288   6  11   0.0339   0.0321   0.1174   0.0044  -0.0383   0.0179   6.00    0.0
2018/11/11 01:36:15.000  -74.525924451  163.457842629    25.8251   6  11   0.0386   0.0364   0.1339   0.0065  -0.0429   0.0159   6.00    0.0
2018/11/11 01:36:30.000  -74.525924329  163.457843035    25.8097   6  11   0.0436   0.0410   0.1510   0.0081  -0.0478   0.0133   6.00    0.0
2018/11/11 01:36:45.000  -74.525924232  163.457843272    25.8393   6  11   0.0488   0.0459   0.1686   0.0093  -0.0531   0.0100   6.00    0.0
2018/11/11 01:37:00.000  -74.525924099  163.457843437    25.8659   6  11   0.0544   0.0511   0.1873   0.0097  -0.0593   0.0074   6.00    0.0
2018/11/11 01:37:15.000  -74.525924151  163.457843420    25.9135   6  11   0.0605   0.0572   0.2082   0.0067  -0.0676   0.0137   6.00    0.0
2018/11/11 01:37:30.000  -74.525924298  163.457843643    25.8759   6  10   0.0686   0.0701   0.2621  -0.0222  -0.0981   0.0487   6.00    0.0
2018/11/11 01:37:45.000  -74.525924203  163.457843882    25.8988   6  10   0.0633   0.0647   0.2434  -0.0181  -0.0917   0.0410   6.00    0.0
2018/11/11 01:38:00.000  -74.525924202  163.457843558    25.8858   6  10   0.0586   0.0598   0.2276  -0.0114  -0.0870   0.0290   6.00    0.0
2018/11/11 01:38:15.000  -74.525924212  163.457843171    25.9014   6   9   0.0569   0.0595   0.2524   0.0210  -0.0993  -0.0485   6.00    0.0
2018/11/11 01:38:30.000  -74.525924350  163.457842907    25.8902   6   9   0.0504   0.0528   0.2239   0.0181  -0.0878  -0.0403   6.00    0.0
2018/11/11 01:38:45.000  -74.525924442  163.457842841    25.8600   6   9   0.0442   0.0462   0.1957   0.0151  -0.0764  -0.0317   6.00    0.0
2018/11/11 01:39:00.000  -74.525924402  163.457842839    25.8567   6   9   0.0382   0.0399   0.1683   0.0119  -0.0652  -0.0221   6.00    0.0
2018/11/11 01:39:15.000  -74.525924436  163.457842645    25.8980   6   9   0.0328   0.0339   0.1419   0.0085  -0.0544  -0.0094   6.00    0.0
2018/11/11 01:39:30.000  -74.525924363  163.457842733    25.9267   6   9   0.0282   0.0286   0.1174   0.0043  -0.0446   0.0139   6.00    0.0
2018/11/11 01:39:45.000  -74.525924281  163.457842536    25.9397   6   9   0.0248   0.0246   0.0971  -0.0040  -0.0368   0.0190   6.00    0.0
2018/11/11 01:40:00.000  -74.525924204  163.457842678    25.9219   6   9   0.0235   0.0228   0.0874  -0.0055  -0.0334   0.0208   6.00    0.0
2018/11/11 01:40:15.000  -74.525924152  163.457842796    25.9298   6   9   0.0255   0.0249   0.0983  -0.0033  -0.0375   0.0199   6.00    0.0
2018/11/11 01:40:30.000  -74.525924175  163.457843097    25.9332   6   9   0.0293   0.0292   0.1199   0.0054  -0.0459   0.0162   6.00    0.0
2018/11/11 01:40:45.000  -74.525924039  163.457843491    25.9014   6   9   0.0341   0.0348   0.1459   0.0093  -0.0566   0.0036   6.00    0.0
2018/11/11 01:41:00.000  -74.525923885  163.457843684    25.8851   6   9   0.0397   0.0411   0.1738   0.0128  -0.0683  -0.0190   6.00    0.0
2018/11/11 01:41:15.000  -74.525923894  163.457844100    25.8521   6   9   0.0456   0.0479   0.2027   0.0161  -0.0805  -0.0293   6.00    0.0
2018/11/11 01:41:30.000  -74.525923912  163.457844311    25.8360   6   9   0.0519   0.0549   0.2323   0.0195  -0.0930  -0.0386   6.00    0.0
2018/11/11 01:41:45.000  -74.525923841  163.457844465    25.8162   6   9   0.0584   0.0621   0.2625   0.0228  -0.1057  -0.0474   6.00    0.0
2018/11/11 01:42:00.000  -74.525923927  163.457844304    25.8383   6   9   0.0651   0.0694   0.2930   0.0262  -0.1186  -0.0560   6.00    0.0
2018/11/11 01:42:15.000  -74.525923928  163.457844394    25.8081   6   9   0.0718   0.0769   0.3238   0.0295  -0.1316  -0.0643   6.00    0.0
2018/11/11 01:42:30.000  -74.525923820  163.457844261    25.8003   6   9   0.0786   0.0844   0.3549   0.0329  -0.1448  -0.0726   6.00    0.0
2018/11/11 01:42:45.000  -74.525923895  163.457844369    25.7797   6   9   0.0720   0.0772   0.3252   0.0300  -0.1325  -0.0648   6.00    0.0
2018/11/11 01:43:00.000  -74.525923892  163.457844385    25.8011   6   9   0.0655   0.0702   0.2952   0.0271  -0.1202  -0.0567   6.00    0.0
2018/11/11 01:43:15.000  -74.525923982  163.457844478    25.7667   6   9   0.0591   0.0634   0.2656   0.0243  -0.1082  -0.0487   6.00    0.0
2018/11/11 01:43:30.000  -74.525924129  163.457844703    25.7649   6   9   0.0531   0.0570   0.2368   0.0219  -0.0966  -0.0411   6.00    0.0
2018/11/11 01:43:45.000  -74.525924169  163.457844540    25.7586   6   9   0.0477   0.0517   0.2095   0.0208  -0.0864  -0.0350   6.00    0.0
2018/11/11 01:44:00.000  -74.525924253  163.457843294    25.8317   6   9   0.0423   0.0443   0.1828   0.0160  -0.0745  -0.0258   5.00    0.0
2018/11/11 01:44:15.000  -74.525924243  163.457843006    25.9041   6   9   0.0382   0.0371   0.1533   0.0116  -0.0612  -0.0137   4.00    0.0
2018/11/11 01:44:30.000  -74.525924100  163.457843323    25.8961   6   9   0.0335   0.0320   0.1286   0.0107  -0.0510  -0.0040   4.00    0.0
