% program   : RTKLIB ver.2.4.3
% inp file  : _by_type/_obs/tuati/20181110.18o
% inp file  : _by_type/_sp3+clk/igs20266.clk
% inp file  : _by_type/_sp3+clk/igs20266.sp3
% inp file  : _by_type/_nav/tuati/20181110.18n
% obs start : 2018/11/10 00:00:00.0 GPST (week2026 518400.0s)
% obs end   : 2018/11/10 23:59:30.0 GPST (week2026 604770.0s)
% pos mode  : ppp-kinematic
% solution  : combined
% elev mask : 15.0 deg
% dynamics  : off
% tidecorr  : on
% tropo opt : est ztd+grad
% ephemeris : precise
% navi sys  : gps glonass
% antenna1  :                       ( 0.0000  0.0000  0.0000)
%
% (lat/lon/height=WGS84/ellipsoidal,Q=1:fix,2:float,3:sbas,4:dgps,5:single,6:ppp,ns=# of satellites)
%  GPST                  latitude(deg) longitude(deg)  height(m)   Q  ns   sdn(m)   sde(m)   sdu(m)  sdne(m)  sdeu(m)  sdun(m) age(s)  ratio
2018/11/10 00:00:00.000  -74.425544357  163.418452270    64.1277   6  10   0.1168   0.1242   0.2852  -0.0636   0.1013  -0.0690   0.00    0.0
2018/11/10 00:00:30.000  -74.425544042  163.418450852    63.9867   6  10   0.1233   0.1275   0.3036  -0.0687   0.1105  -0.0851   0.00    0.0
2018/11/10 00:01:00.000  -74.425543910  163.418450433    63.8908   6  10   0.1293   0.1315   0.3289  -0.0707   0.1187  -0.0942   0.00    0.0
2018/11/10 00:01:30.000  -74.425543957  163.418449956    63.8269   6  10   0.1387   0.1381   0.3645  -0.0742   0.1314  -0.1069   0.00    0.0
2018/11/10 00:02:00.000  -74.425543989  163.418450883    63.8534   6  10   0.1534   0.1461   0.4083  -0.0778   0.1460  -0.1198   0.00    0.0
2018/11/10 00:02:30.000  -74.425543724  163.418449909    63.8036   6  10   0.1573   0.1551   0.4522  -0.0819   0.1617  -0.1482   1.00    0.0
2018/11/10 00:03:00.000  -74.425543821  163.418450424    63.8042   6  10   0.1502   0.1453   0.4227  -0.0766   0.1456  -0.1446   1.00    0.0
2018/11/10 00:03:30.000  -74.425543926  163.418451406    63.9066   6  10   0.1336   0.1371   0.3708  -0.0751   0.1359  -0.1104   2.00    0.0
2018/11/10 00:04:00.000  -74.425543973  163.418452146    63.9336   6  10   0.1285   0.1310   0.3452  -0.0719   0.1253  -0.1027   2.00    0.0
2018/11/10 00:04:30.000  -74.425544047  163.418452409    63.9767   6  10   0.1238   0.1270   0.3265  -0.0694   0.1173  -0.0936   2.00    0.0
2018/11/10 00:05:00.000  -74.425543943  163.418452168    64.0395   6  10   0.1205   0.1249   0.3161  -0.0667   0.1116  -0.0839   2.00    0.0
2018/11/10 00:05:30.000  -74.425544021  163.418452907    64.1398   6  10   0.1223   0.1268   0.3262  -0.0677   0.1148  -0.0858   2.00    0.0
2018/11/10 00:06:00.000  -74.425544046  163.418452992    64.1990   6  10   0.1264   0.1311   0.3474  -0.0691   0.1207  -0.0914   2.00    0.0
2018/11/10 00:06:30.000  -74.425544213  163.418455094    64.2508   6  10   0.1308   0.1369   0.3791  -0.0729   0.1321  -0.1003   1.00    0.0
2018/11/10 00:07:00.000  -74.425544372  163.418455627    64.2855   6  10   0.1366   0.1455   0.4148  -0.0759   0.1431  -0.1078   1.00    0.0
2018/11/10 00:07:30.000  -74.425544262  163.418454743    64.2120   6  10   0.1435   0.1523   0.4533  -0.0802   0.1580  -0.1160   1.00    0.0
2018/11/10 00:08:00.000  -74.425544121  163.418453584    64.1326   6  10   0.1382   0.1469   0.4327  -0.0790   0.1460  -0.1047   1.00    0.0
2018/11/10 00:08:30.000  -74.425543923  163.418452374    64.0989   6  10   0.1310   0.1362   0.3746  -0.0741   0.1336  -0.1000   0.00    0.0
2018/11/10 00:09:00.000  -74.425543902  163.418452481    64.1380   6  10   0.1271   0.1315   0.3529  -0.0725   0.1253  -0.0942   0.00    0.0
2018/11/10 00:09:30.000  -74.425544068  163.418452682    64.1610   6  10   0.1236   0.1272   0.3387  -0.0690   0.1171  -0.0865   0.00    0.0
2018/11/10 00:10:00.000  -74.425543928  163.418452712    64.1516   6  10   0.1217   0.1240   0.3117  -0.0672   0.1061  -0.0714   0.00    0.0
2018/11/10 00:10:30.000  -74.425543991  163.418452073    64.2515   6  10   0.1233   0.1257   0.3402  -0.0678   0.1099  -0.0742   0.00    0.0
2018/11/10 00:11:00.000  -74.425544071  163.418451897    64.2089   6  10   0.1267   0.1265   0.3710  -0.0664   0.1247  -0.0836   0.00    0.0
2018/11/10 00:11:30.000  -74.425544176  163.418452481    64.2203   6  10   0.1347   0.1333   0.4061  -0.0729   0.1317  -0.0789   0.00    0.0
2018/11/10 00:12:00.000  -74.425544476  163.418453861    64.2266   6  10   0.1449   0.1415   0.4548  -0.0798   0.1402  -0.0686   0.00    0.0
2018/11/10 00:12:30.000  -74.425544158  163.418452790    64.1326   6  10   0.1551   0.1522   0.4769  -0.0880   0.1492  -0.0934   0.00    0.0
2018/11/10 00:13:00.000  -74.425544393  163.418455394    64.1256   6  10   0.1327   0.1367   0.4304  -0.0671   0.1447  -0.1113   0.00    0.0
2018/11/10 00:13:30.000  -74.425544791  163.418456657    64.2502   6  11   0.1244   0.1291   0.3899  -0.0618   0.1372  -0.1028   0.00    0.0
2018/11/10 00:14:00.000  -74.425544722  163.418454148    64.1950   6  11   0.1193   0.1233   0.3715  -0.0566   0.1282  -0.0945   0.00    0.0
2018/11/10 00:14:30.000  -74.425544798  163.418455064    64.1772   6  11   0.1156   0.1190   0.3584  -0.0525   0.1225  -0.0868   1.00    0.0
2018/11/10 00:15:00.000  -74.425544526  163.418455066    63.9964   6  11   0.1142   0.1174   0.3556  -0.0508   0.1202  -0.0844   1.00    0.0
2018/11/10 00:15:30.000  -74.425544293  163.418454194    63.8484   6  11   0.1169   0.1209   0.3944  -0.0557   0.1334  -0.1033   2.00    0.0
2018/11/10 00:16:00.000  -74.425544389  163.418455651    63.6967   6  11   0.1221   0.1266   0.4486  -0.0622   0.1532  -0.1285   1.00    0.0
2018/11/10 00:16:30.000  -74.425544082  163.418455000    63.5239   6  11   0.1262   0.1331   0.4782  -0.0652   0.1632  -0.1392   0.00    0.0
2018/11/10 00:17:00.000  -74.425544093  163.418454851    63.4658   6  11   0.1312   0.1405   0.5061  -0.0693   0.1749  -0.1494   1.00    0.0
2018/11/10 00:17:30.000  -74.425544083  163.418453777    63.4483   6  11   0.1372   0.1471   0.5358  -0.0736   0.1886  -0.1608   1.00    0.0
2018/11/10 00:18:00.000  -74.425544124  163.418454275    63.4319   6  11   0.1311   0.1390   0.5108  -0.0704   0.1809  -0.1467   1.00    0.0
2018/11/10 00:18:30.000  -74.425544106  163.418454353    63.5162   6  11   0.1256   0.1332   0.4900  -0.0669   0.1719  -0.1397   1.00    0.0
2018/11/10 00:19:00.000  -74.425544284  163.418454063    63.6224   6  11   0.1218   0.1275   0.4753  -0.0638   0.1654  -0.1321   2.00    0.0
2018/11/10 00:19:30.000  -74.425544353  163.418454004    63.6891   6  11   0.1190   0.1238   0.4638  -0.0607   0.1587  -0.1250   1.00    0.0
2018/11/10 00:20:00.000  -74.425544292  163.418453615    63.6807   6  11   0.1176   0.1219   0.4560  -0.0586   0.1548  -0.1194   1.00    0.0
2018/11/10 00:20:30.000  -74.425544126  163.418453541    63.6544   6  11   0.1191   0.1234   0.4662  -0.0599   0.1577  -0.1222   2.00    0.0
2018/11/10 00:21:00.000  -74.425544122  163.418453414    63.7392   6  11   0.1226   0.1269   0.4833  -0.0628   0.1634  -0.1283   3.00    0.0
2018/11/10 00:21:30.000  -74.425544151  163.418453259    63.7613   6  11   0.1273   0.1314   0.5096  -0.0655   0.1724  -0.1391   0.00    0.0
2018/11/10 00:22:00.000  -74.425543585  163.418451470    63.5314   6  11   0.1404   0.1411   0.5755  -0.0809   0.2014  -0.1820   0.00    0.0
2018/11/10 00:22:30.000  -74.425543598  163.418451353    63.4332   6  11   0.1440   0.1478   0.5969  -0.0836   0.2103  -0.1863   0.00    0.0
2018/11/10 00:23:00.000  -74.425543561  163.418449986    63.4995   6  11   0.1375   0.1403   0.5698  -0.0778   0.1959  -0.1706   0.00    0.0
2018/11/10 00:23:30.000  -74.425543783  163.418450128    63.5906   6  11   0.1313   0.1333   0.5487  -0.0713   0.1826  -0.1561   1.00    0.0
2018/11/10 00:24:00.000  -74.425543875  163.418451801    63.6470   6  11   0.1256   0.1272   0.5305  -0.0651   0.1727  -0.1466   1.00    0.0
2018/11/10 00:24:30.000  -74.425544237  163.418453797    63.6434   6  11   0.1223   0.1234   0.5273  -0.0622   0.1682  -0.1430   0.00    0.0
2018/11/10 00:25:00.000  -74.425544190  163.418453511    63.6909   6  11   0.1205   0.1224   0.5218  -0.0609   0.1658  -0.1379   0.00    0.0
2018/11/10 00:25:30.000  -74.425544190  163.418453908    63.6648   6  11   0.1242   0.1249   0.5420  -0.0645   0.1733  -0.1499   0.00    0.0
2018/11/10 00:26:00.000  -74.425544270  163.418453581    63.6962   6  11   0.1319   0.1297   0.5786  -0.0715   0.1880  -0.1726   0.00    0.0
2018/11/10 00:26:30.000  -74.425544361  163.418453819    63.7366   6  11   0.1370   0.1379   0.6000  -0.0772   0.2007  -0.1818   1.00    0.0
2018/11/10 00:27:00.000  -74.425542905  163.418447718    62.7177   6  11   0.2250   0.2244   1.0683  -0.1897   0.4385  -0.4332   2.00    0.0
2018/11/10 00:27:30.000  -74.425542766  163.418447874    62.5110   6  11   0.2317   0.2288   1.1262  -0.1918   0.4511  -0.4503   0.00    0.0
2018/11/10 00:28:00.000  -74.425542138  163.418446345    62.0873   6  11   0.2003   0.2009   0.9751  -0.1583   0.3833  -0.3714   0.00    0.0
2018/11/10 00:28:30.000  -74.425542321  163.418446081    62.1252   6  11   0.1736   0.1682   0.8415  -0.1274   0.3157  -0.3082   1.00    0.0
2018/11/10 00:29:00.000  -74.425542363  163.418446330    62.2166   6  11   0.1676   0.1661   0.8323  -0.1265   0.3126  -0.3039   0.00    0.0
2018/11/10 00:29:30.000  -74.425541966  163.418445455    62.0364   6  11   0.1654   0.1633   0.8215  -0.1252   0.3092  -0.2996   0.00    0.0
2018/11/10 00:30:00.000  -74.425541949  163.418445679    62.1137   6  11   0.1632   0.1616   0.8104  -0.1240   0.3054  -0.2948   0.00    0.0
2018/11/10 00:30:30.000  -74.425542180  163.418447006    62.1772   6  11   0.1614   0.1559   0.7889  -0.1187   0.2907  -0.2856   0.00    0.0
2018/11/10 00:31:00.000  -74.425542188  163.418446368    62.1280   6  11   0.1629   0.1570   0.7950  -0.1182   0.2895  -0.2863   0.00    0.0
2018/11/10 00:31:30.000  -74.425542360  163.418445703    62.1887   6  11   0.1649   0.1592   0.8001  -0.1168   0.2877  -0.2858   1.00    0.0
2018/11/10 00:32:00.000  -74.425542516  163.418445417    62.2507   6  11   0.1674   0.1626   0.8102  -0.1164   0.2910  -0.2865   0.00    0.0
2018/11/10 00:32:30.000  -74.425542406  163.418446485    62.4515   6  11   0.1731   0.1697   0.8225  -0.1175   0.2940  -0.2839   0.00    0.0
2018/11/10 00:33:00.000  -74.425542009  163.418446818    62.5122   6  11   0.1699   0.1618   0.7991  -0.1151   0.2816  -0.2783   0.00    0.0
2018/11/10 00:33:30.000  -74.425542129  163.418448368    62.5871   6  11   0.1602   0.1492   0.7543  -0.1047   0.2513  -0.2609   1.00    0.0
2018/11/10 00:34:00.000  -74.425542063  163.418448826    62.5559   6  11   0.1562   0.1405   0.7386  -0.1006   0.2419  -0.2578   1.00    0.0
2018/11/10 00:34:30.000  -74.425542008  163.418447812    62.4880   6  11   0.1534   0.1347   0.7307  -0.0975   0.2342  -0.2550   1.00    0.0
2018/11/10 00:35:00.000  -74.425542086  163.418448135    62.4762   6  11   0.1522   0.1321   0.7242  -0.0957   0.2295  -0.2527   1.00    0.0
2018/11/10 00:35:30.000  -74.425541893  163.418447735    62.4073   6  11   0.1526   0.1336   0.7285  -0.0960   0.2300  -0.2530   2.00    0.0
2018/11/10 00:36:00.000  -74.425541876  163.418448120    62.3845   6  11   0.1546   0.1371   0.7401  -0.0971   0.2326  -0.2536   0.00    0.0
2018/11/10 00:36:30.000  -74.425541947  163.418448768    62.4428   6  11   0.1567   0.1422   0.7486  -0.0981   0.2344  -0.2544   0.00    0.0
2018/11/10 00:37:00.000  -74.425542132  163.418450363    62.4786   6  11   0.1593   0.1486   0.7701  -0.0981   0.2393  -0.2556   0.00    0.0
2018/11/10 00:37:30.000  -74.425542123  163.418449646    62.3887   6  11   0.1671   0.1603   0.8022  -0.1036   0.2604  -0.2591   0.00    0.0
2018/11/10 00:38:00.000  -74.425542108  163.418450627    62.4812   6  11   0.1634   0.1491   0.7627  -0.1012   0.2389  -0.2546   0.00    0.0
2018/11/10 00:38:30.000  -74.425542175  163.418450674    62.5662   6  10   0.1791   0.1395   0.8404  -0.1075   0.2477  -0.3100   0.00    0.0
2018/11/10 00:39:00.000  -74.425542303  163.418450540    62.5656   6  10   0.1674   0.1309   0.7955  -0.0974   0.2270  -0.2866   0.00    0.0
2018/11/10 00:39:30.000  -74.425542495  163.418451140    62.7873   6  10   0.1606   0.1259   0.7679  -0.0916   0.2150  -0.2736   1.00    0.0
2018/11/10 00:40:00.000  -74.425542711  163.418450960    62.8097   6  10   0.1578   0.1238   0.7529  -0.0882   0.2105  -0.2634   0.00    0.0
2018/11/10 00:40:30.000  -74.425542649  163.418451195    62.7914   6  10   0.1597   0.1258   0.7509  -0.0873   0.2080  -0.2613   0.00    0.0
2018/11/10 00:41:00.000  -74.425542625  163.418450499    62.7439   6  10   0.1651   0.1297   0.7617  -0.0871   0.2106  -0.2689   0.00    0.0
2018/11/10 00:41:30.000  -74.425542526  163.418451014    62.7490   6  10   0.1790   0.1383   0.7926  -0.0799   0.2125  -0.2864   1.00    0.0
2018/11/10 00:42:00.000  -74.425542172  163.418451970    62.4332   6   9   0.1929   0.1460   0.8760  -0.0836   0.2356  -0.3170   0.00    0.0
2018/11/10 00:42:30.000  -74.425542104  163.418451202    62.3001   6   9   0.2049   0.1544   0.9270  -0.0853   0.2493  -0.3216   0.00    0.0
2018/11/10 00:43:00.000  -74.425542705  163.418450176    62.1300   6   9   0.2036   0.1486   0.9247  -0.0658   0.2597  -0.2572   0.00    0.0
2018/11/10 00:43:30.000  -74.425542852  163.418451194    62.2483   6   9   0.1831   0.1362   0.8743  -0.0784   0.2363  -0.2631   0.00    0.0
2018/11/10 00:44:00.000  -74.425543077  163.418451469    62.2506   6   9   0.1824   0.1278   0.8839  -0.0827   0.2249  -0.2824   0.00    0.0
2018/11/10 00:44:30.000  -74.425543134  163.418451644    62.2551   6   9   0.1695   0.1206   0.7219  -0.0886   0.2015  -0.2875   0.00    0.0
2018/11/10 00:45:00.000  -74.425542679  163.418451735    62.0146   6  10   0.1678   0.1180   0.7083  -0.0879   0.1968  -0.2830   0.00    0.0
2018/11/10 00:45:30.000  -74.425542700  163.418451703    62.0362   6  10   0.1705   0.1202   0.7192  -0.0899   0.1979  -0.2853   0.00    0.0
2018/11/10 00:46:00.000  -74.425543004  163.418452620    62.1521   6  10   0.1756   0.1239   0.7338  -0.0937   0.1952  -0.2843   0.00    0.0
2018/11/10 00:46:30.000  -74.425543234  163.418452992    62.2483   6  10   0.1805   0.1280   0.7807  -0.0990   0.2029  -0.2819   0.00    0.0
2018/11/10 00:47:00.000  -74.425542642  163.418453259    62.2937   6  10   0.1974   0.1349   0.8664  -0.1048   0.2100  -0.2987   0.00    0.0
2018/11/10 00:47:30.000  -74.425542587  163.418452448    62.0429   6  10   0.2096   0.1445   0.9817  -0.1163   0.2160  -0.3350   0.00    0.0
2018/11/10 00:48:00.000  -74.425543307  163.418454077    62.3875   6  10   0.2195   0.1468   1.0810  -0.1287   0.2454  -0.4041   0.00    0.0
2018/11/10 00:48:30.000  -74.425543521  163.418454128    62.6090   6  10   0.1722   0.1333   0.5755  -0.1049   0.1917  -0.2499   0.00    0.0
2018/11/10 00:49:00.000  -74.425543808  163.418455622    62.7129   6  10   0.1699   0.1282   0.5623  -0.1039   0.1915  -0.2508   0.00    0.0
2018/11/10 00:49:30.000  -74.425543650  163.418454312    62.7460   6  10   0.1669   0.1231   0.5501  -0.1005   0.1858  -0.2491   0.00    0.0
2018/11/10 00:50:00.000  -74.425543302  163.418454005    62.6585   6  10   0.1676   0.1210   0.5473  -0.0996   0.1838  -0.2509   0.00    0.0
2018/11/10 00:50:30.000  -74.425543285  163.418454306    62.6899   6  10   0.1767   0.1235   0.5632  -0.1035   0.1882  -0.2623   1.00    0.0
2018/11/10 00:51:00.000  -74.425543061  163.418454097    62.5749   6  10   0.1829   0.1261   0.5894  -0.1051   0.1932  -0.2722   2.00    0.0
2018/11/10 00:51:30.000  -74.425542905  163.418453434    62.4747   6  10   0.1909   0.1349   0.6272  -0.1116   0.2054  -0.2858   2.00    0.0
2018/11/10 00:52:00.000  -74.425543212  163.418454890    62.5674   6  10   0.1897   0.1367   0.6575  -0.1028   0.2003  -0.2841   2.00    0.0
2018/11/10 00:52:30.000  -74.425541841  163.418453440    62.1078   6  10   0.2249   0.1440   0.7708  -0.1143   0.2254  -0.3409   2.00    0.0
2018/11/10 00:53:00.000  -74.425544690  163.418456615    62.8450   6  10   0.1648   0.1363   0.5723  -0.1037   0.1823  -0.2434   1.00    0.0
2018/11/10 00:53:30.000  -74.425544575  163.418456438    62.7863   6  10   0.1587   0.1296   0.5451  -0.1001   0.1726  -0.2358   1.00    0.0
2018/11/10 00:54:00.000  -74.425544496  163.418455951    62.6983   6  10   0.1507   0.1241   0.5269  -0.0942   0.1638  -0.2282   1.00    0.0
2018/11/10 00:54:30.000  -74.425544285  163.418455479    62.7347   6  10   0.1510   0.1226   0.5264  -0.0946   0.1638  -0.2323   1.00    0.0
2018/11/10 00:55:00.000  -74.425544905  163.418456796    62.9909   6  10   0.1260   0.1158   0.4619  -0.0783   0.1356  -0.1835   1.00    0.0
2018/11/10 00:55:30.000  -74.425544358  163.418455691    62.9658   6  10   0.1307   0.1186   0.4725  -0.0819   0.1412  -0.1907   1.00    0.0
2018/11/10 00:56:00.000  -74.425544188  163.418455974    63.0185   6  10   0.1387   0.1235   0.4917  -0.0872   0.1501  -0.2011   1.00    0.0
2018/11/10 00:56:30.000  -74.425544098  163.418455865    62.9896   6  10   0.1462   0.1311   0.5166  -0.0931   0.1608  -0.2143   1.00    0.0
2018/11/10 00:57:00.000  -74.425543967  163.418455692    62.8315   6  10   0.1584   0.1417   0.5489  -0.1027   0.1769  -0.2312   1.00    0.0
2018/11/10 00:57:30.000  -74.425543468  163.418454554    62.6586   6  10   0.1744   0.1546   0.5901  -0.1150   0.1984  -0.2543   1.00    0.0
2018/11/10 00:58:00.000  -74.425544311  163.418458022    62.9295   6  10   0.1649   0.1655   0.5547  -0.1186   0.1936  -0.2392   2.00    0.0
2018/11/10 00:58:30.000  -74.425544356  163.418457252    62.9303   6  10   0.1438   0.1362   0.5131  -0.0932   0.1527  -0.2108   3.00    0.0
2018/11/10 00:59:00.000  -74.425544465  163.418457202    62.8548   6  10   0.1366   0.1256   0.4922  -0.0852   0.1386  -0.2006   2.00    0.0
2018/11/10 00:59:30.000  -74.425544536  163.418457412    62.8379   6  10   0.1334   0.1197   0.4833  -0.0814   0.1323  -0.1969   2.00    0.0
2018/11/10 01:00:00.000  -74.425544672  163.418457333    62.8975   6  10   0.1324   0.1170   0.4814  -0.0796   0.1290  -0.1956   3.00    0.0
2018/11/10 01:00:30.000  -74.425544519  163.418457129    62.8365   6  10   0.1346   0.1177   0.4920  -0.0805   0.1290  -0.1993   2.00    0.0
2018/11/10 01:01:00.000  -74.425544445  163.418456916    62.9342   6  10   0.1395   0.1203   0.4920  -0.0823   0.1288  -0.2018   0.00    0.0
2018/11/10 01:01:30.000  -74.425544217  163.418457432    62.8562   6  10   0.1479   0.1265   0.5109  -0.0870   0.1347  -0.2119   0.00    0.0
2018/11/10 01:02:00.000  -74.425544260  163.418458139    62.7730   6  10   0.1554   0.1330   0.5338  -0.0913   0.1405  -0.2209   0.00    0.0
2018/11/10 01:02:30.000  -74.425543890  163.418457489    62.7652   6  10   0.1651   0.1447   0.5604  -0.0977   0.1500  -0.2323   0.00    0.0
2018/11/10 01:03:00.000  -74.425544540  163.418457268    62.9165   6  10   0.1464   0.1353   0.5223  -0.0888   0.1355  -0.2069   1.00    0.0
2018/11/10 01:03:30.000  -74.425544568  163.418457198    62.8995   6  10   0.1391   0.1284   0.4994  -0.0823   0.1217  -0.1969   3.00    0.0
2018/11/10 01:04:00.000  -74.425544840  163.418457667    63.1377   6  10   0.1304   0.1218   0.4726  -0.0765   0.1096  -0.1817   2.00    0.0
2018/11/10 01:04:30.000  -74.425544997  163.418457399    63.1897   6  10   0.1265   0.1165   0.4593  -0.0729   0.1042  -0.1753   2.00    0.0
2018/11/10 01:05:00.000  -74.425545069  163.418458124    63.2469   6  10   0.1250   0.1146   0.4528  -0.0717   0.1019  -0.1722   2.00    0.0
2018/11/10 01:05:30.000  -74.425544890  163.418458182    63.2463   6  10   0.1257   0.1155   0.4539  -0.0713   0.1003  -0.1709   2.00    0.0
2018/11/10 01:06:00.000  -74.425544859  163.418458419    63.2133   6  11   0.1293   0.1191   0.4634  -0.0720   0.1002  -0.1732   2.00    0.0
2018/11/10 01:06:30.000  -74.425545556  163.418457734    63.3699   6  11   0.1164   0.1225   0.4520  -0.0748   0.0895  -0.1391   1.00    0.0
2018/11/10 01:07:00.000  -74.425545542  163.418457217    63.2963   6  11   0.1197   0.1379   0.4881  -0.0753   0.1017  -0.1542   1.00    0.0
2018/11/10 01:07:30.000  -74.425545935  163.418459559    63.6601   6  11   0.1152   0.1218   0.4540  -0.0538  -0.0425  -0.1157   1.00    0.0
2018/11/10 01:08:00.000  -74.425546040  163.418460094    63.8314   6  11   0.1072   0.1098   0.3968  -0.0466  -0.0759  -0.1029   0.00    0.0
2018/11/10 01:08:30.000  -74.425546078  163.418459780    63.8955   6  11   0.1031   0.1016   0.3828  -0.0458  -0.0777  -0.1060   0.00    0.0
2018/11/10 01:09:00.000  -74.425546345  163.418460839    64.0091   6  11   0.0934   0.0959   0.3479  -0.0385  -0.0962  -0.0754   0.00    0.0
2018/11/10 01:09:30.000  -74.425546404  163.418461144    63.9525   6  11   0.0903   0.0905   0.3166  -0.0354  -0.0964  -0.0754   0.00    0.0
2018/11/10 01:10:00.000  -74.425546386  163.418460614    63.8964   6  12   0.0893   0.0895   0.2978  -0.0342  -0.1001  -0.0739   0.00    0.0
2018/11/10 01:10:30.000  -74.425546394  163.418461718    63.8027   6  12   0.0913   0.0925   0.3283  -0.0354  -0.1036  -0.0825   0.00    0.0
2018/11/10 01:11:00.000  -74.425546141  163.418461336    63.7386   6  12   0.0966   0.0980   0.3809  -0.0404  -0.1015  -0.0999   0.00    0.0
2018/11/10 01:11:30.000  -74.425546068  163.418461439    63.8181   6  12   0.1036   0.1065   0.3831  -0.0477  -0.1020  -0.1083   0.00    0.0
2018/11/10 01:12:00.000  -74.425546005  163.418461909    63.7986   6  12   0.1094   0.1105   0.4096  -0.0476  -0.1045  -0.1169   0.00    0.0
2018/11/10 01:12:30.000  -74.425545880  163.418461720    63.7110   6  12   0.1178   0.1175   0.4387  -0.0523  -0.1000  -0.1302   0.00    0.0
2018/11/10 01:13:00.000  -74.425546024  163.418461436    63.7660   6  12   0.1057   0.1083   0.3994  -0.0444  -0.1165  -0.1045   1.00    0.0
2018/11/10 01:13:30.000  -74.425546086  163.418461575    63.7088   6  12   0.1020   0.1022   0.3870  -0.0432  -0.1176  -0.1016   2.00    0.0
2018/11/10 01:14:00.000  -74.425546183  163.418461353    63.7452   6  12   0.0933   0.0972   0.3712  -0.0365  -0.1219  -0.0836   2.00    0.0
2018/11/10 01:14:30.000  -74.425546148  163.418461064    63.6847   6  12   0.0905   0.0944   0.3551  -0.0356  -0.1182  -0.0809   0.00    0.0
2018/11/10 01:15:00.000  -74.425546227  163.418461327    63.5930   6  12   0.0885   0.0930   0.3415  -0.0352  -0.1149  -0.0746   0.00    0.0
2018/11/10 01:15:30.000  -74.425546097  163.418461689    63.4663   6  12   0.0899   0.0943   0.3545  -0.0363  -0.1081  -0.0811   0.00    0.0
2018/11/10 01:16:00.000  -74.425545970  163.418460809    63.2006   6  12   0.0939   0.0991   0.4040  -0.0390  -0.1000  -0.0952   0.00    0.0
2018/11/10 01:16:30.000  -74.425546010  163.418461560    63.3275   6  12   0.0971   0.1061   0.4835  -0.0398  -0.1055  -0.0999   0.00    0.0
2018/11/10 01:17:00.000  -74.425545904  163.418461868    63.3055   6  12   0.1022   0.1146   0.5536  -0.0395  -0.1202  -0.1081   0.00    0.0
2018/11/10 01:17:30.000  -74.425545831  163.418457562    63.7809   6  12   0.1085   0.1309   0.7006  -0.0354  -0.1601  -0.1278   0.00    0.0
2018/11/10 01:18:00.000  -74.425546052  163.418459208    63.9732   6  12   0.1026   0.1153   0.3925  -0.0401  -0.1278  -0.0965   0.00    0.0
2018/11/10 01:18:30.000  -74.425546060  163.418459931    63.9720   6  12   0.0981   0.1024   0.3494  -0.0449  -0.1023  -0.0904   0.00    0.0
2018/11/10 01:19:00.000  -74.425546137  163.418460881    63.9758   6  12   0.0917   0.0966   0.3195  -0.0412  -0.1023  -0.0772   0.00    0.0
2018/11/10 01:19:30.000  -74.425546022  163.418459453    63.9465   6  12   0.0890   0.0909   0.3047  -0.0407  -0.0923  -0.0732   0.00    0.0
2018/11/10 01:20:00.000  -74.425545910  163.418459448    63.8578   6  12   0.0883   0.0898   0.2934  -0.0405  -0.0913  -0.0744   0.00    0.0
2018/11/10 01:20:30.000  -74.425545687  163.418458648    63.6204   6  12   0.0891   0.0915   0.3100  -0.0408  -0.0954  -0.0763   0.00    0.0
2018/11/10 01:21:00.000  -74.425545720  163.418458524    63.6148   6  12   0.0919   0.0954   0.3414  -0.0411  -0.1029  -0.0829   0.00    0.0
2018/11/10 01:21:30.000  -74.425545785  163.418458566    63.6277   6  12   0.0958   0.1003   0.3657  -0.0426  -0.1129  -0.0867   1.00    0.0
2018/11/10 01:22:00.000  -74.425545762  163.418459300    63.5384   6  12   0.1005   0.1065   0.3940  -0.0433  -0.1221  -0.0899   1.00    0.0
2018/11/10 01:22:30.000  -74.425545729  163.418459224    63.5454   6  12   0.1063   0.1137   0.4246  -0.0456  -0.1313  -0.0938   2.00    0.0
2018/11/10 01:23:00.000  -74.425545520  163.418459780    63.4334   6  12   0.1010   0.1089   0.4240  -0.0445  -0.1324  -0.0868   2.00    0.0
2018/11/10 01:23:30.000  -74.425545634  163.418459274    63.6636   6  12   0.0965   0.1039   0.3831  -0.0438  -0.1231  -0.0867   0.00    0.0
2018/11/10 01:24:00.000  -74.425545820  163.418458667    63.5911   6  12   0.0929   0.0966   0.3651  -0.0426  -0.1132  -0.0831   0.00    0.0
2018/11/10 01:24:30.000  -74.425545672  163.418458176    63.6707   6  12   0.0902   0.0914   0.3369  -0.0398  -0.1006  -0.0856   0.00    0.0
2018/11/10 01:25:00.000  -74.425545673  163.418459231    63.7112   6  12   0.0891   0.0898   0.3269  -0.0393  -0.0965  -0.0855   0.00    0.0
2018/11/10 01:25:30.000  -74.425545727  163.418459441    63.6498   6  12   0.0893   0.0914   0.3397  -0.0399  -0.1009  -0.0829   0.00    0.0
2018/11/10 01:26:00.000  -74.425545537  163.418460456    63.3169   6  12   0.0919   0.0951   0.3683  -0.0394  -0.1092  -0.0892   0.00    0.0
2018/11/10 01:26:30.000  -74.425545506  163.418460749    63.3152   6  12   0.0955   0.0993   0.3899  -0.0407  -0.1127  -0.0915   0.00    0.0
2018/11/10 01:27:00.000  -74.425545340  163.418461475    63.2436   6  12   0.1005   0.1083   0.4339  -0.0447  -0.1275  -0.0897   0.00    0.0
2018/11/10 01:27:30.000  -74.425545352  163.418461399    63.2918   6  12   0.1054   0.1138   0.4631  -0.0418  -0.1414  -0.1022   0.00    0.0
2018/11/10 01:28:00.000  -74.425545556  163.418461187    63.2478   6  12   0.1002   0.1078   0.4255  -0.0415  -0.1308  -0.0970   0.00    0.0
2018/11/10 01:28:30.000  -74.425545601  163.418461433    63.2239   6  12   0.0959   0.1031   0.4018  -0.0412  -0.1226  -0.0931   0.00    0.0
2018/11/10 01:29:00.000  -74.425545726  163.418460382    63.2571   6  12   0.0926   0.0960   0.3858  -0.0404  -0.1158  -0.0889   1.00    0.0
2018/11/10 01:29:30.000  -74.425545759  163.418460042    63.3281   6  12   0.0902   0.0924   0.3639  -0.0394  -0.1081  -0.0885   0.00    0.0
2018/11/10 01:30:00.000  -74.425545638  163.418460374    63.3270   6  12   0.0893   0.0904   0.3550  -0.0393  -0.1050  -0.0853   0.00    0.0
2018/11/10 01:30:30.000  -74.425545897  163.418460740    63.4011   6  12   0.0903   0.0921   0.3641  -0.0395  -0.1091  -0.0842   0.00    0.0
2018/11/10 01:31:00.000  -74.425545883  163.418460365    63.4533   6  12   0.0929   0.0940   0.3796  -0.0398  -0.1147  -0.0855   0.00    0.0
2018/11/10 01:31:30.000  -74.425545661  163.418460285    63.4387   6  12   0.0970   0.0981   0.4077  -0.0410  -0.1235  -0.0866   0.00    0.0
2018/11/10 01:32:00.000  -74.425545583  163.418460894    63.3977   6  12   0.1033   0.1041   0.4428  -0.0443  -0.1355  -0.0856   0.00    0.0
2018/11/10 01:32:30.000  -74.425545649  163.418460947    63.3699   6  12   0.1085   0.1129   0.4958  -0.0451  -0.1570  -0.0867   0.00    0.0
2018/11/10 01:33:00.000  -74.425545666  163.418461220    63.2989   6  12   0.1017   0.1051   0.4512  -0.0420  -0.1393  -0.0859   0.00    0.0
2018/11/10 01:33:30.000  -74.425545752  163.418461356    63.1748   6  12   0.0965   0.0998   0.4089  -0.0408  -0.1288  -0.0867   0.00    0.0
2018/11/10 01:34:00.000  -74.425545922  163.418461731    63.1804   6  12   0.0921   0.0958   0.3868  -0.0398  -0.1231  -0.0818   0.00    0.0
2018/11/10 01:34:30.000  -74.425545831  163.418461925    63.1046   6  12   0.0896   0.0928   0.3770  -0.0386  -0.1213  -0.0788   1.00    0.0
2018/11/10 01:35:00.000  -74.425545969  163.418461844    63.0460   6  12   0.0885   0.0914   0.3729  -0.0376  -0.1190  -0.0801   0.00    0.0
2018/11/10 01:35:30.000  -74.425545982  163.418461967    63.0175   6  12   0.0896   0.0927   0.3774  -0.0374  -0.1199  -0.0802   0.00    0.0
2018/11/10 01:36:00.000  -74.425546157  163.418462205    63.0063   6  12   0.0923   0.0959   0.3893  -0.0363  -0.1224  -0.0819   0.00    0.0
2018/11/10 01:36:30.000  -74.425546232  163.418462110    63.0638   6  12   0.0961   0.0999   0.4180  -0.0361  -0.1259  -0.0877   0.00    0.0
2018/11/10 01:37:00.000  -74.425546014  163.418460556    63.0917   6  12   0.1026   0.1065   0.4378  -0.0342  -0.1337  -0.0868   0.00    0.0
2018/11/10 01:37:30.000  -74.425546161  163.418460554    63.0602   6  12   0.1066   0.1144   0.4598  -0.0240  -0.1316  -0.0940   0.00    0.0
2018/11/10 01:38:00.000  -74.425546288  163.418461130    62.9598   6  12   0.0997   0.1069   0.4505  -0.0306  -0.1389  -0.0924   0.00    0.0
2018/11/10 01:38:30.000  -74.425546372  163.418460168    62.9936   6  12   0.0948   0.1007   0.4336  -0.0342  -0.1436  -0.0866   0.00    0.0
2018/11/10 01:39:00.000  -74.425546206  163.418460323    63.0422   6  12   0.0909   0.0959   0.4125  -0.0346  -0.1384  -0.0828   0.00    0.0
2018/11/10 01:39:30.000  -74.425545992  163.418460692    63.0723   6  12   0.0889   0.0927   0.3927  -0.0350  -0.1382  -0.0851   0.00    0.0
2018/11/10 01:40:00.000  -74.425545948  163.418461630    63.0167   6  11   0.0883   0.0912   0.3895  -0.0342  -0.1403  -0.0845   0.00    0.0
2018/11/10 01:40:30.000  -74.425545901  163.418462903    62.8259   6  11   0.0903   0.0932   0.4050  -0.0325  -0.1438  -0.0894   0.00    0.0
2018/11/10 01:41:00.000  -74.425545884  163.418463045    62.8346   6  11   0.0941   0.0973   0.4125  -0.0298  -0.1454  -0.0970   0.00    0.0
2018/11/10 01:41:30.000  -74.425545905  163.418463158    62.9642   6  10   0.0994   0.1071   0.4426  -0.0296  -0.1594  -0.0992   0.00    0.0
2018/11/10 01:42:00.000  -74.425546099  163.418462507    63.0207   6  10   0.1059   0.1097   0.4671  -0.0300  -0.1670  -0.1022   0.00    0.0
2018/11/10 01:42:30.000  -74.425546445  163.418461564    63.3305   6   9   0.1223   0.1256   0.5708   0.0344  -0.2112  -0.1547   0.00    0.0
2018/11/10 01:43:00.000  -74.425546001  163.418462820    63.0542   6   9   0.1134   0.1162   0.5319   0.0259  -0.1951  -0.1435   0.00    0.0
2018/11/10 01:43:30.000  -74.425546003  163.418463767    62.8384   6   9   0.1057   0.1084   0.4955   0.0150  -0.1801  -0.1330   1.00    0.0
2018/11/10 01:44:00.000  -74.425545952  163.418463356    62.7077   6   9   0.0997   0.1015   0.4613  -0.0121  -0.1678  -0.1227   1.00    0.0
2018/11/10 01:44:30.000  -74.425545700  163.418464086    62.6230   6   9   0.0957   0.0955   0.4310  -0.0218  -0.1553  -0.1132   2.00    0.0
2018/11/10 01:45:00.000  -74.425545804  163.418461245    63.0623   6   9   0.0941   0.0918   0.4074  -0.0233  -0.1453  -0.1116   0.00    0.0
2018/11/10 01:45:30.000  -74.425546003  163.418460967    63.1493   6   9   0.0961   0.0935   0.4127  -0.0228  -0.1458  -0.1126   0.00    0.0
2018/11/10 01:46:00.000  -74.425546376  163.418460502    63.4569   6   9   0.1016   0.0966   0.4425  -0.0167  -0.1541  -0.1182   0.00    0.0
2018/11/10 01:46:30.000  -74.425546467  163.418459162    63.6512   6   9   0.1147   0.1091   0.6233   0.0408  -0.2184  -0.1651   0.00    0.0
2018/11/10 01:47:00.000  -74.425546433  163.418459405    63.6592   6   9   0.1215   0.1206   0.6691   0.0460  -0.2363  -0.1755   0.00    0.0
2018/11/10 01:47:30.000  -74.425546478  163.418459706    63.6096   6   9   0.1315   0.1336   0.6870   0.0507  -0.2485  -0.1832   0.00    0.0
2018/11/10 01:48:00.000  -74.425546822  163.418458279    63.7821   6   9   0.1447   0.1341   0.8378   0.0777  -0.2866  -0.2625   0.00    0.0
2018/11/10 01:48:30.000  -74.425546764  163.418456766    64.1646   6   9   0.1334   0.1106   0.6377   0.0745  -0.2270  -0.2266   0.00    0.0
2018/11/10 01:49:00.000  -74.425548835  163.418455050    64.8598   6   9   0.1072   0.0880   0.4314   0.0360  -0.1579  -0.1258   0.00    0.0
2018/11/10 01:49:30.000  -74.425549004  163.418454370    64.9624   6   9   0.0910   0.0726   0.3327  -0.0124  -0.1172  -0.0696   0.00    0.0
2018/11/10 01:50:00.000  -74.425548741  163.418455209    64.8265   6   9   0.0890   0.0703   0.3348  -0.0112  -0.1157  -0.0726   0.00    0.0
2018/11/10 01:50:30.000  -74.425548197  163.418455579    64.5958   6   9   0.0965   0.0764   0.4155   0.0208  -0.1397  -0.1080   0.00    0.0
2018/11/10 01:51:00.000  -74.425547655  163.418457719    64.0486   6   9   0.1103   0.0871   0.5119   0.0378  -0.1710  -0.1514   0.00    0.0
2018/11/10 01:51:30.000  -74.425547146  163.418458870    63.6568   6   9   0.1275   0.1012   0.6147   0.0526  -0.2070  -0.1953   0.00    0.0
2018/11/10 01:52:00.000  -74.425546555  163.418459640    63.5979   6   9   0.1537   0.1056   0.6157   0.0565  -0.2014  -0.2269   0.00    0.0
2018/11/10 01:52:30.000  -74.425548525  163.418457716    64.2994   6   9   0.1291   0.1166   0.5566   0.0475  -0.2082  -0.1471   0.00    0.0
2018/11/10 01:53:00.000  -74.425548427  163.418456848    64.3678   6   9   0.1160   0.1037   0.5023   0.0420  -0.1846  -0.1321   0.00    0.0
2018/11/10 01:53:30.000  -74.425548493  163.418457451    64.2787   6   9   0.1066   0.0918   0.4577   0.0369  -0.1634  -0.1217   1.00    0.0
2018/11/10 01:54:00.000  -74.425548433  163.418456024    64.3795   6   9   0.1010   0.0817   0.4282   0.0338  -0.1465  -0.1197   1.00    0.0
2018/11/10 01:54:30.000  -74.425548502  163.418456257    64.4177   6   8   0.0916   0.0733   0.3737   0.0236  -0.1255  -0.0941   3.00    0.0
2018/11/10 01:55:00.000  -74.425548541  163.418456411    64.4160   6   8   0.0867   0.0687   0.3594   0.0261  -0.1209  -0.0846   4.00    0.0
2018/11/10 01:55:30.000  -74.425548474  163.418457160    64.2671   6   9   0.0934   0.0745   0.4147   0.0338  -0.1398  -0.1105   4.00    0.0
2018/11/10 01:56:00.000  -74.425547625  163.418458649    63.8324   6   9   0.1109   0.0834   0.4818   0.0426  -0.1602  -0.1515   4.00    0.0
2018/11/10 01:56:30.000  -74.425548015  163.418458821    63.9411   6   9   0.1123   0.0939   0.4989   0.0377  -0.1739  -0.1351   4.00    0.0
2018/11/10 01:57:00.000  -74.425547774  163.418459348    63.8132   6   9   0.1210   0.1062   0.5456   0.0364  -0.1928  -0.1394   4.00    0.0
2018/11/10 01:57:30.000  -74.425547341  163.418459338    63.8338   6   9   0.1335   0.1224   0.6246   0.0251  -0.2235  -0.1321   0.00    0.0
2018/11/10 01:58:00.000  -74.425547354  163.418459374    63.7098   6   9   0.1209   0.1070   0.5946   0.0446  -0.2086  -0.1413   0.00    0.0
2018/11/10 01:58:30.000  -74.425547102  163.418459019    63.6750   6   9   0.1186   0.0964   0.5731   0.0507  -0.1953  -0.1600   0.00    0.0
2018/11/10 01:59:00.000  -74.425548254  163.418457784    64.1911   6   9   0.0909   0.0805   0.4094   0.0245  -0.1446  -0.0646   0.00    0.0
2018/11/10 01:59:30.000  -74.425548272  163.418457423    64.0444   6   9   0.0850   0.0721   0.3630   0.0258  -0.1265  -0.0633   0.00    0.0
2018/11/10 02:00:00.000  -74.425548381  163.418457840    64.0177   6   9   0.0831   0.0683   0.3370   0.0257  -0.1162  -0.0624   0.00    0.0
2018/11/10 02:00:30.000  -74.425548437  163.418456340    64.1097   6   9   0.0848   0.0703   0.3575   0.0230  -0.1223  -0.0700   1.00    0.0
2018/11/10 02:01:00.000  -74.425548201  163.418456442    64.1082   6   9   0.0904   0.0773   0.3927   0.0286  -0.1365  -0.0811   1.00    0.0
2018/11/10 02:01:30.000  -74.425548093  163.418456869    64.0382   6   9   0.0995   0.0865   0.4312   0.0353  -0.1518  -0.1008   1.00    0.0
2018/11/10 02:02:00.000  -74.425547968  163.418458017    63.8861   6   9   0.1101   0.0975   0.4794   0.0423  -0.1709  -0.1202   1.00    0.0
2018/11/10 02:02:30.000  -74.425547768  163.418458218    63.8715   6   9   0.1221   0.1098   0.5379   0.0498  -0.1934  -0.1405   1.00    0.0
2018/11/10 02:03:00.000  -74.425547708  163.418457374    63.8964   6   9   0.1213   0.1005   0.5466   0.0504  -0.1886  -0.1479   0.00    0.0
2018/11/10 02:03:30.000  -74.425548920  163.418455027    64.5115   6   9   0.0898   0.0881   0.4418   0.0280  -0.1578  -0.0505   0.00    0.0
2018/11/10 02:04:00.000  -74.425549032  163.418455376    64.4479   6   9   0.0819   0.0773   0.3847   0.0234  -0.1352  -0.0348   0.00    0.0
2018/11/10 02:04:30.000  -74.425548953  163.418455965    64.3641   6   9   0.0771   0.0697   0.3448   0.0202  -0.1193  -0.0203   0.00    0.0
2018/11/10 02:05:00.000  -74.425549103  163.418454768    64.4993   6   9   0.0762   0.0661   0.3244   0.0189  -0.1106  -0.0183   0.00    0.0
2018/11/10 02:05:30.000  -74.425549158  163.418455145    64.4577   6   9   0.0817   0.0694   0.3316   0.0151  -0.1142  -0.0136   0.00    0.0
2018/11/10 02:06:00.000  -74.425549476  163.418454592    64.5717   6   9   0.0904   0.0773   0.3566   0.0102  -0.1257   0.0038   0.00    0.0
2018/11/10 02:06:30.000  -74.425549530  163.418453888    64.7250   6   9   0.1020   0.0888   0.4070  -0.0095  -0.1454   0.0441   0.00    0.0
2018/11/10 02:07:00.000  -74.425549704  163.418453126    64.7929   6   9   0.1177   0.1050   0.4824  -0.0282  -0.1768   0.0834   0.00    0.0
2018/11/10 02:07:30.000  -74.425549713  163.418453569    64.7001   6   9   0.1456   0.1220   0.6350  -0.0568  -0.2289   0.1711   0.00    0.0
2018/11/10 02:08:00.000  -74.425549088  163.418453543    64.6746   6   9   0.1129   0.1006   0.5239  -0.0138  -0.1827   0.0919   0.00    0.0
2018/11/10 02:08:30.000  -74.425549341  163.418454022    64.6586   6   9   0.0909   0.0800   0.3818   0.0405  -0.1252  -0.0780   0.00    0.0
2018/11/10 02:09:00.000  -74.425549458  163.418453012    64.7700   6   9   0.0822   0.0686   0.3132   0.0403  -0.0987  -0.0851   0.00    0.0
2018/11/10 02:09:30.000  -74.425549545  163.418453476    64.7079   6   9   0.0769   0.0609   0.2746   0.0394  -0.0809  -0.0836   0.00    0.0
2018/11/10 02:10:00.000  -74.425549304  163.418454278    64.5179   6   9   0.0752   0.0579   0.2553   0.0391  -0.0726  -0.0830   0.00    0.0
2018/11/10 02:10:30.000  -74.425549231  163.418455356    64.3271   6   9   0.0779   0.0613   0.2654   0.0401  -0.0789  -0.0857   0.00    0.0
2018/11/10 02:11:00.000  -74.425549331  163.418455200    64.2846   6   9   0.0838   0.0687   0.2920   0.0423  -0.0927  -0.0906   2.00    0.0
2018/11/10 02:11:30.000  -74.425549725  163.418455221    64.4216   6   9   0.0917   0.0784   0.3270   0.0461  -0.1109  -0.1008   0.00    0.0
2018/11/10 02:12:00.000  -74.425550033  163.418454533    64.3835   6   9   0.1013   0.0897   0.3693   0.0513  -0.1317  -0.1131   0.00    0.0
2018/11/10 02:12:30.000  -74.425550001  163.418455439    64.2955   6   9   0.1119   0.1020   0.4179   0.0575  -0.1542  -0.1276   0.00    0.0
2018/11/10 02:13:00.000  -74.425549932  163.418454226    64.4191   6   9   0.1020   0.0902   0.3673   0.0522  -0.1311  -0.1145   0.00    0.0
2018/11/10 02:13:30.000  -74.425549942  163.418453455    64.4672   6   9   0.0934   0.0802   0.3225   0.0474  -0.1095  -0.1022   3.00    0.0
2018/11/10 02:14:00.000  -74.425549560  163.418453825    64.3759   6   9   0.0857   0.0692   0.2777   0.0455  -0.0908  -0.0965   0.00    0.0
2018/11/10 02:14:30.000  -74.425549411  163.418454412    64.3250   6   9   0.0810   0.0626   0.2504   0.0433  -0.0769  -0.0911   0.00    0.0
2018/11/10 02:15:00.000  -74.425549354  163.418454176    64.3498   6   9   0.0800   0.0603   0.2410   0.0432  -0.0723  -0.0905   0.00    0.0
2018/11/10 02:15:30.000  -74.425549358  163.418455309    64.1750   6   9   0.0855   0.0666   0.2658   0.0451  -0.0878  -0.0988   1.00    0.0
2018/11/10 02:16:00.000  -74.425549359  163.418454454    64.1581   6   9   0.0942   0.0750   0.3032   0.0488  -0.1072  -0.1095   1.00    0.0
2018/11/10 02:16:30.000  -74.425549469  163.418454113    64.2197   6   9   0.1070   0.0848   0.3491   0.0524  -0.1261  -0.1283   2.00    0.0
2018/11/10 02:17:00.000  -74.425550047  163.418452964    64.3111   6   9   0.1244   0.0959   0.4150   0.0629  -0.1518  -0.1592   3.00    0.0
2018/11/10 02:17:30.000  -74.425550215  163.418455267    64.1209   6   9   0.1415   0.1071   0.4625   0.0656  -0.1710  -0.1735   3.00    0.0
2018/11/10 02:18:00.000  -74.425549543  163.418453147    64.3398   6   9   0.1121   0.0954   0.4007   0.0643  -0.1491  -0.1479   0.00    0.0
2018/11/10 02:18:30.000  -74.425549207  163.418454340    64.2827   6   9   0.0999   0.0840   0.3408   0.0562  -0.1237  -0.1268   0.00    0.0
2018/11/10 02:19:00.000  -74.425548901  163.418455040    64.1837   6   9   0.0901   0.0736   0.2989   0.0533  -0.1037  -0.1148   0.00    0.0
2018/11/10 02:19:30.000  -74.425548847  163.418454967    64.1837   6   9   0.0770   0.0672   0.2581   0.0492  -0.0891  -0.0918   0.00    0.0
2018/11/10 02:20:00.000  -74.425548920  163.418454139    64.2313   6   9   0.0739   0.0648   0.2445   0.0478  -0.0830  -0.0866   1.00    0.0
2018/11/10 02:20:30.000  -74.425549174  163.418452833    64.3790   6   9   0.0778   0.0699   0.2674   0.0511  -0.0950  -0.0966   2.00    0.0
2018/11/10 02:21:00.000  -74.425549279  163.418453031    64.4235   6   9   0.0854   0.0775   0.3008   0.0557  -0.1108  -0.1104   4.00    0.0
2018/11/10 02:21:30.000  -74.425549433  163.418453183    64.5171   6   9   0.0953   0.0872   0.3410   0.0615  -0.1293  -0.1264   5.00    0.0
2018/11/10 02:22:00.000  -74.425549742  163.418453638    64.4642   6   9   0.1068   0.0988   0.3859   0.0678  -0.1495  -0.1436   5.00    0.0
2018/11/10 02:22:30.000  -74.425550243  163.418451905    64.5660   6   9   0.1183   0.1107   0.4356   0.0774  -0.1725  -0.1628   5.00    0.0
2018/11/10 02:23:00.000  -74.425549869  163.418452579    64.4253   6   9   0.1070   0.0982   0.3864   0.0705  -0.1502  -0.1461   5.00    0.0
2018/11/10 02:23:30.000  -74.425549425  163.418454009    64.2882   6   9   0.0961   0.0874   0.3407   0.0639  -0.1296  -0.1296   5.00    0.0
2018/11/10 02:24:00.000  -74.425549120  163.418453529    64.2456   6   9   0.0862   0.0788   0.3004   0.0579  -0.1112  -0.1139   5.00    0.0
2018/11/10 02:24:30.000  -74.425549191  163.418452634    64.3315   6   9   0.0830   0.0772   0.2967   0.0600  -0.1135  -0.1161   4.00    0.0
2018/11/10 02:25:00.000  -74.425548961  163.418453281    64.2856   6   9   0.0733   0.0679   0.2469   0.0487  -0.0844  -0.0882   4.00    0.0
2018/11/10 02:25:30.000  -74.425549073  163.418452549    64.3552   6   9   0.0799   0.0766   0.2813   0.0554  -0.1020  -0.1082   3.00    0.0
2018/11/10 02:26:00.000  -74.425549108  163.418452672    64.3338   6   8   0.0905   0.0825   0.3146   0.0553  -0.1065  -0.1244   3.00    0.0
2018/11/10 02:26:30.000  -74.425549648  163.418451926    64.4721   6   8   0.1060   0.0923   0.3681   0.0593  -0.1199  -0.1513   4.00    0.0
2018/11/10 02:27:00.000  -74.425549988  163.418452536    64.4555   6   8   0.1262   0.1063   0.4385   0.0656  -0.1392  -0.1875   4.00    0.0
2018/11/10 02:27:30.000  -74.425549961  163.418450320    64.4134   6   8   0.1420   0.1303   0.5683   0.0988  -0.2086  -0.2377   4.00    0.0
2018/11/10 02:28:00.000  -74.425549899  163.418450797    64.4551   6   8   0.1197   0.1116   0.4761   0.0848  -0.1750  -0.1940   4.00    0.0
2018/11/10 02:28:30.000  -74.425549709  163.418451263    64.4565   6   8   0.1002   0.0971   0.3961   0.0734  -0.1472  -0.1555   4.00    0.0
2018/11/10 02:29:00.000  -74.425549302  163.418451812    64.3756   6   8   0.0828   0.0839   0.3228   0.0630  -0.1201  -0.1188   5.00    0.0
2018/11/10 02:29:30.000  -74.425548986  163.418452338    64.3181   6   8   0.0678   0.0709   0.2522   0.0519  -0.0884  -0.0798   5.00    0.0
2018/11/10 02:30:00.000  -74.425548751  163.418452489    64.2289   6   8   0.0592   0.0617   0.2015   0.0432  -0.0581  -0.0430   5.00    0.0
2018/11/10 02:30:30.000  -74.425548947  163.418451732    64.1647   6   8   0.0688   0.0696   0.2435   0.0506  -0.0705  -0.0501   0.00    0.0
2018/11/10 02:31:00.000  -74.425548634  163.418453395    64.4494   6   8   0.0733   0.0747   0.3019   0.0479  -0.1020  -0.0899   0.00    0.0
2018/11/10 02:31:30.000  -74.425548771  163.418454668    64.3219   6   8   0.0895   0.0861   0.3501   0.0563  -0.1162  -0.1113   0.00    0.0
2018/11/10 02:32:00.000  -74.425549132  163.418454092    64.4231   6   8   0.1047   0.0982   0.3985   0.0653  -0.1331  -0.1443   0.00    0.0
2018/11/10 02:32:30.000  -74.425549417  163.418454268    64.3901   6   8   0.1174   0.1067   0.4500   0.0678  -0.1443  -0.1695   0.00    0.0
2018/11/10 02:33:00.000  -74.425549092  163.418453965    64.4643   6   9   0.0999   0.0950   0.3686   0.0588  -0.1227  -0.1479   0.00    0.0
2018/11/10 02:33:30.000  -74.425549011  163.418453090    64.4826   6   9   0.0853   0.0839   0.3211   0.0538  -0.1124  -0.1226   1.00    0.0
2018/11/10 02:34:00.000  -74.425549124  163.418452205    64.5489   6   9   0.0724   0.0747   0.2793   0.0489  -0.1021  -0.1029   0.00    0.0
2018/11/10 02:34:30.000  -74.425549286  163.418449605    64.7447   6   9   0.0727   0.0699   0.2612   0.0555  -0.1015  -0.1093   0.00    0.0
2018/11/10 02:35:00.000  -74.425549075  163.418450240    64.6260   6   9   0.0677   0.0654   0.2372   0.0528  -0.0928  -0.0998   0.00    0.0
2018/11/10 02:35:30.000  -74.425549152  163.418450525    64.6363   6   8   0.0734   0.0736   0.2490   0.0581  -0.1025  -0.1079   0.00    0.0
2018/11/10 02:36:00.000  -74.425549166  163.418450936    64.5408   6   8   0.0849   0.0872   0.3080   0.0667  -0.1227  -0.1291   0.00    0.0
2018/11/10 02:36:30.000  -74.425549335  163.418451288    64.4965   6   8   0.0989   0.1009   0.3769   0.0754  -0.1418  -0.1541   0.00    0.0
2018/11/10 02:37:00.000  -74.425549850  163.418450197    64.7740   6   8   0.1164   0.1139   0.3880   0.0860  -0.1384  -0.1750   0.00    0.0
2018/11/10 02:37:30.000  -74.425549985  163.418451289    64.7275   6   8   0.1225   0.1067   0.4159   0.0732  -0.1051  -0.1791   0.00    0.0
2018/11/10 02:38:00.000  -74.425549694  163.418451208    64.6376   6   8   0.1048   0.0903   0.3488   0.0612  -0.0823  -0.1491   0.00    0.0
2018/11/10 02:38:30.000  -74.425549873  163.418450828    64.8236   6   8   0.0888   0.0762   0.2840   0.0518  -0.0640  -0.1215   0.00    0.0
2018/11/10 02:39:00.000  -74.425549663  163.418450397    64.8135   6   8   0.0748   0.0644   0.2226   0.0445  -0.0485  -0.0964   0.00    0.0
2018/11/10 02:39:30.000  -74.425549392  163.418449629    64.8193   6   8   0.0642   0.0558   0.1697   0.0396  -0.0372  -0.0758   2.00    0.0
2018/11/10 02:40:00.000  -74.425549180  163.418449997    64.7694   6   8   0.0596   0.0527   0.1426   0.0377  -0.0320  -0.0664   4.00    0.0
2018/11/10 02:40:30.000  -74.425549349  163.418449825    64.6390   6   9   0.0643   0.0598   0.1538   0.0418  -0.0202  -0.0663   3.00    0.0
2018/11/10 02:41:00.000  -74.425549624  163.418449684    64.6482   6   9   0.0748   0.0702   0.1896   0.0476   0.0274  -0.0751   3.00    0.0
2018/11/10 02:41:30.000  -74.425550059  163.418449971    64.6686   6   9   0.0873   0.0821   0.2334   0.0533   0.0449  -0.0893   3.00    0.0
2018/11/10 02:42:00.000  -74.425550413  163.418449320    64.6948   6   9   0.1010   0.0952   0.2805   0.0590   0.0613  -0.1059   3.00    0.0
2018/11/10 02:42:30.000  -74.425550865  163.418449627    64.6904   6   9   0.1157   0.1094   0.3297   0.0652   0.0786  -0.1238   3.00    0.0
2018/11/10 02:43:00.000  -74.425550917  163.418448197    64.6793   6   9   0.1072   0.1060   0.2912   0.0705   0.0691  -0.1015   3.00    0.0
2018/11/10 02:43:30.000  -74.425549934  163.418451095    64.6793   6   9   0.0861   0.0795   0.2487   0.0484   0.0728  -0.0768   3.00    0.0
2018/11/10 02:44:00.000  -74.425549006  163.418452744    64.7154   6   9   0.0665   0.0607   0.1895   0.0302   0.0345  -0.0800   4.00    0.0
2018/11/10 02:44:30.000  -74.425548794  163.418452379    64.7032   6   9   0.0572   0.0521   0.1524   0.0269   0.0176  -0.0683   4.00    0.0
2018/11/10 02:45:00.000  -74.425548817  163.418451441    64.7727   6   9   0.0533   0.0493   0.1331   0.0257   0.0089  -0.0625   4.00    0.0
2018/11/10 02:45:30.000  -74.425548979  163.418451221    64.8757   6   9   0.0585   0.0554   0.1613   0.0277   0.0149  -0.0724   4.00    0.0
2018/11/10 02:46:00.000  -74.425549184  163.418450626    64.8573   6   9   0.0680   0.0637   0.2083   0.0264   0.0372  -0.0881   4.00    0.0
2018/11/10 02:46:30.000  -74.425549551  163.418451198    64.8201   6   9   0.0811   0.0750   0.2628   0.0257   0.0556  -0.1081   5.00    0.0
2018/11/10 02:47:00.000  -74.425549891  163.418451619    64.7692   6   9   0.0970   0.0883   0.3279   0.0230   0.0732  -0.1335   4.00    0.0
2018/11/10 02:47:30.000  -74.425550163  163.418452461    64.7967   6   9   0.1158   0.1013   0.3811  -0.0247   0.1170  -0.1607   3.00    0.0
2018/11/10 02:48:00.000  -74.425549589  163.418451170    64.7521   6   9   0.0978   0.0919   0.3367  -0.0214   0.1095  -0.1398   2.00    0.0
2018/11/10 02:48:30.000  -74.425549417  163.418451468    64.8054   6   9   0.0819   0.0814   0.2720   0.0160   0.0824  -0.1130   3.00    0.0
2018/11/10 02:49:00.000  -74.425549146  163.418452276    64.8081   6   9   0.0663   0.0631   0.2084   0.0107   0.0664  -0.0863   2.00    0.0
2018/11/10 02:49:30.000  -74.425548993  163.418451949    64.7845   6   9   0.0555   0.0541   0.1545   0.0179   0.0449  -0.0666   2.00    0.0
2018/11/10 02:50:00.000  -74.425548947  163.418451404    64.7784   6   9   0.0497   0.0455   0.1250   0.0125   0.0375  -0.0561   2.00    0.0
2018/11/10 02:50:30.000  -74.425549086  163.418451937    64.7837   6   9   0.0552   0.0504   0.1529   0.0078   0.0493  -0.0662   1.00    0.0
2018/11/10 02:51:00.000  -74.425549446  163.418453808    64.8661   6   9   0.0658   0.0611   0.2069  -0.0137   0.0718  -0.0854   1.00    0.0
2018/11/10 02:51:30.000  -74.425549594  163.418453282    64.7904   6   9   0.0772   0.0693   0.2399  -0.0092   0.0775  -0.0978   2.00    0.0
2018/11/10 02:52:00.000  -74.425549836  163.418452770    64.7890   6   9   0.0909   0.0820   0.2905  -0.0169   0.0953  -0.1172   2.00    0.0
2018/11/10 02:52:30.000  -74.425550032  163.418452610    64.7393   6   9   0.1059   0.0962   0.3444  -0.0262   0.1156  -0.1394   2.00    0.0
2018/11/10 02:53:00.000  -74.425549872  163.418451685    64.8187   6   9   0.0902   0.0817   0.2898  -0.0157   0.0958  -0.1165   2.00    0.0
2018/11/10 02:53:30.000  -74.425549551  163.418452388    64.7726   6   9   0.0765   0.0695   0.2361  -0.0094   0.0768  -0.0955   4.00    0.0
2018/11/10 02:54:00.000  -74.425549309  163.418451109    64.7656   6   9   0.0638   0.0576   0.1840   0.0098   0.0573  -0.0761   4.00    0.0
2018/11/10 02:54:30.000  -74.425549059  163.418451860    64.7848   6   9   0.0542   0.0476   0.1380   0.0150   0.0396  -0.0607   4.00    0.0
2018/11/10 02:55:00.000  -74.425548909  163.418450927    64.7388   6   9   0.0503   0.0435   0.1154   0.0160   0.0296  -0.0543   4.00    0.0
2018/11/10 02:55:30.000  -74.425549175  163.418450311    64.7609   6   9   0.0588   0.0486   0.1470   0.0154   0.0395  -0.0694   3.00    0.0
2018/11/10 02:56:00.000  -74.425548910  163.418451405    64.6276   6   9   0.0613   0.0578   0.1794  -0.0067   0.0610  -0.0714   3.00    0.0
2018/11/10 02:56:30.000  -74.425549289  163.418450870    64.6073   6   9   0.0749   0.0695   0.2327  -0.0151   0.0801  -0.0928   4.00    0.0
2018/11/10 02:57:00.000  -74.425549586  163.418451113    64.5897   6   9   0.0895   0.0823   0.2871  -0.0219   0.1000  -0.1152   4.00    0.0
2018/11/10 02:57:30.000  -74.425549929  163.418451638    64.5857   6   9   0.1047   0.0958   0.3422  -0.0287   0.1206  -0.1383   4.00    0.0
2018/11/10 02:58:00.000  -74.425549927  163.418451963    64.6899   6   9   0.0907   0.0831   0.2885  -0.0260   0.1022  -0.1171   4.00    0.0
2018/11/10 02:58:30.000  -74.425549893  163.418452644    64.7929   6   9   0.0790   0.0719   0.2369  -0.0267   0.0854  -0.0986   5.00    0.0
2018/11/10 02:59:00.000  -74.425548847  163.418450369    64.5133   6  10   0.0574   0.0516   0.1481   0.0207   0.0277  -0.0587   5.00    0.0
2018/11/10 02:59:30.000  -74.425548568  163.418451025    64.5024   6  10   0.0452   0.0455   0.1069   0.0187   0.0266  -0.0370   4.00    0.0
2018/11/10 03:00:00.000  -74.425548517  163.418449919    64.5872   6  10   0.0393   0.0430   0.0821   0.0179   0.0258  -0.0212   5.00    0.0
2018/11/10 03:00:30.000  -74.425548517  163.418450470    64.6557   6  10   0.0451   0.0463   0.1073   0.0196   0.0253  -0.0370   5.00    0.0
2018/11/10 03:01:00.000  -74.425548626  163.418451343    64.6469   6  10   0.0568   0.0530   0.1490   0.0237   0.0174  -0.0583   5.00    0.0
2018/11/10 03:01:30.000  -74.425549178  163.418451084    64.5926   6  10   0.0703   0.0617   0.1914   0.0288  -0.0117  -0.0783   4.00    0.0
2018/11/10 03:02:00.000  -74.425549830  163.418450778    64.6222   6  10   0.0850   0.0728   0.2374   0.0358  -0.0353  -0.0998   4.00    0.0
2018/11/10 03:02:30.000  -74.425550126  163.418450851    64.6267   6  10   0.0992   0.0794   0.2723   0.0377  -0.0197  -0.1166   4.00    0.0
2018/11/10 03:03:00.000  -74.425549603  163.418451331    64.5680   6  10   0.0833   0.0664   0.2203   0.0271   0.0387  -0.0919   4.00    0.0
2018/11/10 03:03:30.000  -74.425549225  163.418451150    64.6126   6  10   0.0688   0.0578   0.1783   0.0217   0.0393  -0.0719   4.00    0.0
2018/11/10 03:04:00.000  -74.425548821  163.418450951    64.5888   6  10   0.0554   0.0508   0.1379   0.0178   0.0372  -0.0523   4.00    0.0
2018/11/10 03:04:30.000  -74.425547290  163.418449981    64.5689   1  10   0.0486   0.0445   0.1051   0.0086   0.0455  -0.0339   6.00    1.0
2018/11/10 03:05:00.000  -74.425547373  163.418449996    64.6026   1  10   0.0414   0.0416   0.0786   0.0077   0.0435  -0.0105   6.00    1.0
2018/11/10 03:05:30.000  -74.425548592  163.418450521    64.6152   6  10   0.0444   0.0481   0.1056   0.0143   0.0390  -0.0343   5.00    0.0
2018/11/10 03:06:00.000  -74.425548765  163.418450990    64.5710   6  10   0.0554   0.0554   0.1454   0.0141   0.0485  -0.0543   6.00    0.0
2018/11/10 03:06:30.000  -74.425549230  163.418451063    64.5703   6  10   0.0684   0.0636   0.1852   0.0154   0.0569  -0.0730   6.00    0.0
2018/11/10 03:07:00.000  -74.425549515  163.418451272    64.5882   6  10   0.0822   0.0722   0.2247   0.0175   0.0646  -0.0915   6.00    0.0
2018/11/10 03:07:30.000  -74.425549727  163.418451141    64.6277   6  10   0.0966   0.0812   0.2642   0.0199   0.0723  -0.1102   6.00    0.0
2018/11/10 03:08:00.000  -74.425549541  163.418451255    64.6494   6  10   0.0823   0.0759   0.2294   0.0138   0.0717  -0.0926   6.00    0.0
2018/11/10 03:08:30.000  -74.425549106  163.418451833    64.6807   6  10   0.0687   0.0744   0.2021  -0.0066   0.0759  -0.0773   6.00    0.0
2018/11/10 03:09:00.000  -74.425548953  163.418450115    64.6701   6  10   0.0547   0.0504   0.1363   0.0166   0.0386  -0.0506   4.00    0.0
2018/11/10 03:09:30.000  -74.425548441  163.418450238    64.6135   6  10   0.0437   0.0439   0.0981   0.0165   0.0302  -0.0298   4.00    0.0
2018/11/10 03:10:00.000  -74.425548274  163.418450472    64.5744   6  10   0.0384   0.0416   0.0766   0.0161   0.0263  -0.0136   5.00    0.0
2018/11/10 03:10:30.000  -74.425548497  163.418450733    64.5521   6  10   0.0439   0.0440   0.0981   0.0161   0.0293  -0.0299   5.00    0.0
2018/11/10 03:11:00.000  -74.425548473  163.418450655    64.5578   6  10   0.0545   0.0495   0.1341   0.0164   0.0369  -0.0493   5.00    0.0
2018/11/10 03:11:30.000  -74.425548786  163.418450401    64.5104   6  10   0.0671   0.0568   0.1725   0.0173   0.0458  -0.0678   5.00    0.0
2018/11/10 03:12:00.000  -74.425549012  163.418450630    64.4683   6  10   0.0807   0.0651   0.2113   0.0186   0.0549  -0.0861   5.00    0.0
2018/11/10 03:12:30.000  -74.425549325  163.418450708    64.4843   6  11   0.0916   0.0730   0.2368   0.0102   0.0715  -0.0947   5.00    0.0
2018/11/10 03:13:00.000  -74.425549171  163.418451286    64.5143   6  11   0.0777   0.0644   0.1989   0.0095   0.0624  -0.0770   5.00    0.0
2018/11/10 03:13:30.000  -74.425548953  163.418450713    64.5834   6  11   0.0647   0.0564   0.1624   0.0111   0.0519  -0.0602   5.00    0.0
2018/11/10 03:14:00.000  -74.425548599  163.418450163    64.6373   6  11   0.0528   0.0495   0.1270   0.0129   0.0410  -0.0436   5.00    0.0
2018/11/10 03:14:30.000  -74.425548192  163.418450409    64.6457   6  11   0.0432   0.0444   0.0949   0.0144   0.0306  -0.0266   5.00    0.0
2018/11/10 03:15:00.000  -74.425548184  163.418450228    64.5408   6  11   0.0385   0.0424   0.0769   0.0150   0.0250  -0.0128   5.00    0.0
2018/11/10 03:15:30.000  -74.425548396  163.418450058    64.5408   6  12   0.0430   0.0448   0.0947   0.0135   0.0292  -0.0276   4.00    0.0
2018/11/10 03:16:00.000  -74.425548685  163.418450084    64.6132   6  12   0.0513   0.0498   0.1249   0.0105   0.0393  -0.0449   5.00    0.0
2018/11/10 03:16:30.000  -74.425548946  163.418450122    64.6191   6  12   0.0619   0.0566   0.1584   0.0034   0.0505  -0.0614   5.00    0.0
2018/11/10 03:17:00.000  -74.425549397  163.418449975    64.6218   6  12   0.0736   0.0644   0.1929  -0.0110   0.0621  -0.0779   5.00    0.0
2018/11/10 03:17:30.000  -74.425549538  163.418449290    64.5640   6  12   0.0859   0.0730   0.2282  -0.0171   0.0738  -0.0947   5.00    0.0
2018/11/10 03:18:00.000  -74.425549372  163.418448858    64.6491   6  12   0.0734   0.0645   0.1927  -0.0115   0.0624  -0.0776   5.00    0.0
2018/11/10 03:18:30.000  -74.425549019  163.418449296    64.6769   6  12   0.0615   0.0568   0.1581  -0.0014   0.0509  -0.0610   5.00    0.0
2018/11/10 03:19:00.000  -74.425548562  163.418449232    64.6239   6  12   0.0509   0.0501   0.1247   0.0101   0.0393  -0.0446   5.00    0.0
2018/11/10 03:19:30.000  -74.425548248  163.418448892    64.5321   6  12   0.0425   0.0452   0.0951   0.0133   0.0283  -0.0286   5.00    0.0
2018/11/10 03:20:00.000  -74.425548258  163.418449821    64.5573   6  12   0.0384   0.0432   0.0789   0.0147   0.0217  -0.0174   5.00    0.0
2018/11/10 03:20:30.000  -74.425548449  163.418449767    64.6052   6  12   0.0427   0.0457   0.0961   0.0137   0.0260  -0.0298   5.00    0.0
2018/11/10 03:21:00.000  -74.425548575  163.418449257    64.6009   6  12   0.0508   0.0509   0.1242   0.0107   0.0363  -0.0446   5.00    0.0
2018/11/10 03:21:30.000  -74.425548863  163.418449630    64.5566   6  12   0.0611   0.0579   0.1559  -0.0008   0.0481  -0.0599   5.00    0.0
2018/11/10 03:22:00.000  -74.425549199  163.418449391    64.4938   6  12   0.0726   0.0663   0.1895  -0.0132   0.0602  -0.0759   5.00    0.0
2018/11/10 03:22:30.000  -74.425549271  163.418449314    64.4030   6  12   0.0849   0.0764   0.2242  -0.0213   0.0721  -0.0922   5.00    0.0
2018/11/10 03:23:00.000  -74.425548931  163.418448474    64.4209   6  12   0.0724   0.0666   0.1891  -0.0141   0.0616  -0.0757   5.00    0.0
2018/11/10 03:23:30.000  -74.425548904  163.418449176    64.4650   6  12   0.0609   0.0581   0.1556  -0.0043   0.0495  -0.0597   5.00    0.0
2018/11/10 03:24:00.000  -74.425548771  163.418449267    64.5388   6  12   0.0508   0.0513   0.1245   0.0098   0.0374  -0.0449   5.00    0.0
2018/11/10 03:24:30.000  -74.425548514  163.418448959    64.5819   6  12   0.0431   0.0465   0.0987   0.0130   0.0260  -0.0323   6.00    0.0
2018/11/10 03:25:00.000  -74.425548267  163.418448852    64.5938   6  12   0.0398   0.0446   0.0863   0.0141   0.0197  -0.0261   6.00    0.0
2018/11/10 03:25:30.000  -74.425548413  163.418447747    64.6464   6  11   0.0450   0.0471   0.1063   0.0143   0.0230  -0.0388   5.00    0.0
2018/11/10 03:26:00.000  -74.425548697  163.418446789    64.6155   6  11   0.0537   0.0522   0.1343   0.0132   0.0313  -0.0517   5.00    0.0
2018/11/10 03:26:30.000  -74.425549022  163.418446728    64.5688   6  11   0.0643   0.0600   0.1659   0.0125   0.0399  -0.0662   4.00    0.0
2018/11/10 03:27:00.000  -74.425549256  163.418447003    64.5789   6  11   0.0758   0.0683   0.1984   0.0072   0.0519  -0.0802   4.00    0.0
2018/11/10 03:27:30.000  -74.425549273  163.418447663    64.5380   6  11   0.0870   0.0760   0.2288  -0.0187   0.0688  -0.0909   4.00    0.0
2018/11/10 03:28:00.000  -74.425549106  163.418447571    64.5747   6  11   0.0749   0.0669   0.1950  -0.0126   0.0579  -0.0773   4.00    0.0
2018/11/10 03:28:30.000  -74.425548961  163.418447409    64.5922   6  11   0.0644   0.0589   0.1655  -0.0029   0.0456  -0.0653   4.00    0.0
2018/11/10 03:29:00.000  -74.425548760  163.418447017    64.6287   6  10   0.0566   0.0522   0.1425   0.0112   0.0333  -0.0593   4.00    0.0
