% program   : RTKLIB ver.2.4.3
% inp file  : _by_type/_obs/blake/20181106.18o
% inp file  : _by_type/_sp3+clk/igs20262.clk
% inp file  : _by_type/_sp3+clk/igs20262.sp3
% inp file  : _by_type/_nav/blake/20181106.18n
% obs start : 2018/11/06 00:00:00.0 GPST (week2026 172800.0s)
% obs end   : 2018/11/06 23:59:45.0 GPST (week2026 259185.0s)
% pos mode  : ppp-kinematic
% solution  : combined
% elev mask : 15.0 deg
% dynamics  : off
% tidecorr  : on
% tropo opt : est ztd+grad
% ephemeris : precise
% navi sys  : gps glonass
% antenna1  :                       ( 0.0000  0.0000  0.0000)
%
% (lat/lon/height=WGS84/ellipsoidal,Q=1:fix,2:float,3:sbas,4:dgps,5:single,6:ppp,ns=# of satellites)
%  GPST                  latitude(deg) longitude(deg)  height(m)   Q  ns   sdn(m)   sde(m)   sdu(m)  sdne(m)  sdeu(m)  sdun(m) age(s)  ratio
2018/11/06 00:00:00.000  -74.407196438  163.437670937    80.0351   6   8   0.0234   0.0199   0.0730   0.0047  -0.0163  -0.0267   0.00    0.0
2018/11/06 00:00:15.000  -74.407196529  163.437670564    80.0413   6   9   0.0261   0.0233   0.0817  -0.0002  -0.0137  -0.0292   0.00    0.0
2018/11/06 00:00:30.000  -74.407196703  163.437670399    80.0724   6   9   0.0337   0.0300   0.1081   0.0037  -0.0162  -0.0414   0.00    0.0
2018/11/06 00:00:45.000  -74.407196866  163.437670041    80.0733   6   9   0.0437   0.0383   0.1433   0.0083  -0.0224  -0.0580   0.00    0.0
2018/11/06 00:01:00.000  -74.407196864  163.437669530    80.0896   6   9   0.0588   0.0482   0.1996   0.0192  -0.0410  -0.0867   0.00    0.0
2018/11/06 00:01:15.000  -74.407196762  163.437669443    80.0465   6   9   0.0586   0.0549   0.1906  -0.0112   0.0112  -0.0731   0.00    0.0
2018/11/06 00:01:30.000  -74.407196713  163.437669346    80.0536   6   9   0.0685   0.0640   0.2246  -0.0120   0.0116  -0.0872   0.00    0.0
2018/11/06 00:01:45.000  -74.407196736  163.437669050    80.0775   6   9   0.0795   0.0732   0.2631  -0.0097  -0.0108  -0.1041   1.00    0.0
2018/11/06 00:02:00.000  -74.407196765  163.437668690    80.0616   6   9   0.0926   0.0827   0.3113   0.0126  -0.0338  -0.1272   2.00    0.0
2018/11/06 00:02:15.000  -74.407196893  163.437668140    80.1183   6   9   0.1135   0.0939   0.3925   0.0350  -0.0726  -0.1704   3.00    0.0
2018/11/06 00:02:30.000  -74.407196610  163.437668524    79.9587   6   9   0.1084   0.0991   0.3637  -0.0110  -0.0137  -0.1446   3.00    0.0
2018/11/06 00:02:45.000  -74.407196623  163.437668682    79.9935   6   9   0.1121   0.0931   0.3899   0.0329  -0.0695  -0.1685   3.00    0.0
2018/11/06 00:03:00.000  -74.407196336  163.437669340    79.9262   6   9   0.0885   0.0812   0.2981  -0.0130   0.0090  -0.1180   3.00    0.0
2018/11/06 00:03:15.000  -74.407196374  163.437669695    79.9671   6   9   0.0901   0.0747   0.3148   0.0258  -0.0551  -0.1357   4.00    0.0
2018/11/06 00:03:30.000  -74.407196412  163.437669446    79.9499   6   9   0.0628   0.0623   0.2053  -0.0219   0.0383  -0.0724   3.00    0.0
2018/11/06 00:03:45.000  -74.407196527  163.437669496    79.9415   6   9   0.0557   0.0539   0.1839  -0.0171   0.0284  -0.0670   3.00    0.0
2018/11/06 00:04:00.000  -74.407196624  163.437669288    79.9363   6   9   0.0496   0.0458   0.1664  -0.0102   0.0119  -0.0640   4.00    0.0
2018/11/06 00:04:15.000  -74.407196675  163.437669921    80.0243   6   9   0.0464   0.0385   0.1611   0.0117  -0.0274  -0.0678   4.00    0.0
2018/11/06 00:04:30.000  -74.407196671  163.437670689    80.0761   6   9   0.0309   0.0292   0.0993  -0.0093   0.0120  -0.0343   4.00    0.0
2018/11/06 00:04:45.000  -74.407196601  163.437670840    80.0764   6   9   0.0256   0.0230   0.0816  -0.0053  -0.0076  -0.0287   3.00    0.0
2018/11/06 00:05:00.000  -74.407196499  163.437670765    80.0366   6   9   0.0229   0.0197   0.0738   0.0027  -0.0134  -0.0268   3.00    0.0
2018/11/06 00:05:15.000  -74.407196439  163.437671121    80.0172   6   9   0.0252   0.0229   0.0805  -0.0058  -0.0049  -0.0279   3.00    0.0
2018/11/06 00:05:30.000  -74.407196372  163.437670988    79.9930   6   9   0.0316   0.0293   0.1036  -0.0082   0.0096  -0.0371   3.00    0.0
2018/11/06 00:05:45.000  -74.407196341  163.437670871    79.9902   6   9   0.0389   0.0370   0.1295  -0.0112   0.0175  -0.0466   3.00    0.0
2018/11/06 00:06:00.000  -74.407196342  163.437670927    79.9351   6   9   0.0466   0.0451   0.1563  -0.0142   0.0247  -0.0558   3.00    0.0
2018/11/06 00:06:15.000  -74.407196349  163.437670947    79.8915   6   9   0.0544   0.0534   0.1833  -0.0172   0.0314  -0.0647   3.00    0.0
2018/11/06 00:06:30.000  -74.407196366  163.437670676    79.8670   6   9   0.0621   0.0617   0.2100  -0.0199   0.0377  -0.0732   3.00    0.0
2018/11/06 00:06:45.000  -74.407196466  163.437670712    79.8840   6   9   0.0698   0.0698   0.2364  -0.0225   0.0435  -0.0815   3.00    0.0
2018/11/06 00:07:00.000  -74.407196473  163.437670038    79.8528   6   9   0.0773   0.0777   0.2626  -0.0248   0.0489  -0.0896   3.00    0.0
2018/11/06 00:07:15.000  -74.407196494  163.437669492    79.8623   6   9   0.0848   0.0854   0.2887  -0.0268   0.0538  -0.0979   3.00    0.0
2018/11/06 00:07:30.000  -74.407196378  163.437669245    79.8128   6   9   0.0922   0.0929   0.3152  -0.0285   0.0581  -0.1066   3.00    0.0
2018/11/06 00:07:45.000  -74.407196412  163.437669323    79.8504   6   9   0.0879   0.0859   0.3051  -0.0212   0.0434  -0.1095   3.00    0.0
2018/11/06 00:08:00.000  -74.407196505  163.437669272    79.9114   6   9   0.0873   0.0796   0.3115   0.0129  -0.0244  -0.1222   3.00    0.0
2018/11/06 00:08:15.000  -74.407196397  163.437670117    79.8711   6   9   0.0734   0.0699   0.2581  -0.0176   0.0355  -0.0954   4.00    0.0
2018/11/06 00:08:30.000  -74.407196372  163.437670541    79.8982   6   9   0.0714   0.0631   0.2579   0.0116  -0.0234  -0.1035   3.00    0.0
2018/11/06 00:08:45.000  -74.407196287  163.437671196    79.9017   6   9   0.0627   0.0547   0.2269   0.0100  -0.0211  -0.0918   3.00    0.0
2018/11/06 00:09:00.000  -74.407196253  163.437671083    79.9304   6   9   0.0438   0.0444   0.1490  -0.0178   0.0346  -0.0486   3.00    0.0
2018/11/06 00:09:15.000  -74.407196295  163.437671141    79.9788   6   9   0.0367   0.0365   0.1244  -0.0142   0.0267  -0.0413   3.00    0.0
2018/11/06 00:09:30.000  -74.407196284  163.437671039    79.9880   6   9   0.0303   0.0290   0.1016  -0.0105   0.0181  -0.0345   3.00    0.0
2018/11/06 00:09:45.000  -74.407196383  163.437671025    80.0113   6   9   0.0250   0.0228   0.0826  -0.0069   0.0079  -0.0286   3.00    0.0
2018/11/06 00:10:00.000  -74.407196557  163.437670635    80.0127   6   9   0.0227   0.0195   0.0742  -0.0030  -0.0099  -0.0266   3.00    0.0
2018/11/06 00:10:15.000  -74.407196556  163.437670546    79.9824   6   9   0.0250   0.0228   0.0828  -0.0070   0.0084  -0.0288   3.00    0.0
2018/11/06 00:10:30.000  -74.407196549  163.437670570    79.9572   6   9   0.0313   0.0292   0.1078  -0.0089   0.0147  -0.0386   3.00    0.0
2018/11/06 00:10:45.000  -74.407196487  163.437670325    79.9526   6   9   0.0387   0.0368   0.1365  -0.0106   0.0201  -0.0492   3.00    0.0
2018/11/06 00:11:00.000  -74.407196496  163.437670336    79.9687   6   9   0.0471   0.0451   0.1684  -0.0110   0.0228  -0.0611   3.00    0.0
2018/11/06 00:11:15.000  -74.407196477  163.437669592    79.9800   6   9   0.0574   0.0539   0.2092  -0.0016   0.0124  -0.0787   3.00    0.0
2018/11/06 00:11:30.000  -74.407196395  163.437669481    79.9628   6   9   0.0673   0.0620   0.2481   0.0054   0.0131  -0.0948   3.00    0.0
2018/11/06 00:11:45.000  -74.407196564  163.437668774    80.0353   6   9   0.0636   0.0672   0.2244  -0.0270   0.0588  -0.0668   3.00    0.0
2018/11/06 00:12:00.000  -74.407196541  163.437668333    79.9917   6   9   0.0697   0.0746   0.2463  -0.0295   0.0652  -0.0710   3.00    0.0
2018/11/06 00:12:15.000  -74.407196479  163.437667850    79.9371   6   9   0.0761   0.0817   0.2691  -0.0321   0.0718  -0.0762   3.00    0.0
2018/11/06 00:12:30.000  -74.407196472  163.437667715    79.9344   6   9   0.0824   0.0887   0.2922  -0.0347   0.0784  -0.0819   3.00    0.0
2018/11/06 00:12:45.000  -74.407196456  163.437667953    79.9024   6   9   0.0758   0.0816   0.2692  -0.0319   0.0725  -0.0750   3.00    0.0
2018/11/06 00:13:00.000  -74.407196465  163.437668441    79.9308   6   9   0.0690   0.0743   0.2458  -0.0293   0.0665  -0.0687   3.00    0.0
2018/11/06 00:13:15.000  -74.407196457  163.437668215    79.9723   6   9   0.0622   0.0670   0.2221  -0.0267   0.0602  -0.0625   3.00    0.0
2018/11/06 00:13:30.000  -74.407196489  163.437668567    79.9733   6   9   0.0554   0.0594   0.1979  -0.0240   0.0538  -0.0563   3.00    0.0
2018/11/06 00:13:45.000  -74.407196425  163.437668717    79.9469   6   9   0.0485   0.0517   0.1732  -0.0212   0.0471  -0.0499   3.00    0.0
2018/11/06 00:14:00.000  -74.407196472  163.437669327    79.9864   6   9   0.0416   0.0439   0.1481  -0.0183   0.0400  -0.0432   3.00    0.0
2018/11/06 00:14:15.000  -74.407196469  163.437669533    80.0095   6   9   0.0347   0.0361   0.1227  -0.0153   0.0325  -0.0362   3.00    0.0
2018/11/06 00:14:30.000  -74.407196527  163.437669824    80.0307   6   9   0.0283   0.0287   0.0980  -0.0122   0.0248  -0.0290   3.00    0.0
2018/11/06 00:14:45.000  -74.407196528  163.437670036    80.0344   6   9   0.0229   0.0225   0.0762  -0.0096   0.0173  -0.0220   3.00    0.0
2018/11/06 00:15:00.000  -74.407196765  163.437671202    80.0445   1   9   0.0177   0.0177   0.0640   0.0037   0.0152  -0.0210   2.00    1.0
2018/11/06 00:15:15.000  -74.407196800  163.437671812    80.0501   1   9   0.0211   0.0214   0.0778  -0.0047   0.0201  -0.0255   2.00    1.0
2018/11/06 00:15:30.000  -74.407196815  163.437672345    80.0769   1   9   0.0276   0.0284   0.1027  -0.0102   0.0285  -0.0336   2.00    1.0
2018/11/06 00:15:45.000  -74.407196870  163.437672190    80.0955   1   9   0.0353   0.0367   0.1325  -0.0152   0.0382  -0.0433   2.00    1.0
2018/11/06 00:16:00.000  -74.407196876  163.437670861    80.0924   6  10   0.0397   0.0429   0.1368  -0.0191   0.0447  -0.0351   3.00    0.0
2018/11/06 00:16:15.000  -74.407196894  163.437670219    80.0764   6  10   0.0460   0.0504   0.1597  -0.0219   0.0528  -0.0394   3.00    0.0
2018/11/06 00:16:30.000  -74.407196917  163.437669522    80.0772   6  10   0.0524   0.0577   0.1827  -0.0246   0.0607  -0.0438   3.00    0.0
2018/11/06 00:16:45.000  -74.407196920  163.437668695    80.0849   6  10   0.0587   0.0650   0.2060  -0.0274   0.0684  -0.0487   3.00    0.0
2018/11/06 00:17:00.000  -74.407196995  163.437668388    80.1252   6  10   0.0650   0.0722   0.2299  -0.0302   0.0758  -0.0543   3.00    0.0
2018/11/06 00:17:15.000  -74.407196992  163.437667525    80.1093   6  10   0.0714   0.0793   0.2555  -0.0328   0.0826  -0.0612   3.00    0.0
2018/11/06 00:17:30.000  -74.407196948  163.437667216    80.1395   6  10   0.0780   0.0868   0.2866  -0.0347   0.0867  -0.0714   3.00    0.0
2018/11/06 00:17:45.000  -74.407196765  163.437667969    80.0308   6  10   0.0711   0.0782   0.2500  -0.0348   0.0888  -0.0598   3.00    0.0
2018/11/06 00:18:00.000  -74.407196797  163.437668003    80.0359   6  10   0.0645   0.0713   0.2262  -0.0316   0.0808  -0.0528   3.00    0.0
2018/11/06 00:18:15.000  -74.407196915  163.437668307    80.0623   6  10   0.0581   0.0643   0.2037  -0.0285   0.0727  -0.0474   3.00    0.0
2018/11/06 00:18:30.000  -74.407196988  163.437668885    80.0845   6  10   0.0517   0.0571   0.1814  -0.0255   0.0646  -0.0426   2.00    0.0
2018/11/06 00:18:45.000  -74.407196912  163.437668832    80.0486   6  10   0.0453   0.0499   0.1589  -0.0225   0.0563  -0.0380   3.00    0.0
2018/11/06 00:19:00.000  -74.407196959  163.437669093    80.0194   6  10   0.0389   0.0425   0.1362  -0.0195   0.0478  -0.0335   2.00    0.0
2018/11/06 00:19:15.000  -74.407197052  163.437670946    80.0828   1  10   0.0339   0.0366   0.1242  -0.0176   0.0452  -0.0384   3.00    1.0
2018/11/06 00:19:30.000  -74.407196961  163.437671218    80.1035   1  10   0.0265   0.0283   0.0974  -0.0124   0.0340  -0.0303   2.00    1.0
2018/11/06 00:19:45.000  -74.407196860  163.437671129    80.0878   1  10   0.0204   0.0215   0.0749  -0.0072   0.0242  -0.0235   2.00    1.0
2018/11/06 00:20:00.000  -74.407196801  163.437671059    80.0655   1  10   0.0171   0.0176   0.0624  -0.0018   0.0185  -0.0197   2.00    1.0
2018/11/06 00:20:15.000  -74.407196818  163.437671442    80.0794   1  10   0.0205   0.0215   0.0760  -0.0071   0.0242  -0.0241   2.00    1.0
2018/11/06 00:20:30.000  -74.407196897  163.437671323    80.0887   1  10   0.0267   0.0285   0.1002  -0.0124   0.0341  -0.0316   2.00    1.0
2018/11/06 00:20:45.000  -74.407196852  163.437671035    80.0401   1  10   0.0342   0.0369   0.1290  -0.0177   0.0458  -0.0404   2.00    1.0
2018/11/06 00:21:00.000  -74.407196708  163.437669642    79.9669   6  10   0.0381   0.0422   0.1368  -0.0182   0.0466  -0.0317   3.00    0.0
2018/11/06 00:21:15.000  -74.407196695  163.437669371    79.9828   6  10   0.0443   0.0495   0.1601  -0.0211   0.0554  -0.0361   3.00    0.0
2018/11/06 00:21:30.000  -74.407196683  163.437668890    79.9901   6  10   0.0505   0.0566   0.1837  -0.0241   0.0643  -0.0409   3.00    0.0
2018/11/06 00:21:45.000  -74.407196660  163.437668905    79.9787   6  10   0.0568   0.0637   0.2074  -0.0273   0.0734  -0.0464   3.00    0.0
2018/11/06 00:22:00.000  -74.407196632  163.437668440    79.9581   6  10   0.0630   0.0707   0.2313  -0.0307   0.0827  -0.0524   3.00    0.0
2018/11/06 00:22:15.000  -74.407196519  163.437668313    79.9260   6  10   0.0693   0.0776   0.2552  -0.0342   0.0920  -0.0590   3.00    0.0
2018/11/06 00:22:30.000  -74.407196515  163.437667793    79.9036   6  10   0.0754   0.0844   0.2793  -0.0378   0.1015  -0.0660   3.00    0.0
2018/11/06 00:22:45.000  -74.407196592  163.437667861    79.8960   6  10   0.0696   0.0780   0.2582  -0.0344   0.0930  -0.0602   3.00    0.0
2018/11/06 00:23:00.000  -74.407196603  163.437668298    79.8961   6  10   0.0634   0.0712   0.2364  -0.0308   0.0836  -0.0547   3.00    0.0
2018/11/06 00:23:15.000  -74.407196637  163.437668904    79.9508   6  10   0.0572   0.0645   0.2153  -0.0271   0.0738  -0.0500   3.00    0.0
2018/11/06 00:23:30.000  -74.407196772  163.437669231    79.9940   6  10   0.0513   0.0580   0.1974  -0.0228   0.0618  -0.0475   3.00    0.0
2018/11/06 00:23:45.000  -74.407196756  163.437669494    80.0061   6  10   0.0447   0.0497   0.1653  -0.0220   0.0594  -0.0386   3.00    0.0
2018/11/06 00:24:00.000  -74.407196753  163.437669762    80.0146   6  10   0.0382   0.0424   0.1404  -0.0189   0.0503  -0.0326   3.00    0.0
2018/11/06 00:24:15.000  -74.407196905  163.437671274    80.0774   1  10   0.0345   0.0378   0.1331  -0.0191   0.0502  -0.0413   2.00    1.0
2018/11/06 00:24:30.000  -74.407196816  163.437671187    80.0405   1  10   0.0269   0.0292   0.1037  -0.0138   0.0381  -0.0323   2.00    1.0
2018/11/06 00:24:45.000  -74.407196851  163.437671486    80.0682   1  10   0.0205   0.0222   0.0787  -0.0087   0.0275  -0.0246   2.00    1.0
2018/11/06 00:25:00.000  -74.407196840  163.437671206    80.0642   1  10   0.0170   0.0181   0.0645  -0.0043   0.0211  -0.0201   2.00    1.0
2018/11/06 00:25:15.000  -74.407196815  163.437670920    80.0289   1  10   0.0207   0.0222   0.0792  -0.0088   0.0277  -0.0248   2.00    1.0
2018/11/06 00:25:30.000  -74.407196758  163.437670445    80.0123   1  10   0.0270   0.0294   0.1049  -0.0141   0.0387  -0.0329   2.00    1.0
2018/11/06 00:25:45.000  -74.407196691  163.437670067    79.9797   1  10   0.0347   0.0380   0.1356  -0.0195   0.0514  -0.0423   2.00    1.0
2018/11/06 00:26:00.000  -74.407196418  163.437668166    79.8499   6  10   0.0376   0.0419   0.1391  -0.0182   0.0499  -0.0304   4.00    0.0
2018/11/06 00:26:15.000  -74.407196301  163.437667726    79.8157   6  10   0.0438   0.0491   0.1638  -0.0212   0.0594  -0.0358   4.00    0.0
2018/11/06 00:26:30.000  -74.407196262  163.437666887    79.7378   6  10   0.0500   0.0563   0.1889  -0.0246   0.0691  -0.0420   4.00    0.0
2018/11/06 00:26:45.000  -74.407196259  163.437666465    79.7251   6  10   0.0563   0.0633   0.2143  -0.0281   0.0790  -0.0487   4.00    0.0
2018/11/06 00:27:00.000  -74.407196341  163.437666132    79.7274   6  10   0.0626   0.0703   0.2398  -0.0318   0.0890  -0.0561   4.00    0.0
2018/11/06 00:27:15.000  -74.407196332  163.437665653    79.7081   6  10   0.0689   0.0773   0.2653  -0.0356   0.0992  -0.0638   4.00    0.0
2018/11/06 00:27:30.000  -74.407196370  163.437665847    79.7450   6  10   0.0751   0.0842   0.2910  -0.0395   0.1094  -0.0719   5.00    0.0
2018/11/06 00:27:45.000  -74.407196439  163.437666679    79.8250   6  10   0.0688   0.0769   0.2657  -0.0355   0.0986  -0.0639   5.00    0.0
2018/11/06 00:28:00.000  -74.407196489  163.437667479    79.8703   6  10   0.0625   0.0700   0.2411  -0.0317   0.0890  -0.0567   5.00    0.0
2018/11/06 00:28:15.000  -74.407196618  163.437668372    79.9246   6  10   0.0562   0.0630   0.2163  -0.0281   0.0793  -0.0497   5.00    0.0
2018/11/06 00:28:30.000  -74.407196655  163.437668713    79.9295   6  10   0.0499   0.0559   0.1914  -0.0246   0.0696  -0.0431   5.00    0.0
2018/11/06 00:28:45.000  -74.407196691  163.437669376    79.9487   6  10   0.0436   0.0488   0.1664  -0.0212   0.0599  -0.0370   5.00    0.0
2018/11/06 00:29:00.000  -74.407196697  163.437669831    79.9841   6  10   0.0374   0.0416   0.1415  -0.0181   0.0504  -0.0313   5.00    0.0
2018/11/06 00:29:15.000  -74.407196887  163.437671819    80.0942   1  10   0.0349   0.0379   0.1397  -0.0198   0.0524  -0.0441   2.00    1.0
2018/11/06 00:29:30.000  -74.407196908  163.437671806    80.0916   1  10   0.0274   0.0293   0.1085  -0.0145   0.0397  -0.0345   2.00    1.0
2018/11/06 00:29:45.000  -74.407196929  163.437671556    80.0664   1  10   0.0211   0.0222   0.0826  -0.0095   0.0289  -0.0267   2.00    1.0
2018/11/06 00:30:00.000  -74.407196906  163.437671148    80.0481   1  11   0.0177   0.0186   0.0679  -0.0065   0.0230  -0.0235   3.00    1.0
2018/11/06 00:30:15.000  -74.407197058  163.437671795    80.1385   1  11   0.0214   0.0222   0.0823  -0.0099   0.0292  -0.0292   3.00    1.0
2018/11/06 00:30:30.000  -74.407197190  163.437672522    80.2033   1  11   0.0282   0.0294   0.1086  -0.0152   0.0407  -0.0397   3.00    1.0
2018/11/06 00:30:45.000  -74.407197248  163.437672774    80.1953   1  11   0.0361   0.0381   0.1401  -0.0209   0.0542  -0.0520   3.00    1.0
2018/11/06 00:31:00.000  -74.407197147  163.437671097    80.1593   6  11   0.0369   0.0411   0.1356  -0.0176   0.0504  -0.0394   4.00    0.0
2018/11/06 00:31:15.000  -74.407197121  163.437670690    80.1602   6  11   0.0431   0.0482   0.1603  -0.0210   0.0605  -0.0476   4.00    0.0
2018/11/06 00:31:30.000  -74.407197165  163.437670184    80.1570   6  11   0.0494   0.0553   0.1857  -0.0247   0.0709  -0.0563   4.00    0.0
2018/11/06 00:31:45.000  -74.407197160  163.437669466    80.1534   6  11   0.0560   0.0624   0.2117  -0.0287   0.0815  -0.0658   4.00    0.0
2018/11/06 00:32:00.000  -74.407197052  163.437669048    80.1340   6  11   0.0629   0.0694   0.2385  -0.0329   0.0923  -0.0762   4.00    0.0
2018/11/06 00:32:15.000  -74.407196875  163.437667941    80.0309   6  11   0.0703   0.0765   0.2666  -0.0375   0.1034  -0.0880   4.00    0.0
2018/11/06 00:32:30.000  -74.407196731  163.437667443    79.9995   6  11   0.0798   0.0836   0.2987  -0.0429   0.1154  -0.1042   4.00    0.0
2018/11/06 00:32:45.000  -74.407196808  163.437667725    80.0255   6  11   0.0802   0.0781   0.2959  -0.0446   0.1128  -0.1124   4.00    0.0
2018/11/06 00:33:00.000  -74.407196813  163.437667896    79.9952   6  11   0.0727   0.0710   0.2683  -0.0400   0.1018  -0.1011   4.00    0.0
2018/11/06 00:33:15.000  -74.407196834  163.437668280    80.0004   6  11   0.0652   0.0639   0.2404  -0.0354   0.0907  -0.0897   4.00    0.0
2018/11/06 00:33:30.000  -74.407196701  163.437668204    79.9494   6  11   0.0509   0.0564   0.1980  -0.0282   0.0767  -0.0639   4.00    0.0
2018/11/06 00:33:45.000  -74.407196628  163.437668783    79.9521   6  11   0.0436   0.0489   0.1682  -0.0232   0.0646  -0.0518   4.00    0.0
2018/11/06 00:34:00.000  -74.407196635  163.437669111    79.9463   6  11   0.0371   0.0416   0.1418  -0.0193   0.0537  -0.0426   4.00    0.0
2018/11/06 00:34:15.000  -74.407196609  163.437669314    79.9429   6  11   0.0313   0.0344   0.1172  -0.0159   0.0434  -0.0348   4.00    0.0
2018/11/06 00:34:30.000  -74.407196746  163.437670864    80.0058   1  11   0.0292   0.0301   0.1159  -0.0166   0.0437  -0.0435   3.00    1.0
2018/11/06 00:34:45.000  -74.407196865  163.437671189    80.0616   1  11   0.0250   0.0230   0.0958  -0.0128   0.0336  -0.0383   3.00    1.0
2018/11/06 00:35:00.000  -74.407196987  163.437671240    80.0792   1  11   0.0190   0.0191   0.0745  -0.0085   0.0255  -0.0273   3.00    1.0
2018/11/06 00:35:15.000  -74.407196984  163.437670922    80.0514   1  11   0.0250   0.0231   0.0966  -0.0129   0.0338  -0.0386   3.00    1.0
2018/11/06 00:35:30.000  -74.407197037  163.437670356    80.0132   1  11   0.0312   0.0303   0.1225  -0.0179   0.0455  -0.0480   3.00    1.0
2018/11/06 00:35:45.000  -74.407196825  163.437668550    79.9228   6  11   0.0341   0.0342   0.1243  -0.0167   0.0442  -0.0424   5.00    0.0
2018/11/06 00:36:00.000  -74.407196919  163.437668816    80.0315   6  11   0.0433   0.0419   0.1601  -0.0228   0.0583  -0.0590   5.00    0.0
2018/11/06 00:36:15.000  -74.407196915  163.437669303    80.0984   6  11   0.0442   0.0489   0.1734  -0.0247   0.0669  -0.0556   5.00    0.0
2018/11/06 00:36:30.000  -74.407196942  163.437668979    80.0938   6  11   0.0492   0.0555   0.1945  -0.0271   0.0753  -0.0605   4.00    0.0
2018/11/06 00:36:45.000  -74.407196922  163.437668370    80.0464   6  11   0.0548   0.0623   0.2183  -0.0303   0.0850  -0.0678   5.00    0.0
2018/11/06 00:37:00.000  -74.407196972  163.437666995    80.0000   6  11   0.0606   0.0691   0.2430  -0.0340   0.0952  -0.0760   5.00    0.0
2018/11/06 00:37:15.000  -74.407196992  163.437666128    79.9138   6  11   0.0665   0.0760   0.2682  -0.0378   0.1055  -0.0846   5.00    0.0
2018/11/06 00:37:30.000  -74.407196949  163.437666090    79.9468   6  11   0.0724   0.0829   0.2936  -0.0417   0.1160  -0.0936   5.00    0.0
2018/11/06 00:37:45.000  -74.407196999  163.437666495    79.9743   6  11   0.0662   0.0759   0.2680  -0.0375   0.1055  -0.0841   5.00    0.0
2018/11/06 00:38:00.000  -74.407196958  163.437666741    79.9547   6  11   0.0601   0.0689   0.2423  -0.0335   0.0949  -0.0749   5.00    0.0
2018/11/06 00:38:15.000  -74.407196910  163.437667012    79.9384   6  11   0.0539   0.0620   0.2166  -0.0295   0.0844  -0.0659   5.00    0.0
2018/11/06 00:38:30.000  -74.407196902  163.437667324    79.9621   6  11   0.0478   0.0550   0.1909  -0.0256   0.0739  -0.0570   5.00    0.0
2018/11/06 00:38:45.000  -74.407196898  163.437667782    79.9500   6  11   0.0418   0.0479   0.1654  -0.0219   0.0635  -0.0484   5.00    0.0
2018/11/06 00:39:00.000  -74.407196957  163.437668473    80.0018   6  11   0.0358   0.0409   0.1401  -0.0184   0.0532  -0.0402   5.00    0.0
2018/11/06 00:39:15.000  -74.407196986  163.437669063    80.0234   6  11   0.0301   0.0339   0.1155  -0.0152   0.0432  -0.0324   5.00    0.0
2018/11/06 00:39:30.000  -74.407197093  163.437670601    80.0413   1  11   0.0270   0.0293   0.1124  -0.0175   0.0442  -0.0407   6.00    2.0
2018/11/06 00:39:45.000  -74.407197066  163.437670548    80.0330   1  11   0.0207   0.0220   0.0864  -0.0135   0.0332  -0.0317   6.00    2.0
2018/11/06 00:40:00.000  -74.407197066  163.437670981    80.0761   1  11   0.0173   0.0181   0.0721  -0.0111   0.0273  -0.0267   7.00    2.0
2018/11/06 00:40:15.000  -74.407197085  163.437671297    80.0766   1  11   0.0210   0.0240   0.0869  -0.0131   0.0335  -0.0321   5.00    1.0
2018/11/06 00:40:30.000  -74.407196958  163.437671075    80.0514   1  11   0.0273   0.0308   0.1130  -0.0174   0.0444  -0.0413   5.00    1.0
2018/11/06 00:40:45.000  -74.407196685  163.437669024    79.9643   6  11   0.0295   0.0335   0.1125  -0.0145   0.0418  -0.0306   5.00    0.0
2018/11/06 00:41:00.000  -74.407196679  163.437668749    79.9792   6  11   0.0351   0.0402   0.1363  -0.0175   0.0514  -0.0380   5.00    0.0
2018/11/06 00:41:15.000  -74.407196665  163.437668174    79.9818   6  11   0.0408   0.0471   0.1610  -0.0209   0.0614  -0.0460   5.00    0.0
2018/11/06 00:41:30.000  -74.407196686  163.437667659    79.9961   6  11   0.0467   0.0539   0.1861  -0.0245   0.0716  -0.0544   5.00    0.0
2018/11/06 00:41:45.000  -74.407196694  163.437667158    79.9951   6  11   0.0526   0.0607   0.2114  -0.0282   0.0819  -0.0631   5.00    0.0
2018/11/06 00:42:00.000  -74.407196682  163.437666731    79.9834   6  11   0.0585   0.0675   0.2367  -0.0320   0.0922  -0.0720   5.00    0.0
2018/11/06 00:42:15.000  -74.407196619  163.437666284    79.9560   6  11   0.0644   0.0743   0.2620  -0.0359   0.1024  -0.0810   5.00    0.0
2018/11/06 00:42:30.000  -74.407196617  163.437665775    79.9016   6  11   0.0703   0.0810   0.2872  -0.0398   0.1127  -0.0901   5.00    0.0
2018/11/06 00:42:45.000  -74.407196568  163.437665937    79.8552   6  11   0.0641   0.0742   0.2607  -0.0356   0.1017  -0.0803   5.00    0.0
2018/11/06 00:43:00.000  -74.407196598  163.437666095    79.8395   6  11   0.0581   0.0673   0.2351  -0.0316   0.0911  -0.0711   5.00    0.0
2018/11/06 00:43:15.000  -74.407196676  163.437666734    79.8834   6  11   0.0521   0.0604   0.2096  -0.0277   0.0807  -0.0621   5.00    0.0
2018/11/06 00:43:30.000  -74.407196839  163.437667400    79.9522   6  11   0.0462   0.0535   0.1843  -0.0238   0.0703  -0.0533   5.00    0.0
2018/11/06 00:43:45.000  -74.407196990  163.437668196    80.0175   6  11   0.0404   0.0467   0.1593  -0.0202   0.0601  -0.0450   5.00    0.0
2018/11/06 00:44:00.000  -74.407196994  163.437668378    79.9959   6  11   0.0346   0.0398   0.1349  -0.0169   0.0502  -0.0371   5.00    0.0
2018/11/06 00:44:15.000  -74.407196982  163.437668987    79.9844   6  11   0.0291   0.0331   0.1114  -0.0140   0.0407  -0.0299   5.00    0.0
2018/11/06 00:44:30.000  -74.407197211  163.437671148    80.0875   1  11   0.0273   0.0294   0.1130  -0.0177   0.0439  -0.0416   5.00    2.0
2018/11/06 00:44:45.000  -74.407197176  163.437671084    80.0909   1  11   0.0215   0.0224   0.0885  -0.0141   0.0339  -0.0335   5.00    2.0
2018/11/06 00:45:00.000  -74.407197177  163.437671160    80.1135   1  11   0.0183   0.0190   0.0756  -0.0123   0.0289  -0.0292   5.00    2.0
2018/11/06 00:45:15.000  -74.407197277  163.437671390    80.1699   1  11   0.0217   0.0231   0.0894  -0.0146   0.0344  -0.0341   5.00    2.0
2018/11/06 00:45:30.000  -74.407197286  163.437670967    80.1677   1  11   0.0277   0.0306   0.1141  -0.0185   0.0445  -0.0426   5.00    2.0
2018/11/06 00:45:45.000  -74.407197044  163.437668842    80.1297   6  11   0.0290   0.0337   0.1097  -0.0141   0.0396  -0.0296   5.00    0.0
2018/11/06 00:46:00.000  -74.407196967  163.437668184    80.1081   6  11   0.0344   0.0404   0.1324  -0.0170   0.0488  -0.0366   5.00    0.0
2018/11/06 00:46:15.000  -74.407196931  163.437667737    80.1111   6  11   0.0399   0.0471   0.1558  -0.0202   0.0582  -0.0442   5.00    0.0
2018/11/06 00:46:30.000  -74.407196971  163.437667379    80.0849   6  11   0.0456   0.0539   0.1796  -0.0237   0.0678  -0.0522   5.00    0.0
2018/11/06 00:46:45.000  -74.407197006  163.437667152    80.0915   6  11   0.0513   0.0608   0.2035  -0.0274   0.0775  -0.0604   5.00    0.0
2018/11/06 00:47:00.000  -74.407197019  163.437667312    80.1062   6  11   0.0570   0.0679   0.2275  -0.0312   0.0872  -0.0688   5.00    0.0
2018/11/06 00:47:15.000  -74.407196925  163.437666891    80.0481   6  11   0.0628   0.0754   0.2514  -0.0352   0.0969  -0.0772   5.00    0.0
2018/11/06 00:47:30.000  -74.407196868  163.437666856    80.0230   6  11   0.0686   0.0847   0.2752  -0.0400   0.1068  -0.0857   5.00    0.0
2018/11/06 00:47:45.000  -74.407196880  163.437668185    80.0343   6  11   0.0626   0.0746   0.2500  -0.0346   0.0972  -0.0766   4.00    0.0
2018/11/06 00:48:00.000  -74.407196909  163.437668386    80.0388   6  11   0.0567   0.0665   0.2252  -0.0300   0.0865  -0.0676   4.00    0.0
2018/11/06 00:48:15.000  -74.407196926  163.437668901    80.0597   6  11   0.0509   0.0593   0.2007  -0.0259   0.0764  -0.0589   4.00    0.0
2018/11/06 00:48:30.000  -74.407196987  163.437669132    80.0662   6  11   0.0451   0.0523   0.1767  -0.0222   0.0664  -0.0505   4.00    0.0
2018/11/06 00:48:45.000  -74.407197006  163.437669326    80.0747   6  11   0.0395   0.0455   0.1530  -0.0186   0.0568  -0.0426   4.00    0.0
2018/11/06 00:49:00.000  -74.407196998  163.437669319    80.0674   6  11   0.0340   0.0388   0.1301  -0.0154   0.0474  -0.0352   4.00    0.0
2018/11/06 00:49:15.000  -74.407197174  163.437670837    80.0526   1  11   0.0347   0.0369   0.1408  -0.0212   0.0539  -0.0513   5.00    2.0
2018/11/06 00:49:30.000  -74.407197228  163.437671205    80.0784   1  11   0.0280   0.0286   0.1134  -0.0173   0.0427  -0.0426   5.00    2.0
2018/11/06 00:49:45.000  -74.407197238  163.437671171    80.1131   1  11   0.0225   0.0218   0.0914  -0.0142   0.0336  -0.0357   5.00    2.0
2018/11/06 00:50:00.000  -74.407197194  163.437671024    80.1188   1  11   0.0195   0.0183   0.0804  -0.0129   0.0297  -0.0323   5.00    2.0
2018/11/06 00:50:15.000  -74.407197180  163.437670992    80.1115   1  11   0.0233   0.0219   0.0948  -0.0146   0.0343  -0.0377   5.00    2.0
2018/11/06 00:50:30.000  -74.407197181  163.437670621    80.0899   1  11   0.0296   0.0287   0.1195  -0.0182   0.0438  -0.0467   5.00    2.0
2018/11/06 00:50:45.000  -74.407197039  163.437669155    80.0757   6  11   0.0291   0.0318   0.1086  -0.0122   0.0375  -0.0302   4.00    0.0
2018/11/06 00:51:00.000  -74.407197086  163.437669328    80.1183   6  11   0.0343   0.0381   0.1295  -0.0149   0.0460  -0.0367   4.00    0.0
2018/11/06 00:51:15.000  -74.407197090  163.437669222    80.1352   6  11   0.0396   0.0445   0.1511  -0.0178   0.0547  -0.0436   4.00    0.0
2018/11/06 00:51:30.000  -74.407197056  163.437668615    80.1362   6  11   0.0450   0.0508   0.1730  -0.0210   0.0635  -0.0508   4.00    0.0
2018/11/06 00:51:45.000  -74.407196965  163.437668149    80.1047   6  11   0.0504   0.0572   0.1949  -0.0242   0.0723  -0.0582   4.00    0.0
2018/11/06 00:52:00.000  -74.407196765  163.437667894    80.0794   6  11   0.0559   0.0636   0.2169  -0.0274   0.0811  -0.0657   4.00    0.0
2018/11/06 00:52:15.000  -74.407196746  163.437668047    80.0675   6  11   0.0614   0.0699   0.2389  -0.0307   0.0899  -0.0732   4.00    0.0
2018/11/06 00:52:30.000  -74.407196714  163.437668450    80.0737   6  11   0.0669   0.0763   0.2607  -0.0340   0.0986  -0.0808   4.00    0.0
2018/11/06 00:52:45.000  -74.407196745  163.437668444    80.0821   6  11   0.0613   0.0698   0.2383  -0.0307   0.0896  -0.0731   4.00    0.0
2018/11/06 00:53:00.000  -74.407196729  163.437668337    80.0795   6  11   0.0558   0.0633   0.2155  -0.0272   0.0803  -0.0653   4.00    0.0
2018/11/06 00:53:15.000  -74.407196777  163.437668828    80.0909   6  11   0.0503   0.0568   0.1933  -0.0238   0.0712  -0.0578   4.00    0.0
2018/11/06 00:53:30.000  -74.407196841  163.437668948    80.0770   6  11   0.0449   0.0503   0.1716  -0.0205   0.0622  -0.0507   4.00    0.0
2018/11/06 00:53:45.000  -74.407196941  163.437669268    80.0775   6  11   0.0397   0.0439   0.1507  -0.0175   0.0534  -0.0443   4.00    0.0
2018/11/06 00:54:00.000  -74.407197006  163.437669955    80.1024   6  11   0.0347   0.0376   0.1309  -0.0147   0.0449  -0.0388   4.00    0.0
2018/11/06 00:54:15.000  -74.407197022  163.437670558    80.1271   6  11   0.0301   0.0313   0.1129  -0.0123   0.0369  -0.0344   4.00    0.0
2018/11/06 00:54:30.000  -74.407196946  163.437670283    80.0695   6  11   0.0262   0.0254   0.0981  -0.0104   0.0297  -0.0318   4.00    0.0
2018/11/06 00:54:45.000  -74.407197320  163.437671389    80.1536   1  10   0.0294   0.0224   0.1193  -0.0178   0.0396  -0.0521   4.00    2.0
2018/11/06 00:55:00.000  -74.407197300  163.437670921    80.1103   1  10   0.0235   0.0185   0.0955  -0.0143   0.0322  -0.0411   4.00    2.0
2018/11/06 00:55:15.000  -74.407197208  163.437670783    80.0512   1  10   0.0293   0.0221   0.1200  -0.0177   0.0393  -0.0521   4.00    2.0
2018/11/06 00:55:30.000  -74.407196909  163.437669501    79.9672   6  10   0.0309   0.0264   0.1192  -0.0153   0.0366  -0.0460   4.00    0.0
2018/11/06 00:55:45.000  -74.407196799  163.437669373    79.9647   6  10   0.0395   0.0328   0.1536  -0.0202   0.0481  -0.0621   4.00    0.0
2018/11/06 00:56:00.000  -74.407196760  163.437669513    80.0308   6  10   0.0487   0.0394   0.1899  -0.0256   0.0603  -0.0789   4.00    0.0
2018/11/06 00:56:15.000  -74.407196805  163.437669196    80.0377   6  10   0.0582   0.0462   0.2271  -0.0311   0.0727  -0.0962   4.00    0.0
2018/11/06 00:56:30.000  -74.407196888  163.437669036    80.0402   6  10   0.0678   0.0529   0.2646  -0.0368   0.0851  -0.1136   4.00    0.0
2018/11/06 00:56:45.000  -74.407196918  163.437669182    80.0863   6  10   0.0775   0.0597   0.3023  -0.0424   0.0975  -0.1310   4.00    0.0
2018/11/06 00:57:00.000  -74.407197056  163.437669350    80.1510   6  10   0.0871   0.0664   0.3401  -0.0481   0.1098  -0.1485   4.00    0.0
2018/11/06 00:57:15.000  -74.407197002  163.437669143    80.1561   6  10   0.0968   0.0731   0.3779  -0.0536   0.1219  -0.1659   4.00    0.0
2018/11/06 00:57:30.000  -74.407196952  163.437669070    80.1522   6  10   0.1065   0.0798   0.4158  -0.0591   0.1339  -0.1832   4.00    0.0
2018/11/06 00:57:45.000  -74.407196990  163.437669553    80.1761   6  10   0.0967   0.0728   0.3815  -0.0529   0.1202  -0.1660   4.00    0.0
2018/11/06 00:58:00.000  -74.407197043  163.437669475    80.2341   6  10   0.0869   0.0657   0.3535  -0.0467   0.1064  -0.1498   4.00    0.0
2018/11/06 00:58:15.000  -74.407197127  163.437670074    80.1883   6   9   0.0786   0.0588   0.3354  -0.0411   0.0945  -0.1384   4.00    0.0
2018/11/06 00:58:30.000  -74.407197241  163.437669951    80.2495   6   9   0.0686   0.0520   0.2919  -0.0352   0.0814  -0.1194   4.00    0.0
2018/11/06 00:58:45.000  -74.407197279  163.437669864    80.2663   6   9   0.0587   0.0452   0.2487  -0.0294   0.0685  -0.1006   4.00    0.0
2018/11/06 00:59:00.000  -74.407197278  163.437669676    80.2554   6   9   0.0490   0.0385   0.2061  -0.0239   0.0560  -0.0820   4.00    0.0
2018/11/06 00:59:15.000  -74.407197293  163.437670060    80.2375   6   9   0.0396   0.0319   0.1646  -0.0186   0.0440  -0.0639   4.00    0.0
2018/11/06 00:59:30.000  -74.407197213  163.437670054    80.1665   6   9   0.0308   0.0257   0.1255  -0.0139   0.0330  -0.0467   4.00    0.0
2018/11/06 00:59:45.000  -74.407197375  163.437670888    80.1345   1   9   0.0289   0.0212   0.1234  -0.0163   0.0359  -0.0518   5.00    2.0
2018/11/06 01:00:00.000  -74.407197359  163.437670920    80.1305   1   9   0.0231   0.0176   0.0953  -0.0135   0.0294  -0.0401   5.00    2.0
2018/11/06 01:00:15.000  -74.407197447  163.437671112    80.1472   1   9   0.0287   0.0210   0.1223  -0.0160   0.0352  -0.0512   5.00    2.0
2018/11/06 01:00:30.000  -74.407197231  163.437670119    80.1280   6   9   0.0304   0.0254   0.1236  -0.0133   0.0318  -0.0461   4.00    0.0
2018/11/06 01:00:45.000  -74.407197362  163.437670136    80.1965   6   9   0.0390   0.0314   0.1619  -0.0176   0.0419  -0.0629   4.00    0.0
2018/11/06 01:01:00.000  -74.407197455  163.437670259    80.2766   6   9   0.0481   0.0376   0.2022  -0.0223   0.0525  -0.0805   4.00    0.0
2018/11/06 01:01:15.000  -74.407197113  163.437669708    80.1417   6  10   0.0468   0.0438   0.1835  -0.0252   0.0594  -0.0658   4.00    0.0
2018/11/06 01:01:30.000  -74.407197049  163.437669426    80.1372   6  10   0.0517   0.0497   0.1999  -0.0279   0.0659  -0.0699   4.00    0.0
2018/11/06 01:01:45.000  -74.407197107  163.437669189    80.1445   6  10   0.0574   0.0558   0.2202  -0.0313   0.0736  -0.0762   4.00    0.0
2018/11/06 01:02:00.000  -74.407197164  163.437669346    80.1675   6  10   0.0634   0.0620   0.2424  -0.0350   0.0818  -0.0836   4.00    0.0
2018/11/06 01:02:15.000  -74.407197121  163.437668805    80.1230   6  10   0.0696   0.0682   0.2657  -0.0388   0.0903  -0.0917   4.00    0.0
2018/11/06 01:02:30.000  -74.407197082  163.437668603    80.1552   6  10   0.0759   0.0744   0.2897  -0.0428   0.0989  -0.1000   4.00    0.0
2018/11/06 01:02:45.000  -74.407197032  163.437668852    80.1825   6  10   0.0694   0.0680   0.2635  -0.0386   0.0895  -0.0906   4.00    0.0
2018/11/06 01:03:00.000  -74.407197015  163.437668851    80.2072   6  10   0.0628   0.0616   0.2383  -0.0343   0.0800  -0.0814   4.00    0.0
2018/11/06 01:03:15.000  -74.407196971  163.437669352    80.2182   6  10   0.0563   0.0551   0.2132  -0.0302   0.0706  -0.0722   4.00    0.0
2018/11/06 01:03:30.000  -74.407196952  163.437669133    80.1620   6  10   0.0499   0.0488   0.1882  -0.0260   0.0614  -0.0630   4.00    0.0
2018/11/06 01:03:45.000  -74.407197017  163.437669363    80.1728   6  10   0.0435   0.0425   0.1635  -0.0220   0.0522  -0.0539   4.00    0.0
2018/11/06 01:04:00.000  -74.407196969  163.437669514    80.1559   6  10   0.0372   0.0363   0.1392  -0.0181   0.0433  -0.0451   4.00    0.0
2018/11/06 01:04:15.000  -74.407196990  163.437669584    80.1204   6  10   0.0312   0.0302   0.1157  -0.0143   0.0346  -0.0365   4.00    0.0
2018/11/06 01:04:30.000  -74.407197292  163.437670653    80.1298   1  10   0.0311   0.0269   0.1231  -0.0177   0.0389  -0.0478   6.00    2.0
2018/11/06 01:04:45.000  -74.407197305  163.437670722    80.1166   1  10   0.0248   0.0202   0.0989  -0.0136   0.0301  -0.0399   6.00    2.0
2018/11/06 01:05:00.000  -74.407197352  163.437670433    80.1258   1  10   0.0219   0.0167   0.0878  -0.0118   0.0253  -0.0368   6.00    2.0
2018/11/06 01:05:15.000  -74.407197380  163.437670203    80.1287   1  10   0.0258   0.0200   0.1041  -0.0137   0.0299  -0.0426   6.00    2.0
2018/11/06 01:05:30.000  -74.407197154  163.437669386    80.1080   6  10   0.0273   0.0243   0.1041  -0.0096   0.0237  -0.0361   4.00    0.0
2018/11/06 01:05:45.000  -74.407197215  163.437669481    80.1671   6  10   0.0338   0.0301   0.1316  -0.0150   0.0357  -0.0472   4.00    0.0
2018/11/06 01:06:00.000  -74.407197179  163.437669739    80.1919   6  10   0.0390   0.0358   0.1502  -0.0174   0.0417  -0.0528   4.00    0.0
2018/11/06 01:06:15.000  -74.407197201  163.437669476    80.1751   6  10   0.0448   0.0416   0.1725  -0.0206   0.0490  -0.0605   4.00    0.0
2018/11/06 01:06:30.000  -74.407197175  163.437669313    80.1361   6  10   0.0511   0.0475   0.1967  -0.0242   0.0568  -0.0692   4.00    0.0
2018/11/06 01:06:45.000  -74.407197151  163.437669051    80.1315   6  10   0.0575   0.0535   0.2221  -0.0279   0.0649  -0.0784   4.00    0.0
2018/11/06 01:07:00.000  -74.407197138  163.437668953    80.1785   6  10   0.0642   0.0595   0.2484  -0.0317   0.0731  -0.0881   4.00    0.0
2018/11/06 01:07:15.000  -74.407197141  163.437668626    80.1482   6  10   0.0710   0.0655   0.2755  -0.0355   0.0812  -0.0982   4.00    0.0
2018/11/06 01:07:30.000  -74.407197087  163.437668396    80.1464   6  10   0.0780   0.0715   0.3036  -0.0392   0.0892  -0.1088   4.00    0.0
2018/11/06 01:07:45.000  -74.407197076  163.437668640    80.1166   6  10   0.0725   0.0654   0.2846  -0.0348   0.0796  -0.1034   4.00    1.0
2018/11/06 01:08:00.000  -74.407197088  163.437669240    80.1495   6  10   0.0682   0.0593   0.2712  -0.0299   0.0691  -0.1013   4.00    0.0
2018/11/06 01:08:15.000  -74.407196948  163.437669370    80.0657   6  10   0.0591   0.0532   0.2337  -0.0289   0.0665  -0.0846   4.00    0.0
2018/11/06 01:08:30.000  -74.407196932  163.437669343    80.0413   6  10   0.0507   0.0470   0.1966  -0.0245   0.0567  -0.0686   4.00    0.0
2018/11/06 01:08:45.000  -74.407197014  163.437669456    80.0445   6  10   0.0434   0.0410   0.1658  -0.0204   0.0478  -0.0561   4.00    0.0
2018/11/06 01:09:00.000  -74.407197071  163.437669609    80.0589   6  10   0.0367   0.0351   0.1377  -0.0166   0.0392  -0.0449   4.00    0.0
2018/11/06 01:09:15.000  -74.407197107  163.437669724    80.0813   6  10   0.0303   0.0293   0.1114  -0.0130   0.0310  -0.0346   4.00    0.0
2018/11/06 01:09:30.000  -74.407197402  163.437670808    80.1312   1  10   0.0298   0.0264   0.1122  -0.0142   0.0351  -0.0384   4.00    1.0
2018/11/06 01:09:45.000  -74.407197360  163.437670609    80.1085   1  10   0.0235   0.0201   0.0855  -0.0100   0.0273  -0.0288   4.00    1.0
2018/11/06 01:10:00.000  -74.407197316  163.437670281    80.0957   1  10   0.0200   0.0167   0.0702  -0.0074   0.0233  -0.0230   4.00    1.0
2018/11/06 01:10:15.000  -74.407197278  163.437670176    80.1083   1  10   0.0234   0.0200   0.0849  -0.0099   0.0269  -0.0285   4.00    1.0
2018/11/06 01:10:30.000  -74.407197190  163.437669862    80.1248   1  10   0.0297   0.0261   0.1112  -0.0139   0.0342  -0.0380   4.00    1.0
2018/11/06 01:10:45.000  -74.407196829  163.437668831    80.0751   6  10   0.0292   0.0288   0.1048  -0.0118   0.0285  -0.0310   4.00    0.0
2018/11/06 01:11:00.000  -74.407196747  163.437668751    80.0794   6  10   0.0351   0.0344   0.1284  -0.0150   0.0357  -0.0398   4.00    0.0
2018/11/06 01:11:15.000  -74.407196731  163.437668957    80.1006   6  10   0.0412   0.0401   0.1529  -0.0184   0.0431  -0.0489   5.00    0.0
2018/11/06 01:11:30.000  -74.407196629  163.437669033    80.1200   6  10   0.0475   0.0458   0.1780  -0.0219   0.0505  -0.0581   5.00    0.0
2018/11/06 01:11:45.000  -74.407196605  163.437669026    80.0857   6  10   0.0539   0.0515   0.2034  -0.0255   0.0579  -0.0673   5.00    0.0
2018/11/06 01:12:00.000  -74.407196557  163.437668749    80.0671   6  10   0.0604   0.0572   0.2290  -0.0290   0.0652  -0.0765   5.00    0.0
2018/11/06 01:12:15.000  -74.407196545  163.437668296    80.0216   6  10   0.0670   0.0630   0.2548  -0.0325   0.0724  -0.0857   5.00    0.0
2018/11/06 01:12:30.000  -74.407196668  163.437669079    80.0471   6  10   0.0736   0.0687   0.2806  -0.0360   0.0795  -0.0949   5.00    0.0
2018/11/06 01:12:45.000  -74.407196701  163.437669077    80.0385   6  10   0.0670   0.0628   0.2546  -0.0323   0.0715  -0.0854   5.00    0.0
2018/11/06 01:13:00.000  -74.407196659  163.437669145    80.0370   6  10   0.0604   0.0569   0.2285  -0.0285   0.0634  -0.0760   5.00    0.0
2018/11/06 01:13:15.000  -74.407196701  163.437669112    80.0314   6  10   0.0538   0.0510   0.2026  -0.0248   0.0555  -0.0667   5.00    0.0
2018/11/06 01:13:30.000  -74.407196724  163.437669223    80.0281   6  10   0.0474   0.0452   0.1769  -0.0211   0.0476  -0.0573   5.00    0.0
2018/11/06 01:13:45.000  -74.407196818  163.437669544    80.0367   6  10   0.0410   0.0395   0.1515  -0.0175   0.0400  -0.0480   5.00    0.0
2018/11/06 01:14:00.000  -74.407196842  163.437669427    80.0642   6  10   0.0349   0.0338   0.1267  -0.0141   0.0326  -0.0388   5.00    0.0
2018/11/06 01:14:15.000  -74.407197167  163.437669789    80.0877   1  10   0.0372   0.0328   0.1402  -0.0172   0.0396  -0.0475   4.00    1.0
2018/11/06 01:14:30.000  -74.407197239  163.437669936    80.0914   1  10   0.0293   0.0255   0.1082  -0.0127   0.0310  -0.0362   4.00    1.0
2018/11/06 01:14:45.000  -74.407197288  163.437669810    80.0818   1  10   0.0230   0.0195   0.0812  -0.0086   0.0242  -0.0265   4.00    1.0
2018/11/06 01:15:00.000  -74.407197286  163.437669994    80.0642   1  10   0.0196   0.0164   0.0658  -0.0060   0.0207  -0.0209   4.00    1.0
2018/11/06 01:15:15.000  -74.407197370  163.437669913    80.0480   1  10   0.0229   0.0194   0.0805  -0.0085   0.0238  -0.0262   4.00    1.0
2018/11/06 01:15:30.000  -74.407197483  163.437670071    80.0861   1  10   0.0292   0.0252   0.1070  -0.0123   0.0300  -0.0357   4.00    1.0
2018/11/06 01:15:45.000  -74.407197525  163.437670121    80.1142   1  10   0.0370   0.0323   0.1386  -0.0166   0.0376  -0.0467   4.00    1.0
2018/11/06 01:16:00.000  -74.407197119  163.437669270    80.0469   6  10   0.0345   0.0333   0.1244  -0.0131   0.0304  -0.0381   5.00    0.0
2018/11/06 01:16:15.000  -74.407197132  163.437669428    80.0566   6  10   0.0406   0.0387   0.1488  -0.0162   0.0366  -0.0471   5.00    0.0
2018/11/06 01:16:30.000  -74.407197124  163.437669599    80.0471   6  10   0.0468   0.0441   0.1737  -0.0193   0.0429  -0.0561   5.00    0.0
2018/11/06 01:16:45.000  -74.407197047  163.437669269    79.9948   6  10   0.0532   0.0496   0.1988  -0.0225   0.0490  -0.0650   5.00    0.0
2018/11/06 01:17:00.000  -74.407196931  163.437669078    79.9034   6  10   0.0596   0.0551   0.2241  -0.0256   0.0550  -0.0740   5.00    0.0
2018/11/06 01:17:15.000  -74.407196908  163.437668583    79.9723   6  10   0.0661   0.0606   0.2494  -0.0287   0.0609  -0.0829   5.00    0.0
2018/11/06 01:17:30.000  -74.407196946  163.437668656    80.0134   6  10   0.0726   0.0662   0.2747  -0.0318   0.0667  -0.0918   5.00    0.0
2018/11/06 01:17:45.000  -74.407196891  163.437668612    80.0577   6  10   0.0659   0.0603   0.2489  -0.0281   0.0594  -0.0825   5.00    0.0
2018/11/06 01:18:00.000  -74.407196981  163.437668615    80.0980   6  10   0.0594   0.0546   0.2231  -0.0247   0.0525  -0.0733   5.00    0.0
2018/11/06 01:18:15.000  -74.407196963  163.437668578    80.1304   6  10   0.0529   0.0490   0.1974  -0.0213   0.0457  -0.0641   5.00    0.0
2018/11/06 01:18:30.000  -74.407196967  163.437668933    80.1213   6  10   0.0465   0.0435   0.1719  -0.0180   0.0390  -0.0549   5.00    0.0
2018/11/06 01:18:45.000  -74.407196953  163.437669024    80.0877   6  10   0.0402   0.0380   0.1468  -0.0147   0.0326  -0.0458   5.00    0.0
2018/11/06 01:19:00.000  -74.407197029  163.437669330    80.0810   6  10   0.0341   0.0326   0.1222  -0.0116   0.0263  -0.0367   5.00    0.0
2018/11/06 01:19:15.000  -74.407197367  163.437670104    80.0933   1  10   0.0364   0.0315   0.1354  -0.0147   0.0328  -0.0448   4.00    1.0
2018/11/06 01:19:30.000  -74.407197321  163.437670100    80.0883   1  10   0.0286   0.0245   0.1037  -0.0106   0.0259  -0.0337   4.00    1.0
2018/11/06 01:19:45.000  -74.407197282  163.437670019    80.0708   1  10   0.0225   0.0188   0.0770  -0.0070   0.0207  -0.0243   4.00    1.0
2018/11/06 01:20:00.000  -74.407197222  163.437669897    80.0397   1  10   0.0195   0.0159   0.0618  -0.0043   0.0182  -0.0191   4.00    1.0
2018/11/06 01:20:15.000  -74.407197203  163.437670215    80.0242   1  10   0.0224   0.0187   0.0763  -0.0067   0.0202  -0.0240   4.00    1.0
2018/11/06 01:20:30.000  -74.407197204  163.437670137    80.0120   1  10   0.0285   0.0243   0.1025  -0.0102   0.0248  -0.0332   4.00    1.0
2018/11/06 01:20:45.000  -74.407197237  163.437669945    80.0049   1  10   0.0362   0.0312   0.1335  -0.0140   0.0306  -0.0439   4.00    1.0
2018/11/06 01:21:00.000  -74.407196847  163.437669227    79.9807   6  10   0.0337   0.0321   0.1200  -0.0105   0.0238  -0.0359   5.00    0.0
2018/11/06 01:21:15.000  -74.407196852  163.437669320    80.0215   6  10   0.0397   0.0373   0.1438  -0.0132   0.0287  -0.0445   5.00    0.0
2018/11/06 01:21:30.000  -74.407196898  163.437669542    80.0394   6  10   0.0459   0.0425   0.1680  -0.0160   0.0334  -0.0532   5.00    0.0
2018/11/06 01:21:45.000  -74.407196905  163.437669615    80.0516   6  10   0.0522   0.0478   0.1924  -0.0188   0.0380  -0.0618   5.00    0.0
2018/11/06 01:22:00.000  -74.407196798  163.437669492    80.0859   6  10   0.0585   0.0532   0.2169  -0.0215   0.0425  -0.0703   5.00    0.0
2018/11/06 01:22:15.000  -74.407196633  163.437669240    79.9962   6  11   0.0569   0.0568   0.2073  -0.0117   0.0203  -0.0483   5.00    0.0
2018/11/06 01:22:30.000  -74.407196573  163.437669190    79.9731   6  11   0.0606   0.0616   0.2200  -0.0090   0.0073  -0.0445   5.00    0.0
2018/11/06 01:22:45.000  -74.407196524  163.437669031    79.9962   6  11   0.0548   0.0565   0.1974  -0.0052  -0.0058  -0.0376   5.00    0.0
2018/11/06 01:23:00.000  -74.407196617  163.437669054    80.0182   6  11   0.0494   0.0513   0.1767   0.0018  -0.0091  -0.0320   5.00    0.0
2018/11/06 01:23:15.000  -74.407196787  163.437669142    80.0114   6  11   0.0441   0.0461   0.1566   0.0046  -0.0097  -0.0271   5.00    0.0
2018/11/06 01:23:30.000  -74.407196813  163.437668813    79.9977   6  11   0.0389   0.0410   0.1369   0.0056  -0.0093  -0.0225   5.00    0.0
2018/11/06 01:23:45.000  -74.407196879  163.437668676    79.9678   6  11   0.0340   0.0360   0.1177   0.0059  -0.0083  -0.0179   5.00    0.0
2018/11/06 01:24:00.000  -74.407197214  163.437669045    79.9020   1  11   0.0367   0.0368   0.1320  -0.0009   0.0044  -0.0231   5.00    1.0
2018/11/06 01:24:15.000  -74.407197233  163.437669580    79.9256   1  11   0.0303   0.0298   0.1070   0.0022   0.0098  -0.0195   5.00    1.0
2018/11/06 01:24:30.000  -74.407197183  163.437669631    79.9545   1  11   0.0244   0.0234   0.0837   0.0031   0.0123  -0.0162   5.00    1.0
2018/11/06 01:24:45.000  -74.407197185  163.437669760    79.9941   1  11   0.0198   0.0182   0.0641   0.0031   0.0133  -0.0132   5.00    1.0
2018/11/06 01:25:00.000  -74.407197244  163.437669964    80.0205   1  11   0.0176   0.0156   0.0534   0.0046   0.0136  -0.0113   5.00    1.0
2018/11/06 01:25:15.000  -74.407197186  163.437669878    80.0244   1  11   0.0198   0.0182   0.0638   0.0033   0.0131  -0.0129   5.00    1.0
2018/11/06 01:25:30.000  -74.407197153  163.437669791    80.0087   1  11   0.0243   0.0234   0.0833   0.0036   0.0112  -0.0159   5.00    1.0
2018/11/06 01:25:45.000  -74.407197152  163.437669381    80.0259   1  11   0.0301   0.0298   0.1067   0.0035   0.0060  -0.0195   5.00    1.0
2018/11/06 01:26:00.000  -74.407197072  163.437669552    80.0142   1  11   0.0366   0.0367   0.1322   0.0031  -0.0097  -0.0236   5.00    1.0
2018/11/06 01:26:15.000  -74.407196680  163.437669491    80.0488   6  12   0.0325   0.0340   0.1111  -0.0014  -0.0227  -0.0192   6.00    0.0
2018/11/06 01:26:30.000  -74.407196670  163.437669832    80.0802   6  12   0.0372   0.0386   0.1279  -0.0042  -0.0281  -0.0246   6.00    0.0
2018/11/06 01:26:45.000  -74.407196671  163.437669640    80.0775   6  12   0.0420   0.0433   0.1457  -0.0062  -0.0332  -0.0297   6.00    0.0
2018/11/06 01:27:00.000  -74.407196678  163.437669811    80.0912   6  12   0.0469   0.0481   0.1640  -0.0080  -0.0381  -0.0346   6.00    0.0
2018/11/06 01:27:15.000  -74.407196655  163.437669701    80.1052   6  12   0.0518   0.0529   0.1826  -0.0098  -0.0431  -0.0395   6.00    0.0
2018/11/06 01:27:30.000  -74.407196684  163.437670205    80.0946   6  12   0.0568   0.0578   0.2014  -0.0114  -0.0481  -0.0444   6.00    0.0
2018/11/06 01:27:45.000  -74.407196790  163.437670127    80.0992   6  12   0.0519   0.0530   0.1838  -0.0098  -0.0440  -0.0398   6.00    1.0
2018/11/06 01:28:00.000  -74.407196851  163.437670326    80.0791   6  12   0.0470   0.0481   0.1655  -0.0080  -0.0395  -0.0352   6.00    1.0
2018/11/06 01:28:15.000  -74.407196782  163.437670110    80.0804   6  12   0.0420   0.0433   0.1472  -0.0062  -0.0350  -0.0305   6.00    1.0
2018/11/06 01:28:30.000  -74.407196846  163.437670218    80.0724   6  12   0.0372   0.0386   0.1291  -0.0042  -0.0304  -0.0257   6.00    1.0
2018/11/06 01:28:45.000  -74.407196857  163.437670141    80.0808   6  12   0.0325   0.0339   0.1111  -0.0021  -0.0259  -0.0208   6.00    0.0
2018/11/06 01:29:00.000  -74.407197229  163.437670685    80.0699   1  12   0.0360   0.0348   0.1280  -0.0079  -0.0270  -0.0298   6.00    1.0
2018/11/06 01:29:15.000  -74.407197260  163.437670354    80.0513   1  12   0.0296   0.0283   0.1035  -0.0056  -0.0194  -0.0239   6.00    1.0
2018/11/06 01:29:30.000  -74.407196976  163.437669953    80.0122   1  12   0.0191   0.0199   0.0599   0.0050  -0.0106  -0.0060   6.00    1.0
2018/11/06 01:29:45.000  -74.407197245  163.437669820    80.0080   1  12   0.0194   0.0175   0.0615   0.0031   0.0054  -0.0137   6.00    1.0
2018/11/06 01:30:00.000  -74.407197310  163.437669810    80.0188   1  12   0.0171   0.0150   0.0508   0.0038   0.0096  -0.0112   6.00    1.0
2018/11/06 01:30:15.000  -74.407197351  163.437670262    79.9996   1  12   0.0195   0.0176   0.0611   0.0022   0.0047  -0.0138   6.00    1.0
2018/11/06 01:30:30.000  -74.407197319  163.437670465    80.0182   1  12   0.0239   0.0223   0.0804  -0.0025  -0.0121  -0.0183   6.00    1.0
2018/11/06 01:30:45.000  -74.407197329  163.437670688    80.0290   1  12   0.0295   0.0283   0.1036  -0.0051  -0.0205  -0.0239   6.00    1.0
2018/11/06 01:31:00.000  -74.407197336  163.437670712    80.0172   1  12   0.0359   0.0348   0.1287  -0.0073  -0.0283  -0.0300   6.00    1.0
2018/11/06 01:31:15.000  -74.407197055  163.437670555    79.9726   6  12   0.0323   0.0335   0.1117   0.0019  -0.0270  -0.0215   7.00    0.0
2018/11/06 01:31:30.000  -74.407197046  163.437670554    80.0061   6  12   0.0370   0.0381   0.1303  -0.0026  -0.0320  -0.0267   7.00    0.0
2018/11/06 01:31:45.000  -74.407197014  163.437670321    80.0046   6  12   0.0419   0.0429   0.1493  -0.0046  -0.0371  -0.0318   7.00    0.0
2018/11/06 01:32:00.000  -74.407197050  163.437670282    79.9697   6  12   0.0468   0.0477   0.1685  -0.0064  -0.0422  -0.0369   7.00    0.0
2018/11/06 01:32:15.000  -74.407197040  163.437669862    79.9565   6  12   0.0518   0.0525   0.1878  -0.0080  -0.0473  -0.0420   7.00    0.0
2018/11/06 01:32:30.000  -74.407197032  163.437670120    79.9776   6  12   0.0569   0.0574   0.2073  -0.0094  -0.0525  -0.0470   7.00    0.0
2018/11/06 01:32:45.000  -74.407196967  163.437670038    80.0043   6  12   0.0520   0.0525   0.1889  -0.0079  -0.0476  -0.0426   7.00    0.0
2018/11/06 01:33:00.000  -74.407196980  163.437670178    79.9928   6  12   0.0470   0.0476   0.1699  -0.0061  -0.0427  -0.0376   7.00    0.0
2018/11/06 01:33:15.000  -74.407197007  163.437670019    79.9899   6  12   0.0421   0.0428   0.1508  -0.0041  -0.0378  -0.0326   7.00    0.0
2018/11/06 01:33:30.000  -74.407197010  163.437669744    79.9552   6  12   0.0372   0.0381   0.1319  -0.0013  -0.0329  -0.0276   7.00    0.0
2018/11/06 01:33:45.000  -74.407196913  163.437669624    79.9457   6  12   0.0325   0.0334   0.1132   0.0029  -0.0280  -0.0224   7.00    0.0
2018/11/06 01:34:00.000  -74.407197249  163.437669455    79.9523   1  12   0.0361   0.0348   0.1307  -0.0065  -0.0299  -0.0309   6.00    1.0
2018/11/06 01:34:15.000  -74.407197257  163.437669319    79.9683   1  12   0.0297   0.0283   0.1051  -0.0041  -0.0223  -0.0246   6.00    1.0
2018/11/06 01:34:30.000  -74.407197255  163.437669441    79.9812   1  12   0.0239   0.0224   0.0813  -0.0005  -0.0146  -0.0186   6.00    1.0
2018/11/06 01:34:45.000  -74.407197235  163.437669624    79.9912   1  12   0.0193   0.0176   0.0611   0.0039  -0.0055  -0.0136   6.00    1.0
2018/11/06 01:35:00.000  -74.407197190  163.437669795    80.0113   1  12   0.0171   0.0153   0.0498   0.0049   0.0061  -0.0109   6.00    1.0
2018/11/06 01:35:15.000  -74.407197151  163.437669614    79.9924   1  12   0.0193   0.0175   0.0609   0.0033  -0.0066  -0.0137   6.00    1.0
2018/11/06 01:35:30.000  -74.407197075  163.437669633    79.9726   1  12   0.0239   0.0224   0.0811   0.0015  -0.0152  -0.0186   6.00    1.0
2018/11/06 01:35:45.000  -74.407197073  163.437669767    79.9932   1  12   0.0297   0.0283   0.1051  -0.0035  -0.0231  -0.0246   6.00    1.0
2018/11/06 01:36:00.000  -74.407197070  163.437669672    80.0444   1  12   0.0361   0.0348   0.1309  -0.0057  -0.0309  -0.0310   6.00    1.0
2018/11/06 01:36:15.000  -74.407196712  163.437669599    80.0160   6  12   0.0323   0.0330   0.1135   0.0037  -0.0287  -0.0227   7.00    0.0
2018/11/06 01:36:30.000  -74.407196715  163.437670023    80.0086   6  12   0.0371   0.0377   0.1325   0.0028  -0.0339  -0.0280   7.00    0.0
2018/11/06 01:36:45.000  -74.407196625  163.437670449    80.0136   6  12   0.0420   0.0424   0.1518  -0.0015  -0.0391  -0.0333   7.00    0.0
2018/11/06 01:37:00.000  -74.407196659  163.437670420    80.0004   6  12   0.0469   0.0472   0.1712  -0.0039  -0.0444  -0.0384   7.00    0.0
2018/11/06 01:37:15.000  -74.407196690  163.437670437    79.9781   6  12   0.0520   0.0521   0.1908  -0.0055  -0.0498  -0.0436   7.00    0.0
2018/11/06 01:37:30.000  -74.407196657  163.437670591    79.9623   6  12   0.0570   0.0570   0.2104  -0.0070  -0.0551  -0.0487   7.00    0.0
2018/11/06 01:37:45.000  -74.407196650  163.437670844    79.9942   6  12   0.0520   0.0522   0.1910  -0.0059  -0.0500  -0.0435   7.00    0.0
2018/11/06 01:38:00.000  -74.407196635  163.437670811    80.0124   6  12   0.0470   0.0474   0.1715  -0.0041  -0.0448  -0.0385   7.00    0.0
2018/11/06 01:38:15.000  -74.407196691  163.437670547    80.0180   6  12   0.0420   0.0425   0.1521  -0.0016  -0.0397  -0.0333   7.00    0.0
2018/11/06 01:38:30.000  -74.407196764  163.437670213    80.0340   6  12   0.0371   0.0378   0.1328   0.0029  -0.0345  -0.0281   7.00    0.0
2018/11/06 01:38:45.000  -74.407196764  163.437670364    80.0341   6  12   0.0323   0.0331   0.1138   0.0038  -0.0295  -0.0227   7.00    0.0
2018/11/06 01:39:00.000  -74.407197179  163.437670112    80.0317   1  12   0.0362   0.0350   0.1311  -0.0053  -0.0321  -0.0310   6.00    1.0
2018/11/06 01:39:15.000  -74.407197188  163.437669999    80.0178   1  12   0.0297   0.0285   0.1052  -0.0028  -0.0245  -0.0245   6.00    1.0
2018/11/06 01:39:30.000  -74.407197209  163.437669683    80.0014   1  12   0.0240   0.0226   0.0811   0.0023  -0.0170  -0.0184   6.00    1.0
2018/11/06 01:39:45.000  -74.407197185  163.437669609    79.9778   1  12   0.0195   0.0177   0.0608   0.0047  -0.0095  -0.0134   6.00    1.0
2018/11/06 01:40:00.000  -74.407197212  163.437669471    80.0004   1  12   0.0172   0.0149   0.0494   0.0054  -0.0029  -0.0110   6.00    1.0
2018/11/06 01:40:15.000  -74.407197331  163.437669331    79.9885   1  12   0.0194   0.0179   0.0607   0.0042  -0.0098  -0.0135   6.00    1.0
2018/11/06 01:40:30.000  -74.407197064  163.437669654    79.9795   6  12   0.0195   0.0200   0.0607   0.0036  -0.0154  -0.0037   7.00    0.0
2018/11/06 01:40:45.000  -74.407197085  163.437669551    79.9807   6  12   0.0233   0.0239   0.0770   0.0041  -0.0199  -0.0115   7.00    0.0
2018/11/06 01:41:00.000  -74.407197039  163.437669631    79.9792   6  12   0.0276   0.0282   0.0948   0.0044  -0.0248  -0.0173   7.00    0.0
2018/11/06 01:41:15.000  -74.407196953  163.437669867    79.9362   6  12   0.0322   0.0327   0.1133   0.0042  -0.0299  -0.0228   7.00    0.0
2018/11/06 01:41:30.000  -74.407197006  163.437670365    79.9021   6  12   0.0370   0.0374   0.1321   0.0037  -0.0352  -0.0281   7.00    1.0
2018/11/06 01:41:45.000  -74.407196995  163.437670386    79.9076   6  12   0.0419   0.0421   0.1512   0.0027  -0.0405  -0.0333   7.00    1.0
2018/11/06 01:42:00.000  -74.407197114  163.437670850    79.9364   6  12   0.0469   0.0470   0.1704  -0.0011  -0.0459  -0.0384   7.00    1.0
2018/11/06 01:42:15.000  -74.407197157  163.437670654    79.9307   6  12   0.0519   0.0518   0.1897  -0.0034  -0.0513  -0.0435   7.00    1.0
2018/11/06 01:42:30.000  -74.407197162  163.437670992    79.8804   6  12   0.0570   0.0567   0.2090  -0.0048  -0.0567  -0.0485   7.00    1.0
2018/11/06 01:42:45.000  -74.407197097  163.437670928    79.8887   6  12   0.0521   0.0518   0.1889  -0.0018  -0.0516  -0.0437   7.00    1.0
2018/11/06 01:43:00.000  -74.407197039  163.437670870    79.8944   6  12   0.0470   0.0469   0.1695   0.0028  -0.0463  -0.0385   7.00    1.0
2018/11/06 01:43:15.000  -74.407197026  163.437670689    79.9267   6  12   0.0420   0.0421   0.1501   0.0041  -0.0410  -0.0334   7.00    1.0
2018/11/06 01:43:30.000  -74.407197011  163.437670874    79.9004   6  12   0.0371   0.0373   0.1310   0.0047  -0.0357  -0.0281   7.00    1.0
2018/11/06 01:43:45.000  -74.407196995  163.437670856    79.8647   6  12   0.0324   0.0327   0.1122   0.0050  -0.0306  -0.0228   7.00    1.0
2018/11/06 01:44:00.000  -74.407196341  163.437671799    79.8643   1  12   0.0427   0.0387   0.1339   0.0193  -0.0249  -0.0169   7.00    1.0
2018/11/06 01:44:15.000  -74.407196281  163.437671212    79.9245   1  12   0.0373   0.0331   0.1095   0.0196  -0.0131   0.0080   7.00    1.0
2018/11/06 01:44:30.000  -74.407196245  163.437670893    79.9509   1  12   0.0328   0.0282   0.0874   0.0198   0.0125   0.0176   7.00    1.0
