% program   : RTKLIB ver.2.4.3
% inp file  : _by_type/_obs/hillary/20181106_20181108.18o
% inp file  : _by_type/_sp3+clk/igs20262.clk
% inp file  : _by_type/_sp3+clk/igs20262.sp3
% inp file  : _by_type/_nav/hillary/20181106_20181108.18n
% obs start : 2018/11/06 00:00:00.0 GPST (week2026 172800.0s)
% obs end   : 2018/11/08 23:59:45.0 GPST (week2026 431985.0s)
% pos mode  : ppp-kinematic
% solution  : combined
% elev mask : 15.0 deg
% dynamics  : off
% tidecorr  : on
% tropo opt : est ztd+grad
% ephemeris : precise
% navi sys  : gps glonass
% antenna1  :                       ( 0.0000  0.0000  0.0000)
%
% (lat/lon/height=WGS84/ellipsoidal,Q=1:fix,2:float,3:sbas,4:dgps,5:single,6:ppp,ns=# of satellites)
%  GPST                  latitude(deg) longitude(deg)  height(m)   Q  ns   sdn(m)   sde(m)   sdu(m)  sdne(m)  sdeu(m)  sdun(m) age(s)  ratio
2018/11/06 00:00:00.000  -74.393393488  163.452955304    97.6190   1   8   0.0220   0.0192   0.0726  -0.0024  -0.0177  -0.0282   3.00    1.0
2018/11/06 00:00:15.000  -74.393393518  163.452954898    97.6090   1   9   0.0249   0.0228   0.0814  -0.0053  -0.0150  -0.0306   3.00    1.0
2018/11/06 00:00:30.000  -74.393393655  163.452954850    97.6651   1   9   0.0334   0.0292   0.1065  -0.0009  -0.0118  -0.0413   3.00    1.0
2018/11/06 00:00:45.000  -74.393393777  163.452954590    97.6356   6   9   0.0435   0.0383   0.1433   0.0087  -0.0226  -0.0583   0.00    0.0
2018/11/06 00:01:00.000  -74.393393782  163.452954138    97.6489   6   9   0.0587   0.0483   0.1996   0.0194  -0.0410  -0.0870   0.00    0.0
2018/11/06 00:01:15.000  -74.393393646  163.452953988    97.6022   6   9   0.0631   0.0559   0.2103   0.0113  -0.0284  -0.0866   0.00    0.0
2018/11/06 00:01:30.000  -74.393393577  163.452954051    97.5678   6   9   0.0813   0.0668   0.2791   0.0266  -0.0554  -0.1222   0.00    0.0
2018/11/06 00:01:45.000  -74.393393533  163.452953936    97.5852   6   9   0.0794   0.0732   0.2631  -0.0093  -0.0114  -0.1044   1.00    0.0
2018/11/06 00:02:00.000  -74.393393521  163.452953858    97.5502   6   9   0.0926   0.0827   0.3114   0.0129  -0.0339  -0.1275   1.00    0.0
2018/11/06 00:02:15.000  -74.393393568  163.452953506    97.5402   6   9   0.1135   0.0939   0.3925   0.0352  -0.0727  -0.1706   2.00    0.0
2018/11/06 00:02:30.000  -74.393393440  163.452953504    97.5049   6   9   0.1084   0.0991   0.3636  -0.0107  -0.0140  -0.1448   3.00    0.0
2018/11/06 00:02:45.000  -74.393393415  163.452953812    97.4685   6   9   0.1121   0.0931   0.3899   0.0330  -0.0696  -0.1687   3.00    0.0
2018/11/06 00:03:00.000  -74.393393297  163.452953961    97.4823   6   9   0.0884   0.0812   0.2981  -0.0128   0.0085  -0.1183   3.00    0.0
2018/11/06 00:03:15.000  -74.393393232  163.452954244    97.4786   6   9   0.0901   0.0747   0.3147   0.0260  -0.0552  -0.1359   3.00    0.0
2018/11/06 00:03:30.000  -74.393393302  163.452954086    97.4844   6   9   0.0627   0.0623   0.2053  -0.0218   0.0382  -0.0727   3.00    0.0
2018/11/06 00:03:45.000  -74.393393451  163.452954081    97.4821   6   9   0.0556   0.0539   0.1839  -0.0169   0.0283  -0.0674   3.00    0.0
2018/11/06 00:04:00.000  -74.393393503  163.452953855    97.4891   6   9   0.0495   0.0458   0.1664  -0.0099   0.0115  -0.0643   3.00    0.0
2018/11/06 00:04:15.000  -74.393393540  163.452954510    97.5599   6   9   0.0463   0.0385   0.1611   0.0119  -0.0275  -0.0681   3.00    0.0
2018/11/06 00:04:30.000  -74.393393590  163.452955000    97.6475   1   9   0.0307   0.0286   0.0982  -0.0102   0.0166  -0.0344   3.00    1.0
2018/11/06 00:04:45.000  -74.393393501  163.452955116    97.6477   1   9   0.0252   0.0221   0.0798  -0.0065   0.0082  -0.0286   3.00    1.0
2018/11/06 00:05:00.000  -74.393393460  163.452955165    97.6046   1   9   0.0226   0.0185   0.0716  -0.0028  -0.0077  -0.0267   3.00    1.0
2018/11/06 00:05:15.000  -74.393393421  163.452955476    97.5973   1   9   0.0251   0.0221   0.0798  -0.0068   0.0090  -0.0285   3.00    1.0
2018/11/06 00:05:30.000  -74.393393372  163.452955577    97.5910   1   9   0.0321   0.0289   0.1058  -0.0086   0.0130  -0.0394   3.00    1.0
2018/11/06 00:05:45.000  -74.393393350  163.452955680    97.5873   1   9   0.0405   0.0371   0.1364  -0.0109   0.0181  -0.0517   3.00    1.0
2018/11/06 00:06:00.000  -74.393393322  163.452955384    97.4959   6   9   0.0480   0.0454   0.1635  -0.0115   0.0187  -0.0612   4.00    0.0
2018/11/06 00:06:15.000  -74.393393329  163.452955387    97.4588   6   9   0.0570   0.0540   0.1958  -0.0124   0.0211  -0.0737   4.00    0.0
2018/11/06 00:06:30.000  -74.393393335  163.452955206    97.4220   6   9   0.0671   0.0627   0.2328  -0.0099   0.0160  -0.0893   5.00    0.0
2018/11/06 00:06:45.000  -74.393393477  163.452955065    97.4399   6   9   0.0806   0.0722   0.2851   0.0159  -0.0329  -0.1145   4.00    0.0
2018/11/06 00:07:00.000  -74.393393470  163.452954725    97.4227   6   9   0.0799   0.0780   0.2750  -0.0221   0.0436  -0.0987   4.00    0.0
2018/11/06 00:07:15.000  -74.393393478  163.452954491    97.4074   6   9   0.0878   0.0859   0.3027  -0.0229   0.0462  -0.1082   4.00    0.0
2018/11/06 00:07:30.000  -74.393393382  163.452953862    97.3463   6   9   0.0964   0.0937   0.3347  -0.0218   0.0453  -0.1208   4.00    0.0
2018/11/06 00:07:45.000  -74.393393438  163.452953999    97.4176   6   9   0.0961   0.0877   0.3424   0.0153  -0.0287  -0.1345   5.00    0.0
2018/11/06 00:08:00.000  -74.393393444  163.452953993    97.4140   6   9   0.0901   0.0798   0.3244   0.0170  -0.0328  -0.1305   6.00    0.0
2018/11/06 00:08:15.000  -74.393393377  163.452954646    97.4565   6   9   0.0733   0.0699   0.2580  -0.0174   0.0354  -0.0956   6.00    0.0
2018/11/06 00:08:30.000  -74.393393349  163.452955140    97.4668   6   9   0.0714   0.0631   0.2578   0.0118  -0.0235  -0.1037   5.00    0.0
2018/11/06 00:08:45.000  -74.393393293  163.452955826    97.4816   6   9   0.0626   0.0547   0.2269   0.0103  -0.0213  -0.0920   5.00    0.0
2018/11/06 00:09:00.000  -74.393393245  163.452955490    97.5193   6   9   0.0436   0.0444   0.1490  -0.0176   0.0345  -0.0490   5.00    0.0
2018/11/06 00:09:15.000  -74.393393304  163.452956130    97.6059   1   9   0.0375   0.0367   0.1271  -0.0155   0.0301  -0.0436   3.00    1.0
2018/11/06 00:09:30.000  -74.393393306  163.452955788    97.6108   1   9   0.0306   0.0288   0.1023  -0.0115   0.0217  -0.0358   3.00    1.0
2018/11/06 00:09:45.000  -74.393393390  163.452955688    97.6247   1   9   0.0249   0.0222   0.0819  -0.0080   0.0137  -0.0293   3.00    1.0
2018/11/06 00:10:00.000  -74.393393536  163.452955228    97.6364   1   9   0.0224   0.0187   0.0729  -0.0045   0.0045  -0.0271   3.00    1.0
2018/11/06 00:10:15.000  -74.393393534  163.452955321    97.5960   1   9   0.0251   0.0222   0.0826  -0.0081   0.0137  -0.0297   3.00    1.0
2018/11/06 00:10:30.000  -74.393393520  163.452955555    97.5774   1   9   0.0322   0.0291   0.1113  -0.0102   0.0190  -0.0416   3.00    1.0
2018/11/06 00:10:45.000  -74.393393461  163.452954996    97.5342   6   9   0.0386   0.0368   0.1365  -0.0104   0.0199  -0.0495   5.00    0.0
2018/11/06 00:11:00.000  -74.393393472  163.452954982    97.5524   6   9   0.0469   0.0451   0.1684  -0.0108   0.0226  -0.0614   5.00    0.0
2018/11/06 00:11:15.000  -74.393393445  163.452954424    97.5538   6   9   0.0573   0.0539   0.2091   0.0014   0.0122  -0.0789   5.00    0.0
2018/11/06 00:11:30.000  -74.393393446  163.452954266    97.5379   6   9   0.0673   0.0620   0.2480   0.0058   0.0129  -0.0950   5.00    0.0
2018/11/06 00:11:45.000  -74.393393527  163.452953508    97.5863   6   9   0.0635   0.0672   0.2245  -0.0270   0.0587  -0.0671   5.00    0.0
2018/11/06 00:12:00.000  -74.393393569  163.452953066    97.5368   6   9   0.0697   0.0746   0.2463  -0.0294   0.0651  -0.0712   5.00    0.0
2018/11/06 00:12:15.000  -74.393393549  163.452952676    97.4923   6   9   0.0760   0.0817   0.2692  -0.0320   0.0717  -0.0764   5.00    0.0
2018/11/06 00:12:30.000  -74.393393507  163.452952576    97.4541   6   9   0.0823   0.0887   0.2922  -0.0347   0.0784  -0.0821   6.00    0.0
2018/11/06 00:12:45.000  -74.393393487  163.452952962    97.4527   6   9   0.0757   0.0816   0.2692  -0.0319   0.0724  -0.0753   5.00    0.0
2018/11/06 00:13:00.000  -74.393393485  163.452952992    97.4774   6   9   0.0690   0.0743   0.2458  -0.0293   0.0664  -0.0690   5.00    0.0
2018/11/06 00:13:15.000  -74.393393460  163.452952898    97.5303   6   9   0.0622   0.0670   0.2221  -0.0266   0.0601  -0.0628   5.00    0.0
2018/11/06 00:13:30.000  -74.393393447  163.452953072    97.5087   6   9   0.0553   0.0594   0.1979  -0.0239   0.0537  -0.0566   5.00    0.0
2018/11/06 00:13:45.000  -74.393393366  163.452953181    97.4970   6   9   0.0484   0.0517   0.1733  -0.0211   0.0469  -0.0502   5.00    0.0
2018/11/06 00:14:00.000  -74.393393366  163.452953907    97.5384   6   9   0.0414   0.0439   0.1482  -0.0182   0.0398  -0.0437   5.00    0.0
2018/11/06 00:14:15.000  -74.393393369  163.452954908    97.6050   1   9   0.0366   0.0371   0.1303  -0.0173   0.0366  -0.0419   3.00    1.0
2018/11/06 00:14:30.000  -74.393393403  163.452954892    97.5995   1   9   0.0292   0.0290   0.1018  -0.0134   0.0277  -0.0324   3.00    1.0
2018/11/06 00:14:45.000  -74.393393402  163.452954900    97.5930   1   9   0.0232   0.0223   0.0775  -0.0102   0.0198  -0.0241   3.00    1.0
2018/11/06 00:15:00.000  -74.393393586  163.452955573    97.6096   1   9   0.0200   0.0187   0.0630  -0.0083   0.0152  -0.0185   3.00    1.0
2018/11/06 00:15:15.000  -74.393393604  163.452956398    97.6131   1   9   0.0231   0.0223   0.0771  -0.0103   0.0200  -0.0239   3.00    1.0
2018/11/06 00:15:30.000  -74.393393599  163.452956718    97.6280   1   9   0.0291   0.0290   0.1023  -0.0137   0.0283  -0.0325   3.00    1.0
2018/11/06 00:15:45.000  -74.393393646  163.452956692    97.6530   1   9   0.0365   0.0372   0.1322  -0.0177   0.0380  -0.0425   3.00    1.0
2018/11/06 00:16:00.000  -74.393393757  163.452955302    97.6514   6  10   0.0396   0.0429   0.1369  -0.0190   0.0445  -0.0356   4.00    0.0
2018/11/06 00:16:15.000  -74.393393822  163.452954841    97.6454   6  10   0.0459   0.0504   0.1597  -0.0218   0.0527  -0.0398   4.00    0.0
2018/11/06 00:16:30.000  -74.393393839  163.452953970    97.6114   6  10   0.0523   0.0577   0.1827  -0.0246   0.0606  -0.0442   4.00    0.0
2018/11/06 00:16:45.000  -74.393393911  163.452953398    97.6299   6  10   0.0586   0.0650   0.2060  -0.0274   0.0683  -0.0490   4.00    0.0
2018/11/06 00:17:00.000  -74.393393955  163.452953084    97.6522   6  10   0.0649   0.0722   0.2300  -0.0301   0.0758  -0.0546   4.00    0.0
2018/11/06 00:17:15.000  -74.393393927  163.452952517    97.6373   6  10   0.0713   0.0793   0.2555  -0.0328   0.0826  -0.0615   4.00    0.0
2018/11/06 00:17:30.000  -74.393393971  163.452952661    97.7003   6  10   0.0779   0.0868   0.2866  -0.0347   0.0867  -0.0716   4.00    0.0
2018/11/06 00:17:45.000  -74.393393846  163.452953117    97.6062   6  10   0.0710   0.0782   0.2501  -0.0347   0.0887  -0.0601   4.00    0.0
2018/11/06 00:18:00.000  -74.393393879  163.452953059    97.5861   6  10   0.0644   0.0713   0.2262  -0.0316   0.0807  -0.0531   4.00    0.0
2018/11/06 00:18:15.000  -74.393393914  163.452953220    97.6213   6  10   0.0580   0.0643   0.2037  -0.0285   0.0726  -0.0477   4.00    0.0
2018/11/06 00:18:30.000  -74.393393991  163.452953708    97.6436   6  10   0.0516   0.0571   0.1814  -0.0254   0.0645  -0.0430   4.00    0.0
2018/11/06 00:18:45.000  -74.393393928  163.452953470    97.6020   6  10   0.0451   0.0499   0.1589  -0.0224   0.0562  -0.0385   4.00    0.0
2018/11/06 00:19:00.000  -74.393393965  163.452953830    97.5905   6  10   0.0387   0.0425   0.1363  -0.0194   0.0476  -0.0340   4.00    0.0
2018/11/06 00:19:15.000  -74.393393906  163.452955544    97.6399   1  10   0.0352   0.0371   0.1237  -0.0198   0.0451  -0.0374   3.00    1.0
2018/11/06 00:19:30.000  -74.393393816  163.452955825    97.6597   1  10   0.0282   0.0290   0.0967  -0.0153   0.0339  -0.0290   3.00    1.0
2018/11/06 00:19:45.000  -74.393393695  163.452955745    97.6365   1  10   0.0225   0.0223   0.0739  -0.0115   0.0242  -0.0216   3.00    1.0
2018/11/06 00:20:00.000  -74.393393633  163.452955836    97.6268   1  10   0.0195   0.0188   0.0610  -0.0095   0.0185  -0.0173   3.00    1.0
2018/11/06 00:20:15.000  -74.393393623  163.452956218    97.6275   1  10   0.0226   0.0224   0.0750  -0.0116   0.0242  -0.0222   3.00    1.0
2018/11/06 00:20:30.000  -74.393393704  163.452956154    97.6498   1  10   0.0283   0.0291   0.0994  -0.0154   0.0341  -0.0303   3.00    1.0
2018/11/06 00:20:45.000  -74.393393681  163.452955677    97.6081   1  10   0.0355   0.0374   0.1284  -0.0199   0.0457  -0.0395   3.00    1.0
2018/11/06 00:21:00.000  -74.393393633  163.452954459    97.5311   6  10   0.0379   0.0422   0.1368  -0.0181   0.0465  -0.0322   4.00    0.0
2018/11/06 00:21:15.000  -74.393393670  163.452954082    97.5521   6  10   0.0441   0.0495   0.1601  -0.0210   0.0553  -0.0365   4.00    0.0
2018/11/06 00:21:30.000  -74.393393671  163.452953526    97.5343   6  10   0.0504   0.0567   0.1837  -0.0241   0.0643  -0.0413   4.00    0.0
2018/11/06 00:21:45.000  -74.393393702  163.452953294    97.5353   6  10   0.0567   0.0637   0.2074  -0.0273   0.0733  -0.0467   4.00    0.0
2018/11/06 00:22:00.000  -74.393393701  163.452952788    97.5095   6  10   0.0630   0.0707   0.2312  -0.0307   0.0826  -0.0527   4.00    0.0
2018/11/06 00:22:15.000  -74.393393685  163.452952469    97.4937   6  10   0.0692   0.0776   0.2552  -0.0342   0.0919  -0.0592   4.00    0.0
2018/11/06 00:22:30.000  -74.393393647  163.452951691    97.4385   6  10   0.0754   0.0844   0.2792  -0.0378   0.1014  -0.0662   4.00    0.0
2018/11/06 00:22:45.000  -74.393393764  163.452952100    97.4749   6  10   0.0695   0.0780   0.2581  -0.0344   0.0929  -0.0604   4.00    0.0
2018/11/06 00:23:00.000  -74.393393700  163.452952509    97.4786   6  10   0.0633   0.0712   0.2363  -0.0308   0.0836  -0.0550   4.00    0.0
2018/11/06 00:23:15.000  -74.393393746  163.452953205    97.5214   6  10   0.0572   0.0645   0.2152  -0.0271   0.0737  -0.0503   4.00    0.0
2018/11/06 00:23:30.000  -74.393393765  163.452953617    97.5697   6  10   0.0512   0.0580   0.1973  -0.0228   0.0618  -0.0478   4.00    0.0
2018/11/06 00:23:45.000  -74.393393741  163.452953752    97.5657   6  10   0.0445   0.0497   0.1653  -0.0220   0.0593  -0.0390   4.00    0.0
2018/11/06 00:24:00.000  -74.393393719  163.452954193    97.5872   6  10   0.0381   0.0424   0.1404  -0.0188   0.0502  -0.0331   4.00    0.0
2018/11/06 00:24:15.000  -74.393393712  163.452955649    97.6554   1  10   0.0359   0.0384   0.1327  -0.0211   0.0501  -0.0406   3.00    1.0
2018/11/06 00:24:30.000  -74.393393614  163.452955602    97.6054   1  10   0.0287   0.0300   0.1031  -0.0164   0.0379  -0.0313   3.00    1.0
2018/11/06 00:24:45.000  -74.393393684  163.452955921    97.6422   1  10   0.0229   0.0231   0.0779  -0.0125   0.0272  -0.0230   3.00    1.0
2018/11/06 00:25:00.000  -74.393393669  163.452955244    97.6049   6  10   0.0187   0.0189   0.0612  -0.0086   0.0178  -0.0155   4.00    0.0
2018/11/06 00:25:15.000  -74.393393643  163.452954650    97.5671   6  10   0.0212   0.0222   0.0728  -0.0101   0.0233  -0.0183   4.00    0.0
2018/11/06 00:25:30.000  -74.393393592  163.452954054    97.5271   6  10   0.0257   0.0280   0.0924  -0.0126   0.0316  -0.0222   4.00    0.0
2018/11/06 00:25:45.000  -74.393393551  163.452954540    97.5426   1  10   0.0360   0.0386   0.1350  -0.0215   0.0512  -0.0415   3.00    1.0
2018/11/06 00:26:00.000  -74.393393433  163.452952811    97.4105   6  10   0.0374   0.0420   0.1391  -0.0181   0.0498  -0.0309   4.00    0.0
2018/11/06 00:26:15.000  -74.393393364  163.452952319    97.3667   6  10   0.0437   0.0491   0.1638  -0.0212   0.0593  -0.0362   4.00    0.0
2018/11/06 00:26:30.000  -74.393393319  163.452951383    97.2552   6  10   0.0500   0.0563   0.1889  -0.0245   0.0690  -0.0423   4.00    0.0
2018/11/06 00:26:45.000  -74.393393425  163.452951080    97.2578   6  10   0.0563   0.0633   0.2142  -0.0281   0.0789  -0.0490   4.00    0.0
2018/11/06 00:27:00.000  -74.393393489  163.452950496    97.2567   6  10   0.0626   0.0703   0.2397  -0.0318   0.0890  -0.0563   4.00    0.0
2018/11/06 00:27:15.000  -74.393393431  163.452950081    97.2486   6  10   0.0689   0.0773   0.2653  -0.0356   0.0991  -0.0641   4.00    0.0
2018/11/06 00:27:30.000  -74.393393527  163.452950357    97.2870   6  10   0.0751   0.0842   0.2910  -0.0395   0.1093  -0.0721   4.00    0.0
2018/11/06 00:27:45.000  -74.393393561  163.452950992    97.3522   6  10   0.0688   0.0769   0.2656  -0.0354   0.0986  -0.0641   4.00    0.0
2018/11/06 00:28:00.000  -74.393393621  163.452951683    97.3898   6  10   0.0625   0.0700   0.2410  -0.0317   0.0889  -0.0569   4.00    0.0
2018/11/06 00:28:15.000  -74.393393701  163.452952787    97.4690   6  10   0.0562   0.0630   0.2163  -0.0281   0.0792  -0.0500   4.00    0.0
2018/11/06 00:28:30.000  -74.393393715  163.452953261    97.4849   6  10   0.0498   0.0559   0.1913  -0.0246   0.0695  -0.0434   4.00    0.0
2018/11/06 00:28:45.000  -74.393393744  163.452954019    97.5148   6  10   0.0435   0.0488   0.1663  -0.0212   0.0598  -0.0373   4.00    0.0
2018/11/06 00:29:00.000  -74.393393720  163.452954548    97.5665   6  10   0.0373   0.0416   0.1414  -0.0180   0.0502  -0.0318   4.00    0.0
2018/11/06 00:29:15.000  -74.393393739  163.452955112    97.6045   6  10   0.0312   0.0345   0.1170  -0.0150   0.0408  -0.0268   4.00    0.0
2018/11/06 00:29:30.000  -74.393393748  163.452955473    97.6208   6  10   0.0257   0.0277   0.0937  -0.0123   0.0317  -0.0223   4.00    0.0
2018/11/06 00:29:45.000  -74.393393767  163.452955620    97.6200   6  10   0.0211   0.0219   0.0738  -0.0098   0.0236  -0.0185   4.00    0.0
2018/11/06 00:30:00.000  -74.393393786  163.452955391    97.6138   6  11   0.0184   0.0189   0.0616  -0.0084   0.0187  -0.0172   4.00    0.0
2018/11/06 00:30:15.000  -74.393393893  163.452955687    97.6813   6  11   0.0209   0.0218   0.0717  -0.0096   0.0233  -0.0204   4.00    0.0
2018/11/06 00:30:30.000  -74.393394118  163.452957235    97.7727   1  11   0.0282   0.0294   0.1089  -0.0152   0.0405  -0.0401   3.00    1.0
2018/11/06 00:30:45.000  -74.393394149  163.452957287    97.7574   1  11   0.0361   0.0381   0.1403  -0.0210   0.0540  -0.0523   3.00    1.0
2018/11/06 00:31:00.000  -74.393394117  163.452955507    97.7302   6  11   0.0367   0.0411   0.1355  -0.0176   0.0503  -0.0399   4.00    0.0
2018/11/06 00:31:15.000  -74.393394120  163.452955073    97.7185   6  11   0.0429   0.0482   0.1602  -0.0210   0.0605  -0.0479   4.00    0.0
2018/11/06 00:31:30.000  -74.393394225  163.452954568    97.7140   6  11   0.0494   0.0553   0.1856  -0.0247   0.0709  -0.0567   4.00    0.0
2018/11/06 00:31:45.000  -74.393394222  163.452953732    97.7078   6  11   0.0559   0.0624   0.2117  -0.0287   0.0814  -0.0661   4.00    0.0
2018/11/06 00:32:00.000  -74.393394155  163.452953460    97.6856   6  11   0.0628   0.0694   0.2384  -0.0329   0.0922  -0.0764   4.00    0.0
2018/11/06 00:32:15.000  -74.393393963  163.452952422    97.5912   6  11   0.0703   0.0765   0.2665  -0.0375   0.1034  -0.0882   4.00    0.0
2018/11/06 00:32:30.000  -74.393393907  163.452951846    97.5568   6  11   0.0797   0.0835   0.2986  -0.0429   0.1153  -0.1044   4.00    0.0
2018/11/06 00:32:45.000  -74.393393954  163.452952032    97.5708   6  11   0.0802   0.0781   0.2959  -0.0446   0.1128  -0.1125   3.00    0.0
2018/11/06 00:33:00.000  -74.393393876  163.452952220    97.5214   6  11   0.0727   0.0710   0.2683  -0.0400   0.1017  -0.1012   3.00    0.0
2018/11/06 00:33:15.000  -74.393393831  163.452952463    97.5271   6  11   0.0651   0.0639   0.2403  -0.0354   0.0906  -0.0899   3.00    0.0
2018/11/06 00:33:30.000  -74.393393638  163.452952383    97.4673   6  11   0.0509   0.0564   0.1980  -0.0282   0.0766  -0.0642   3.00    0.0
2018/11/06 00:33:45.000  -74.393393579  163.452953236    97.5000   6  11   0.0434   0.0489   0.1682  -0.0232   0.0645  -0.0521   3.00    0.0
2018/11/06 00:34:00.000  -74.393393526  163.452953604    97.4835   6  11   0.0370   0.0416   0.1418  -0.0192   0.0536  -0.0430   3.00    0.0
2018/11/06 00:34:15.000  -74.393393520  163.452953865    97.5014   6  11   0.0311   0.0344   0.1171  -0.0158   0.0433  -0.0353   3.00    0.0
2018/11/06 00:34:30.000  -74.393393428  163.452954148    97.4887   6  11   0.0259   0.0276   0.0949  -0.0129   0.0336  -0.0291   3.00    0.0
2018/11/06 00:34:45.000  -74.393393600  163.452954836    97.5623   6  11   0.0223   0.0219   0.0780  -0.0104   0.0253  -0.0256   3.00    0.0
2018/11/06 00:35:00.000  -74.393393837  163.452956053    97.6332   1  11   0.0188   0.0189   0.0748  -0.0087   0.0252  -0.0279   3.00    1.0
2018/11/06 00:35:15.000  -74.393393863  163.452955634    97.6068   1  11   0.0250   0.0231   0.0968  -0.0131   0.0336  -0.0390   3.00    1.0
2018/11/06 00:35:30.000  -74.393393866  163.452955041    97.5454   1  11   0.0312   0.0303   0.1226  -0.0180   0.0453  -0.0484   3.00    1.0
2018/11/06 00:35:45.000  -74.393393692  163.452953014    97.4687   6  11   0.0340   0.0342   0.1240  -0.0166   0.0441  -0.0428   4.00    0.0
2018/11/06 00:36:00.000  -74.393393746  163.452953144    97.5458   6  11   0.0431   0.0419   0.1599  -0.0228   0.0583  -0.0593   4.00    0.0
2018/11/06 00:36:15.000  -74.393393793  163.452953494    97.6149   6  11   0.0441   0.0489   0.1733  -0.0247   0.0668  -0.0558   4.00    0.0
2018/11/06 00:36:30.000  -74.393393845  163.452953198    97.6165   6  11   0.0491   0.0555   0.1944  -0.0271   0.0753  -0.0608   5.00    0.0
2018/11/06 00:36:45.000  -74.393393898  163.452952554    97.5899   6  11   0.0548   0.0623   0.2182  -0.0303   0.0850  -0.0680   5.00    0.0
2018/11/06 00:37:00.000  -74.393393976  163.452951465    97.5367   6  11   0.0606   0.0691   0.2429  -0.0340   0.0951  -0.0762   5.00    0.0
2018/11/06 00:37:15.000  -74.393393997  163.452950329    97.4319   6  11   0.0665   0.0760   0.2681  -0.0378   0.1055  -0.0848   5.00    0.0
2018/11/06 00:37:30.000  -74.393393991  163.452950113    97.4495   6  11   0.0724   0.0829   0.2936  -0.0417   0.1159  -0.0938   5.00    0.0
2018/11/06 00:37:45.000  -74.393394012  163.452950672    97.4954   6  11   0.0662   0.0759   0.2679  -0.0375   0.1055  -0.0843   5.00    0.0
2018/11/06 00:38:00.000  -74.393394006  163.452951230    97.4976   6  11   0.0600   0.0689   0.2422  -0.0335   0.0949  -0.0751   5.00    0.0
2018/11/06 00:38:15.000  -74.393393935  163.452951452    97.4884   6  11   0.0539   0.0620   0.2165  -0.0295   0.0843  -0.0661   5.00    0.0
2018/11/06 00:38:30.000  -74.393393930  163.452951860    97.5105   6  11   0.0477   0.0550   0.1908  -0.0256   0.0738  -0.0573   6.00    0.0
2018/11/06 00:38:45.000  -74.393393910  163.452952412    97.5093   6  11   0.0416   0.0479   0.1652  -0.0219   0.0634  -0.0487   6.00    0.0
2018/11/06 00:39:00.000  -74.393393920  163.452952969    97.5636   6  11   0.0356   0.0409   0.1399  -0.0184   0.0531  -0.0406   6.00    0.0
2018/11/06 00:39:15.000  -74.393393931  163.452953579    97.5901   6  11   0.0299   0.0339   0.1153  -0.0152   0.0431  -0.0329   6.00    0.0
2018/11/06 00:39:30.000  -74.393393805  163.452953720    97.5579   6  11   0.0246   0.0273   0.0922  -0.0124   0.0336  -0.0259   6.00    0.0
2018/11/06 00:39:45.000  -74.393393714  163.452954027    97.5484   6  11   0.0202   0.0218   0.0727  -0.0101   0.0254  -0.0199   6.00    0.0
2018/11/06 00:40:00.000  -74.393393714  163.452954711    97.6026   6  11   0.0179   0.0188   0.0615  -0.0090   0.0205  -0.0161   6.00    0.0
2018/11/06 00:40:15.000  -74.393393729  163.452954534    97.5822   6  11   0.0201   0.0217   0.0716  -0.0098   0.0249  -0.0192   6.00    0.0
2018/11/06 00:40:30.000  -74.393393650  163.452953950    97.5570   6  11   0.0242   0.0271   0.0901  -0.0119   0.0326  -0.0245   6.00    0.0
2018/11/06 00:40:45.000  -74.393393530  163.452953143    97.5027   6  11   0.0293   0.0335   0.1122  -0.0145   0.0417  -0.0310   6.00    0.0
2018/11/06 00:41:00.000  -74.393393595  163.452952674    97.5090   6  11   0.0349   0.0402   0.1361  -0.0175   0.0514  -0.0384   6.00    0.0
2018/11/06 00:41:15.000  -74.393393615  163.452951978    97.5066   6  11   0.0407   0.0471   0.1608  -0.0209   0.0614  -0.0463   6.00    0.0
2018/11/06 00:41:30.000  -74.393393690  163.452951406    97.5034   6  11   0.0466   0.0539   0.1860  -0.0245   0.0716  -0.0547   6.00    0.0
2018/11/06 00:41:45.000  -74.393393721  163.452950787    97.4871   6  11   0.0525   0.0607   0.2112  -0.0282   0.0818  -0.0634   6.00    0.0
2018/11/06 00:42:00.000  -74.393393719  163.452950297    97.4622   6  11   0.0584   0.0675   0.2366  -0.0320   0.0921  -0.0722   6.00    0.0
2018/11/06 00:42:15.000  -74.393393730  163.452949841    97.4484   6  11   0.0643   0.0743   0.2619  -0.0359   0.1024  -0.0812   6.00    0.0
2018/11/06 00:42:30.000  -74.393393671  163.452949058    97.3758   6  11   0.0703   0.0810   0.2871  -0.0398   0.1127  -0.0902   6.00    0.0
2018/11/06 00:42:45.000  -74.393393714  163.452949461    97.3456   6  11   0.0641   0.0741   0.2606  -0.0356   0.1016  -0.0805   6.00    0.0
2018/11/06 00:43:00.000  -74.393393630  163.452949546    97.3146   6  11   0.0581   0.0673   0.2350  -0.0316   0.0911  -0.0713   6.00    0.0
2018/11/06 00:43:15.000  -74.393393685  163.452950265    97.3827   6  11   0.0521   0.0604   0.2095  -0.0276   0.0806  -0.0623   6.00    0.0
2018/11/06 00:43:30.000  -74.393393775  163.452950875    97.4331   6  11   0.0461   0.0535   0.1841  -0.0238   0.0703  -0.0536   6.00    0.0
2018/11/06 00:43:45.000  -74.393393890  163.452951829    97.4992   6  11   0.0402   0.0467   0.1591  -0.0202   0.0601  -0.0453   6.00    0.0
2018/11/06 00:44:00.000  -74.393393867  163.452952180    97.5046   6  11   0.0345   0.0398   0.1347  -0.0169   0.0501  -0.0375   6.00    0.0
2018/11/06 00:44:15.000  -74.393393817  163.452952944    97.5062   6  11   0.0289   0.0331   0.1111  -0.0139   0.0406  -0.0303   6.00    0.0
2018/11/06 00:44:30.000  -74.393393793  163.452953775    97.5387   6  11   0.0239   0.0268   0.0894  -0.0114   0.0318  -0.0241   6.00    0.0
2018/11/06 00:44:45.000  -74.393393695  163.452954028    97.5383   6  11   0.0199   0.0216   0.0715  -0.0096   0.0243  -0.0190   6.00    0.0
2018/11/06 00:45:00.000  -74.393393737  163.452954470    97.5775   6  11   0.0175   0.0191   0.0615  -0.0084   0.0204  -0.0161   6.00    0.0
2018/11/06 00:45:15.000  -74.393393827  163.452954482    97.6134   6  11   0.0198   0.0220   0.0709  -0.0096   0.0240  -0.0189   6.00    0.0
2018/11/06 00:45:30.000  -74.393393863  163.452953509    97.6217   6  11   0.0238   0.0274   0.0884  -0.0116   0.0311  -0.0239   6.00    0.0
2018/11/06 00:45:45.000  -74.393393888  163.452952825    97.6180   6  11   0.0288   0.0337   0.1094  -0.0141   0.0395  -0.0301   6.00    0.0
2018/11/06 00:46:00.000  -74.393393842  163.452951977    97.5852   6  11   0.0342   0.0404   0.1321  -0.0170   0.0487  -0.0370   6.00    0.0
2018/11/06 00:46:15.000  -74.393393874  163.452951548    97.5999   6  11   0.0398   0.0471   0.1556  -0.0202   0.0581  -0.0445   6.00    1.0
2018/11/06 00:46:30.000  -74.393393915  163.452950990    97.5531   6  11   0.0455   0.0539   0.1794  -0.0237   0.0678  -0.0524   6.00    0.0
2018/11/06 00:46:45.000  -74.393394000  163.452950651    97.5548   6  11   0.0512   0.0608   0.2034  -0.0274   0.0774  -0.0606   6.00    0.0
2018/11/06 00:47:00.000  -74.393393987  163.452950603    97.5569   6  11   0.0570   0.0679   0.2273  -0.0312   0.0872  -0.0689   6.00    0.0
2018/11/06 00:47:15.000  -74.393393908  163.452950361    97.5253   6  11   0.0628   0.0754   0.2513  -0.0352   0.0969  -0.0773   6.00    0.0
2018/11/06 00:47:30.000  -74.393393843  163.452949906    97.5082   6  11   0.0686   0.0846   0.2751  -0.0400   0.1067  -0.0858   6.00    0.0
2018/11/06 00:47:45.000  -74.393393915  163.452951531    97.4920   6  11   0.0626   0.0746   0.2499  -0.0346   0.0972  -0.0767   5.00    0.0
2018/11/06 00:48:00.000  -74.393393882  163.452951834    97.5226   6  11   0.0567   0.0665   0.2251  -0.0300   0.0865  -0.0677   5.00    0.0
2018/11/06 00:48:15.000  -74.393393882  163.452952439    97.5298   6  11   0.0508   0.0593   0.2006  -0.0260   0.0763  -0.0591   5.00    0.0
2018/11/06 00:48:30.000  -74.393393946  163.452952875    97.5772   6  11   0.0451   0.0523   0.1765  -0.0222   0.0664  -0.0507   5.00    0.0
2018/11/06 00:48:45.000  -74.393393917  163.452953325    97.5968   6  11   0.0394   0.0455   0.1528  -0.0187   0.0567  -0.0429   5.00    0.0
2018/11/06 00:49:00.000  -74.393393864  163.452953319    97.5707   6  11   0.0338   0.0388   0.1298  -0.0154   0.0473  -0.0356   6.00    0.0
2018/11/06 00:49:15.000  -74.393393932  163.452955671    97.5969   1  11   0.0359   0.0381   0.1400  -0.0215   0.0536  -0.0495   6.00    1.0
2018/11/06 00:49:30.000  -74.393393971  163.452956037    97.6163   1  11   0.0295   0.0301   0.1125  -0.0177   0.0423  -0.0403   6.00    1.0
2018/11/06 00:49:45.000  -74.393393966  163.452956010    97.6386   1  11   0.0244   0.0237   0.0902  -0.0145   0.0331  -0.0327   7.00    1.0
2018/11/06 00:50:00.000  -74.393393931  163.452955886    97.6348   1  11   0.0217   0.0204   0.0788  -0.0130   0.0288  -0.0288   7.00    1.0
2018/11/06 00:50:15.000  -74.393393882  163.452955607    97.6239   1  11   0.0250   0.0238   0.0934  -0.0149   0.0338  -0.0348   7.00    1.0
2018/11/06 00:50:30.000  -74.393393832  163.452955238    97.5911   1  11   0.0310   0.0302   0.1184  -0.0184   0.0433  -0.0444   7.00    1.0
2018/11/06 00:50:45.000  -74.393393815  163.452953199    97.5837   6  11   0.0289   0.0318   0.1082  -0.0123   0.0374  -0.0307   6.00    0.0
2018/11/06 00:51:00.000  -74.393393890  163.452953117    97.6252   6  11   0.0341   0.0381   0.1292  -0.0149   0.0459  -0.0371   6.00    0.0
2018/11/06 00:51:15.000  -74.393393936  163.452952939    97.6427   6  11   0.0395   0.0444   0.1509  -0.0179   0.0546  -0.0439   6.00    0.0
2018/11/06 00:51:30.000  -74.393393906  163.452952132    97.6308   6  11   0.0449   0.0508   0.1728  -0.0210   0.0634  -0.0510   6.00    0.0
2018/11/06 00:51:45.000  -74.393393837  163.452951512    97.5916   6  11   0.0504   0.0572   0.1948  -0.0242   0.0723  -0.0584   6.00    0.0
2018/11/06 00:52:00.000  -74.393393729  163.452951257    97.5614   6  11   0.0559   0.0636   0.2168  -0.0275   0.0811  -0.0658   6.00    0.0
2018/11/06 00:52:15.000  -74.393393684  163.452951341    97.5389   6  11   0.0614   0.0699   0.2387  -0.0308   0.0899  -0.0734   6.00    0.0
2018/11/06 00:52:30.000  -74.393393695  163.452951364    97.5190   6  11   0.0669   0.0763   0.2606  -0.0340   0.0986  -0.0809   6.00    0.0
2018/11/06 00:52:45.000  -74.393393667  163.452951574    97.5437   6  11   0.0613   0.0698   0.2381  -0.0307   0.0896  -0.0732   6.00    0.0
2018/11/06 00:53:00.000  -74.393393662  163.452951808    97.5296   6  11   0.0558   0.0633   0.2154  -0.0273   0.0803  -0.0654   6.00    0.0
2018/11/06 00:53:15.000  -74.393393722  163.452952177    97.5605   6  11   0.0503   0.0568   0.1931  -0.0239   0.0711  -0.0579   6.00    0.0
2018/11/06 00:53:30.000  -74.393393749  163.452952556    97.5517   6  11   0.0449   0.0503   0.1714  -0.0206   0.0621  -0.0509   6.00    0.0
2018/11/06 00:53:45.000  -74.393393819  163.452952976    97.5437   6  11   0.0396   0.0439   0.1504  -0.0175   0.0533  -0.0446   6.00    0.0
2018/11/06 00:54:00.000  -74.393393876  163.452953836    97.5916   6  11   0.0346   0.0376   0.1305  -0.0147   0.0448  -0.0391   6.00    0.0
2018/11/06 00:54:15.000  -74.393393884  163.452954661    97.6296   6  11   0.0299   0.0313   0.1124  -0.0124   0.0368  -0.0348   6.00    0.0
2018/11/06 00:54:30.000  -74.393393807  163.452954573    97.5829   6  11   0.0260   0.0254   0.0974  -0.0104   0.0295  -0.0321   6.00    0.0
2018/11/06 00:54:45.000  -74.393393989  163.452956063    97.6295   1  10   0.0304   0.0242   0.1178  -0.0178   0.0389  -0.0494   5.00    1.0
2018/11/06 00:55:00.000  -74.393393959  163.452955582    97.6021   1  10   0.0246   0.0206   0.0933  -0.0144   0.0313  -0.0374   5.00    1.0
2018/11/06 00:55:15.000  -74.393393863  163.452955361    97.5315   1  10   0.0303   0.0241   0.1184  -0.0176   0.0384  -0.0493   5.00    1.0
2018/11/06 00:55:30.000  -74.393393698  163.452953698    97.5077   6  10   0.0308   0.0264   0.1190  -0.0153   0.0366  -0.0464   5.00    0.0
2018/11/06 00:55:45.000  -74.393393599  163.452953306    97.5061   6  10   0.0394   0.0328   0.1535  -0.0202   0.0480  -0.0623   5.00    0.0
2018/11/06 00:56:00.000  -74.393393636  163.452953288    97.6071   6  10   0.0487   0.0394   0.1899  -0.0256   0.0602  -0.0791   5.00    0.0
2018/11/06 00:56:15.000  -74.393393658  163.452952650    97.5960   6  10   0.0582   0.0462   0.2271  -0.0312   0.0726  -0.0963   5.00    0.0
2018/11/06 00:56:30.000  -74.393393760  163.452952337    97.6091   6  10   0.0678   0.0529   0.2646  -0.0368   0.0850  -0.1137   5.00    0.0
2018/11/06 00:56:45.000  -74.393393802  163.452952570    97.6720   6  10   0.0775   0.0597   0.3023  -0.0425   0.0974  -0.1312   5.00    0.0
2018/11/06 00:57:00.000  -74.393393940  163.452952482    97.6938   6  10   0.0872   0.0664   0.3401  -0.0481   0.1097  -0.1486   5.00    0.0
2018/11/06 00:57:15.000  -74.393393894  163.452952225    97.6855   6  10   0.0969   0.0731   0.3779  -0.0536   0.1219  -0.1660   5.00    0.0
2018/11/06 00:57:30.000  -74.393393778  163.452952234    97.6376   6  10   0.1065   0.0798   0.4158  -0.0591   0.1338  -0.1834   5.00    0.0
2018/11/06 00:57:45.000  -74.393393855  163.452952526    97.6651   6  10   0.0967   0.0728   0.3815  -0.0529   0.1202  -0.1661   5.00    0.0
2018/11/06 00:58:00.000  -74.393393864  163.452952688    97.7051   6  10   0.0870   0.0657   0.3536  -0.0467   0.1064  -0.1499   5.00    0.0
2018/11/06 00:58:15.000  -74.393393950  163.452953401    97.7317   6   9   0.0786   0.0588   0.3354  -0.0411   0.0944  -0.1385   5.00    0.0
2018/11/06 00:58:30.000  -74.393394067  163.452953456    97.7799   6   9   0.0686   0.0520   0.2918  -0.0352   0.0813  -0.1195   5.00    0.0
2018/11/06 00:58:45.000  -74.393394074  163.452953274    97.7832   6   9   0.0587   0.0452   0.2486  -0.0295   0.0685  -0.1007   5.00    0.0
2018/11/06 00:59:00.000  -74.393394064  163.452953283    97.7727   6   9   0.0490   0.0385   0.2060  -0.0239   0.0560  -0.0822   5.00    0.0
2018/11/06 00:59:15.000  -74.393394059  163.452953932    97.7752   6   9   0.0395   0.0319   0.1645  -0.0187   0.0440  -0.0642   5.00    0.0
2018/11/06 00:59:30.000  -74.393393942  163.452954222    97.6875   6   9   0.0307   0.0257   0.1253  -0.0139   0.0329  -0.0470   5.00    0.0
2018/11/06 00:59:45.000  -74.393393823  163.452954273    97.6031   6   9   0.0232   0.0204   0.0915  -0.0101   0.0237  -0.0320   5.00    0.0
2018/11/06 01:00:00.000  -74.393393866  163.452954512    97.6159   6   9   0.0192   0.0176   0.0717  -0.0080   0.0190  -0.0229   5.00    0.0
2018/11/06 01:00:15.000  -74.393393905  163.452954472    97.6382   6   9   0.0230   0.0203   0.0905  -0.0098   0.0233  -0.0316   5.00    0.0
2018/11/06 01:00:30.000  -74.393394032  163.452954092    97.6827   6   9   0.0303   0.0254   0.1235  -0.0133   0.0317  -0.0464   5.00    0.0
2018/11/06 01:00:45.000  -74.393394133  163.452953793    97.7117   6   9   0.0389   0.0314   0.1618  -0.0177   0.0418  -0.0631   5.00    0.0
2018/11/06 01:01:00.000  -74.393394304  163.452953670    97.8230   6   9   0.0481   0.0376   0.2021  -0.0223   0.0524  -0.0806   5.00    0.0
2018/11/06 01:01:15.000  -74.393393908  163.452952980    97.6354   6  10   0.0468   0.0438   0.1835  -0.0252   0.0594  -0.0660   5.00    0.0
2018/11/06 01:01:30.000  -74.393393933  163.452952685    97.6570   6  10   0.0517   0.0497   0.1999  -0.0279   0.0658  -0.0701   5.00    0.0
2018/11/06 01:01:45.000  -74.393393914  163.452952379    97.6661   6  10   0.0574   0.0558   0.2202  -0.0313   0.0735  -0.0764   5.00    0.0
2018/11/06 01:02:00.000  -74.393393991  163.452952607    97.6802   6  10   0.0634   0.0620   0.2424  -0.0350   0.0818  -0.0838   5.00    0.0
2018/11/06 01:02:15.000  -74.393393992  163.452952102    97.6657   6  10   0.0696   0.0682   0.2657  -0.0389   0.0903  -0.0918   5.00    0.0
2018/11/06 01:02:30.000  -74.393393867  163.452951531    97.6141   6  10   0.0759   0.0744   0.2897  -0.0428   0.0989  -0.1002   5.00    0.0
2018/11/06 01:02:45.000  -74.393393824  163.452952047    97.6762   6  10   0.0694   0.0680   0.2635  -0.0386   0.0894  -0.0907   5.00    0.0
2018/11/06 01:03:00.000  -74.393393759  163.452952082    97.6818   6  10   0.0628   0.0616   0.2383  -0.0344   0.0800  -0.0815   5.00    0.0
2018/11/06 01:03:15.000  -74.393393792  163.452952595    97.7341   6  10   0.0563   0.0552   0.2132  -0.0302   0.0706  -0.0723   5.00    0.0
2018/11/06 01:03:30.000  -74.393393778  163.452952591    97.6774   6  10   0.0498   0.0488   0.1882  -0.0261   0.0613  -0.0632   5.00    0.0
2018/11/06 01:03:45.000  -74.393393830  163.452953083    97.7080   6  10   0.0434   0.0425   0.1634  -0.0220   0.0522  -0.0541   5.00    0.0
2018/11/06 01:04:00.000  -74.393393765  163.452953469    97.6813   6  10   0.0372   0.0363   0.1391  -0.0181   0.0432  -0.0453   5.00    0.0
2018/11/06 01:04:15.000  -74.393393793  163.452953726    97.6743   6  10   0.0311   0.0302   0.1155  -0.0143   0.0345  -0.0369   5.00    0.0
2018/11/06 01:04:30.000  -74.393393846  163.452954089    97.6513   6  10   0.0254   0.0245   0.0933  -0.0110   0.0262  -0.0290   5.00    0.0
2018/11/06 01:04:45.000  -74.393393832  163.452954556    97.6242   6  10   0.0206   0.0196   0.0738  -0.0079   0.0191  -0.0218   5.00    0.0
2018/11/06 01:05:00.000  -74.393393891  163.452954516    97.6271   6  10   0.0179   0.0169   0.0627  -0.0062   0.0146  -0.0175   5.00    0.0
2018/11/06 01:05:15.000  -74.393393976  163.452954120    97.6412   6  10   0.0216   0.0197   0.0802  -0.0084   0.0200  -0.0265   5.00    0.0
2018/11/06 01:05:30.000  -74.393394032  163.452953664    97.6781   6  10   0.0272   0.0244   0.1040  -0.0096   0.0236  -0.0364   5.00    0.0
2018/11/06 01:05:45.000  -74.393393970  163.452953468    97.6689   6  10   0.0317   0.0301   0.1205  -0.0153   0.0360  -0.0406   5.00    0.0
2018/11/06 01:06:00.000  -74.393393977  163.452953645    97.7105   6  10   0.0370   0.0357   0.1394  -0.0179   0.0423  -0.0463   5.00    0.0
2018/11/06 01:06:15.000  -74.393394027  163.452953272    97.6896   6  10   0.0428   0.0416   0.1613  -0.0211   0.0497  -0.0536   5.00    0.0
2018/11/06 01:06:30.000  -74.393394009  163.452952939    97.6664   6  10   0.0489   0.0475   0.1847  -0.0247   0.0576  -0.0618   5.00    0.0
2018/11/06 01:06:45.000  -74.393393993  163.452952544    97.6628   6  10   0.0552   0.0535   0.2090  -0.0283   0.0657  -0.0705   5.00    0.0
2018/11/06 01:07:00.000  -74.393394016  163.452952335    97.6943   6  10   0.0616   0.0595   0.2339  -0.0321   0.0738  -0.0793   5.00    0.0
2018/11/06 01:07:15.000  -74.393393977  163.452951912    97.6875   6  10   0.0681   0.0655   0.2592  -0.0359   0.0819  -0.0883   5.00    0.0
2018/11/06 01:07:30.000  -74.393393916  163.452951527    97.6527   6  10   0.0746   0.0715   0.2847  -0.0397   0.0900  -0.0974   5.00    0.0
2018/11/06 01:07:45.000  -74.393393945  163.452951889    97.6510   6  10   0.0680   0.0654   0.2595  -0.0356   0.0812  -0.0883   5.00    0.0
2018/11/06 01:08:00.000  -74.393393903  163.452952392    97.6717   6  10   0.0615   0.0592   0.2338  -0.0316   0.0723  -0.0790   5.00    0.0
2018/11/06 01:08:15.000  -74.393393892  163.452952638    97.6301   6  10   0.0549   0.0530   0.2081  -0.0276   0.0635  -0.0696   5.00    0.0
2018/11/06 01:08:30.000  -74.393393886  163.452952896    97.6024   6  10   0.0484   0.0470   0.1826  -0.0237   0.0548  -0.0603   6.00    0.0
2018/11/06 01:08:45.000  -74.393393915  163.452953139    97.6056   6  10   0.0420   0.0410   0.1573  -0.0198   0.0463  -0.0510   6.00    0.0
2018/11/06 01:09:00.000  -74.393393955  163.452953546    97.6209   6  10   0.0358   0.0351   0.1325  -0.0162   0.0381  -0.0419   6.00    0.0
2018/11/06 01:09:15.000  -74.393393960  163.452953961    97.6215   6  10   0.0297   0.0292   0.1083  -0.0127   0.0302  -0.0329   6.00    0.0
2018/11/06 01:09:30.000  -74.393394052  163.452954612    97.6558   6  10   0.0241   0.0238   0.0855  -0.0096   0.0228  -0.0243   6.00    0.0
2018/11/06 01:09:45.000  -74.393393990  163.452954672    97.6217   6  10   0.0193   0.0191   0.0657  -0.0071   0.0166  -0.0166   6.00    0.0
2018/11/06 01:10:00.000  -74.393393925  163.452954483    97.5898   6  10   0.0166   0.0166   0.0540  -0.0056   0.0133  -0.0113   6.00    0.0
2018/11/06 01:10:15.000  -74.393393849  163.452954155    97.5960   6  10   0.0191   0.0191   0.0643  -0.0066   0.0161  -0.0158   6.00    0.0
2018/11/06 01:10:30.000  -74.393393714  163.452953508    97.5969   6  10   0.0236   0.0236   0.0828  -0.0090   0.0217  -0.0230   6.00    0.0
2018/11/06 01:10:45.000  -74.393393618  163.452952963    97.5977   6  10   0.0291   0.0288   0.1047  -0.0119   0.0284  -0.0312   6.00    0.0
2018/11/06 01:11:00.000  -74.393393558  163.452952624    97.6160   6  10   0.0350   0.0344   0.1282  -0.0151   0.0356  -0.0400   6.00    0.0
2018/11/06 01:11:15.000  -74.393393625  163.452952747    97.6493   6  10   0.0412   0.0401   0.1528  -0.0185   0.0430  -0.0490   6.00    0.0
2018/11/06 01:11:30.000  -74.393393533  163.452952494    97.6483   6  10   0.0475   0.0458   0.1779  -0.0220   0.0505  -0.0582   6.00    0.0
2018/11/06 01:11:45.000  -74.393393584  163.452952398    97.6554   6  10   0.0539   0.0515   0.2033  -0.0255   0.0579  -0.0674   6.00    0.0
2018/11/06 01:12:00.000  -74.393393544  163.452952082    97.6121   6  10   0.0604   0.0572   0.2290  -0.0290   0.0652  -0.0766   6.00    0.0
2018/11/06 01:12:15.000  -74.393393551  163.452951870    97.6044   6  10   0.0670   0.0630   0.2548  -0.0325   0.0724  -0.0858   6.00    0.0
2018/11/06 01:12:30.000  -74.393393614  163.452952299    97.6063   6  10   0.0736   0.0687   0.2806  -0.0360   0.0795  -0.0950   6.00    0.0
2018/11/06 01:12:45.000  -74.393393650  163.452952574    97.6158   6  10   0.0670   0.0628   0.2545  -0.0323   0.0715  -0.0855   6.00    0.0
2018/11/06 01:13:00.000  -74.393393613  163.452952577    97.5931   6  10   0.0604   0.0569   0.2285  -0.0285   0.0634  -0.0762   6.00    0.0
2018/11/06 01:13:15.000  -74.393393604  163.452952472    97.5853   6  10   0.0538   0.0510   0.2025  -0.0248   0.0554  -0.0668   6.00    0.0
2018/11/06 01:13:30.000  -74.393393612  163.452952768    97.5851   6  10   0.0474   0.0452   0.1768  -0.0211   0.0476  -0.0574   6.00    0.0
2018/11/06 01:13:45.000  -74.393393685  163.452953248    97.5973   6  10   0.0410   0.0395   0.1514  -0.0176   0.0399  -0.0482   6.00    0.0
2018/11/06 01:14:00.000  -74.393393703  163.452953358    97.6277   6  10   0.0348   0.0338   0.1266  -0.0142   0.0325  -0.0390   6.00    0.0
2018/11/06 01:14:15.000  -74.393393759  163.452953401    97.6215   6  10   0.0288   0.0283   0.1026  -0.0110   0.0254  -0.0300   6.00    0.0
2018/11/06 01:14:30.000  -74.393393817  163.452953942    97.6182   6  10   0.0233   0.0231   0.0801  -0.0082   0.0189  -0.0215   6.00    0.0
2018/11/06 01:14:45.000  -74.393393870  163.452954183    97.5967   6  10   0.0188   0.0185   0.0610  -0.0061   0.0135  -0.0139   6.00    0.0
2018/11/06 01:15:00.000  -74.393393902  163.452954497    97.5859   6  10   0.0163   0.0160   0.0501  -0.0046   0.0106  -0.0086   6.00    0.0
2018/11/06 01:15:15.000  -74.393394002  163.452954368    97.5784   6  10   0.0186   0.0186   0.0603  -0.0056   0.0133  -0.0135   6.00    0.0
2018/11/06 01:15:30.000  -74.393394103  163.452954273    97.6087   6  10   0.0231   0.0229   0.0788  -0.0078   0.0182  -0.0211   6.00    0.0
2018/11/06 01:15:45.000  -74.393394112  163.452953989    97.6389   6  10   0.0285   0.0279   0.1008  -0.0103   0.0241  -0.0295   6.00    0.0
2018/11/06 01:16:00.000  -74.393394066  163.452953338    97.6110   6  10   0.0344   0.0333   0.1244  -0.0132   0.0303  -0.0383   6.00    0.0
2018/11/06 01:16:15.000  -74.393394097  163.452953377    97.6156   6  10   0.0405   0.0387   0.1488  -0.0162   0.0366  -0.0472   6.00    0.0
2018/11/06 01:16:30.000  -74.393394120  163.452953543    97.6245   6  10   0.0468   0.0441   0.1737  -0.0194   0.0428  -0.0562   6.00    0.0
2018/11/06 01:16:45.000  -74.393394052  163.452953041    97.5737   6  10   0.0532   0.0496   0.1988  -0.0225   0.0490  -0.0652   6.00    0.0
2018/11/06 01:17:00.000  -74.393393969  163.452952745    97.5018   6  10   0.0596   0.0551   0.2241  -0.0257   0.0550  -0.0741   6.00    0.0
2018/11/06 01:17:15.000  -74.393393957  163.452952536    97.5451   6  10   0.0661   0.0606   0.2494  -0.0288   0.0609  -0.0830   6.00    0.0
2018/11/06 01:17:30.000  -74.393393946  163.452952415    97.6188   6  10   0.0726   0.0662   0.2747  -0.0318   0.0667  -0.0919   6.00    0.0
2018/11/06 01:17:45.000  -74.393393965  163.452952279    97.6451   6  10   0.0659   0.0603   0.2489  -0.0282   0.0594  -0.0826   6.00    0.0
2018/11/06 01:18:00.000  -74.393394031  163.452952287    97.7022   6  10   0.0594   0.0546   0.2230  -0.0247   0.0525  -0.0734   6.00    0.0
2018/11/06 01:18:15.000  -74.393393955  163.452952378    97.7395   6  10   0.0529   0.0490   0.1973  -0.0213   0.0457  -0.0642   6.00    0.0
2018/11/06 01:18:30.000  -74.393393976  163.452952659    97.7096   6  10   0.0464   0.0435   0.1719  -0.0180   0.0390  -0.0551   6.00    0.0
2018/11/06 01:18:45.000  -74.393393940  163.452952928    97.6903   6  10   0.0401   0.0380   0.1468  -0.0148   0.0325  -0.0460   6.00    0.0
2018/11/06 01:19:00.000  -74.393394007  163.452953388    97.6683   6  10   0.0340   0.0326   0.1222  -0.0118   0.0262  -0.0370   6.00    0.0
2018/11/06 01:19:15.000  -74.393394027  163.452954093    97.6505   6  10   0.0281   0.0273   0.0985  -0.0089   0.0202  -0.0281   6.00    0.0
2018/11/06 01:19:30.000  -74.393394007  163.452954367    97.6366   6  10   0.0227   0.0223   0.0763  -0.0065   0.0148  -0.0196   6.00    0.0
2018/11/06 01:19:45.000  -74.393393971  163.452954465    97.5956   6  10   0.0183   0.0181   0.0577  -0.0049   0.0104  -0.0118   6.00    0.0
2018/11/06 01:20:00.000  -74.393393915  163.452954399    97.5618   6  10   0.0159   0.0158   0.0471  -0.0039   0.0083  -0.0068   6.00    0.0
2018/11/06 01:20:15.000  -74.393393916  163.452954486    97.5587   6  10   0.0182   0.0181   0.0571  -0.0042   0.0102  -0.0117   6.00    0.0
2018/11/06 01:20:30.000  -74.393393922  163.452954367    97.5731   6  10   0.0225   0.0221   0.0753  -0.0060   0.0141  -0.0193   6.00    0.0
2018/11/06 01:20:45.000  -74.393393892  163.452953734    97.5647   6  10   0.0278   0.0270   0.0969  -0.0082   0.0188  -0.0276   6.00    0.0
2018/11/06 01:21:00.000  -74.393393831  163.452953276    97.5603   6  10   0.0336   0.0321   0.1200  -0.0106   0.0237  -0.0361   6.00    0.0
2018/11/06 01:21:15.000  -74.393393811  163.452953219    97.5842   6  10   0.0397   0.0373   0.1438  -0.0133   0.0286  -0.0447   6.00    0.0
2018/11/06 01:21:30.000  -74.393393877  163.452953433    97.6033   6  10   0.0459   0.0425   0.1680  -0.0160   0.0333  -0.0534   6.00    0.0
2018/11/06 01:21:45.000  -74.393393898  163.452953493    97.6186   6  10   0.0521   0.0479   0.1924  -0.0188   0.0380  -0.0619   6.00    0.0
2018/11/06 01:22:00.000  -74.393393847  163.452953180    97.6499   6  10   0.0585   0.0532   0.2168  -0.0215   0.0424  -0.0704   6.00    0.0
2018/11/06 01:22:15.000  -74.393393663  163.452952892    97.5699   6  11   0.0569   0.0568   0.2074  -0.0117   0.0202  -0.0487   6.00    0.0
2018/11/06 01:22:30.000  -74.393393608  163.452952672    97.5474   6  11   0.0606   0.0617   0.2200  -0.0091   0.0071  -0.0448   6.00    0.0
2018/11/06 01:22:45.000  -74.393393548  163.452952898    97.5671   6  11   0.0548   0.0565   0.1974  -0.0053  -0.0061  -0.0379   6.00    0.0
2018/11/06 01:23:00.000  -74.393393649  163.452952848    97.5671   6  11   0.0493   0.0513   0.1767   0.0013  -0.0092  -0.0324   6.00    0.0
2018/11/06 01:23:15.000  -74.393393785  163.452952805    97.5734   6  11   0.0440   0.0461   0.1566   0.0044  -0.0099  -0.0275   6.00    0.0
2018/11/06 01:23:30.000  -74.393393784  163.452952634    97.5640   6  11   0.0389   0.0410   0.1370   0.0054  -0.0095  -0.0229   6.00    0.0
2018/11/06 01:23:45.000  -74.393393837  163.452952676    97.5176   6  11   0.0339   0.0360   0.1178   0.0057  -0.0085  -0.0185   6.00    0.0
2018/11/06 01:24:00.000  -74.393393821  163.452952721    97.4866   6  11   0.0290   0.0310   0.0990   0.0055  -0.0072  -0.0141   6.00    0.0
2018/11/06 01:24:15.000  -74.393393882  163.452953428    97.5006   6  11   0.0245   0.0262   0.0810   0.0048  -0.0055  -0.0094   6.00    0.0
2018/11/06 01:24:30.000  -74.393393816  163.452953753    97.5189   6  11   0.0203   0.0216   0.0643   0.0039  -0.0033  -0.0036   6.00    0.0
2018/11/06 01:24:45.000  -74.393393842  163.452954043    97.5422   6  11   0.0168   0.0177   0.0502   0.0026   0.0016   0.0056   6.00    0.0
2018/11/06 01:25:00.000  -74.393393896  163.452954436    97.5494   6  11   0.0151   0.0156   0.0424   0.0013   0.0018   0.0070   6.00    0.0
2018/11/06 01:25:15.000  -74.393393618  163.452951714    97.5894   1  11   0.0336   0.0244   0.0765   0.0212   0.0284   0.0287   6.00    1.0
2018/11/06 01:25:30.000  -74.393393828  163.452954200    97.5695   6  11   0.0199   0.0214   0.0628   0.0045  -0.0056   0.0043   6.00    0.0
2018/11/06 01:25:45.000  -74.393393813  163.452953676    97.5707   6  11   0.0240   0.0259   0.0789   0.0059  -0.0088  -0.0052   6.00    0.0
2018/11/06 01:26:00.000  -74.393393703  163.452953624    97.5683   6  11   0.0284   0.0306   0.0964   0.0070  -0.0119  -0.0100   6.00    0.0
2018/11/06 01:26:15.000  -74.393393588  163.452953946    97.6031   6  12   0.0324   0.0340   0.1111  -0.0022  -0.0229  -0.0198   7.00    0.0
2018/11/06 01:26:30.000  -74.393393580  163.452954082    97.6301   6  12   0.0371   0.0386   0.1279  -0.0045  -0.0282  -0.0251   7.00    0.0
2018/11/06 01:26:45.000  -74.393393615  163.452953826    97.6126   6  12   0.0419   0.0433   0.1457  -0.0064  -0.0333  -0.0300   7.00    0.0
2018/11/06 01:27:00.000  -74.393393620  163.452953829    97.6352   6  12   0.0468   0.0481   0.1640  -0.0081  -0.0382  -0.0350   7.00    0.0
2018/11/06 01:27:15.000  -74.393393610  163.452953860    97.6336   6  12   0.0518   0.0529   0.1826  -0.0098  -0.0432  -0.0398   7.00    0.0
2018/11/06 01:27:30.000  -74.393393652  163.452954146    97.6283   6  12   0.0568   0.0578   0.2014  -0.0115  -0.0481  -0.0447   7.00    0.0
2018/11/06 01:27:45.000  -74.393393788  163.452954377    97.6305   6  12   0.0519   0.0530   0.1838  -0.0099  -0.0441  -0.0402   7.00    0.0
2018/11/06 01:28:00.000  -74.393393843  163.452954614    97.6281   6  12   0.0469   0.0481   0.1655  -0.0081  -0.0396  -0.0355   7.00    0.0
2018/11/06 01:28:15.000  -74.393393800  163.452954465    97.6175   6  12   0.0420   0.0433   0.1472  -0.0063  -0.0351  -0.0309   7.00    0.0
2018/11/06 01:28:30.000  -74.393393807  163.452954543    97.6164   6  12   0.0371   0.0386   0.1290  -0.0045  -0.0306  -0.0261   7.00    0.0
2018/11/06 01:28:45.000  -74.393393794  163.452954623    97.6281   6  12   0.0324   0.0338   0.1111  -0.0027  -0.0261  -0.0213   7.00    0.0
2018/11/06 01:29:00.000  -74.393393815  163.452954898    97.6494   6  12   0.0278   0.0292   0.0934  -0.0004  -0.0216  -0.0164   7.00    0.0
2018/11/06 01:29:15.000  -74.393393862  163.452954534    97.6157   6  12   0.0234   0.0247   0.0764   0.0013  -0.0172  -0.0112   7.00    0.0
2018/11/06 01:29:30.000  -74.393393862  163.452954472    97.5691   6  12   0.0195   0.0206   0.0607  -0.0003  -0.0130  -0.0051   7.00    0.0
2018/11/06 01:29:45.000  -74.393394120  163.452955301    97.5588   1  12   0.0192   0.0175   0.0616   0.0001   0.0031  -0.0149   8.00    1.0
2018/11/06 01:30:00.000  -74.393394131  163.452955276    97.5693   1  12   0.0169   0.0150   0.0509   0.0034   0.0089  -0.0128   8.00    1.0
2018/11/06 01:30:15.000  -74.393394209  163.452955635    97.5513   1  12   0.0191   0.0174   0.0612  -0.0010   0.0024  -0.0149   8.00    1.0
2018/11/06 01:30:30.000  -74.393394178  163.452955879    97.5778   1  12   0.0237   0.0223   0.0805  -0.0036  -0.0127  -0.0193   8.00    1.0
2018/11/06 01:30:45.000  -74.393394249  163.452956092    97.5848   1  12   0.0294   0.0282   0.1037  -0.0057  -0.0210  -0.0247   8.00    1.0
2018/11/06 01:31:00.000  -74.393394249  163.452956171    97.5594   1  12   0.0358   0.0347   0.1287  -0.0077  -0.0286  -0.0306   8.00    1.0
2018/11/06 01:31:15.000  -74.393394025  163.452954827    97.5472   6  12   0.0322   0.0335   0.1116   0.0010  -0.0271  -0.0219   7.00    0.0
2018/11/06 01:31:30.000  -74.393394022  163.452954548    97.5753   6  12   0.0370   0.0381   0.1303  -0.0029  -0.0321  -0.0270   8.00    0.0
2018/11/06 01:31:45.000  -74.393393998  163.452954308    97.5620   6  12   0.0418   0.0429   0.1493  -0.0048  -0.0371  -0.0321   8.00    0.0
2018/11/06 01:32:00.000  -74.393394030  163.452954106    97.5537   6  12   0.0468   0.0477   0.1685  -0.0065  -0.0423  -0.0372   8.00    0.0
2018/11/06 01:32:15.000  -74.393394017  163.452953545    97.5604   6  12   0.0518   0.0525   0.1878  -0.0080  -0.0474  -0.0422   8.00    0.0
2018/11/06 01:32:30.000  -74.393393960  163.452953970    97.5519   6  12   0.0568   0.0574   0.2073  -0.0095  -0.0526  -0.0473   8.00    0.0
2018/11/06 01:32:45.000  -74.393393940  163.452953924    97.5935   6  12   0.0520   0.0525   0.1889  -0.0080  -0.0476  -0.0428   8.00    0.0
2018/11/06 01:33:00.000  -74.393393995  163.452953925    97.5603   6  12   0.0470   0.0477   0.1698  -0.0062  -0.0427  -0.0379   8.00    0.0
2018/11/06 01:33:15.000  -74.393394042  163.452953995    97.5711   6  12   0.0420   0.0428   0.1508  -0.0043  -0.0378  -0.0329   8.00    0.0
2018/11/06 01:33:30.000  -74.393394013  163.452953882    97.5347   6  12   0.0371   0.0381   0.1319  -0.0020  -0.0330  -0.0279   8.00    0.0
2018/11/06 01:33:45.000  -74.393393882  163.452953904    97.5092   6  12   0.0324   0.0334   0.1132   0.0023  -0.0281  -0.0228   8.00    0.0
2018/11/06 01:34:00.000  -74.393394205  163.452955055    97.4990   1  12   0.0360   0.0347   0.1307  -0.0070  -0.0302  -0.0315   8.00    1.0
2018/11/06 01:34:15.000  -74.393394265  163.452954888    97.5117   1  12   0.0296   0.0282   0.1052  -0.0050  -0.0227  -0.0253   8.00    1.0
2018/11/06 01:34:30.000  -74.393394232  163.452954936    97.5351   1  12   0.0238   0.0222   0.0813  -0.0023  -0.0151  -0.0195   8.00    1.0
2018/11/06 01:34:45.000  -74.393394183  163.452955162    97.5433   1  12   0.0191   0.0174   0.0612   0.0021  -0.0071  -0.0147   8.00    1.0
2018/11/06 01:35:00.000  -74.393394063  163.452955143    97.5696   1  12   0.0169   0.0149   0.0498   0.0040   0.0042  -0.0124   8.00    1.0
2018/11/06 01:35:15.000  -74.393394038  163.452954786    97.5594   1  12   0.0192   0.0175   0.0611   0.0026  -0.0074  -0.0145   8.00    1.0
2018/11/06 01:35:30.000  -74.393393970  163.452954777    97.5427   1  12   0.0237   0.0223   0.0812  -0.0020  -0.0157  -0.0193   8.00    1.0
2018/11/06 01:35:45.000  -74.393393928  163.452954906    97.5739   1  12   0.0296   0.0282   0.1051  -0.0043  -0.0235  -0.0252   8.00    1.0
2018/11/06 01:36:00.000  -74.393393912  163.452954889    97.6212   1  12   0.0360   0.0347   0.1309  -0.0063  -0.0311  -0.0315   8.00    1.0
2018/11/06 01:36:15.000  -74.393393616  163.452953501    97.6143   6  12   0.0322   0.0330   0.1135   0.0034  -0.0288  -0.0231   8.00    1.0
2018/11/06 01:36:30.000  -74.393393686  163.452953693    97.5930   6  12   0.0370   0.0377   0.1325   0.0024  -0.0339  -0.0283   8.00    1.0
2018/11/06 01:36:45.000  -74.393393628  163.452954138    97.6021   6  12   0.0419   0.0424   0.1518  -0.0020  -0.0392  -0.0335   8.00    1.0
2018/11/06 01:37:00.000  -74.393393705  163.452954159    97.5756   6  12   0.0469   0.0473   0.1712  -0.0041  -0.0445  -0.0387   8.00    1.0
2018/11/06 01:37:15.000  -74.393393713  163.452954120    97.5376   6  12   0.0519   0.0521   0.1908  -0.0056  -0.0498  -0.0438   8.00    1.0
2018/11/06 01:37:30.000  -74.393393657  163.452954550    97.5192   6  12   0.0570   0.0570   0.2104  -0.0070  -0.0552  -0.0489   8.00    0.0
2018/11/06 01:37:45.000  -74.393393675  163.452954747    97.5490   6  12   0.0520   0.0522   0.1910  -0.0060  -0.0501  -0.0438   8.00    0.0
2018/11/06 01:38:00.000  -74.393393668  163.452954816    97.5678   6  12   0.0469   0.0474   0.1715  -0.0043  -0.0449  -0.0387   8.00    0.0
2018/11/06 01:38:15.000  -74.393393688  163.452954553    97.5915   6  12   0.0420   0.0425   0.1520  -0.0020  -0.0397  -0.0336   8.00    0.0
2018/11/06 01:38:30.000  -74.393393755  163.452954196    97.6096   6  12   0.0370   0.0378   0.1328   0.0025  -0.0346  -0.0284   8.00    0.0
2018/11/06 01:38:45.000  -74.393393699  163.452954347    97.6120   6  12   0.0323   0.0331   0.1137   0.0035  -0.0296  -0.0231   8.00    0.0
2018/11/06 01:39:00.000  -74.393394056  163.452955219    97.5987   1  12   0.0360   0.0349   0.1312  -0.0058  -0.0324  -0.0315   8.00    1.0
2018/11/06 01:39:15.000  -74.393394059  163.452955075    97.5896   1  12   0.0296   0.0284   0.1053  -0.0039  -0.0249  -0.0251   8.00    1.0
2018/11/06 01:39:30.000  -74.393394047  163.452954821    97.5720   1  12   0.0238   0.0225   0.0812  -0.0013  -0.0174  -0.0192   8.00    1.0
2018/11/06 01:39:45.000  -74.393394006  163.452954867    97.5389   1  12   0.0192   0.0177   0.0609   0.0037  -0.0102  -0.0144   8.00    1.0
2018/11/06 01:40:00.000  -74.393394042  163.452954752    97.5644   1  12   0.0170   0.0155   0.0496   0.0045  -0.0034  -0.0121   8.00    1.0
2018/11/06 01:40:15.000  -74.393394165  163.452954558    97.5537   1  12   0.0192   0.0175   0.0608   0.0036  -0.0107  -0.0144   8.00    1.0
2018/11/06 01:40:30.000  -74.393394237  163.452954603    97.5752   1  12   0.0237   0.0226   0.0810   0.0014  -0.0179  -0.0191   8.00    1.0
2018/11/06 01:40:45.000  -74.393394284  163.452954516    97.5738   1  12   0.0296   0.0284   0.1050  -0.0034  -0.0254  -0.0250   8.00    1.0
2018/11/06 01:41:00.000  -74.393394262  163.452954396    97.5583   1  12   0.0360   0.0349   0.1307  -0.0051  -0.0330  -0.0314   8.00    1.0
2018/11/06 01:41:15.000  -74.393393887  163.452953540    97.5352   6  12   0.0321   0.0327   0.1132   0.0039  -0.0300  -0.0231   8.00    0.0
2018/11/06 01:41:30.000  -74.393393947  163.452954129    97.4785   6  12   0.0369   0.0374   0.1321   0.0035  -0.0352  -0.0284   8.00    0.0
2018/11/06 01:41:45.000  -74.393393978  163.452954051    97.4962   6  12   0.0418   0.0421   0.1512   0.0024  -0.0406  -0.0335   8.00    0.0
2018/11/06 01:42:00.000  -74.393394091  163.452954228    97.5034   6  12   0.0468   0.0470   0.1704  -0.0016  -0.0459  -0.0387   8.00    0.0
2018/11/06 01:42:15.000  -74.393394128  163.452954121    97.4857   6  12   0.0519   0.0518   0.1897  -0.0035  -0.0513  -0.0437   8.00    0.0
2018/11/06 01:42:30.000  -74.393394078  163.452954270    97.5035   6  12   0.0570   0.0568   0.2090  -0.0049  -0.0567  -0.0487   8.00    0.0
2018/11/06 01:42:45.000  -74.393394059  163.452954334    97.4753   6  12   0.0520   0.0518   0.1889  -0.0021  -0.0516  -0.0439   8.00    0.0
2018/11/06 01:43:00.000  -74.393394015  163.452954157    97.4899   6  12   0.0470   0.0469   0.1694   0.0026  -0.0463  -0.0388   8.00    0.0
2018/11/06 01:43:15.000  -74.393393940  163.452954068    97.5185   6  12   0.0420   0.0421   0.1501   0.0039  -0.0410  -0.0336   8.00    0.0
2018/11/06 01:43:30.000  -74.393393910  163.452954325    97.4944   6  12   0.0371   0.0373   0.1310   0.0045  -0.0358  -0.0284   8.00    0.0
2018/11/06 01:43:45.000  -74.393393915  163.452954251    97.4605   6  12   0.0323   0.0327   0.1121   0.0048  -0.0307  -0.0231   8.00    0.0
2018/11/06 01:44:00.000  -74.393394085  163.452955353    97.4312   1  12   0.0363   0.0349   0.1292  -0.0032  -0.0341  -0.0314   8.00    1.0
2018/11/06 01:44:15.000  -74.393394056  163.452954876    97.4892   1  12   0.0299   0.0285   0.1037   0.0018  -0.0266  -0.0252   8.00    1.0
2018/11/06 01:44:30.000  -74.393394003  163.452954544    97.5184   1  12   0.0241   0.0226   0.0802   0.0032  -0.0194  -0.0193   8.00    1.0
