% program   : RTKLIB ver.2.4.3
% inp file  : _by_type/_obs/base/20181109.18o
% inp file  : _by_type/_sp3+clk/igs20265.clk
% inp file  : _by_type/_sp3+clk/igs20265.sp3
% inp file  : _by_type/_nav/base/20181109.18n
% obs start : 2018/11/09 00:00:00.0 GPST (week2026 432000.0s)
% obs end   : 2018/11/09 23:59:45.0 GPST (week2026 518385.0s)
% pos mode  : ppp-kinematic
% solution  : combined
% elev mask : 15.0 deg
% dynamics  : off
% tidecorr  : on
% tropo opt : est ztd+grad
% ephemeris : precise
% navi sys  : gps glonass
% antenna1  :                       ( 0.0000  0.0000  0.0000)
%
% (lat/lon/height=WGS84/ellipsoidal,Q=1:fix,2:float,3:sbas,4:dgps,5:single,6:ppp,ns=# of satellites)
%  GPST                  latitude(deg) longitude(deg)  height(m)   Q  ns   sdn(m)   sde(m)   sdu(m)  sdne(m)  sdeu(m)  sdun(m) age(s)  ratio
2018/11/09 00:00:00.000  -74.370507779  163.307881767  1012.4507   6   9   0.0206   0.0193   0.0644  -0.0079   0.0142  -0.0180   0.00    0.0
2018/11/09 00:00:15.000  -74.370507763  163.307882327  1012.4510   6   9   0.0237   0.0229   0.0781  -0.0101   0.0194  -0.0231   0.00    0.0
2018/11/09 00:00:30.000  -74.370507659  163.307882204  1012.4082   6   9   0.0294   0.0294   0.1016  -0.0134   0.0272  -0.0315   0.00    0.0
2018/11/09 00:00:45.000  -74.370507588  163.307882347  1012.4241   6   9   0.0366   0.0374   0.1298  -0.0173   0.0362  -0.0410   0.00    0.0
2018/11/09 00:01:00.000  -74.370507510  163.307882295  1012.4361   6   9   0.0445   0.0460   0.1602  -0.0215   0.0457  -0.0511   0.00    0.0
2018/11/09 00:01:15.000  -74.370507603  163.307882528  1012.4714   6   9   0.0527   0.0549   0.1918  -0.0256   0.0554  -0.0614   0.00    0.0
2018/11/09 00:01:30.000  -74.370507676  163.307881984  1012.4887   6   9   0.0611   0.0639   0.2238  -0.0299   0.0651  -0.0718   0.00    0.0
2018/11/09 00:01:45.000  -74.370507688  163.307882168  1012.4719   6   9   0.0696   0.0729   0.2559  -0.0340   0.0748  -0.0822   1.00    0.0
2018/11/09 00:02:00.000  -74.370507750  163.307881696  1012.4402   6   9   0.0780   0.0817   0.2877  -0.0381   0.0843  -0.0924   2.00    0.0
2018/11/09 00:02:15.000  -74.370507753  163.307880943  1012.4332   6   9   0.0862   0.0903   0.3191  -0.0420   0.0936  -0.1025   2.00    0.0
2018/11/09 00:02:30.000  -74.370507817  163.307880407  1012.3859   6   9   0.0943   0.0987   0.3499  -0.0458   0.1026  -0.1123   2.00    0.0
2018/11/09 00:02:45.000  -74.370507845  163.307880169  1012.3648   6   9   0.0857   0.0897   0.3183  -0.0418   0.0938  -0.1020   2.00    0.0
2018/11/09 00:03:00.000  -74.370507920  163.307880116  1012.3446   6   9   0.0773   0.0810   0.2876  -0.0379   0.0851  -0.0921   3.00    0.0
2018/11/09 00:03:15.000  -74.370507843  163.307880652  1012.3528   6   9   0.0689   0.0721   0.2567  -0.0339   0.0762  -0.0821   2.00    0.0
2018/11/09 00:03:30.000  -74.370507835  163.307880451  1012.3273   6  10   0.0583   0.0624   0.1996  -0.0327   0.0751  -0.0591   3.00    0.0
2018/11/09 00:03:45.000  -74.370507902  163.307880530  1012.3403   6  10   0.0503   0.0537   0.1725  -0.0282   0.0645  -0.0509   3.00    0.0
2018/11/09 00:04:00.000  -74.370507977  163.307881297  1012.4071   6  10   0.0425   0.0452   0.1456  -0.0236   0.0538  -0.0428   3.00    0.0
2018/11/09 00:04:15.000  -74.370507964  163.307882084  1012.4854   1  10   0.0334   0.0372   0.1203  -0.0187   0.0443  -0.0371   5.00    1.0
2018/11/09 00:04:30.000  -74.370507930  163.307882144  1012.4981   1  10   0.0259   0.0292   0.0951  -0.0141   0.0338  -0.0297   5.00    1.0
2018/11/09 00:04:45.000  -74.370507779  163.307881833  1012.4600   1  10   0.0198   0.0228   0.0738  -0.0101   0.0248  -0.0235   5.00    1.0
2018/11/09 00:05:00.000  -74.370507808  163.307881840  1012.4586   1  10   0.0165   0.0193   0.0616  -0.0074   0.0192  -0.0199   5.00    1.0
2018/11/09 00:05:15.000  -74.370507878  163.307882249  1012.5007   1  10   0.0198   0.0228   0.0741  -0.0100   0.0250  -0.0235   5.00    1.0
2018/11/09 00:05:30.000  -74.370507921  163.307882041  1012.4722   6  10   0.0282   0.0292   0.0952  -0.0150   0.0333  -0.0271   2.00    0.0
2018/11/09 00:05:45.000  -74.370507936  163.307882119  1012.4847   6  10   0.0348   0.0368   0.1201  -0.0191   0.0437  -0.0346   2.00    0.0
2018/11/09 00:06:00.000  -74.370508002  163.307881975  1012.4726   6  10   0.0420   0.0449   0.1463  -0.0233   0.0542  -0.0421   2.00    0.0
2018/11/09 00:06:15.000  -74.370507972  163.307881442  1012.4186   6  10   0.0494   0.0531   0.1729  -0.0273   0.0645  -0.0494   2.00    0.0
2018/11/09 00:06:30.000  -74.370507995  163.307881132  1012.4019   6  10   0.0567   0.0613   0.1993  -0.0312   0.0744  -0.0563   2.00    0.0
2018/11/09 00:06:45.000  -74.370507968  163.307880405  1012.3324   6  10   0.0639   0.0693   0.2252  -0.0349   0.0840  -0.0630   2.00    0.0
2018/11/09 00:07:00.000  -74.370508011  163.307880304  1012.3166   6  10   0.0710   0.0770   0.2506  -0.0384   0.0933  -0.0694   3.00    0.0
2018/11/09 00:07:15.000  -74.370508076  163.307880158  1012.3155   6  10   0.0779   0.0846   0.2755  -0.0417   0.1023  -0.0756   3.00    0.0
2018/11/09 00:07:30.000  -74.370508040  163.307879844  1012.3271   6  10   0.0847   0.0919   0.3000  -0.0450   0.1110  -0.0817   3.00    0.0
2018/11/09 00:07:45.000  -74.370508091  163.307880614  1012.3576   6  10   0.0777   0.0844   0.2774  -0.0417   0.1029  -0.0762   3.00    0.0
2018/11/09 00:08:00.000  -74.370508107  163.307880538  1012.3537   6  10   0.0707   0.0768   0.2537  -0.0383   0.0943  -0.0704   3.00    0.0
2018/11/09 00:08:15.000  -74.370508156  163.307880678  1012.3516   6  10   0.0636   0.0690   0.2292  -0.0348   0.0854  -0.0642   3.00    0.0
2018/11/09 00:08:30.000  -74.370508115  163.307880565  1012.3590   6  10   0.0563   0.0611   0.2040  -0.0312   0.0762  -0.0577   3.00    0.0
2018/11/09 00:08:45.000  -74.370508059  163.307880553  1012.3325   6  10   0.0490   0.0531   0.1780  -0.0274   0.0665  -0.0508   3.00    0.0
2018/11/09 00:09:00.000  -74.370507979  163.307880758  1012.3547   6  10   0.0418   0.0450   0.1516  -0.0235   0.0564  -0.0436   3.00    0.0
2018/11/09 00:09:15.000  -74.370507918  163.307880909  1012.3654   6  10   0.0347   0.0370   0.1250  -0.0194   0.0461  -0.0361   3.00    0.0
2018/11/09 00:09:30.000  -74.370507871  163.307881338  1012.4078   6  10   0.0282   0.0294   0.0994  -0.0155   0.0358  -0.0285   3.00    0.0
2018/11/09 00:09:45.000  -74.370507775  163.307881309  1012.3855   6  10   0.0230   0.0231   0.0773  -0.0121   0.0266  -0.0218   3.00    0.0
2018/11/09 00:10:00.000  -74.370507884  163.307881516  1012.4333   6  10   0.0203   0.0198   0.0643  -0.0099   0.0209  -0.0176   3.00    0.0
2018/11/09 00:10:15.000  -74.370508023  163.307881453  1012.4494   6  10   0.0229   0.0232   0.0771  -0.0120   0.0267  -0.0216   3.00    0.0
2018/11/09 00:10:30.000  -74.370508165  163.307880972  1012.4290   6  10   0.0280   0.0293   0.0988  -0.0152   0.0357  -0.0278   3.00    0.0
2018/11/09 00:10:45.000  -74.370508284  163.307880736  1012.4485   6  10   0.0341   0.0367   0.1235  -0.0188   0.0455  -0.0344   4.00    0.0
2018/11/09 00:11:00.000  -74.370508196  163.307880542  1012.4402   6  10   0.0408   0.0444   0.1490  -0.0223   0.0552  -0.0407   4.00    0.0
2018/11/09 00:11:15.000  -74.370508163  163.307880659  1012.4158   6  10   0.0476   0.0521   0.1744  -0.0256   0.0647  -0.0466   4.00    0.0
2018/11/09 00:11:30.000  -74.370508084  163.307880379  1012.3695   6  10   0.0543   0.0597   0.1995  -0.0289   0.0739  -0.0522   4.00    0.0
2018/11/09 00:11:45.000  -74.370508071  163.307880532  1012.3525   6  10   0.0610   0.0672   0.2244  -0.0321   0.0830  -0.0579   4.00    0.0
2018/11/09 00:12:00.000  -74.370507990  163.307879704  1012.2118   6  10   0.0676   0.0746   0.2492  -0.0353   0.0922  -0.0638   4.00    0.0
2018/11/09 00:12:15.000  -74.370507973  163.307879395  1012.1283   6  10   0.0741   0.0819   0.2740  -0.0387   0.1014  -0.0700   4.00    0.0
2018/11/09 00:12:30.000  -74.370508047  163.307879304  1012.1350   6  10   0.0805   0.0890   0.2987  -0.0421   0.1106  -0.0765   4.00    0.0
2018/11/09 00:12:45.000  -74.370507981  163.307879556  1012.1419   6  10   0.0741   0.0818   0.2752  -0.0388   0.1020  -0.0704   4.00    0.0
2018/11/09 00:13:00.000  -74.370507902  163.307879432  1012.1356   6  10   0.0675   0.0745   0.2515  -0.0355   0.0932  -0.0647   4.00    0.0
2018/11/09 00:13:15.000  -74.370508022  163.307880122  1012.2027   6  10   0.0609   0.0671   0.2273  -0.0322   0.0843  -0.0589   4.00    0.0
2018/11/09 00:13:30.000  -74.370508073  163.307880258  1012.2163   6  10   0.0542   0.0596   0.2027  -0.0290   0.0754  -0.0532   4.00    0.0
2018/11/09 00:13:45.000  -74.370507995  163.307880347  1012.2414   6  10   0.0474   0.0520   0.1777  -0.0257   0.0662  -0.0474   4.00    0.0
2018/11/09 00:14:00.000  -74.370507933  163.307880611  1012.2607   6  10   0.0407   0.0443   0.1522  -0.0223   0.0568  -0.0414   4.00    0.0
2018/11/09 00:14:15.000  -74.370507902  163.307880887  1012.3055   6  10   0.0341   0.0367   0.1265  -0.0189   0.0471  -0.0350   4.00    0.0
2018/11/09 00:14:30.000  -74.370507874  163.307880900  1012.3225   6  10   0.0279   0.0295   0.1012  -0.0154   0.0373  -0.0285   4.00    0.0
2018/11/09 00:14:45.000  -74.370507929  163.307881132  1012.3545   6  10   0.0229   0.0234   0.0791  -0.0124   0.0284  -0.0223   4.00    0.0
2018/11/09 00:15:00.000  -74.370507934  163.307881441  1012.4084   6  10   0.0203   0.0200   0.0660  -0.0103   0.0228  -0.0182   4.00    0.0
2018/11/09 00:15:15.000  -74.370507866  163.307881599  1012.3880   6  10   0.0226   0.0232   0.0774  -0.0121   0.0277  -0.0212   4.00    0.0
2018/11/09 00:15:30.000  -74.370507780  163.307881443  1012.3228   6  10   0.0275   0.0291   0.0987  -0.0149   0.0362  -0.0266   4.00    0.0
2018/11/09 00:15:45.000  -74.370507683  163.307880887  1012.2596   6  10   0.0333   0.0361   0.1226  -0.0179   0.0454  -0.0321   4.00    0.0
2018/11/09 00:16:00.000  -74.370507627  163.307880684  1012.2510   6  10   0.0396   0.0435   0.1474  -0.0209   0.0546  -0.0375   4.00    0.0
2018/11/09 00:16:15.000  -74.370507723  163.307880747  1012.2831   6  10   0.0461   0.0509   0.1726  -0.0240   0.0640  -0.0430   4.00    0.0
2018/11/09 00:16:30.000  -74.370507809  163.307880902  1012.3166   6  10   0.0526   0.0584   0.1980  -0.0272   0.0734  -0.0490   4.00    0.0
2018/11/09 00:16:45.000  -74.370507882  163.307880532  1012.2730   6  10   0.0592   0.0657   0.2236  -0.0305   0.0831  -0.0554   4.00    0.0
2018/11/09 00:17:00.000  -74.370507965  163.307880734  1012.3058   6  10   0.0656   0.0730   0.2494  -0.0340   0.0929  -0.0623   4.00    0.0
2018/11/09 00:17:15.000  -74.370508036  163.307880701  1012.3264   6  10   0.0720   0.0801   0.2753  -0.0377   0.1029  -0.0696   4.00    0.0
2018/11/09 00:17:30.000  -74.370508113  163.307880597  1012.3008   6  10   0.0784   0.0872   0.3013  -0.0414   0.1131  -0.0773   4.00    0.0
2018/11/09 00:17:45.000  -74.370508017  163.307880436  1012.2843   6  11   0.0691   0.0802   0.2633  -0.0374   0.1039  -0.0806   4.00    0.0
2018/11/09 00:18:00.000  -74.370508030  163.307881288  1012.3334   6  11   0.0628   0.0730   0.2388  -0.0338   0.0941  -0.0730   4.00    0.0
2018/11/09 00:18:15.000  -74.370508068  163.307881686  1012.3754   6  11   0.0566   0.0657   0.2146  -0.0303   0.0845  -0.0654   4.00    0.0
2018/11/09 00:18:30.000  -74.370508055  163.307881762  1012.3863   6  11   0.0503   0.0583   0.1906  -0.0270   0.0749  -0.0579   4.00    0.0
2018/11/09 00:18:45.000  -74.370508072  163.307881952  1012.4220   6  11   0.0440   0.0509   0.1666  -0.0237   0.0653  -0.0505   4.00    0.0
2018/11/09 00:19:00.000  -74.370508048  163.307881664  1012.4130   6  11   0.0379   0.0434   0.1427  -0.0206   0.0558  -0.0433   4.00    0.0
2018/11/09 00:19:15.000  -74.370507986  163.307882145  1012.4587   1  11   0.0336   0.0394   0.1382  -0.0214   0.0563  -0.0485   3.00    1.0
2018/11/09 00:19:30.000  -74.370507999  163.307881975  1012.4746   1  11   0.0263   0.0309   0.1082  -0.0163   0.0435  -0.0376   3.00    1.0
2018/11/09 00:19:45.000  -74.370508059  163.307881718  1012.4414   1  11   0.0202   0.0240   0.0831  -0.0118   0.0325  -0.0285   3.00    1.0
2018/11/09 00:20:00.000  -74.370508005  163.307881789  1012.4322   1  11   0.0171   0.0203   0.0692  -0.0089   0.0261  -0.0236   3.00    1.0
2018/11/09 00:20:15.000  -74.370508028  163.307882221  1012.4519   1  11   0.0204   0.0242   0.0836  -0.0120   0.0327  -0.0287   3.00    1.0
2018/11/09 00:20:30.000  -74.370508044  163.307882639  1012.4596   1  11   0.0264   0.0311   0.1092  -0.0165   0.0439  -0.0380   3.00    1.0
2018/11/09 00:20:45.000  -74.370508060  163.307882428  1012.4248   1  11   0.0337   0.0396   0.1399  -0.0217   0.0570  -0.0491   3.00    1.0
2018/11/09 00:21:00.000  -74.370508195  163.307881360  1012.3898   6  11   0.0371   0.0428   0.1394  -0.0195   0.0541  -0.0408   4.00    0.0
2018/11/09 00:21:15.000  -74.370508293  163.307881169  1012.3789   6  11   0.0431   0.0501   0.1636  -0.0227   0.0638  -0.0482   4.00    0.0
2018/11/09 00:21:30.000  -74.370508321  163.307880419  1012.3722   6  11   0.0493   0.0574   0.1885  -0.0260   0.0737  -0.0560   4.00    0.0
2018/11/09 00:21:45.000  -74.370508380  163.307879729  1012.3797   6  11   0.0555   0.0646   0.2137  -0.0296   0.0839  -0.0643   4.00    0.0
2018/11/09 00:22:00.000  -74.370508399  163.307879384  1012.3779   6  11   0.0617   0.0717   0.2392  -0.0333   0.0942  -0.0728   4.00    0.0
2018/11/09 00:22:15.000  -74.370508460  163.307879647  1012.3850   6  11   0.0678   0.0788   0.2648  -0.0372   0.1047  -0.0816   4.00    0.0
2018/11/09 00:22:30.000  -74.370508471  163.307879264  1012.3484   6  11   0.0740   0.0858   0.2905  -0.0412   0.1152  -0.0906   4.00    0.0
2018/11/09 00:22:45.000  -74.370508265  163.307879420  1012.3089   6  11   0.0678   0.0787   0.2647  -0.0370   0.1043  -0.0814   4.00    0.0
2018/11/09 00:23:00.000  -74.370508136  163.307879774  1012.2943   6  11   0.0616   0.0716   0.2395  -0.0331   0.0940  -0.0728   4.00    0.0
2018/11/09 00:23:15.000  -74.370508015  163.307880730  1012.3371   6  11   0.0553   0.0644   0.2144  -0.0293   0.0837  -0.0643   5.00    0.0
2018/11/09 00:23:30.000  -74.370507888  163.307881134  1012.3212   6  11   0.0491   0.0571   0.1893  -0.0257   0.0736  -0.0561   5.00    0.0
2018/11/09 00:23:45.000  -74.370507873  163.307881296  1012.3311   6  11   0.0429   0.0498   0.1645  -0.0223   0.0636  -0.0482   5.00    0.0
2018/11/09 00:24:00.000  -74.370507891  163.307881215  1012.3352   6  11   0.0369   0.0425   0.1400  -0.0191   0.0538  -0.0407   5.00    0.0
2018/11/09 00:24:15.000  -74.370507941  163.307881517  1012.3915   6  11   0.0311   0.0354   0.1164  -0.0162   0.0444  -0.0336   6.00    0.0
2018/11/09 00:24:30.000  -74.370507944  163.307881601  1012.3922   6  11   0.0259   0.0287   0.0942  -0.0136   0.0355  -0.0271   6.00    0.0
2018/11/09 00:24:45.000  -74.370507945  163.307881263  1012.3813   6  11   0.0217   0.0232   0.0753  -0.0114   0.0277  -0.0215   6.00    0.0
2018/11/09 00:25:00.000  -74.370507948  163.307881005  1012.3773   6  11   0.0195   0.0204   0.0646  -0.0101   0.0231  -0.0182   6.00    0.0
2018/11/09 00:25:15.000  -74.370508065  163.307881157  1012.4378   6  11   0.0214   0.0239   0.0743  -0.0113   0.0271  -0.0208   6.00    0.0
2018/11/09 00:25:30.000  -74.370508124  163.307880741  1012.4576   6  11   0.0256   0.0300   0.0922  -0.0134   0.0342  -0.0257   6.00    0.0
2018/11/09 00:25:45.000  -74.370508184  163.307880287  1012.4693   6  11   0.0307   0.0383   0.1138  -0.0163   0.0422  -0.0319   6.00    0.0
2018/11/09 00:26:00.000  -74.370508154  163.307879844  1012.4460   6  11   0.0364   0.0436   0.1374  -0.0189   0.0524  -0.0392   5.00    0.0
2018/11/09 00:26:15.000  -74.370508054  163.307878818  1012.3394   6  11   0.0424   0.0510   0.1619  -0.0221   0.0620  -0.0467   5.00    0.0
2018/11/09 00:26:30.000  -74.370508159  163.307878388  1012.3423   6  11   0.0484   0.0586   0.1870  -0.0257   0.0720  -0.0548   5.00    0.0
2018/11/09 00:26:45.000  -74.370508202  163.307878032  1012.3506   6  11   0.0545   0.0666   0.2125  -0.0296   0.0821  -0.0632   5.00    0.0
2018/11/09 00:27:00.000  -74.370508241  163.307878039  1012.3984   6  11   0.0606   0.0763   0.2381  -0.0341   0.0920  -0.0719   5.00    0.0
2018/11/09 00:27:15.000  -74.370508369  163.307878821  1012.4054   6  11   0.0666   0.0786   0.2637  -0.0369   0.1041  -0.0811   5.00    0.0
2018/11/09 00:27:30.000  -74.370508397  163.307878092  1012.3728   6  11   0.0726   0.0849   0.2894  -0.0405   0.1143  -0.0901   5.00    0.0
2018/11/09 00:27:45.000  -74.370508388  163.307878499  1012.4269   6  11   0.0667   0.0776   0.2643  -0.0365   0.1039  -0.0814   5.00    0.0
2018/11/09 00:28:00.000  -74.370508351  163.307878925  1012.4102   6  11   0.0605   0.0703   0.2386  -0.0324   0.0933  -0.0724   5.00    0.0
2018/11/09 00:28:15.000  -74.370508373  163.307879809  1012.4364   6  11   0.0544   0.0631   0.2129  -0.0285   0.0828  -0.0636   5.00    0.0
2018/11/09 00:28:30.000  -74.370508338  163.307880108  1012.4203   6  11   0.0483   0.0559   0.1875  -0.0248   0.0725  -0.0551   5.00    0.0
2018/11/09 00:28:45.000  -74.370508367  163.307881397  1012.4323   6  11   0.0422   0.0487   0.1624  -0.0213   0.0624  -0.0469   5.00    0.0
2018/11/09 00:29:00.000  -74.370508256  163.307881817  1012.4255   6  11   0.0363   0.0415   0.1379  -0.0180   0.0526  -0.0393   5.00    0.0
2018/11/09 00:29:15.000  -74.370508109  163.307881378  1012.3872   6  11   0.0306   0.0345   0.1144  -0.0152   0.0433  -0.0323   5.00    0.0
2018/11/09 00:29:30.000  -74.370508157  163.307881799  1012.4327   6  11   0.0255   0.0280   0.0928  -0.0127   0.0348  -0.0261   5.00    0.0
2018/11/09 00:29:45.000  -74.370508050  163.307881217  1012.3685   6  11   0.0214   0.0226   0.0749  -0.0108   0.0276  -0.0210   5.00    0.0
2018/11/09 00:30:00.000  -74.370508009  163.307881175  1012.3998   6  11   0.0194   0.0197   0.0649  -0.0095   0.0235  -0.0180   5.00    0.0
2018/11/09 00:30:15.000  -74.370507984  163.307880968  1012.4097   6  11   0.0213   0.0224   0.0741  -0.0107   0.0272  -0.0206   6.00    0.0
2018/11/09 00:30:30.000  -74.370507995  163.307880376  1012.3742   6  11   0.0253   0.0276   0.0913  -0.0123   0.0340  -0.0253   5.00    0.0
2018/11/09 00:30:45.000  -74.370507989  163.307879459  1012.3456   6  11   0.0303   0.0340   0.1123  -0.0146   0.0423  -0.0313   6.00    0.0
2018/11/09 00:31:00.000  -74.370507971  163.307878826  1012.3376   6  11   0.0359   0.0408   0.1352  -0.0174   0.0513  -0.0382   6.00    0.0
2018/11/09 00:31:15.000  -74.370508142  163.307879333  1012.3614   6  11   0.0416   0.0477   0.1592  -0.0204   0.0608  -0.0456   6.00    0.0
2018/11/09 00:31:30.000  -74.370508346  163.307879589  1012.3777   6  11   0.0475   0.0546   0.1836  -0.0237   0.0705  -0.0535   6.00    0.0
2018/11/09 00:31:45.000  -74.370508392  163.307878980  1012.3469   6  11   0.0534   0.0615   0.2083  -0.0272   0.0804  -0.0617   6.00    0.0
2018/11/09 00:32:00.000  -74.370508456  163.307878529  1012.2911   6  11   0.0593   0.0682   0.2330  -0.0308   0.0903  -0.0701   6.00    0.0
2018/11/09 00:32:15.000  -74.370508607  163.307878566  1012.3075   6  11   0.0652   0.0750   0.2577  -0.0345   0.1003  -0.0787   6.00    0.0
2018/11/09 00:32:30.000  -74.370508454  163.307877528  1012.2193   6  11   0.0710   0.0817   0.2824  -0.0382   0.1102  -0.0874   6.00    0.0
2018/11/09 00:32:45.000  -74.370508344  163.307877569  1012.2257   6  11   0.0651   0.0750   0.2574  -0.0345   0.1001  -0.0783   6.00    0.0
2018/11/09 00:33:00.000  -74.370508271  163.307878001  1012.1930   6  11   0.0591   0.0681   0.2321  -0.0306   0.0898  -0.0693   6.00    0.0
2018/11/09 00:33:15.000  -74.370508139  163.307878199  1012.2016   6  11   0.0531   0.0612   0.2070  -0.0269   0.0795  -0.0607   6.00    0.0
2018/11/09 00:33:30.000  -74.370508073  163.307878122  1012.2005   6  11   0.0472   0.0542   0.1822  -0.0233   0.0695  -0.0523   6.00    0.0
2018/11/09 00:33:45.000  -74.370508017  163.307878599  1012.2428   6  11   0.0413   0.0473   0.1578  -0.0199   0.0597  -0.0445   6.00    0.0
2018/11/09 00:34:00.000  -74.370508061  163.307879661  1012.3289   6  11   0.0355   0.0404   0.1341  -0.0169   0.0503  -0.0372   6.00    0.0
2018/11/09 00:34:15.000  -74.370508053  163.307879862  1012.3235   6  11   0.0301   0.0337   0.1116  -0.0142   0.0414  -0.0306   6.00    0.0
2018/11/09 00:34:30.000  -74.370508045  163.307880150  1012.3268   6  11   0.0252   0.0273   0.0913  -0.0120   0.0334  -0.0250   6.00    0.0
2018/11/09 00:34:45.000  -74.370508051  163.307880713  1012.3625   6  11   0.0213   0.0222   0.0746  -0.0103   0.0268  -0.0205   6.00    0.0
2018/11/09 00:35:00.000  -74.370508039  163.307881142  1012.4067   6  11   0.0192   0.0194   0.0651  -0.0090   0.0229  -0.0178   6.00    0.0
2018/11/09 00:35:15.000  -74.370508013  163.307881112  1012.4295   6  11   0.0213   0.0220   0.0741  -0.0102   0.0264  -0.0203   6.00    0.0
2018/11/09 00:35:30.000  -74.370508069  163.307880972  1012.4536   6  11   0.0251   0.0271   0.0902  -0.0117   0.0326  -0.0248   6.00    0.0
2018/11/09 00:35:45.000  -74.370508104  163.307880679  1012.4807   6  11   0.0300   0.0332   0.1098  -0.0138   0.0403  -0.0302   6.00    0.0
2018/11/09 00:36:00.000  -74.370508128  163.307879810  1012.4458   6  11   0.0353   0.0397   0.1313  -0.0162   0.0487  -0.0364   6.00    0.0
2018/11/09 00:36:15.000  -74.370508213  163.307879460  1012.4472   6  11   0.0409   0.0463   0.1536  -0.0191   0.0575  -0.0432   6.00    0.0
2018/11/09 00:36:30.000  -74.370508438  163.307879513  1012.5098   6  11   0.0465   0.0529   0.1765  -0.0221   0.0665  -0.0505   6.00    0.0
2018/11/09 00:36:45.000  -74.370508561  163.307879715  1012.4846   6  11   0.0522   0.0595   0.1995  -0.0254   0.0757  -0.0581   6.00    0.0
2018/11/09 00:37:00.000  -74.370508471  163.307879261  1012.4496   6  11   0.0578   0.0660   0.2226  -0.0287   0.0849  -0.0659   6.00    0.0
2018/11/09 00:37:15.000  -74.370508443  163.307879099  1012.4236   6  11   0.0635   0.0725   0.2457  -0.0321   0.0941  -0.0739   6.00    0.0
2018/11/09 00:37:30.000  -74.370508443  163.307879287  1012.4104   6  11   0.0691   0.0790   0.2687  -0.0355   0.1033  -0.0818   6.00    0.0
2018/11/09 00:37:45.000  -74.370508307  163.307879178  1012.3445   6  11   0.0633   0.0722   0.2442  -0.0316   0.0933  -0.0734   6.00    0.0
2018/11/09 00:38:00.000  -74.370508187  163.307878727  1012.3067   6  11   0.0575   0.0655   0.2202  -0.0279   0.0835  -0.0650   6.00    0.0
2018/11/09 00:38:15.000  -74.370508157  163.307879362  1012.3459   6  11   0.0518   0.0588   0.1965  -0.0244   0.0739  -0.0569   6.00    0.0
2018/11/09 00:38:30.000  -74.370508139  163.307880006  1012.3931   6  11   0.0461   0.0522   0.1732  -0.0210   0.0645  -0.0492   6.00    0.0
2018/11/09 00:38:45.000  -74.370508163  163.307880418  1012.4387   6  11   0.0404   0.0455   0.1504  -0.0179   0.0554  -0.0419   6.00    0.0
2018/11/09 00:39:00.000  -74.370508177  163.307880752  1012.4685   6  11   0.0350   0.0390   0.1285  -0.0151   0.0466  -0.0353   6.00    0.0
2018/11/09 00:39:15.000  -74.370508111  163.307880642  1012.4486   6  11   0.0297   0.0325   0.1078  -0.0127   0.0384  -0.0295   6.00    0.0
2018/11/09 00:39:30.000  -74.370508064  163.307880591  1012.4321   6  11   0.0250   0.0265   0.0893  -0.0108   0.0310  -0.0247   6.00    0.0
2018/11/09 00:39:45.000  -74.370508136  163.307881097  1012.4543   6  11   0.0213   0.0215   0.0743  -0.0092   0.0251  -0.0207   6.00    0.0
2018/11/09 00:40:00.000  -74.370508142  163.307881224  1012.4325   6  11   0.0192   0.0189   0.0658  -0.0084   0.0217  -0.0182   6.00    0.0
2018/11/09 00:40:15.000  -74.370508183  163.307881405  1012.4043   6  11   0.0216   0.0214   0.0755  -0.0093   0.0246  -0.0221   6.00    0.0
2018/11/09 00:40:30.000  -74.370508174  163.307881075  1012.3835   6  11   0.0260   0.0262   0.0922  -0.0106   0.0305  -0.0281   5.00    0.0
2018/11/09 00:40:45.000  -74.370508205  163.307881291  1012.3754   6  11   0.0313   0.0320   0.1122  -0.0128   0.0377  -0.0350   5.00    0.0
2018/11/09 00:41:00.000  -74.370508225  163.307881011  1012.3682   6  11   0.0371   0.0383   0.1340  -0.0154   0.0458  -0.0426   5.00    0.0
2018/11/09 00:41:15.000  -74.370508295  163.307880358  1012.3917   6  11   0.0431   0.0446   0.1571  -0.0184   0.0544  -0.0511   5.00    0.0
2018/11/09 00:41:30.000  -74.370508397  163.307880064  1012.4245   6  11   0.0494   0.0510   0.1813  -0.0218   0.0634  -0.0603   5.00    0.0
2018/11/09 00:41:45.000  -74.370508447  163.307879940  1012.4348   6  11   0.0561   0.0574   0.2070  -0.0256   0.0727  -0.0708   5.00    0.0
2018/11/09 00:42:00.000  -74.370508478  163.307879473  1012.4188   6  11   0.0634   0.0638   0.2353  -0.0298   0.0827  -0.0833   5.00    0.0
2018/11/09 00:42:15.000  -74.370508501  163.307879015  1012.4268   6  11   0.0723   0.0704   0.2696  -0.0351   0.0941  -0.1001   5.00    0.0
2018/11/09 00:42:30.000  -74.370508158  163.307878221  1012.2777   6  10   0.1095   0.0832   0.4233  -0.0629   0.1431  -0.1876   4.00    0.0
2018/11/09 00:42:45.000  -74.370508207  163.307878406  1012.2907   6  10   0.0995   0.0760   0.3834  -0.0564   0.1288  -0.1692   4.00    0.0
2018/11/09 00:43:00.000  -74.370508280  163.307878931  1012.2987   6  10   0.0894   0.0687   0.3435  -0.0501   0.1149  -0.1508   4.00    0.0
2018/11/09 00:43:15.000  -74.370508296  163.307878994  1012.3138   6  10   0.0794   0.0615   0.3040  -0.0438   0.1010  -0.1325   4.00    0.0
2018/11/09 00:43:30.000  -74.370508373  163.307878935  1012.3360   6  10   0.0694   0.0544   0.2648  -0.0376   0.0874  -0.1144   4.00    0.0
2018/11/09 00:43:45.000  -74.370508336  163.307879003  1012.3607   6  10   0.0596   0.0473   0.2263  -0.0316   0.0740  -0.0966   4.00    0.0
2018/11/09 00:44:00.000  -74.370508427  163.307879483  1012.4316   6  10   0.0499   0.0403   0.1887  -0.0258   0.0610  -0.0792   4.00    0.0
2018/11/09 00:44:15.000  -74.370508338  163.307879859  1012.4439   6  10   0.0406   0.0334   0.1526  -0.0203   0.0486  -0.0624   4.00    0.0
2018/11/09 00:44:30.000  -74.370508343  163.307880691  1012.4963   6  10   0.0319   0.0270   0.1191  -0.0153   0.0371  -0.0466   4.00    0.0
2018/11/09 00:44:45.000  -74.370508161  163.307880873  1012.4434   6  10   0.0247   0.0217   0.0908  -0.0112   0.0275  -0.0328   4.00    0.0
2018/11/09 00:45:00.000  -74.370508210  163.307881285  1012.4638   6  10   0.0207   0.0188   0.0739  -0.0089   0.0224  -0.0243   4.00    0.0
2018/11/09 00:45:15.000  -74.370508171  163.307880565  1012.4473   6  10   0.0245   0.0215   0.0907  -0.0110   0.0267  -0.0323   4.00    0.0
2018/11/09 00:45:30.000  -74.370507932  163.307879520  1012.3105   6  10   0.0315   0.0266   0.1210  -0.0147   0.0353  -0.0461   4.00    0.0
2018/11/09 00:45:45.000  -74.370508027  163.307879497  1012.3159   6  10   0.0401   0.0328   0.1595  -0.0193   0.0451  -0.0622   4.00    0.0
2018/11/09 00:46:00.000  -74.370508092  163.307879429  1012.3586   6   9   0.0503   0.0394   0.2075  -0.0247   0.0577  -0.0830   4.00    0.0
2018/11/09 00:46:15.000  -74.370508335  163.307879281  1012.4210   6   9   0.0599   0.0459   0.2497  -0.0299   0.0694  -0.1013   4.00    0.0
2018/11/09 00:46:30.000  -74.370508417  163.307878882  1012.4113   6   9   0.0697   0.0525   0.2924  -0.0352   0.0813  -0.1198   4.00    0.0
2018/11/09 00:46:45.000  -74.370508232  163.307877901  1012.3431   6   9   0.0794   0.0590   0.3353  -0.0405   0.0930  -0.1383   5.00    0.0
2018/11/09 00:47:00.000  -74.370508231  163.307877764  1012.2753   6   9   0.0892   0.0655   0.3782  -0.0458   0.1047  -0.1568   4.00    0.0
2018/11/09 00:47:15.000  -74.370508228  163.307877589  1012.2493   6   9   0.0990   0.0720   0.4211  -0.0510   0.1162  -0.1753   4.00    0.0
2018/11/09 00:47:30.000  -74.370508204  163.307877020  1012.1916   6   9   0.1088   0.0784   0.4638  -0.0561   0.1275  -0.1937   4.00    0.0
2018/11/09 00:47:45.000  -74.370508219  163.307877167  1012.1939   6   9   0.0984   0.0714   0.4181  -0.0499   0.1138  -0.1738   4.00    0.0
2018/11/09 00:48:00.000  -74.370508376  163.307877501  1012.2634   6   9   0.0884   0.0646   0.3742  -0.0441   0.1010  -0.1547   4.00    0.0
2018/11/09 00:48:15.000  -74.370508386  163.307877758  1012.2892   6   9   0.0784   0.0578   0.3305  -0.0383   0.0883  -0.1357   4.00    0.0
2018/11/09 00:48:30.000  -74.370508582  163.307878638  1012.4286   6   9   0.0685   0.0512   0.2871  -0.0328   0.0759  -0.1169   4.00    0.0
2018/11/09 00:48:45.000  -74.370508647  163.307879145  1012.5126   6   9   0.0587   0.0446   0.2442  -0.0273   0.0638  -0.0983   4.00    0.0
2018/11/09 00:49:00.000  -74.370508546  163.307879436  1012.4895   6  10   0.0490   0.0381   0.2018  -0.0221   0.0520  -0.0800   4.00    0.0
2018/11/09 00:49:15.000  -74.370508437  163.307879999  1012.4695   6  10   0.0341   0.0317   0.1286  -0.0171   0.0407  -0.0437   4.00    0.0
2018/11/09 00:49:30.000  -74.370508363  163.307880681  1012.4520   6  10   0.0272   0.0256   0.0996  -0.0125   0.0304  -0.0316   4.00    0.0
2018/11/09 00:49:45.000  -74.370508243  163.307880785  1012.4037   6  10   0.0218   0.0205   0.0775  -0.0090   0.0225  -0.0226   4.00    0.0
2018/11/09 00:50:00.000  -74.370508269  163.307881046  1012.4146   6  10   0.0190   0.0180   0.0644  -0.0074   0.0181  -0.0170   4.00    0.0
2018/11/09 00:50:15.000  -74.370508261  163.307881113  1012.3937   6  10   0.0218   0.0204   0.0765  -0.0082   0.0206  -0.0223   4.00    0.0
2018/11/09 00:50:30.000  -74.370508289  163.307880520  1012.3660   6  10   0.0269   0.0250   0.0976  -0.0103   0.0258  -0.0310   4.00    0.0
2018/11/09 00:50:45.000  -74.370508370  163.307880119  1012.3676   6  10   0.0334   0.0306   0.1236  -0.0130   0.0324  -0.0416   4.00    0.0
2018/11/09 00:51:00.000  -74.370508442  163.307879624  1012.3652   6  10   0.0410   0.0367   0.1559  -0.0160   0.0396  -0.0555   4.00    0.0
2018/11/09 00:51:15.000  -74.370508463  163.307879746  1012.3644   6  10   0.0468   0.0433   0.1799  -0.0240   0.0567  -0.0632   4.00    0.0
2018/11/09 00:51:30.000  -74.370508560  163.307879564  1012.3984   6  10   0.0520   0.0491   0.1972  -0.0267   0.0629  -0.0679   3.00    0.0
2018/11/09 00:51:45.000  -74.370508589  163.307879175  1012.4383   6  10   0.0578   0.0551   0.2182  -0.0300   0.0704  -0.0747   3.00    0.0
2018/11/09 00:52:00.000  -74.370508541  163.307878368  1012.4213   6  10   0.0639   0.0612   0.2411  -0.0336   0.0784  -0.0825   4.00    0.0
2018/11/09 00:52:15.000  -74.370508562  163.307878270  1012.3969   6  10   0.0702   0.0673   0.2649  -0.0374   0.0867  -0.0908   4.00    0.0
2018/11/09 00:52:30.000  -74.370508584  163.307877969  1012.3830   6  10   0.0766   0.0734   0.2894  -0.0412   0.0950  -0.0994   4.00    0.0
2018/11/09 00:52:45.000  -74.370508708  163.307878254  1012.3930   6  10   0.0700   0.0674   0.2642  -0.0372   0.0862  -0.0901   4.00    0.0
2018/11/09 00:53:00.000  -74.370508630  163.307878320  1012.3540   6  10   0.0634   0.0611   0.2385  -0.0330   0.0770  -0.0806   3.00    0.0
2018/11/09 00:53:15.000  -74.370508546  163.307878142  1012.3567   6  10   0.0569   0.0548   0.2128  -0.0289   0.0678  -0.0711   3.00    0.0
2018/11/09 00:53:30.000  -74.370508451  163.307878415  1012.3524   6  10   0.0503   0.0486   0.1872  -0.0249   0.0588  -0.0616   3.00    0.0
2018/11/09 00:53:45.000  -74.370508489  163.307879042  1012.3713   6  10   0.0439   0.0424   0.1618  -0.0210   0.0500  -0.0522   3.00    0.0
2018/11/09 00:54:00.000  -74.370508489  163.307879589  1012.3658   6  10   0.0375   0.0363   0.1367  -0.0173   0.0414  -0.0429   3.00    0.0
2018/11/09 00:54:15.000  -74.370508508  163.307879989  1012.3589   6  10   0.0313   0.0304   0.1123  -0.0137   0.0332  -0.0338   3.00    0.0
2018/11/09 00:54:30.000  -74.370508447  163.307880310  1012.3766   6  10   0.0255   0.0248   0.0892  -0.0104   0.0256  -0.0252   3.00    0.0
2018/11/09 00:54:45.000  -74.370508395  163.307880777  1012.3848   6  10   0.0207   0.0200   0.0692  -0.0077   0.0193  -0.0172   4.00    0.0
2018/11/09 00:55:00.000  -74.370508194  163.307880847  1012.3844   6  10   0.0181   0.0177   0.0571  -0.0064   0.0157  -0.0118   4.00    0.0
2018/11/09 00:55:15.000  -74.370508200  163.307880778  1012.4005   6  10   0.0205   0.0199   0.0674  -0.0074   0.0185  -0.0162   4.00    0.0
2018/11/09 00:55:30.000  -74.370508181  163.307879972  1012.3801   6  10   0.0250   0.0244   0.0857  -0.0098   0.0241  -0.0233   4.00    0.0
2018/11/09 00:55:45.000  -74.370508356  163.307879943  1012.3809   6  10   0.0305   0.0299   0.1073  -0.0127   0.0310  -0.0314   5.00    0.0
2018/11/09 00:56:00.000  -74.370508409  163.307879758  1012.3797   6  10   0.0364   0.0356   0.1306  -0.0159   0.0385  -0.0400   5.00    0.0
2018/11/09 00:56:15.000  -74.370508429  163.307879369  1012.3568   6  10   0.0426   0.0414   0.1550  -0.0194   0.0463  -0.0491   5.00    0.0
2018/11/09 00:56:30.000  -74.370508453  163.307878782  1012.2970   6  10   0.0489   0.0472   0.1801  -0.0230   0.0542  -0.0583   5.00    0.0
2018/11/09 00:56:45.000  -74.370508525  163.307879144  1012.2643   6  10   0.0553   0.0531   0.2055  -0.0267   0.0622  -0.0676   5.00    0.0
2018/11/09 00:57:00.000  -74.370508569  163.307879327  1012.2773   6  10   0.0618   0.0589   0.2311  -0.0303   0.0700  -0.0769   5.00    0.0
2018/11/09 00:57:15.000  -74.370508616  163.307878882  1012.2643   6  10   0.0683   0.0648   0.2570  -0.0340   0.0779  -0.0863   5.00    0.0
2018/11/09 00:57:30.000  -74.370508610  163.307878707  1012.2807   6  10   0.0749   0.0706   0.2829  -0.0377   0.0856  -0.0957   5.00    0.0
2018/11/09 00:57:45.000  -74.370508609  163.307878757  1012.2635   6  10   0.0681   0.0643   0.2561  -0.0335   0.0766  -0.0860   5.00    0.0
2018/11/09 00:58:00.000  -74.370508558  163.307878776  1012.2476   6  10   0.0616   0.0583   0.2302  -0.0295   0.0680  -0.0766   5.00    0.0
2018/11/09 00:58:15.000  -74.370508643  163.307878974  1012.3174   6  10   0.0551   0.0523   0.2043  -0.0256   0.0595  -0.0671   5.00    0.0
2018/11/09 00:58:30.000  -74.370508617  163.307879289  1012.3272   6  10   0.0486   0.0464   0.1786  -0.0218   0.0512  -0.0577   5.00    0.0
2018/11/09 00:58:45.000  -74.370508479  163.307879376  1012.3087   6  10   0.0422   0.0405   0.1533  -0.0181   0.0431  -0.0483   5.00    0.0
2018/11/09 00:59:00.000  -74.370508415  163.307879548  1012.3244   6  10   0.0360   0.0347   0.1285  -0.0146   0.0352  -0.0391   5.00    0.0
2018/11/09 00:59:15.000  -74.370508342  163.307879601  1012.3107   6  10   0.0300   0.0290   0.1045  -0.0113   0.0277  -0.0302   5.00    0.0
2018/11/09 00:59:30.000  -74.370508250  163.307879908  1012.2968   6  10   0.0245   0.0238   0.0821  -0.0084   0.0210  -0.0216   5.00    0.0
2018/11/09 00:59:45.000  -74.370508153  163.307879850  1012.3016   6  10   0.0200   0.0195   0.0630  -0.0061   0.0157  -0.0137   5.00    0.0
2018/11/09 01:00:00.000  -74.370508191  163.307880898  1012.3763   6  10   0.0176   0.0171   0.0524  -0.0047   0.0131  -0.0084   4.00    0.0
2018/11/09 01:00:15.000  -74.370508235  163.307881157  1012.4161   6  10   0.0197   0.0192   0.0622  -0.0057   0.0154  -0.0135   4.00    0.0
2018/11/09 01:00:30.000  -74.370508318  163.307881191  1012.4231   6  10   0.0242   0.0235   0.0806  -0.0079   0.0203  -0.0213   4.00    0.0
2018/11/09 01:00:45.000  -74.370508379  163.307880778  1012.3779   6  10   0.0296   0.0286   0.1026  -0.0106   0.0265  -0.0298   4.00    0.0
2018/11/09 01:01:00.000  -74.370508439  163.307879952  1012.3492   6  10   0.0355   0.0341   0.1263  -0.0136   0.0331  -0.0387   4.00    0.0
2018/11/09 01:01:15.000  -74.370508523  163.307879755  1012.3380   6  10   0.0417   0.0396   0.1508  -0.0168   0.0400  -0.0478   4.00    0.0
2018/11/09 01:01:30.000  -74.370508530  163.307879899  1012.3270   6  10   0.0479   0.0451   0.1759  -0.0201   0.0469  -0.0570   4.00    0.0
2018/11/09 01:01:45.000  -74.370508648  163.307880250  1012.3418   6  10   0.0543   0.0507   0.2013  -0.0234   0.0538  -0.0661   4.00    0.0
2018/11/09 01:02:00.000  -74.370508618  163.307880111  1012.3311   6  10   0.0608   0.0563   0.2268  -0.0267   0.0605  -0.0753   4.00    0.0
2018/11/09 01:02:15.000  -74.370508572  163.307879943  1012.3205   6  10   0.0673   0.0619   0.2524  -0.0301   0.0672  -0.0845   4.00    0.0
2018/11/09 01:02:30.000  -74.370508503  163.307879713  1012.3196   6  10   0.0738   0.0675   0.2781  -0.0334   0.0737  -0.0936   4.00    0.0
2018/11/09 01:02:45.000  -74.370508470  163.307879648  1012.3084   6  10   0.0674   0.0617   0.2530  -0.0297   0.0660  -0.0847   4.00    0.0
2018/11/09 01:03:00.000  -74.370508516  163.307879478  1012.2769   6  10   0.0608   0.0559   0.2270  -0.0260   0.0584  -0.0753   4.00    0.0
2018/11/09 01:03:15.000  -74.370508483  163.307879579  1012.3323   6  10   0.0543   0.0502   0.2010  -0.0224   0.0509  -0.0659   4.00    0.0
2018/11/09 01:03:30.000  -74.370508540  163.307880056  1012.3518   6  10   0.0479   0.0446   0.1753  -0.0189   0.0436  -0.0566   4.00    0.0
2018/11/09 01:03:45.000  -74.370508523  163.307879967  1012.3790   6  10   0.0416   0.0390   0.1500  -0.0155   0.0364  -0.0473   4.00    0.0
2018/11/09 01:04:00.000  -74.370508477  163.307880273  1012.3832   6  10   0.0354   0.0335   0.1251  -0.0123   0.0296  -0.0381   4.00    0.0
2018/11/09 01:04:15.000  -74.370508464  163.307880187  1012.3666   6  10   0.0295   0.0281   0.1011  -0.0094   0.0231  -0.0290   4.00    0.0
2018/11/09 01:04:30.000  -74.370508477  163.307880482  1012.3537   6  10   0.0240   0.0231   0.0786  -0.0067   0.0173  -0.0202   4.00    0.0
2018/11/09 01:04:45.000  -74.370508370  163.307880755  1012.3708   6  10   0.0196   0.0189   0.0596  -0.0047   0.0129  -0.0119   4.00    0.0
2018/11/09 01:05:00.000  -74.370508296  163.307880976  1012.3888   6  10   0.0172   0.0167   0.0489  -0.0039   0.0108  -0.0059   4.00    0.0
2018/11/09 01:05:15.000  -74.370508326  163.307880900  1012.4029   6  10   0.0194   0.0188   0.0590  -0.0045   0.0127  -0.0119   4.00    0.0
2018/11/09 01:05:30.000  -74.370508380  163.307880756  1012.4621   6  10   0.0238   0.0229   0.0775  -0.0062   0.0167  -0.0200   4.00    0.0
2018/11/09 01:05:45.000  -74.370508464  163.307880572  1012.5229   6  10   0.0292   0.0277   0.0994  -0.0085   0.0218  -0.0286   4.00    0.0
2018/11/09 01:06:00.000  -74.370508503  163.307880505  1012.5836   6  10   0.0350   0.0329   0.1228  -0.0111   0.0273  -0.0374   4.00    0.0
2018/11/09 01:06:15.000  -74.370508535  163.307880271  1012.6518   6  10   0.0410   0.0382   0.1471  -0.0139   0.0329  -0.0463   4.00    0.0
2018/11/09 01:06:30.000  -74.370508544  163.307880660  1012.7043   6  10   0.0472   0.0435   0.1717  -0.0169   0.0385  -0.0552   4.00    0.0
2018/11/09 01:06:45.000  -74.370508546  163.307880581  1012.6975   6  10   0.0535   0.0489   0.1965  -0.0198   0.0439  -0.0640   4.00    0.0
2018/11/09 01:07:00.000  -74.370508546  163.307880391  1012.6564   6  10   0.0599   0.0543   0.2215  -0.0228   0.0493  -0.0729   4.00    0.0
2018/11/09 01:07:15.000  -74.370508554  163.307880053  1012.6019   6  10   0.0663   0.0597   0.2464  -0.0258   0.0545  -0.0816   4.00    0.0
2018/11/09 01:07:30.000  -74.370508622  163.307879726  1012.5061   6  10   0.0728   0.0651   0.2713  -0.0287   0.0595  -0.0903   4.00    0.0
2018/11/09 01:07:45.000  -74.370508613  163.307880259  1012.4471   6  10   0.0662   0.0595   0.2456  -0.0255   0.0532  -0.0812   4.00    0.0
2018/11/09 01:08:00.000  -74.370508566  163.307880405  1012.4181   6  10   0.0597   0.0540   0.2200  -0.0222   0.0468  -0.0721   4.00    0.0
2018/11/09 01:08:15.000  -74.370508505  163.307880258  1012.4125   6  10   0.0532   0.0485   0.1946  -0.0189   0.0406  -0.0630   4.00    0.0
2018/11/09 01:08:30.000  -74.370508532  163.307880486  1012.4253   6  10   0.0469   0.0431   0.1694  -0.0158   0.0346  -0.0539   4.00    0.0
2018/11/09 01:08:45.000  -74.370508444  163.307880229  1012.3965   6  10   0.0406   0.0377   0.1445  -0.0127   0.0288  -0.0449   4.00    0.0
2018/11/09 01:09:00.000  -74.370508345  163.307880121  1012.3625   6  10   0.0346   0.0324   0.1202  -0.0099   0.0232  -0.0360   5.00    0.0
2018/11/09 01:09:15.000  -74.370508271  163.307880040  1012.3763   6  10   0.0288   0.0273   0.0967  -0.0072   0.0180  -0.0272   5.00    0.0
2018/11/09 01:09:30.000  -74.370508213  163.307879943  1012.3727   6  10   0.0235   0.0225   0.0748  -0.0050   0.0134  -0.0186   5.00    0.0
2018/11/09 01:09:45.000  -74.370508153  163.307880189  1012.3453   6  11   0.0181   0.0185   0.0535   0.0018   0.0081   0.0034   5.00    0.0
2018/11/09 01:10:00.000  -74.370508156  163.307880594  1012.3224   6  11   0.0162   0.0164   0.0440   0.0017   0.0072   0.0079   5.00    0.0
2018/11/09 01:10:15.000  -74.370508181  163.307880749  1012.3127   6  11   0.0178   0.0183   0.0510   0.0025   0.0060   0.0074   5.00    0.0
2018/11/09 01:10:30.000  -74.370508165  163.307880638  1012.2857   6  11   0.0210   0.0220   0.0638   0.0046   0.0040   0.0061   5.00    0.0
2018/11/09 01:10:45.000  -74.370508169  163.307880355  1012.2610   6  11   0.0249   0.0263   0.0793   0.0061  -0.0045   0.0030   5.00    0.0
2018/11/09 01:11:00.000  -74.370508167  163.307880005  1012.2367   6  11   0.0293   0.0311   0.0963   0.0074  -0.0083  -0.0065   5.00    0.0
2018/11/09 01:11:15.000  -74.370508246  163.307879741  1012.2426   6  11   0.0339   0.0359   0.1143   0.0084  -0.0115  -0.0110   5.00    0.0
2018/11/09 01:11:30.000  -74.370508301  163.307879286  1012.2575   6  11   0.0386   0.0408   0.1328   0.0090  -0.0146  -0.0150   5.00    0.0
2018/11/09 01:11:45.000  -74.370508375  163.307879307  1012.2629   6  11   0.0435   0.0458   0.1518   0.0095  -0.0177  -0.0190   5.00    0.0
2018/11/09 01:12:00.000  -74.370508463  163.307879498  1012.2336   6  11   0.0485   0.0509   0.1710   0.0099  -0.0208  -0.0229   0.00    0.0
2018/11/09 01:12:15.000  -74.370508493  163.307880090  1012.2328   6  11   0.0535   0.0559   0.1905   0.0102  -0.0240  -0.0268   0.00    0.0
2018/11/09 01:12:30.000  -74.370508465  163.307880124  1012.2397   6  11   0.0586   0.0611   0.2101   0.0104  -0.0273  -0.0307   0.00    0.0
2018/11/09 01:12:45.000  -74.370508452  163.307880117  1012.2665   6  11   0.0535   0.0560   0.1916   0.0100  -0.0250  -0.0279   2.00    1.0
2018/11/09 01:13:00.000  -74.370508466  163.307879973  1012.2768   6  11   0.0485   0.0509   0.1724   0.0099  -0.0228  -0.0244   2.00    1.0
2018/11/09 01:13:15.000  -74.370508437  163.307879551  1012.2881   6  11   0.0435   0.0458   0.1533   0.0096  -0.0204  -0.0209   2.00    1.0
2018/11/09 01:13:30.000  -74.370508412  163.307879376  1012.2862   6  11   0.0386   0.0408   0.1343   0.0092  -0.0180  -0.0171   2.00    1.0
2018/11/09 01:13:45.000  -74.370508336  163.307880165  1012.3555   6  12   0.0332   0.0344   0.1119   0.0025  -0.0229  -0.0192   3.00    1.0
2018/11/09 01:14:00.000  -74.370508285  163.307880126  1012.3497   6  12   0.0286   0.0297   0.0936   0.0030  -0.0194  -0.0148   2.00    1.0
2018/11/09 01:14:15.000  -74.370508631  163.307876866  1012.2547   1  12   0.0418   0.0329   0.1142   0.0089   0.0084   0.0267   2.00    1.0
2018/11/09 01:14:30.000  -74.370508596  163.307877333  1012.2630   1  12   0.0378   0.0277   0.0931   0.0097   0.0150   0.0300   2.00    1.0
2018/11/09 01:14:45.000  -74.370508557  163.307877275  1012.2584   1  12   0.0348   0.0239   0.0761   0.0101   0.0180   0.0320   2.00    1.0
2018/11/09 01:15:00.000  -74.370508556  163.307877323  1012.2316   1  12   0.0332   0.0221   0.0667   0.0102   0.0188   0.0329   2.00    1.0
2018/11/09 01:15:15.000  -74.370508562  163.307877516  1012.2176   1  12   0.0342   0.0239   0.0749   0.0100   0.0175   0.0315   2.00    1.0
2018/11/09 01:15:30.000  -74.370508633  163.307877925  1012.2041   1  12   0.0368   0.0275   0.0910   0.0095   0.0124   0.0288   2.00    1.0
2018/11/09 01:15:45.000  -74.370508688  163.307878071  1012.2161   1  12   0.0406   0.0324   0.1113   0.0083  -0.0100   0.0243   3.00    1.0
2018/11/09 01:16:00.000  -74.370508417  163.307881085  1012.2981   6  12   0.0284   0.0293   0.0928   0.0039  -0.0207  -0.0153   4.00    0.0
2018/11/09 01:16:15.000  -74.370508517  163.307881192  1012.3116   6  12   0.0329   0.0338   0.1106   0.0036  -0.0256  -0.0206   4.00    0.0
2018/11/09 01:16:30.000  -74.370508564  163.307881054  1012.2953   6  12   0.0376   0.0384   0.1288   0.0020  -0.0305  -0.0258   4.00    0.0
2018/11/09 01:16:45.000  -74.370508624  163.307881219  1012.3052   6  12   0.0424   0.0431   0.1475  -0.0032  -0.0354  -0.0309   4.00    0.0
2018/11/09 01:17:00.000  -74.370508691  163.307881392  1012.3020   6  12   0.0473   0.0479   0.1664  -0.0055  -0.0404  -0.0359   4.00    0.0
2018/11/09 01:17:15.000  -74.370508676  163.307881434  1012.3197   6  12   0.0522   0.0527   0.1855  -0.0073  -0.0454  -0.0409   4.00    0.0
2018/11/09 01:17:30.000  -74.370508671  163.307881399  1012.2827   6  12   0.0572   0.0576   0.2047  -0.0091  -0.0504  -0.0459   4.00    0.0
2018/11/09 01:17:45.000  -74.370508650  163.307881329  1012.3213   6  12   0.0524   0.0528   0.1858  -0.0076  -0.0457  -0.0411   4.00    0.0
2018/11/09 01:18:00.000  -74.370508640  163.307881247  1012.3334   6  12   0.0474   0.0479   0.1671  -0.0055  -0.0410  -0.0363   4.00    0.0
2018/11/09 01:18:15.000  -74.370508571  163.307881183  1012.3093   6  12   0.0425   0.0432   0.1485  -0.0030  -0.0363  -0.0314   4.00    0.0
2018/11/09 01:18:30.000  -74.370508587  163.307881476  1012.3125   6  12   0.0377   0.0385   0.1299   0.0024  -0.0315  -0.0263   4.00    0.0
2018/11/09 01:18:45.000  -74.370508589  163.307881586  1012.3124   6  12   0.0330   0.0338   0.1116   0.0038  -0.0268  -0.0212   5.00    0.0
2018/11/09 01:19:00.000  -74.370508591  163.307881738  1012.3066   6  12   0.0284   0.0293   0.0936   0.0042  -0.0221  -0.0158   4.00    0.0
2018/11/09 01:19:15.000  -74.370508519  163.307881738  1012.3280   6  12   0.0241   0.0249   0.0763   0.0040  -0.0174  -0.0100   5.00    0.0
2018/11/09 01:19:30.000  -74.370508344  163.307881445  1012.3146   6  12   0.0203   0.0209   0.0603   0.0034  -0.0128   0.0023   5.00    0.0
2018/11/09 01:19:45.000  -74.370508224  163.307880958  1012.3289   6  12   0.0172   0.0175   0.0472   0.0027  -0.0085   0.0081   5.00    0.0
2018/11/09 01:20:00.000  -74.370508128  163.307880713  1012.3159   6  12   0.0159   0.0160   0.0400   0.0032  -0.0056   0.0095   5.00    0.0
2018/11/09 01:20:15.000  -74.370508064  163.307880991  1012.3246   6  12   0.0172   0.0174   0.0470   0.0029  -0.0087   0.0081   5.00    0.0
2018/11/09 01:20:30.000  -74.370508247  163.307878052  1012.3058   1  12   0.0357   0.0277   0.0894   0.0101   0.0069   0.0271   5.00    1.0
2018/11/09 01:20:45.000  -74.370508304  163.307878038  1012.3223   1  12   0.0396   0.0326   0.1111   0.0092  -0.0156   0.0219   5.00    1.0
2018/11/09 01:21:00.000  -74.370508263  163.307877449  1012.3543   1  12   0.0446   0.0383   0.1352   0.0079  -0.0254   0.0113   5.00    1.0
2018/11/09 01:21:15.000  -74.370508009  163.307879682  1012.3934   6  12   0.0328   0.0334   0.1123   0.0047  -0.0276  -0.0218   5.00    0.0
2018/11/09 01:21:30.000  -74.370508056  163.307880642  1012.3350   6  12   0.0375   0.0380   0.1312   0.0041  -0.0328  -0.0271   5.00    0.0
2018/11/09 01:21:45.000  -74.370507970  163.307880105  1012.3164   6  12   0.0424   0.0427   0.1504   0.0027  -0.0379  -0.0324   5.00    0.0
2018/11/09 01:22:00.000  -74.370507957  163.307880239  1012.2702   6  12   0.0473   0.0475   0.1698  -0.0025  -0.0432  -0.0376   5.00    0.0
2018/11/09 01:22:15.000  -74.370507957  163.307880223  1012.2571   6  12   0.0523   0.0523   0.1893  -0.0049  -0.0484  -0.0427   5.00    0.0
2018/11/09 01:22:30.000  -74.370507945  163.307880410  1012.2461   6  12   0.0573   0.0572   0.2089  -0.0066  -0.0537  -0.0479   5.00    0.0
2018/11/09 01:22:45.000  -74.370508030  163.307880952  1012.2290   6  12   0.0523   0.0524   0.1900  -0.0038  -0.0487  -0.0428   5.00    0.0
2018/11/09 01:23:00.000  -74.370508062  163.307880599  1012.2479   6  12   0.0473   0.0476   0.1706   0.0022  -0.0436  -0.0377   5.00    0.0
2018/11/09 01:23:15.000  -74.370508063  163.307880233  1012.2873   6  12   0.0424   0.0428   0.1514   0.0043  -0.0386  -0.0326   5.00    0.0
2018/11/09 01:23:30.000  -74.370508117  163.307879843  1012.2782   6  12   0.0376   0.0380   0.1322   0.0053  -0.0336  -0.0274   5.00    0.0
2018/11/09 01:23:45.000  -74.370508072  163.307879764  1012.3046   6  12   0.0328   0.0334   0.1133   0.0057  -0.0286  -0.0221   5.00    0.0
2018/11/09 01:24:00.000  -74.370508006  163.307879753  1012.3066   6  12   0.0283   0.0289   0.0948   0.0056  -0.0236  -0.0165   5.00    0.0
2018/11/09 01:24:15.000  -74.370507978  163.307879845  1012.3231   6  12   0.0240   0.0246   0.0770   0.0051  -0.0188  -0.0105   5.00    0.0
2018/11/09 01:24:30.000  -74.370507996  163.307880107  1012.3492   6  12   0.0201   0.0206   0.0606   0.0044  -0.0142   0.0014   6.00    0.0
2018/11/09 01:24:45.000  -74.370508208  163.307877357  1012.2913   1  12   0.0324   0.0243   0.0721   0.0109   0.0132   0.0291   6.00    1.0
2018/11/09 01:25:00.000  -74.370508284  163.307877545  1012.2711   1  12   0.0309   0.0228   0.0628   0.0113   0.0158   0.0301   6.00    1.0
2018/11/09 01:25:15.000  -74.370508257  163.307877862  1012.2550   1  12   0.0320   0.0244   0.0718   0.0111   0.0128   0.0289   6.00    1.0
2018/11/09 01:25:30.000  -74.370508209  163.307878324  1012.2440   1  12   0.0299   0.0264   0.0869   0.0168   0.0125   0.0171   7.00    2.0
2018/11/09 01:25:45.000  -74.370508267  163.307878514  1012.1989   1  12   0.0347   0.0315   0.1096   0.0164  -0.0127   0.0059   8.00    2.0
2018/11/09 01:26:00.000  -74.370508332  163.307878533  1012.1830   1  12   0.0402   0.0374   0.1346   0.0159  -0.0245  -0.0180   8.00    2.0
2018/11/09 01:26:15.000  -74.370508196  163.307880548  1012.2444   6  12   0.0327   0.0330   0.1133   0.0060  -0.0292  -0.0224   7.00    2.0
2018/11/09 01:26:30.000  -74.370508208  163.307879775  1012.2438   6  12   0.0375   0.0376   0.1324   0.0059  -0.0344  -0.0278   7.00    2.0
2018/11/09 01:26:45.000  -74.370508220  163.307879704  1012.2441   6  12   0.0423   0.0423   0.1516   0.0055  -0.0397  -0.0331   7.00    2.0
2018/11/09 01:27:00.000  -74.370508280  163.307879808  1012.2789   6  12   0.0472   0.0471   0.1711   0.0048  -0.0451  -0.0383   7.00    2.0
2018/11/09 01:27:15.000  -74.370508267  163.307879572  1012.2751   6  12   0.0522   0.0520   0.1905   0.0035  -0.0505  -0.0435   7.00    2.0
2018/11/09 01:27:30.000  -74.370508234  163.307879339  1012.2378   6  12   0.0573   0.0569   0.2101   0.0008  -0.0559  -0.0486   7.00    2.0
2018/11/09 01:27:45.000  -74.370508160  163.307879559  1012.2213   6  12   0.0523   0.0520   0.1900   0.0038  -0.0507  -0.0437   7.00    2.0
2018/11/09 01:28:00.000  -74.370508223  163.307879467  1012.2129   6  12   0.0473   0.0472   0.1705   0.0051  -0.0455  -0.0385   7.00    2.0
2018/11/09 01:28:15.000  -74.370508201  163.307879211  1012.2014   6  12   0.0423   0.0424   0.1510   0.0059  -0.0403  -0.0333   7.00    2.0
2018/11/09 01:28:30.000  -74.370508157  163.307879089  1012.1922   6  12   0.0375   0.0376   0.1318   0.0063  -0.0350  -0.0280   7.00    2.0
2018/11/09 01:28:45.000  -74.370508097  163.307878669  1012.1672   6  12   0.0327   0.0330   0.1128   0.0063  -0.0299  -0.0226   7.00    2.0
2018/11/09 01:29:00.000  -74.370508329  163.307876615  1012.0995   1  12   0.0402   0.0376   0.1339   0.0163  -0.0260  -0.0187   7.00    2.0
2018/11/09 01:29:15.000  -74.370508355  163.307876655  1012.1391   1  12   0.0346   0.0317   0.1090   0.0166  -0.0152   0.0033   7.00    2.0
2018/11/09 01:29:30.000  -74.370508383  163.307876757  1012.1601   1  12   0.0298   0.0266   0.0864   0.0169   0.0097   0.0164   7.00    2.0
2018/11/09 01:29:45.000  -74.370508337  163.307877285  1012.2059   1  12   0.0261   0.0229   0.0680   0.0171   0.0175   0.0203   7.00    2.0
2018/11/09 01:30:00.000  -74.370508373  163.307877544  1012.2480   1  12   0.0246   0.0210   0.0581   0.0171   0.0199   0.0213   7.00    2.0
2018/11/09 01:30:15.000  -74.370508389  163.307877677  1012.2908   1  12   0.0261   0.0227   0.0679   0.0169   0.0172   0.0200   7.00    2.0
2018/11/09 01:30:30.000  -74.370508255  163.307878133  1012.2800   1  12   0.0355   0.0287   0.0864   0.0223   0.0128   0.0200   7.00    1.0
2018/11/09 01:30:45.000  -74.370508241  163.307877885  1012.2922   1  12   0.0396   0.0335   0.1087   0.0221  -0.0131   0.0119   7.00    1.0
2018/11/09 01:31:00.000  -74.370508271  163.307877643  1012.3050   1  12   0.0445   0.0391   0.1332   0.0219  -0.0251  -0.0148   7.00    1.0
2018/11/09 01:31:15.000  -74.370508307  163.307879231  1012.3670   6  12   0.0327   0.0327   0.1121   0.0065  -0.0303  -0.0226   7.00    1.0
2018/11/09 01:31:30.000  -74.370508347  163.307879154  1012.3174   6  12   0.0374   0.0372   0.1307   0.0066  -0.0356  -0.0279   7.00    1.0
2018/11/09 01:31:45.000  -74.370508344  163.307878776  1012.3003   6  12   0.0423   0.0420   0.1496   0.0065  -0.0409  -0.0331   7.00    1.0
2018/11/09 01:32:00.000  -74.370508463  163.307878916  1012.3071   6  12   0.0472   0.0467   0.1685   0.0062  -0.0462  -0.0382   7.00    2.0
2018/11/09 01:32:15.000  -74.370508573  163.307879039  1012.3132   6  12   0.0522   0.0516   0.1875   0.0058  -0.0516  -0.0433   7.00    2.0
2018/11/09 01:32:30.000  -74.370508522  163.307879056  1012.3142   6  12   0.0572   0.0565   0.2065   0.0052  -0.0570  -0.0483   7.00    2.0
2018/11/09 01:32:45.000  -74.370508554  163.307879065  1012.3318   6  12   0.0523   0.0516   0.1874   0.0062  -0.0517  -0.0435   7.00    2.0
2018/11/09 01:33:00.000  -74.370508503  163.307879360  1012.3025   6  12   0.0473   0.0467   0.1681   0.0066  -0.0464  -0.0384   7.00    2.0
2018/11/09 01:33:15.000  -74.370508483  163.307878486  1012.3731   6  12   0.0424   0.0419   0.1490   0.0069  -0.0411  -0.0332   7.00    2.0
2018/11/09 01:33:30.000  -74.370508415  163.307878619  1012.4078   6  12   0.0375   0.0372   0.1301   0.0070  -0.0358  -0.0280   7.00    2.0
2018/11/09 01:33:45.000  -74.370508360  163.307878894  1012.3968   6  12   0.0328   0.0326   0.1115   0.0069  -0.0307  -0.0227   7.00    2.0
2018/11/09 01:34:00.000  -74.370508247  163.307879027  1012.3625   1  12   0.0270   0.0253   0.0923   0.0067  -0.0240  -0.0188   7.00    2.0
2018/11/09 01:34:15.000  -74.370508152  163.307879006  1012.3587   1  12   0.0227   0.0208   0.0748   0.0066  -0.0189  -0.0137   7.00    2.0
2018/11/09 01:34:30.000  -74.370508072  163.307879246  1012.3425   1  12   0.0187   0.0167   0.0586   0.0063  -0.0143  -0.0087   7.00    2.0
2018/11/09 01:34:45.000  -74.370508273  163.307877231  1012.2600   1  12   0.0258   0.0231   0.0684   0.0168   0.0155   0.0187   7.00    2.0
2018/11/09 01:35:00.000  -74.370508331  163.307877674  1012.2579   1  12   0.0241   0.0215   0.0587   0.0171   0.0184   0.0196   7.00    2.0
2018/11/09 01:35:15.000  -74.370508319  163.307877465  1012.2951   1  12   0.0256   0.0232   0.0679   0.0169   0.0151   0.0179   7.00    2.0
2018/11/09 01:35:30.000  -74.370508256  163.307877298  1012.3102   1  12   0.0291   0.0269   0.0855   0.0167   0.0027   0.0129   7.00    2.0
2018/11/09 01:35:45.000  -74.370508272  163.307878994  1012.4322   1  12   0.0232   0.0210   0.0756   0.0075  -0.0199  -0.0162   7.00    2.0
2018/11/09 01:36:00.000  -74.370508276  163.307878964  1012.4600   1  12   0.0278   0.0255   0.0934   0.0082  -0.0253  -0.0220   7.00    2.0
2018/11/09 01:36:15.000  -74.370508191  163.307879234  1012.4254   6  12   0.0341   0.0326   0.1131   0.0092  -0.0326  -0.0273   6.00    2.0
2018/11/09 01:36:30.000  -74.370508175  163.307879457  1012.4267   6  12   0.0395   0.0372   0.1326   0.0107  -0.0384  -0.0344   6.00    2.0
2018/11/09 01:36:45.000  -74.370508155  163.307879475  1012.3868   6  12   0.0459   0.0422   0.1545   0.0135  -0.0455  -0.0443   6.00    1.0
2018/11/09 01:37:00.000  -74.370508227  163.307879574  1012.4223   6  12   0.0516   0.0469   0.1764   0.0142  -0.0513  -0.0523   5.00    1.0
2018/11/09 01:37:15.000  -74.370508250  163.307879656  1012.4400   6  12   0.0551   0.0516   0.1901   0.0127  -0.0549  -0.0522   5.00    1.0
2018/11/09 01:37:30.000  -74.370508273  163.307879388  1012.4611   6  12   0.0595   0.0564   0.2063   0.0121  -0.0595  -0.0548   5.00    1.0
2018/11/09 01:37:45.000  -74.370508386  163.307879490  1012.4734   6  12   0.0544   0.0515   0.1875   0.0116  -0.0543  -0.0492   5.00    1.0
2018/11/09 01:38:00.000  -74.370508426  163.307879226  1012.4802   6  12   0.0494   0.0467   0.1688   0.0114  -0.0491  -0.0443   5.00    1.0
2018/11/09 01:38:15.000  -74.370508359  163.307879379  1012.4517   6  12   0.0446   0.0420   0.1507   0.0114  -0.0441  -0.0398   5.00    1.0
2018/11/09 01:38:30.000  -74.370508252  163.307879317  1012.4034   6  12   0.0402   0.0374   0.1336   0.0116  -0.0395  -0.0363   5.00    1.0
2018/11/09 01:38:45.000  -74.370508131  163.307879473  1012.3761   6  12   0.0367   0.0331   0.1187   0.0127  -0.0361  -0.0351   5.00    1.0
2018/11/09 01:39:00.000  -74.370508149  163.307879406  1012.3911   6  12   0.0332   0.0289   0.1062   0.0129  -0.0327  -0.0344   6.00    1.0
2018/11/09 01:39:15.000  -74.370508069  163.307877901  1012.3032   1  12   0.0433   0.0348   0.1219   0.0250  -0.0287  -0.0344   6.00    1.0
2018/11/09 01:39:30.000  -74.370508107  163.307877866  1012.3189   1  12   0.0361   0.0297   0.0923   0.0231  -0.0140  -0.0144   7.00    1.0
2018/11/09 01:39:45.000  -74.370508113  163.307877893  1012.3057   1  12   0.0320   0.0261   0.0717   0.0223   0.0107   0.0120   7.00    1.0
2018/11/09 01:40:00.000  -74.370508198  163.307877723  1012.2719   1  12   0.0307   0.0246   0.0633   0.0224   0.0139   0.0108   7.00    1.0
2018/11/09 01:40:15.000  -74.370508137  163.307877613  1012.2750   1  12   0.0315   0.0261   0.0706   0.0221   0.0099   0.0115   7.00    1.0
2018/11/09 01:40:30.000  -74.370508169  163.307878097  1012.2678   1  12   0.0344   0.0294   0.0867   0.0219  -0.0110   0.0019   7.00    1.0
2018/11/09 01:40:45.000  -74.370508264  163.307878258  1012.2792   1  12   0.0387   0.0340   0.1065   0.0218  -0.0212  -0.0146   7.00    1.0
2018/11/09 01:41:00.000  -74.370508289  163.307878316  1012.2445   1  12   0.0438   0.0394   0.1283   0.0217  -0.0298  -0.0228   7.00    1.0
2018/11/09 01:41:15.000  -74.370508284  163.307879926  1012.2987   6  12   0.0333   0.0323   0.1083   0.0077  -0.0318  -0.0208   7.00    1.0
2018/11/09 01:41:30.000  -74.370508171  163.307879765  1012.2880   6  12   0.0380   0.0368   0.1250   0.0080  -0.0365  -0.0255   7.00    1.0
2018/11/09 01:41:45.000  -74.370508126  163.307880083  1012.2851   6  12   0.0428   0.0414   0.1418   0.0082  -0.0414  -0.0301   7.00    1.0
2018/11/09 01:42:00.000  -74.370508142  163.307880223  1012.3022   6  12   0.0477   0.0462   0.1588   0.0084  -0.0464  -0.0347   7.00    1.0
2018/11/09 01:42:15.000  -74.370508136  163.307880390  1012.3030   6  12   0.0527   0.0510   0.1758   0.0086  -0.0514  -0.0391   7.00    1.0
2018/11/09 01:42:30.000  -74.370508139  163.307879943  1012.3295   6  12   0.0577   0.0558   0.1928   0.0088  -0.0564  -0.0435   7.00    1.0
2018/11/09 01:42:45.000  -74.370508187  163.307879953  1012.3444   6  12   0.0530   0.0511   0.1756   0.0092  -0.0512  -0.0388   7.00    1.0
2018/11/09 01:43:00.000  -74.370508136  163.307879566  1012.3673   6  12   0.0481   0.0463   0.1582   0.0093  -0.0460  -0.0337   7.00    1.0
2018/11/09 01:43:15.000  -74.370508153  163.307879522  1012.4134   6  12   0.0435   0.0416   0.1413   0.0095  -0.0408  -0.0280   7.00    1.0
2018/11/09 01:43:30.000  -74.370508152  163.307879783  1012.4286   6  12   0.0395   0.0371   0.1254   0.0103  -0.0353  -0.0203   7.00    1.0
2018/11/09 01:43:45.000  -74.370508150  163.307879895  1012.4351   6  11   0.0354   0.0327   0.1104   0.0103  -0.0302  -0.0101   6.00    1.0
2018/11/09 01:44:00.000  -74.370508187  163.307878703  1012.3420   1  11   0.0459   0.0398   0.1306   0.0230  -0.0272  -0.0053   6.00    1.0
2018/11/09 01:44:15.000  -74.370508248  163.307878460  1012.3347   1  11   0.0399   0.0344   0.1084   0.0223  -0.0196   0.0092   6.00    1.0
2018/11/09 01:44:30.000  -74.370508247  163.307878153  1012.3159   1  11   0.0347   0.0297   0.0883   0.0218  -0.0110   0.0127   6.00    1.0
