% program   : RTKLIB ver.2.4.3
% inp file  : _by_type/_obs/blake/20181111.18o
% inp file  : _by_type/_sp3+clk/igs20270.clk
% inp file  : _by_type/_sp3+clk/igs20270.sp3
% inp file  : _by_type/_nav/blake/20181111.18n
% obs start : 2018/11/11 00:00:00.0 GPST (week2027      0.0s)
% obs end   : 2018/11/11 23:59:45.0 GPST (week2027  86385.0s)
% pos mode  : ppp-kinematic
% solution  : combined
% elev mask : 15.0 deg
% dynamics  : off
% tidecorr  : on
% tropo opt : est ztd+grad
% ephemeris : precise
% navi sys  : gps glonass
% antenna1  :                       ( 0.0000  0.0000  0.0000)
%
% (lat/lon/height=WGS84/ellipsoidal,Q=1:fix,2:float,3:sbas,4:dgps,5:single,6:ppp,ns=# of satellites)
%  GPST                  latitude(deg) longitude(deg)  height(m)   Q  ns   sdn(m)   sde(m)   sdu(m)  sdne(m)  sdeu(m)  sdun(m) age(s)  ratio
2018/11/11 00:00:00.000  -74.407213075  163.437639871    80.0524   1  10   0.0262   0.0255   0.0657  -0.0208   0.0182  -0.0211   5.00    1.0
2018/11/11 00:00:15.000  -74.407213001  163.437639008    80.0037   1  10   0.0290   0.0290   0.0787  -0.0225   0.0250  -0.0250   5.00    1.0
2018/11/11 00:00:30.000  -74.407213098  163.437639054    80.0158   1  10   0.0348   0.0362   0.1021  -0.0265   0.0363  -0.0323   5.00    1.0
2018/11/11 00:00:45.000  -74.407213152  163.437639597    80.0240   1  10   0.0388   0.0405   0.1298  -0.0260   0.0466  -0.0389   5.00    1.0
2018/11/11 00:01:00.000  -74.407213066  163.437639197    79.9779   6  10   0.0469   0.0500   0.1602  -0.0281   0.0602  -0.0470   0.00    0.0
2018/11/11 00:01:15.000  -74.407213048  163.437639147    79.9782   6  10   0.0545   0.0585   0.1916  -0.0326   0.0729  -0.0568   0.00    0.0
2018/11/11 00:01:30.000  -74.407213023  163.437639195    79.9785   6  10   0.0623   0.0673   0.2235  -0.0373   0.0856  -0.0667   2.00    0.0
2018/11/11 00:01:45.000  -74.407213059  163.437639162    79.9813   6  10   0.0703   0.0761   0.2555  -0.0419   0.0981  -0.0765   3.00    0.0
2018/11/11 00:02:00.000  -74.407212981  163.437639026    79.9325   6  10   0.0783   0.0848   0.2872  -0.0465   0.1104  -0.0862   3.00    0.0
2018/11/11 00:02:15.000  -74.407213068  163.437638698    79.9627   6  10   0.0862   0.0934   0.3184  -0.0510   0.1224  -0.0957   3.00    0.0
2018/11/11 00:02:30.000  -74.407213119  163.437638485    79.9374   6  10   0.0940   0.1017   0.3490  -0.0554   0.1340  -0.1051   3.00    0.0
2018/11/11 00:02:45.000  -74.407213160  163.437638592    79.9913   6  10   0.0857   0.0929   0.3183  -0.0508   0.1223  -0.0958   3.00    0.0
2018/11/11 00:03:00.000  -74.407213130  163.437638728    79.9642   6  10   0.0776   0.0842   0.2878  -0.0463   0.1106  -0.0865   3.00    0.0
2018/11/11 00:03:15.000  -74.407213203  163.437638214    79.9413   6  10   0.0697   0.0754   0.2571  -0.0417   0.0987  -0.0772   4.00    0.0
2018/11/11 00:03:30.000  -74.407213306  163.437638840    80.0175   6  10   0.0618   0.0668   0.2261  -0.0372   0.0866  -0.0677   3.00    0.0
2018/11/11 00:03:45.000  -74.407213384  163.437639077    80.0468   6  10   0.0541   0.0582   0.1950  -0.0327   0.0744  -0.0582   4.00    0.0
2018/11/11 00:04:00.000  -74.407213424  163.437639626    80.0675   6  10   0.0466   0.0498   0.1641  -0.0284   0.0622  -0.0487   4.00    0.0
2018/11/11 00:04:15.000  -74.407213323  163.437639999    80.0538   1  10   0.0392   0.0409   0.1354  -0.0268   0.0497  -0.0414   5.00    1.0
2018/11/11 00:04:30.000  -74.407213323  163.437640321    80.0413   1  10   0.0329   0.0333   0.1061  -0.0234   0.0372  -0.0325   5.00    1.0
2018/11/11 00:04:45.000  -74.407213254  163.437640221    80.0487   1  10   0.0280   0.0272   0.0817  -0.0209   0.0261  -0.0250   5.00    1.0
2018/11/11 00:05:00.000  -74.407213206  163.437640069    80.0382   1  10   0.0257   0.0243   0.0680  -0.0196   0.0189  -0.0206   5.00    1.0
2018/11/11 00:05:15.000  -74.407213174  163.437640053    80.0416   1  10   0.0284   0.0275   0.0822  -0.0212   0.0267  -0.0254   5.00    1.0
2018/11/11 00:05:30.000  -74.407213297  163.437640056    80.0720   1  10   0.0334   0.0337   0.1074  -0.0240   0.0383  -0.0332   3.00    1.0
2018/11/11 00:05:45.000  -74.407213348  163.437640409    80.1180   1  10   0.0398   0.0414   0.1378  -0.0275   0.0513  -0.0426   3.00    1.0
2018/11/11 00:06:00.000  -74.407213288  163.437639499    80.0609   6  10   0.0466   0.0498   0.1649  -0.0285   0.0627  -0.0487   4.00    0.0
2018/11/11 00:06:15.000  -74.407213342  163.437639265    80.0468   6  10   0.0536   0.0577   0.1951  -0.0324   0.0744  -0.0576   4.00    0.0
2018/11/11 00:06:30.000  -74.407213310  163.437638979    80.0082   6  10   0.0608   0.0657   0.2250  -0.0362   0.0857  -0.0662   5.00    0.0
2018/11/11 00:06:45.000  -74.407213214  163.437638823    79.9914   6  10   0.0679   0.0735   0.2541  -0.0400   0.0966  -0.0745   5.00    0.0
2018/11/11 00:07:00.000  -74.407213164  163.437638981    79.9992   6  10   0.0750   0.0812   0.2826  -0.0436   0.1071  -0.0825   5.00    0.0
2018/11/11 00:07:15.000  -74.407213173  163.437638463    79.9582   6  10   0.0819   0.0887   0.3103  -0.0472   0.1173  -0.0902   5.00    0.0
2018/11/11 00:07:30.000  -74.407213258  163.437637933    79.8973   6  10   0.0887   0.0960   0.3375  -0.0506   0.1273  -0.0978   5.00    0.0
2018/11/11 00:07:45.000  -74.407213291  163.437638221    79.9083   6  10   0.0818   0.0883   0.3112  -0.0470   0.1173  -0.0907   4.00    0.0
2018/11/11 00:08:00.000  -74.407213350  163.437638708    79.9553   6  10   0.0748   0.0806   0.2841  -0.0434   0.1072  -0.0832   5.00    0.0
2018/11/11 00:08:15.000  -74.407213347  163.437638444    79.9347   6  10   0.0676   0.0729   0.2563  -0.0397   0.0969  -0.0753   5.00    0.0
2018/11/11 00:08:30.000  -74.407213264  163.437638316    79.9106   6  10   0.0605   0.0651   0.2276  -0.0359   0.0862  -0.0672   5.00    0.0
2018/11/11 00:08:45.000  -74.407213195  163.437638435    79.8930   6  10   0.0534   0.0572   0.1982  -0.0322   0.0751  -0.0588   5.00    0.0
2018/11/11 00:09:00.000  -74.407213224  163.437638482    79.9012   6  10   0.0465   0.0494   0.1682  -0.0284   0.0637  -0.0500   5.00    0.0
2018/11/11 00:09:15.000  -74.407213234  163.437638546    79.8848   6  10   0.0400   0.0419   0.1383  -0.0248   0.0521  -0.0411   5.00    0.0
2018/11/11 00:09:30.000  -74.407213247  163.437639453    79.9458   1  11   0.0339   0.0340   0.1082  -0.0247   0.0405  -0.0377   4.00    1.0
2018/11/11 00:09:45.000  -74.407213298  163.437639875    80.0153   1  11   0.0251   0.0270   0.0834  -0.0194   0.0305  -0.0313   4.00    2.0
2018/11/11 00:10:00.000  -74.407213276  163.437640147    80.0240   1  11   0.0272   0.0250   0.0706  -0.0209   0.0225  -0.0236   4.00    1.0
2018/11/11 00:10:15.000  -74.407213253  163.437639982    79.9783   1  11   0.0298   0.0286   0.0850  -0.0223   0.0304  -0.0288   4.00    1.0
2018/11/11 00:10:30.000  -74.407213359  163.437640179    80.0014   1  11   0.0345   0.0352   0.1103  -0.0249   0.0427  -0.0380   4.00    1.0
2018/11/11 00:10:45.000  -74.407213386  163.437639205    79.9720   6  11   0.0391   0.0429   0.1319  -0.0238   0.0524  -0.0424   4.00    0.0
2018/11/11 00:11:00.000  -74.407213404  163.437638968    79.9640   6  11   0.0449   0.0503   0.1584  -0.0264   0.0633  -0.0510   4.00    0.0
2018/11/11 00:11:15.000  -74.407213415  163.437638201    79.9514   6  11   0.0509   0.0579   0.1846  -0.0291   0.0739  -0.0592   4.00    0.0
2018/11/11 00:11:30.000  -74.407213534  163.437638748    80.0058   6  11   0.0570   0.0655   0.2106  -0.0317   0.0843  -0.0672   4.00    0.0
2018/11/11 00:11:45.000  -74.407213488  163.437638341    79.9547   6  11   0.0633   0.0733   0.2363  -0.0343   0.0948  -0.0749   4.00    0.0
2018/11/11 00:12:00.000  -74.407213479  163.437637549    79.9452   6  11   0.0695   0.0813   0.2620  -0.0367   0.1054  -0.0825   4.00    0.0
2018/11/11 00:12:15.000  -74.407213542  163.437636958    79.9682   6  11   0.0759   0.0899   0.2880  -0.0386   0.1168  -0.0898   4.00    0.0
2018/11/11 00:12:30.000  -74.407213603  163.437636780    79.9790   6  11   0.0826   0.1012   0.3155  -0.0381   0.1310  -0.0959   4.00    0.0
2018/11/11 00:12:45.000  -74.407213467  163.437637945    80.0237   6  11   0.0746   0.0851   0.2854  -0.0425   0.1120  -0.0919   3.00    0.0
2018/11/11 00:13:00.000  -74.407213541  163.437638645    80.0903   6  11   0.0684   0.0773   0.2600  -0.0392   0.1013  -0.0839   3.00    0.0
2018/11/11 00:13:15.000  -74.407213482  163.437639019    80.0810   6  11   0.0622   0.0699   0.2347  -0.0360   0.0912  -0.0759   3.00    0.0
2018/11/11 00:13:30.000  -74.407213479  163.437639726    80.0791   6  11   0.0560   0.0625   0.2091  -0.0329   0.0810  -0.0678   3.00    0.0
2018/11/11 00:13:45.000  -74.407213389  163.437639526    80.0377   6  11   0.0499   0.0551   0.1831  -0.0298   0.0708  -0.0596   3.00    0.0
2018/11/11 00:14:00.000  -74.407213423  163.437639809    80.0342   6  11   0.0440   0.0479   0.1568  -0.0269   0.0603  -0.0512   3.00    0.0
2018/11/11 00:14:15.000  -74.407213406  163.437639953    80.0395   6  11   0.0384   0.0409   0.1305  -0.0241   0.0497  -0.0427   3.00    0.0
2018/11/11 00:14:30.000  -74.407213559  163.437640860    80.1081   1  11   0.0349   0.0341   0.1113  -0.0259   0.0417  -0.0402   5.00    1.0
2018/11/11 00:14:45.000  -74.407213508  163.437640657    80.0664   1  11   0.0305   0.0280   0.0866  -0.0235   0.0303  -0.0316   6.00    1.0
2018/11/11 00:15:00.000  -74.407213443  163.437640378    80.0292   1  11   0.0286   0.0251   0.0737  -0.0224   0.0240  -0.0270   6.00    1.0
2018/11/11 00:15:15.000  -74.407213442  163.437640386    80.0171   1  11   0.0309   0.0281   0.0866  -0.0238   0.0306  -0.0318   6.00    1.0
2018/11/11 00:15:30.000  -74.407213471  163.437640270    80.0055   1  11   0.0354   0.0343   0.1120  -0.0265   0.0422  -0.0408   6.00    1.0
2018/11/11 00:15:45.000  -74.407213220  163.437638615    79.9037   6  11   0.0377   0.0402   0.1256  -0.0232   0.0471  -0.0393   4.00    0.0
2018/11/11 00:16:00.000  -74.407213316  163.437638576    79.9242   6  11   0.0428   0.0468   0.1496  -0.0253   0.0566  -0.0464   4.00    0.0
2018/11/11 00:16:15.000  -74.407213303  163.437638223    79.9033   6  11   0.0483   0.0536   0.1741  -0.0277   0.0662  -0.0537   5.00    0.0
2018/11/11 00:16:30.000  -74.407213285  163.437638140    79.8900   6  11   0.0541   0.0605   0.1988  -0.0303   0.0759  -0.0612   5.00    0.0
2018/11/11 00:16:45.000  -74.407213451  163.437638090    79.9409   6  11   0.0599   0.0675   0.2237  -0.0332   0.0858  -0.0690   5.00    0.0
2018/11/11 00:17:00.000  -74.407213667  163.437638288    79.9867   6  11   0.0658   0.0744   0.2488  -0.0363   0.0957  -0.0770   5.00    0.0
2018/11/11 00:17:15.000  -74.407213784  163.437638292    80.0373   6  11   0.0718   0.0813   0.2741  -0.0396   0.1058  -0.0853   5.00    0.0
2018/11/11 00:17:30.000  -74.407213866  163.437638391    80.0864   6  11   0.0777   0.0882   0.2994  -0.0430   0.1160  -0.0938   5.00    0.0
2018/11/11 00:17:45.000  -74.407213775  163.437638776    80.0959   6  11   0.0718   0.0814   0.2752  -0.0398   0.1064  -0.0858   5.00    0.0
2018/11/11 00:18:00.000  -74.407213633  163.437638593    80.0321   6  11   0.0657   0.0743   0.2499  -0.0364   0.0962  -0.0775   5.00    0.0
2018/11/11 00:18:15.000  -74.407213505  163.437638572    79.9912   6  11   0.0597   0.0673   0.2248  -0.0332   0.0861  -0.0693   5.00    0.0
2018/11/11 00:18:30.000  -74.407213411  163.437638539    79.9621   6  11   0.0538   0.0602   0.1997  -0.0302   0.0761  -0.0614   5.00    0.0
2018/11/11 00:18:45.000  -74.407213392  163.437638623    79.9403   6  11   0.0481   0.0532   0.1748  -0.0274   0.0663  -0.0537   5.00    0.0
2018/11/11 00:19:00.000  -74.407213452  163.437639126    79.9244   6  11   0.0425   0.0464   0.1502  -0.0250   0.0565  -0.0462   5.00    0.0
2018/11/11 00:19:15.000  -74.407213458  163.437639345    79.9246   6  11   0.0375   0.0398   0.1261  -0.0228   0.0469  -0.0390   5.00    0.0
2018/11/11 00:19:30.000  -74.407213444  163.437639823    79.9530   6  11   0.0330   0.0340   0.1031  -0.0209   0.0376  -0.0320   5.00    0.0
2018/11/11 00:19:45.000  -74.407213430  163.437639899    79.9930   6  11   0.0296   0.0294   0.0833  -0.0194   0.0294  -0.0258   5.00    0.0
2018/11/11 00:20:00.000  -74.407213433  163.437639760    80.0166   6  11   0.0279   0.0270   0.0721  -0.0185   0.0242  -0.0217   5.00    0.0
2018/11/11 00:20:15.000  -74.407213527  163.437639677    80.0302   6  11   0.0294   0.0292   0.0824  -0.0192   0.0286  -0.0250   5.00    0.0
2018/11/11 00:20:30.000  -74.407213456  163.437639885    80.0057   6  11   0.0327   0.0335   0.1004  -0.0203   0.0360  -0.0302   5.00    0.0
2018/11/11 00:20:45.000  -74.407213411  163.437639990    79.9837   6  11   0.0369   0.0391   0.1215  -0.0218   0.0443  -0.0361   5.00    0.0
2018/11/11 00:21:00.000  -74.407213485  163.437640157    80.0374   6  11   0.0418   0.0453   0.1441  -0.0237   0.0533  -0.0427   5.00    0.0
2018/11/11 00:21:15.000  -74.407213316  163.437639089    79.9505   6  11   0.0472   0.0519   0.1676  -0.0259   0.0626  -0.0498   5.00    0.0
2018/11/11 00:21:30.000  -74.407213413  163.437639409    80.0046   6  11   0.0527   0.0586   0.1918  -0.0285   0.0722  -0.0573   5.00    0.0
2018/11/11 00:21:45.000  -74.407213454  163.437639325    80.0303   6  11   0.0584   0.0653   0.2163  -0.0313   0.0820  -0.0651   5.00    0.0
2018/11/11 00:22:00.000  -74.407213470  163.437639019    80.0115   6  11   0.0641   0.0720   0.2410  -0.0344   0.0920  -0.0732   5.00    0.0
2018/11/11 00:22:15.000  -74.407213502  163.437639338    80.0334   6  11   0.0698   0.0787   0.2658  -0.0377   0.1019  -0.0816   5.00    0.0
2018/11/11 00:22:30.000  -74.407213429  163.437639123    80.0241   6  11   0.0756   0.0854   0.2907  -0.0411   0.1120  -0.0901   5.00    0.0
2018/11/11 00:22:45.000  -74.407213356  163.437638957    79.9677   6  11   0.0700   0.0787   0.2664  -0.0376   0.1018  -0.0821   5.00    0.0
2018/11/11 00:23:00.000  -74.407213437  163.437639033    79.9608   6  11   0.0641   0.0718   0.2412  -0.0341   0.0915  -0.0735   5.00    0.0
2018/11/11 00:23:15.000  -74.407213455  163.437639150    79.9600   6  11   0.0583   0.0649   0.2162  -0.0309   0.0813  -0.0652   5.00    0.0
2018/11/11 00:23:30.000  -74.407213343  163.437638505    79.9144   6  11   0.0526   0.0581   0.1915  -0.0279   0.0714  -0.0572   5.00    0.0
2018/11/11 00:23:45.000  -74.407213449  163.437638415    79.9281   6  11   0.0470   0.0513   0.1673  -0.0252   0.0616  -0.0495   5.00    0.0
2018/11/11 00:24:00.000  -74.407213473  163.437638424    79.9088   6  11   0.0417   0.0447   0.1438  -0.0229   0.0521  -0.0424   5.00    0.0
2018/11/11 00:24:15.000  -74.407213402  163.437638743    79.9115   6  11   0.0368   0.0385   0.1214  -0.0210   0.0431  -0.0358   5.00    0.0
2018/11/11 00:24:30.000  -74.407213331  163.437639345    79.9382   6  11   0.0326   0.0329   0.1007  -0.0195   0.0346  -0.0298   5.00    0.0
2018/11/11 00:24:45.000  -74.407213369  163.437639287    79.9565   6  11   0.0294   0.0286   0.0833  -0.0183   0.0272  -0.0245   5.00    0.0
2018/11/11 00:25:00.000  -74.407213808  163.437641108    80.1234   1  11   0.0321   0.0267   0.0815  -0.0235   0.0254  -0.0345   6.00    1.0
2018/11/11 00:25:15.000  -74.407214020  163.437641439    80.1908   1  11   0.0352   0.0297   0.0990  -0.0250   0.0330  -0.0415   6.00    1.0
2018/11/11 00:25:30.000  -74.407214132  163.437641464    80.2216   1  11   0.0406   0.0355   0.1288  -0.0282   0.0456  -0.0531   6.00    1.0
2018/11/11 00:25:45.000  -74.407213707  163.437639313    80.0338   6  11   0.0376   0.0378   0.1231  -0.0204   0.0414  -0.0384   5.00    0.0
2018/11/11 00:26:00.000  -74.407213782  163.437639237    80.0505   6  11   0.0429   0.0438   0.1458  -0.0224   0.0504  -0.0461   5.00    0.0
2018/11/11 00:26:15.000  -74.407213898  163.437639233    80.1260   6  11   0.0485   0.0501   0.1696  -0.0248   0.0597  -0.0543   5.00    0.0
2018/11/11 00:26:30.000  -74.407213868  163.437638803    80.0957   6  11   0.0544   0.0566   0.1941  -0.0275   0.0693  -0.0629   5.00    0.0
2018/11/11 00:26:45.000  -74.407213845  163.437637977    80.0247   6  11   0.0604   0.0631   0.2191  -0.0306   0.0791  -0.0718   5.00    0.0
2018/11/11 00:27:00.000  -74.407213891  163.437638141    80.0452   6  11   0.0665   0.0696   0.2446  -0.0340   0.0891  -0.0812   5.00    0.0
2018/11/11 00:27:15.000  -74.407213950  163.437638201    80.0434   6  11   0.0727   0.0762   0.2706  -0.0375   0.0992  -0.0911   5.00    0.0
2018/11/11 00:27:30.000  -74.407213939  163.437638850    80.0578   6  11   0.0791   0.0827   0.2973  -0.0413   0.1095  -0.1015   5.00    0.0
2018/11/11 00:27:45.000  -74.407213809  163.437639108    80.0555   6  11   0.0748   0.0761   0.2777  -0.0384   0.1001  -0.0971   5.00    0.0
2018/11/11 00:28:00.000  -74.407213669  163.437638463    79.9690   6  11   0.0723   0.0695   0.2650  -0.0364   0.0921  -0.0977   5.00    0.0
2018/11/11 00:28:15.000  -74.407213815  163.437639090    80.0554   6  11   0.0817   0.0677   0.3117  -0.0478   0.1082  -0.1320   4.00    0.0
2018/11/11 00:28:30.000  -74.407213554  163.437638781    79.9638   6  11   0.0723   0.0603   0.2729  -0.0419   0.0939  -0.1146   4.00    0.0
2018/11/11 00:28:45.000  -74.407213591  163.437639061    79.9694   6  11   0.0535   0.0519   0.1950  -0.0307   0.0703  -0.0718   4.00    0.0
2018/11/11 00:29:00.000  -74.407213547  163.437638988    79.9547   6  11   0.0470   0.0446   0.1659  -0.0261   0.0572  -0.0606   4.00    0.0
2018/11/11 00:29:15.000  -74.407213405  163.437638739    79.8800   6  11   0.0427   0.0381   0.1481  -0.0234   0.0473  -0.0560   4.00    0.0
2018/11/11 00:29:30.000  -74.407213523  163.437639361    79.9728   6  11   0.0375   0.0329   0.1254  -0.0217   0.0394  -0.0475   4.00    0.0
2018/11/11 00:29:45.000  -74.407213794  163.437640619    80.0458   1  11   0.0349   0.0287   0.0947  -0.0242   0.0298  -0.0387   6.00    1.0
2018/11/11 00:30:00.000  -74.407213733  163.437640583    80.0279   1  11   0.0333   0.0258   0.0831  -0.0231   0.0234  -0.0352   6.00    1.0
2018/11/11 00:30:15.000  -74.407213745  163.437640719    80.0421   1  11   0.0360   0.0286   0.1003  -0.0245   0.0310  -0.0420   6.00    1.0
2018/11/11 00:30:30.000  -74.407213802  163.437640723    80.0432   1  11   0.0415   0.0344   0.1305  -0.0276   0.0435  -0.0542   6.00    1.0
2018/11/11 00:30:45.000  -74.407213548  163.437639070    79.9570   6  11   0.0371   0.0364   0.1201  -0.0191   0.0382  -0.0366   4.00    0.0
2018/11/11 00:31:00.000  -74.407213567  163.437638537    79.9429   6  11   0.0424   0.0421   0.1421  -0.0208   0.0465  -0.0447   4.00    0.0
2018/11/11 00:31:15.000  -74.407213611  163.437638414    79.9568   6  11   0.0483   0.0482   0.1657  -0.0230   0.0554  -0.0538   4.00    0.0
2018/11/11 00:31:30.000  -74.407213572  163.437638565    79.9745   6  11   0.0546   0.0544   0.1912  -0.0259   0.0648  -0.0641   4.00    0.0
2018/11/11 00:31:45.000  -74.407213556  163.437638638    79.9960   6  11   0.0616   0.0607   0.2195  -0.0294   0.0749  -0.0764   4.00    0.0
2018/11/11 00:32:00.000  -74.407213516  163.437638745    79.9717   6  11   0.0704   0.0671   0.2540  -0.0340   0.0863  -0.0932   4.00    0.0
2018/11/11 00:32:15.000  -74.407213674  163.437638996    80.0428   6  11   0.1017   0.0796   0.3899  -0.0588   0.1325  -0.1698   4.00    0.0
2018/11/11 00:32:30.000  -74.407213624  163.437639156    80.0480   6  11   0.0928   0.0835   0.3546  -0.0528   0.1258  -0.1426   4.00    0.0
2018/11/11 00:32:45.000  -74.407213694  163.437639526    80.0773   6  11   0.0850   0.0761   0.3202  -0.0469   0.1117  -0.1283   4.00    0.0
2018/11/11 00:33:00.000  -74.407213705  163.437639367    80.1383   6  11   0.0816   0.0694   0.3044  -0.0439   0.1026  -0.1254   4.00    0.0
2018/11/11 00:33:15.000  -74.407213965  163.437639585    80.2488   6  11   0.0820   0.0648   0.3091  -0.0462   0.1033  -0.1331   4.00    0.0
2018/11/11 00:33:30.000  -74.407213788  163.437639179    80.1643   6  11   0.0606   0.0563   0.2213  -0.0334   0.0774  -0.0844   4.00    0.0
2018/11/11 00:33:45.000  -74.407213716  163.437639246    80.1129   6  11   0.0537   0.0492   0.1915  -0.0284   0.0643  -0.0723   4.00    0.0
2018/11/11 00:34:00.000  -74.407213662  163.437638834    80.0444   6  11   0.0493   0.0427   0.1736  -0.0253   0.0543  -0.0675   4.00    0.0
2018/11/11 00:34:15.000  -74.407213600  163.437638860    80.0083   6  10   0.0447   0.0374   0.1562  -0.0244   0.0485  -0.0620   4.00    0.0
2018/11/11 00:34:30.000  -74.407213550  163.437639033    79.9679   6  10   0.0368   0.0315   0.1225  -0.0203   0.0360  -0.0455   4.00    0.0
2018/11/11 00:34:45.000  -74.407213803  163.437640337    79.9887   1  10   0.0393   0.0281   0.1187  -0.0251   0.0329  -0.0518   5.00    1.0
2018/11/11 00:35:00.000  -74.407213910  163.437640559    80.0386   1  10   0.0352   0.0250   0.0959  -0.0228   0.0227  -0.0410   5.00    1.0
2018/11/11 00:35:15.000  -74.407214051  163.437640763    80.0870   1  10   0.0393   0.0280   0.1194  -0.0249   0.0321  -0.0516   5.00    1.0
2018/11/11 00:35:30.000  -74.407213826  163.437639336    80.0552   6  10   0.0366   0.0311   0.1221  -0.0199   0.0345  -0.0446   4.00    0.0
2018/11/11 00:35:45.000  -74.407213879  163.437639172    80.0871   6  10   0.0443   0.0367   0.1555  -0.0236   0.0462  -0.0609   4.00    0.0
2018/11/11 00:36:00.000  -74.407214161  163.437639671    80.2462   6  10   0.0529   0.0428   0.1913  -0.0280   0.0584  -0.0779   4.00    0.0
2018/11/11 00:36:15.000  -74.407214105  163.437639413    80.2564   6  10   0.0619   0.0492   0.2282  -0.0329   0.0708  -0.0951   4.00    0.0
2018/11/11 00:36:30.000  -74.407214037  163.437638777    80.2021   6  10   0.0712   0.0556   0.2657  -0.0379   0.0832  -0.1124   4.00    0.0
2018/11/11 00:36:45.000  -74.407213898  163.437637997    80.1239   6  10   0.0806   0.0621   0.3036  -0.0431   0.0955  -0.1298   4.00    0.0
2018/11/11 00:37:00.000  -74.407214033  163.437638641    80.1888   6  10   0.0900   0.0687   0.3418  -0.0484   0.1077  -0.1472   4.00    0.0
2018/11/11 00:37:15.000  -74.407214161  163.437638874    80.2721   6  10   0.0995   0.0752   0.3806  -0.0537   0.1197  -0.1647   4.00    0.0
2018/11/11 00:37:30.000  -74.407213970  163.437638092    80.1687   6  10   0.1090   0.0817   0.4209  -0.0590   0.1315  -0.1824   4.00    0.0
2018/11/11 00:37:45.000  -74.407214222  163.437638916    80.2602   6  10   0.0994   0.0747   0.3940  -0.0526   0.1170  -0.1660   4.00    0.0
2018/11/11 00:38:00.000  -74.407214071  163.437638545    80.1404   6   9   0.0914   0.0679   0.3784  -0.0473   0.1052  -0.1557   4.00    0.0
2018/11/11 00:38:15.000  -74.407214143  163.437638712    80.1587   6   9   0.0815   0.0612   0.3346  -0.0416   0.0919  -0.1365   4.00    0.0
2018/11/11 00:38:30.000  -74.407214157  163.437638864    80.1703   6   9   0.0717   0.0545   0.2910  -0.0361   0.0788  -0.1175   4.00    0.0
2018/11/11 00:38:45.000  -74.407214116  163.437638875    80.1250   6   9   0.0622   0.0480   0.2479  -0.0308   0.0659  -0.0986   4.00    0.0
2018/11/11 00:39:00.000  -74.407214142  163.437639018    80.1380   6   9   0.0529   0.0417   0.2056  -0.0260   0.0532  -0.0799   4.00    0.0
2018/11/11 00:39:15.000  -74.407214087  163.437638975    80.1267   6   9   0.0441   0.0357   0.1648  -0.0217   0.0410  -0.0616   4.00    0.0
2018/11/11 00:39:30.000  -74.407214050  163.437639265    80.0944   6   9   0.0362   0.0302   0.1269  -0.0182   0.0295  -0.0439   4.00    0.0
2018/11/11 00:39:45.000  -74.407213850  163.437639226    80.0081   6   9   0.0300   0.0259   0.0955  -0.0157   0.0193  -0.0276   5.00    0.0
2018/11/11 00:40:00.000  -74.407213736  163.437639250    79.9535   6   9   0.0271   0.0238   0.0792  -0.0145   0.0131  -0.0171   5.00    0.0
2018/11/11 00:40:15.000  -74.407213731  163.437639309    79.9051   6   9   0.0299   0.0258   0.0948  -0.0155   0.0187  -0.0272   5.00    0.0
2018/11/11 00:40:30.000  -74.407213701  163.437639069    79.8502   6   9   0.0359   0.0299   0.1253  -0.0177   0.0283  -0.0431   5.00    0.0
2018/11/11 00:40:45.000  -74.407213697  163.437638696    79.8077   6  10   0.0382   0.0350   0.1292  -0.0206   0.0384  -0.0400   4.00    0.0
2018/11/11 00:41:00.000  -74.407213762  163.437638604    79.8325   6  10   0.0428   0.0403   0.1462  -0.0224   0.0448  -0.0448   5.00    0.0
2018/11/11 00:41:15.000  -74.407213756  163.437638643    79.8550   6  10   0.0482   0.0459   0.1667  -0.0250   0.0526  -0.0517   5.00    0.0
2018/11/11 00:41:30.000  -74.407213698  163.437638323    79.8613   6  10   0.0539   0.0518   0.1890  -0.0281   0.0611  -0.0596   5.00    0.0
2018/11/11 00:41:45.000  -74.407213761  163.437638674    79.8542   6  10   0.0598   0.0578   0.2124  -0.0315   0.0698  -0.0681   5.00    0.0
2018/11/11 00:42:00.000  -74.407213701  163.437638148    79.7804   6  10   0.0659   0.0638   0.2364  -0.0352   0.0786  -0.0768   5.00    0.0
2018/11/11 00:42:15.000  -74.407213627  163.437637761    79.7806   6  10   0.0721   0.0699   0.2610  -0.0389   0.0874  -0.0858   5.00    0.0
2018/11/11 00:42:30.000  -74.407213629  163.437637665    79.7877   6  10   0.0784   0.0760   0.2860  -0.0427   0.0963  -0.0949   5.00    0.0
2018/11/11 00:42:45.000  -74.407213794  163.437638025    79.8199   6  10   0.0720   0.0697   0.2607  -0.0386   0.0868  -0.0856   5.00    0.0
2018/11/11 00:43:00.000  -74.407213824  163.437638159    79.8163   6  10   0.0657   0.0634   0.2357  -0.0346   0.0772  -0.0763   5.00    0.0
2018/11/11 00:43:15.000  -74.407213822  163.437638459    79.8441   6  10   0.0595   0.0572   0.2109  -0.0307   0.0678  -0.0671   5.00    0.0
2018/11/11 00:43:30.000  -74.407213748  163.437638508    79.8699   6  10   0.0533   0.0510   0.1863  -0.0270   0.0584  -0.0578   5.00    0.0
2018/11/11 00:43:45.000  -74.407213745  163.437638530    79.8833   6  10   0.0473   0.0450   0.1619  -0.0236   0.0491  -0.0485   5.00    0.0
2018/11/11 00:44:00.000  -74.407213690  163.437638503    79.8981   6  10   0.0415   0.0392   0.1381  -0.0204   0.0398  -0.0392   5.00    0.0
2018/11/11 00:44:15.000  -74.407213674  163.437638754    79.9574   6  10   0.0361   0.0337   0.1153  -0.0177   0.0307  -0.0298   5.00    0.0
2018/11/11 00:44:30.000  -74.407213664  163.437638553    79.9416   6  10   0.0313   0.0287   0.0942  -0.0155   0.0217  -0.0199   5.00    0.0
2018/11/11 00:44:45.000  -74.407213614  163.437638543    79.9092   6  10   0.0275   0.0248   0.0766  -0.0139   0.0127  -0.0073   5.00    0.0
2018/11/11 00:45:00.000  -74.407213713  163.437639108    79.9173   6  10   0.0255   0.0229   0.0671  -0.0131   0.0054   0.0106   6.00    0.0
2018/11/11 00:45:15.000  -74.407213730  163.437639192    79.9118   6  10   0.0273   0.0247   0.0753  -0.0138   0.0115  -0.0042   6.00    0.0
2018/11/11 00:45:30.000  -74.407213690  163.437639158    79.8801   6  10   0.0308   0.0284   0.0913  -0.0150   0.0200  -0.0175   6.00    0.0
2018/11/11 00:45:45.000  -74.407213594  163.437638981    79.8630   6  10   0.0354   0.0331   0.1114  -0.0169   0.0286  -0.0274   6.00    0.0
2018/11/11 00:46:00.000  -74.407213527  163.437638795    79.8702   6  10   0.0406   0.0383   0.1336  -0.0193   0.0372  -0.0369   6.00    0.0
2018/11/11 00:46:15.000  -74.407213559  163.437638882    79.9032   6  10   0.0463   0.0439   0.1573  -0.0222   0.0458  -0.0464   6.00    0.0
2018/11/11 00:46:30.000  -74.407213435  163.437638754    79.8887   6  10   0.0522   0.0496   0.1817  -0.0254   0.0544  -0.0559   6.00    0.0
2018/11/11 00:46:45.000  -74.407213422  163.437638934    79.8996   6  10   0.0583   0.0553   0.2067  -0.0288   0.0629  -0.0654   6.00    0.0
2018/11/11 00:47:00.000  -74.407213425  163.437638497    79.8471   6  10   0.0645   0.0611   0.2321  -0.0323   0.0713  -0.0749   6.00    0.0
2018/11/11 00:47:15.000  -74.407213445  163.437637953    79.8364   6  10   0.0708   0.0669   0.2577  -0.0359   0.0796  -0.0844   6.00    0.0
2018/11/11 00:47:30.000  -74.407213406  163.437637840    79.7919   6  10   0.0771   0.0728   0.2835  -0.0395   0.0878  -0.0939   6.00    0.0
2018/11/11 00:47:45.000  -74.407213392  163.437638231    79.8537   6  10   0.0707   0.0667   0.2572  -0.0357   0.0788  -0.0839   6.00    0.0
2018/11/11 00:48:00.000  -74.407213402  163.437638373    79.8724   6  10   0.0643   0.0606   0.2315  -0.0319   0.0698  -0.0743   6.00    0.0
2018/11/11 00:48:15.000  -74.407213420  163.437638602    79.8501   6  10   0.0581   0.0547   0.2061  -0.0282   0.0608  -0.0647   6.00    0.0
2018/11/11 00:48:30.000  -74.407213420  163.437638365    79.8507   6  10   0.0520   0.0488   0.1809  -0.0247   0.0520  -0.0551   6.00    0.0
2018/11/11 00:48:45.000  -74.407213508  163.437638545    79.8592   6  10   0.0460   0.0431   0.1561  -0.0214   0.0431  -0.0455   6.00    0.0
2018/11/11 00:49:00.000  -74.407213547  163.437638883    79.9071   6  10   0.0403   0.0376   0.1321  -0.0185   0.0343  -0.0357   6.00    0.0
2018/11/11 00:49:15.000  -74.407213554  163.437639085    79.8735   6  10   0.0350   0.0323   0.1093  -0.0160   0.0256  -0.0257   6.00    0.0
2018/11/11 00:49:30.000  -74.407213527  163.437638826    79.8557   6  10   0.0304   0.0277   0.0887  -0.0141   0.0167  -0.0146   6.00    0.0
2018/11/11 00:49:45.000  -74.407213556  163.437638473    79.8589   6  10   0.0269   0.0241   0.0721  -0.0128   0.0067   0.0089   6.00    0.0
2018/11/11 00:50:00.000  -74.407213658  163.437638557    79.9144   6  10   0.0252   0.0224   0.0636  -0.0121  -0.0071   0.0144   6.00    0.0
2018/11/11 00:50:15.000  -74.407213610  163.437638150    79.9314   6  10   0.0268   0.0239   0.0715  -0.0126   0.0061   0.0093   6.00    0.0
2018/11/11 00:50:30.000  -74.407213576  163.437638050    79.9390   6  10   0.0302   0.0274   0.0875  -0.0137   0.0160  -0.0142   6.00    0.0
2018/11/11 00:50:45.000  -74.407213484  163.437637918    79.9450   6  10   0.0347   0.0318   0.1078  -0.0153   0.0244  -0.0254   6.00    0.0
2018/11/11 00:51:00.000  -74.407213472  163.437637871    79.9581   6  10   0.0398   0.0368   0.1303  -0.0175   0.0325  -0.0354   6.00    0.0
2018/11/11 00:51:15.000  -74.407213445  163.437637756    79.8990   6  10   0.0454   0.0421   0.1542  -0.0202   0.0404  -0.0452   6.00    0.0
2018/11/11 00:51:30.000  -74.407213439  163.437637530    79.8280   6  10   0.0513   0.0475   0.1788  -0.0231   0.0480  -0.0548   6.00    0.0
2018/11/11 00:51:45.000  -74.407213467  163.437637957    79.8193   6  10   0.0573   0.0529   0.2038  -0.0262   0.0556  -0.0643   6.00    0.0
2018/11/11 00:52:00.000  -74.407213519  163.437638026    79.8257   6  10   0.0635   0.0585   0.2292  -0.0294   0.0629  -0.0737   6.00    0.0
2018/11/11 00:52:15.000  -74.407213592  163.437638164    79.8488   6  10   0.0697   0.0640   0.2547  -0.0326   0.0702  -0.0831   6.00    0.0
2018/11/11 00:52:30.000  -74.407213545  163.437637839    79.8628   6  10   0.0761   0.0696   0.2803  -0.0359   0.0773  -0.0924   6.00    0.0
2018/11/11 00:52:45.000  -74.407213600  163.437638177    79.9402   6  10   0.0697   0.0638   0.2551  -0.0322   0.0690  -0.0831   6.00    0.0
2018/11/11 00:53:00.000  -74.407213598  163.437638359    79.9707   6  10   0.0634   0.0580   0.2292  -0.0286   0.0608  -0.0735   6.00    0.0
2018/11/11 00:53:15.000  -74.407213569  163.437638399    79.9815   6  10   0.0571   0.0524   0.2036  -0.0252   0.0528  -0.0639   6.00    0.0
2018/11/11 00:53:30.000  -74.407213581  163.437638374    79.9917   6  10   0.0510   0.0468   0.1783  -0.0220   0.0448  -0.0542   6.00    0.0
2018/11/11 00:53:45.000  -74.407213642  163.437638506    80.0133   6  10   0.0452   0.0414   0.1534  -0.0190   0.0368  -0.0445   6.00    0.0
2018/11/11 00:54:00.000  -74.407213689  163.437638308    79.9894   6  10   0.0395   0.0361   0.1293  -0.0163   0.0288  -0.0345   6.00    0.0
2018/11/11 00:54:15.000  -74.407213772  163.437638500    79.9768   6  10   0.0344   0.0312   0.1064  -0.0142   0.0207  -0.0241   6.00    0.0
2018/11/11 00:54:30.000  -74.407213762  163.437638138    79.9342   6  10   0.0299   0.0268   0.0858  -0.0126   0.0119  -0.0117   6.00    0.0
2018/11/11 00:54:45.000  -74.407213780  163.437638399    79.9152   6  10   0.0264   0.0234   0.0692  -0.0117  -0.0059   0.0121   6.00    0.0
2018/11/11 00:55:00.000  -74.407213724  163.437638529    79.9174   6  10   0.0248   0.0218   0.0609  -0.0111  -0.0101   0.0162   6.00    0.0
2018/11/11 00:55:15.000  -74.407213654  163.437638556    79.9145   6  10   0.0263   0.0233   0.0688  -0.0114  -0.0059   0.0120   6.00    0.0
2018/11/11 00:55:30.000  -74.407213684  163.437638727    79.9296   6  10   0.0296   0.0265   0.0848  -0.0121   0.0114  -0.0115   6.00    0.0
2018/11/11 00:55:45.000  -74.407213700  163.437638731    79.9423   6  10   0.0340   0.0307   0.1050  -0.0134   0.0195  -0.0238   6.00    0.0
2018/11/11 00:56:00.000  -74.407213674  163.437638877    79.9628   6  10   0.0390   0.0354   0.1274  -0.0152   0.0267  -0.0340   6.00    0.0
2018/11/11 00:56:15.000  -74.407213628  163.437638651    79.9746   6  10   0.0445   0.0404   0.1510  -0.0175   0.0335  -0.0437   6.00    0.0
2018/11/11 00:56:30.000  -74.407213605  163.437638573    79.9408   6  10   0.0503   0.0455   0.1752  -0.0201   0.0400  -0.0532   6.00    0.0
2018/11/11 00:56:45.000  -74.407213629  163.437638514    79.9303   6  10   0.0563   0.0508   0.1999  -0.0228   0.0463  -0.0624   6.00    0.0
2018/11/11 00:57:00.000  -74.407213648  163.437638507    79.9034   6  10   0.0624   0.0561   0.2248  -0.0257   0.0524  -0.0716   6.00    0.0
2018/11/11 00:57:15.000  -74.407213645  163.437638537    79.9007   6  10   0.0686   0.0615   0.2498  -0.0285   0.0582  -0.0807   6.00    0.0
2018/11/11 00:57:30.000  -74.407213639  163.437638527    79.8976   6  10   0.0749   0.0669   0.2748  -0.0314   0.0640  -0.0896   6.00    0.0
2018/11/11 00:57:45.000  -74.407213650  163.437638880    79.8754   6  10   0.0686   0.0613   0.2489  -0.0283   0.0569  -0.0803   6.00    0.0
2018/11/11 00:58:00.000  -74.407213731  163.437639331    79.9090   6  10   0.0623   0.0558   0.2234  -0.0251   0.0499  -0.0710   6.00    0.0
2018/11/11 00:58:15.000  -74.407213703  163.437638991    79.8958   6  10   0.0561   0.0504   0.1980  -0.0220   0.0430  -0.0616   6.00    0.0
2018/11/11 00:58:30.000  -74.407213660  163.437638688    79.8959   6  10   0.0501   0.0451   0.1731  -0.0191   0.0361  -0.0521   6.00    0.0
2018/11/11 00:58:45.000  -74.407213698  163.437638735    79.8935   6  10   0.0443   0.0399   0.1486  -0.0164   0.0292  -0.0424   6.00    0.0
2018/11/11 00:59:00.000  -74.407213652  163.437638563    79.8724   6  10   0.0388   0.0349   0.1249  -0.0142   0.0222  -0.0326   6.00    0.0
2018/11/11 00:59:15.000  -74.407213722  163.437638441    79.8845   6  10   0.0337   0.0302   0.1024  -0.0124   0.0149  -0.0220   6.00    0.0
2018/11/11 00:59:30.000  -74.407213753  163.437638455    79.8760   6  10   0.0293   0.0260   0.0823  -0.0112   0.0052  -0.0081   6.00    0.0
2018/11/11 00:59:45.000  -74.407213714  163.437638370    79.8913   6  10   0.0261   0.0227   0.0663  -0.0105  -0.0096   0.0139   6.00    0.0
2018/11/11 01:00:00.000  -74.407213669  163.437638219    79.8808   6  10   0.0245   0.0211   0.0585  -0.0102  -0.0118   0.0173   6.00    0.0
2018/11/11 01:00:15.000  -74.407214071  163.437639270    79.8862   1  10   0.0339   0.0271   0.0788  -0.0187   0.0134   0.0077   6.00    1.0
2018/11/11 01:00:30.000  -74.407214075  163.437639302    79.8878   1  10   0.0382   0.0310   0.1035  -0.0201   0.0190  -0.0213   6.00    1.0
2018/11/11 01:00:45.000  -74.407214148  163.437639292    79.8680   1  10   0.0442   0.0365   0.1335  -0.0221   0.0256  -0.0356   6.00    1.0
2018/11/11 01:01:00.000  -74.407213669  163.437638234    79.9024   6  10   0.0383   0.0342   0.1227  -0.0129   0.0195  -0.0317   3.00    1.0
2018/11/11 01:01:15.000  -74.407213656  163.437638313    79.9345   6  10   0.0437   0.0390   0.1456  -0.0148   0.0251  -0.0411   4.00    1.0
2018/11/11 01:01:30.000  -74.407213609  163.437638494    79.9426   6  11   0.0478   0.0436   0.1617  -0.0148   0.0251  -0.0436   4.00    1.0
2018/11/11 01:01:45.000  -74.407213550  163.437638365    79.9228   6  11   0.0526   0.0484   0.1799  -0.0155   0.0259  -0.0480   4.00    1.0
2018/11/11 01:02:00.000  -74.407213587  163.437638438    79.8957   6  11   0.0567   0.0532   0.1970  -0.0154   0.0250  -0.0499   4.00    1.0
2018/11/11 01:02:15.000  -74.407213607  163.437638549    79.8566   6  11   0.0601   0.0579   0.2090  -0.0134   0.0171  -0.0467   4.00    1.0
2018/11/11 01:02:30.000  -74.407213568  163.437638173    79.8553   6  11   0.0646   0.0628   0.2257  -0.0129   0.0109  -0.0479   4.00    1.0
2018/11/11 01:02:45.000  -74.407213561  163.437637897    79.8892   6  11   0.0601   0.0578   0.2093  -0.0130   0.0140  -0.0465   4.00    1.0
2018/11/11 01:03:00.000  -74.407213468  163.437637946    79.8554   6  11   0.0567   0.0530   0.1960  -0.0146   0.0205  -0.0490   4.00    1.0
2018/11/11 01:03:15.000  -74.407213458  163.437637815    79.8799   6  11   0.0550   0.0487   0.1915  -0.0183   0.0309  -0.0578   4.00    1.0
2018/11/11 01:03:30.000  -74.407213482  163.437637870    79.8661   6  11   0.0491   0.0436   0.1673  -0.0158   0.0254  -0.0487   4.00    1.0
2018/11/11 01:03:45.000  -74.407213491  163.437637779    79.8686   6  11   0.0401   0.0380   0.1293  -0.0083  -0.0061  -0.0227   4.00    1.0
2018/11/11 01:04:00.000  -74.407213976  163.437638764    79.7470   1  11   0.0451   0.0412   0.1350  -0.0174  -0.0161   0.0091   6.00    1.0
2018/11/11 01:04:15.000  -74.407213518  163.437637342    79.7948   1  11   0.0308   0.0243   0.0836  -0.0098   0.0065   0.0146   4.00    1.0
2018/11/11 01:04:30.000  -74.407213563  163.437637486    79.7940   1  11   0.0275   0.0204   0.0668  -0.0093   0.0064   0.0180   4.00    1.0
2018/11/11 01:04:45.000  -74.407213605  163.437637620    79.8373   1  11   0.0251   0.0176   0.0534  -0.0089   0.0062   0.0197   4.00    1.0
2018/11/11 01:05:00.000  -74.407213638  163.437637631    79.8858   1  11   0.0239   0.0160   0.0463  -0.0089   0.0059   0.0203   4.00    1.0
2018/11/11 01:05:15.000  -74.407213700  163.437637698    79.9317   1  11   0.0250   0.0175   0.0531  -0.0087   0.0056   0.0197   4.00    1.0
2018/11/11 01:05:30.000  -74.407213718  163.437637508    79.9200   1  12   0.0270   0.0199   0.0642  -0.0096  -0.0071   0.0168   4.00    1.0
2018/11/11 01:05:45.000  -74.407213106  163.437636618    79.9981   1  12   0.0458   0.0328   0.1160   0.0032  -0.0045   0.0343   4.00    1.0
2018/11/11 01:06:00.000  -74.407213647  163.437637437    79.8781   6  12   0.0340   0.0313   0.0992  -0.0080  -0.0228  -0.0099   4.00    1.0
2018/11/11 01:06:15.000  -74.407213601  163.437637403    79.8604   6  12   0.0383   0.0355   0.1165  -0.0085  -0.0265  -0.0195   4.00    1.0
2018/11/11 01:06:30.000  -74.407213468  163.437637567    79.8717   6  12   0.0431   0.0399   0.1352  -0.0097  -0.0303  -0.0281   4.00    1.0
2018/11/11 01:06:45.000  -74.407213442  163.437637552    79.8378   6  12   0.0490   0.0445   0.1566  -0.0120  -0.0336  -0.0390   4.00    1.0
2018/11/11 01:07:00.000  -74.407213560  163.437637609    79.8628   6  12   0.0538   0.0493   0.1768  -0.0141  -0.0370  -0.0458   4.00    1.0
2018/11/11 01:07:15.000  -74.407213568  163.437637804    79.8113   6  12   0.0570   0.0539   0.1912  -0.0137  -0.0434  -0.0453   4.00    1.0
2018/11/11 01:07:30.000  -74.407213587  163.437637604    79.8069   6  12   0.0611   0.0586   0.2081  -0.0143  -0.0488  -0.0479   5.00    1.0
2018/11/11 01:07:45.000  -74.407213681  163.437637636    79.8770   6  12   0.0562   0.0538   0.1895  -0.0125  -0.0447  -0.0422   5.00    1.0
2018/11/11 01:08:00.000  -74.407213746  163.437637714    79.9094   6  12   0.0513   0.0491   0.1710  -0.0109  -0.0405  -0.0363   5.00    1.0
2018/11/11 01:08:15.000  -74.407213730  163.437637907    79.9322   6  12   0.0465   0.0444   0.1526  -0.0095  -0.0363  -0.0303   5.00    1.0
2018/11/11 01:08:30.000  -74.407213641  163.437637554    79.8871   6  12   0.0420   0.0398   0.1345  -0.0084  -0.0321  -0.0241   5.00    1.0
2018/11/11 01:08:45.000  -74.407213607  163.437637313    79.8717   6  12   0.0376   0.0354   0.1168  -0.0076  -0.0280  -0.0172   5.00    1.0
2018/11/11 01:09:00.000  -74.407214147  163.437638197    79.8051   1  12   0.0444   0.0393   0.1326  -0.0179  -0.0379  -0.0050   7.00    1.0
2018/11/11 01:09:15.000  -74.407213681  163.437637261    79.8566   1  12   0.0297   0.0232   0.0793  -0.0092  -0.0181   0.0142   5.00    1.0
2018/11/11 01:09:30.000  -74.407213726  163.437637500    79.8718   1  12   0.0267   0.0196   0.0638  -0.0086  -0.0146   0.0180   5.00    1.0
2018/11/11 01:09:45.000  -74.407213669  163.437637567    79.8958   1  12   0.0246   0.0170   0.0513  -0.0081  -0.0119   0.0200   6.00    1.0
2018/11/11 01:10:00.000  -74.407213644  163.437637699    79.8952   1  12   0.0235   0.0157   0.0448  -0.0081  -0.0108   0.0207   6.00    1.0
2018/11/11 01:10:15.000  -74.407213626  163.437637509    79.9026   1  12   0.0246   0.0170   0.0512  -0.0079  -0.0119   0.0206   6.00    1.0
2018/11/11 01:10:30.000  -74.407214100  163.437638914    79.8222   1  12   0.0357   0.0293   0.0883  -0.0169  -0.0298   0.0236   8.00    1.0
2018/11/11 01:10:45.000  -74.407214091  163.437638954    79.7888   1  12   0.0398   0.0341   0.1098  -0.0175  -0.0343   0.0180   8.00    1.0
2018/11/11 01:11:00.000  -74.407214108  163.437638909    79.7690   1  12   0.0447   0.0397   0.1338  -0.0182  -0.0397   0.0016   8.00    1.0
2018/11/11 01:11:15.000  -74.407213645  163.437637714    79.7982   6  12   0.0370   0.0350   0.1161  -0.0060  -0.0297  -0.0132   7.00    0.0
2018/11/11 01:11:30.000  -74.407213652  163.437637630    79.7550   6  12   0.0412   0.0394   0.1342  -0.0064  -0.0343  -0.0207   7.00    0.0
2018/11/11 01:11:45.000  -74.407213600  163.437637810    79.7927   6  12   0.0456   0.0439   0.1527  -0.0072  -0.0391  -0.0271   7.00    0.0
2018/11/11 01:12:00.000  -74.407213606  163.437638148    79.8183   6  12   0.0502   0.0486   0.1716  -0.0082  -0.0440  -0.0330   7.00    0.0
2018/11/11 01:12:15.000  -74.407213542  163.437638053    79.8767   6  12   0.0549   0.0533   0.1907  -0.0092  -0.0490  -0.0386   7.00    0.0
2018/11/11 01:12:30.000  -74.407213547  163.437637984    79.8998   6  12   0.0597   0.0581   0.2099  -0.0103  -0.0541  -0.0441   7.00    0.0
2018/11/11 01:12:45.000  -74.407213599  163.437638047    79.9540   6  12   0.0549   0.0533   0.1902  -0.0089  -0.0489  -0.0387   7.00    0.0
2018/11/11 01:13:00.000  -74.407213618  163.437637728    79.9634   6  12   0.0502   0.0485   0.1714  -0.0077  -0.0442  -0.0332   7.00    0.0
2018/11/11 01:13:15.000  -74.407213723  163.437637607    79.9945   6  12   0.0456   0.0439   0.1528  -0.0067  -0.0395  -0.0274   7.00    0.0
2018/11/11 01:13:30.000  -74.407213711  163.437638024    80.0034   6  12   0.0411   0.0394   0.1344  -0.0059  -0.0350  -0.0210   7.00    0.0
2018/11/11 01:13:45.000  -74.407213702  163.437637967    79.9572   6  12   0.0369   0.0351   0.1165  -0.0056  -0.0307  -0.0134   8.00    0.0
2018/11/11 01:14:00.000  -74.407213643  163.437637974    79.9214   6  12   0.0330   0.0310   0.0992  -0.0058  -0.0267   0.0061   8.00    0.0
2018/11/11 01:14:15.000  -74.407213630  163.437637936    79.8996   6  12   0.0295   0.0276   0.0833  -0.0067  -0.0237   0.0146   8.00    0.0
2018/11/11 01:14:30.000  -74.407213681  163.437637991    79.8730   6  12   0.0268   0.0245   0.0699  -0.0084  -0.0215   0.0195   7.00    0.0
2018/11/11 01:14:45.000  -74.407213735  163.437637954    79.8693   6  12   0.0246   0.0212   0.0582  -0.0077  -0.0178   0.0207   7.00    0.0
2018/11/11 01:15:00.000  -74.407213692  163.437637879    79.8865   6  12   0.0237   0.0200   0.0531  -0.0077  -0.0166   0.0212   7.00    0.0
2018/11/11 01:15:15.000  -74.407212990  163.437638210    79.9416   1  12   0.0314   0.0254   0.0754  -0.0175  -0.0325   0.0254   7.00    1.0
2018/11/11 01:15:30.000  -74.407212939  163.437638553    79.9403   1  12   0.0342   0.0288   0.0915  -0.0177  -0.0350   0.0220   7.00    1.0
2018/11/11 01:15:45.000  -74.407212882  163.437638662    79.9433   1  12   0.0384   0.0334   0.1126  -0.0179  -0.0390   0.0153   7.00    1.0
2018/11/11 01:16:00.000  -74.407212872  163.437638734    79.9560   1  12   0.0434   0.0390   0.1364  -0.0183  -0.0439  -0.0109   7.00    1.0
2018/11/11 01:16:15.000  -74.407213559  163.437638769    79.8847   6  12   0.0369   0.0349   0.1174  -0.0060  -0.0318  -0.0132   7.00    1.0
2018/11/11 01:16:30.000  -74.407213610  163.437638528    79.8512   6  12   0.0411   0.0393   0.1357  -0.0062  -0.0366  -0.0211   7.00    1.0
2018/11/11 01:16:45.000  -74.407213562  163.437638170    79.8134   6  12   0.0455   0.0438   0.1544  -0.0067  -0.0415  -0.0277   7.00    1.0
2018/11/11 01:17:00.000  -74.407213557  163.437638396    79.7858   6  12   0.0501   0.0485   0.1733  -0.0073  -0.0465  -0.0337   7.00    1.0
2018/11/11 01:17:15.000  -74.407213485  163.437638466    79.7999   6  12   0.0548   0.0532   0.1925  -0.0081  -0.0517  -0.0394   7.00    1.0
2018/11/11 01:17:30.000  -74.407213569  163.437638534    79.8175   6  12   0.0596   0.0580   0.2118  -0.0089  -0.0569  -0.0450   7.00    1.0
2018/11/11 01:17:45.000  -74.407213701  163.437638174    79.8028   6  12   0.0550   0.0534   0.1933  -0.0079  -0.0524  -0.0395   7.00    1.0
2018/11/11 01:18:00.000  -74.407213692  163.437637962    79.8112   6  12   0.0503   0.0487   0.1742  -0.0070  -0.0475  -0.0337   7.00    1.0
2018/11/11 01:18:15.000  -74.407213789  163.437638017    79.8637   6  12   0.0457   0.0441   0.1554  -0.0063  -0.0427  -0.0277   7.00    1.0
2018/11/11 01:18:30.000  -74.407213879  163.437638007    79.8853   6  12   0.0412   0.0396   0.1368  -0.0059  -0.0380  -0.0210   7.00    1.0
2018/11/11 01:18:45.000  -74.407213848  163.437637847    79.8988   6  12   0.0370   0.0353   0.1188  -0.0058  -0.0336  -0.0128   7.00    1.0
2018/11/11 01:19:00.000  -74.407213891  163.437638018    79.9054   6  12   0.0331   0.0313   0.1016  -0.0062  -0.0296   0.0082   7.00    0.0
2018/11/11 01:19:15.000  -74.407213833  163.437637921    79.9000   6  12   0.0297   0.0280   0.0860  -0.0070  -0.0266   0.0160   7.00    0.0
2018/11/11 01:19:30.000  -74.407213791  163.437638499    79.8787   6  12   0.0269   0.0241   0.0720  -0.0075  -0.0227   0.0199   7.00    0.0
2018/11/11 01:19:45.000  -74.407212879  163.437638843    79.9751   1  12   0.0387   0.0249   0.0744   0.0225   0.0191   0.0323   7.00    1.0
2018/11/11 01:20:00.000  -74.407214388  163.437638743    79.7332   1  12   0.0265   0.0191   0.0655   0.0078   0.0149  -0.0239   6.00    1.0
2018/11/11 01:20:15.000  -74.407213808  163.437637894    79.8288   6  12   0.0249   0.0214   0.0608  -0.0069  -0.0197   0.0208   7.00    0.0
2018/11/11 01:20:30.000  -74.407213721  163.437637890    79.8376   6  12   0.0276   0.0241   0.0727  -0.0051  -0.0226   0.0177   7.00    0.0
2018/11/11 01:20:45.000  -74.407213711  163.437638202    79.8373   6  12   0.0315   0.0274   0.0905  -0.0030  -0.0263   0.0040   6.00    0.0
2018/11/11 01:21:00.000  -74.407213565  163.437638418    79.8501   6  12   0.0352   0.0313   0.1056   0.0039  -0.0299  -0.0079   6.00    0.0
2018/11/11 01:21:15.000  -74.407213564  163.437638593    79.8517   6  12   0.0403   0.0355   0.1240   0.0061  -0.0340  -0.0107   5.00    0.0
2018/11/11 01:21:30.000  -74.407213468  163.437638345    79.8428   6  12   0.0435   0.0396   0.1412   0.0011  -0.0397  -0.0231   5.00    0.0
2018/11/11 01:21:45.000  -74.407213390  163.437638293    79.8376   6  12   0.0477   0.0442   0.1590   0.0020  -0.0448  -0.0315   5.00    0.0
2018/11/11 01:22:00.000  -74.407213378  163.437638387    79.8330   6  12   0.0524   0.0488   0.1778   0.0030  -0.0500  -0.0385   5.00    0.0
2018/11/11 01:22:15.000  -74.407213352  163.437638209    79.8629   6  12   0.0574   0.0536   0.1971   0.0044  -0.0555  -0.0455   5.00    0.0
2018/11/11 01:22:30.000  -74.407213343  163.437638152    79.8933   6  12   0.0628   0.0585   0.2172   0.0066  -0.0613  -0.0529   5.00    0.0
2018/11/11 01:22:45.000  -74.407213364  163.437637807    79.9086   6  12   0.0597   0.0540   0.2014   0.0110  -0.0578  -0.0531   5.00    0.0
2018/11/11 01:23:00.000  -74.407213532  163.437637471    79.9474   6  12   0.0538   0.0491   0.1823   0.0058  -0.0513  -0.0457   5.00    0.0
2018/11/11 01:23:15.000  -74.407213447  163.437638126    79.8989   6  12   0.0478   0.0446   0.1601  -0.0043  -0.0450  -0.0351   5.00    0.0
2018/11/11 01:23:30.000  -74.407213481  163.437638086    79.8760   6  12   0.0430   0.0407   0.1406  -0.0080  -0.0393  -0.0273   5.00    0.0
2018/11/11 01:23:45.000  -74.407213610  163.437638235    79.9072   6  12   0.0388   0.0357   0.1225  -0.0079  -0.0343  -0.0204   4.00    0.0
2018/11/11 01:24:00.000  -74.407213675  163.437638117    79.9004   6  12   0.0343   0.0311   0.1052  -0.0063  -0.0302  -0.0102   4.00    0.0
2018/11/11 01:24:15.000  -74.407213688  163.437637845    79.8779   6  12   0.0305   0.0272   0.0893  -0.0062  -0.0265   0.0111   4.00    0.0
2018/11/11 01:24:30.000  -74.407213764  163.437637767    79.8230   6  12   0.0273   0.0239   0.0754  -0.0065  -0.0233   0.0169   4.00    0.0
2018/11/11 01:24:45.000  -74.407213733  163.437638019    79.8031   6  12   0.0251   0.0214   0.0647  -0.0069  -0.0211   0.0198   5.00    0.0
2018/11/11 01:25:00.000  -74.407213775  163.437638275    79.8133   6  12   0.0241   0.0202   0.0596  -0.0073  -0.0202   0.0210   5.00    0.0
2018/11/11 01:25:15.000  -74.407213901  163.437638216    79.8367   6  12   0.0251   0.0215   0.0649  -0.0068  -0.0216   0.0204   6.00    0.0
2018/11/11 01:25:30.000  -74.407213844  163.437637685    79.8450   6  12   0.0272   0.0240   0.0759  -0.0062  -0.0243   0.0181   6.00    0.0
2018/11/11 01:25:45.000  -74.407213108  163.437638110    79.9469   1  12   0.0440   0.0331   0.1096   0.0223  -0.0125   0.0187   6.00    1.0
2018/11/11 01:26:00.000  -74.407213884  163.437637748    79.7971   6  12   0.0338   0.0313   0.1056  -0.0051  -0.0317  -0.0051   6.00    0.0
2018/11/11 01:26:15.000  -74.407213851  163.437637580    79.7606   6  12   0.0379   0.0356   0.1222  -0.0056  -0.0359  -0.0170   7.00    0.0
2018/11/11 01:26:30.000  -74.407213833  163.437637704    79.7432   6  12   0.0425   0.0406   0.1396  -0.0079  -0.0400  -0.0250   7.00    0.0
2018/11/11 01:26:45.000  -74.407213850  163.437638218    79.7732   6  12   0.0473   0.0448   0.1575  -0.0084  -0.0445  -0.0322   6.00    0.0
2018/11/11 01:27:00.000  -74.407213820  163.437638304    79.7972   6  12   0.0515   0.0490   0.1752  -0.0049  -0.0502  -0.0371   6.00    0.0
2018/11/11 01:27:15.000  -74.407213813  163.437638646    79.7679   6  12   0.0561   0.0535   0.1932  -0.0015  -0.0555  -0.0425   6.00    0.0
2018/11/11 01:27:30.000  -74.407214002  163.437638168    79.7730   6  12   0.0610   0.0582   0.2113   0.0035  -0.0608  -0.0480   6.00    0.0
2018/11/11 01:27:45.000  -74.407213947  163.437637813    79.8176   6  12   0.0565   0.0534   0.1936   0.0058  -0.0561  -0.0439   6.00    0.0
2018/11/11 01:28:00.000  -74.407213935  163.437637609    79.8381   6  12   0.0523   0.0488   0.1767   0.0079  -0.0519  -0.0405   6.00    0.0
2018/11/11 01:28:15.000  -74.407213868  163.437637947    79.8303   6  12   0.0491   0.0444   0.1619   0.0109  -0.0486  -0.0399   6.00    0.0
2018/11/11 01:28:30.000  -74.407213856  163.437638096    79.8384   6  12   0.0439   0.0395   0.1470   0.0073  -0.0430  -0.0345   5.00    1.0
2018/11/11 01:28:45.000  -74.407213750  163.437637955    79.8141   6  12   0.0385   0.0350   0.1267   0.0042  -0.0372  -0.0235   5.00    1.0
2018/11/11 01:29:00.000  -74.407213774  163.437638119    79.8032   6  12   0.0340   0.0309   0.1096   0.0014  -0.0326  -0.0135   6.00    0.0
2018/11/11 01:29:15.000  -74.407213787  163.437638002    79.8058   6  12   0.0303   0.0271   0.0943  -0.0032  -0.0288   0.0087   6.00    0.0
2018/11/11 01:29:30.000  -74.407213830  163.437637923    79.7803   6  12   0.0271   0.0239   0.0809  -0.0044  -0.0256   0.0161   6.00    0.0
2018/11/11 01:29:45.000  -74.407213855  163.437637829    79.8100   6  12   0.0248   0.0215   0.0704  -0.0053  -0.0233   0.0196   6.00    0.0
2018/11/11 01:30:00.000  -74.407213733  163.437637976    79.8130   6  12   0.0239   0.0204   0.0654  -0.0057  -0.0225   0.0211   6.00    0.0
2018/11/11 01:30:15.000  -74.407213654  163.437637626    79.8240   6  12   0.0247   0.0216   0.0710  -0.0050  -0.0240   0.0210   6.00    0.0
2018/11/11 01:30:30.000  -74.407213734  163.437637849    79.8352   6  12   0.0268   0.0240   0.0821  -0.0044  -0.0269   0.0196   6.00    0.0
2018/11/11 01:30:45.000  -74.407213829  163.437637853    79.8046   6  12   0.0297   0.0271   0.0958  -0.0033  -0.0304   0.0168   6.00    0.0
2018/11/11 01:31:00.000  -74.407213817  163.437638145    79.7515   6  12   0.0331   0.0309   0.1107  -0.0020  -0.0344   0.0120   6.00    0.0
2018/11/11 01:31:15.000  -74.407213720  163.437638077    79.7500   6  12   0.0370   0.0349   0.1262   0.0004  -0.0387  -0.0063   6.00    0.0
2018/11/11 01:31:30.000  -74.407213653  163.437638595    79.7271   6  12   0.0412   0.0392   0.1420   0.0019  -0.0431  -0.0163   6.00    0.0
2018/11/11 01:31:45.000  -74.407213589  163.437638464    79.7461   6  12   0.0456   0.0436   0.1582   0.0024  -0.0476  -0.0230   6.00    0.0
2018/11/11 01:32:00.000  -74.407213473  163.437638584    79.7133   6  12   0.0502   0.0482   0.1745   0.0027  -0.0523  -0.0289   6.00    0.0
2018/11/11 01:32:15.000  -74.407213422  163.437638883    79.7058   6  12   0.0549   0.0528   0.1909   0.0029  -0.0570  -0.0344   6.00    0.0
2018/11/11 01:32:30.000  -74.407213391  163.437638840    79.7007   6  12   0.0597   0.0575   0.2074   0.0030  -0.0617  -0.0396   6.00    0.0
2018/11/11 01:32:45.000  -74.407213490  163.437638636    79.7147   6  12   0.0549   0.0530   0.1907   0.0030  -0.0569  -0.0340   6.00    0.0
2018/11/11 01:33:00.000  -74.407213602  163.437638869    79.6952   6  12   0.0502   0.0483   0.1739   0.0030  -0.0522  -0.0282   6.00    0.0
2018/11/11 01:33:15.000  -74.407213671  163.437638839    79.7155   6  12   0.0456   0.0438   0.1575   0.0028  -0.0476  -0.0218   6.00    0.0
2018/11/11 01:33:30.000  -74.407213809  163.437638699    79.7550   6  12   0.0413   0.0393   0.1415   0.0024  -0.0432  -0.0143   6.00    0.0
2018/11/11 01:33:45.000  -74.407213874  163.437638269    79.7762   6  12   0.0371   0.0351   0.1262   0.0017  -0.0390   0.0048   6.00    0.0
2018/11/11 01:34:00.000  -74.407213795  163.437638150    79.7827   6  12   0.0332   0.0311   0.1115  -0.0012  -0.0351   0.0143   6.00    0.0
2018/11/11 01:34:15.000  -74.407213809  163.437637947    79.7728   6  12   0.0298   0.0275   0.0978  -0.0026  -0.0315   0.0186   6.00    0.0
2018/11/11 01:34:30.000  -74.407213803  163.437637898    79.7734   6  12   0.0270   0.0243   0.0856  -0.0037  -0.0284   0.0211   5.00    0.0
2018/11/11 01:34:45.000  -74.407213813  163.437638333    79.7507   6  12   0.0250   0.0220   0.0758  -0.0045  -0.0262   0.0226   5.00    0.0
2018/11/11 01:35:00.000  -74.407213781  163.437638290    79.7618   6  12   0.0241   0.0209   0.0711  -0.0048  -0.0252   0.0233   5.00    0.0
2018/11/11 01:35:15.000  -74.407213711  163.437638316    79.7718   6  12   0.0252   0.0222   0.0767  -0.0037  -0.0268   0.0230   5.00    0.0
2018/11/11 01:35:30.000  -74.407213742  163.437638401    79.6958   6  11   0.0279   0.0249   0.0888  -0.0006  -0.0299   0.0231   4.00    0.0
2018/11/11 01:35:45.000  -74.407213788  163.437638170    79.6845   6  11   0.0312   0.0283   0.1029   0.0043  -0.0337   0.0224   4.00    0.0
2018/11/11 01:36:00.000  -74.407213308  163.437638394    79.7672   1  11   0.0485   0.0390   0.1292   0.0227  -0.0234   0.0187   5.00    1.0
2018/11/11 01:36:15.000  -74.407213969  163.437638193    79.6684   6  11   0.0398   0.0365   0.1348   0.0075  -0.0426   0.0200   5.00    1.0
2018/11/11 01:36:30.000  -74.407213834  163.437638845    79.6455   6  11   0.0446   0.0411   0.1519   0.0085  -0.0476   0.0185   5.00    1.0
2018/11/11 01:36:45.000  -74.407213733  163.437638855    79.6865   6  11   0.0498   0.0461   0.1696   0.0089  -0.0532   0.0177   5.00    1.0
2018/11/11 01:37:00.000  -74.407213604  163.437639157    79.6937   6  11   0.0554   0.0519   0.1894   0.0062  -0.0608   0.0205   5.00    0.0
2018/11/11 01:37:15.000  -74.407213735  163.437639562    79.6756   6  10   0.0631   0.0638   0.2390  -0.0207  -0.0883   0.0485   5.00    0.0
2018/11/11 01:37:30.000  -74.407213790  163.437639538    79.7133   6  10   0.0689   0.0697   0.2606  -0.0228  -0.0966   0.0523   5.00    0.0
2018/11/11 01:37:45.000  -74.407213730  163.437639862    79.7031   6  10   0.0634   0.0641   0.2407  -0.0196  -0.0896   0.0465   5.00    0.0
2018/11/11 01:38:00.000  -74.407213752  163.437639523    79.7021   6  10   0.0583   0.0587   0.2220  -0.0156  -0.0831   0.0401   5.00    0.0
2018/11/11 01:38:15.000  -74.407213691  163.437639300    79.6763   6  10   0.0537   0.0539   0.2054  -0.0088  -0.0780   0.0305   5.00    0.0
2018/11/11 01:38:30.000  -74.407213870  163.437638633    79.7332   6   9   0.0515   0.0528   0.2246   0.0189  -0.0876  -0.0393   5.00    0.0
2018/11/11 01:38:45.000  -74.407213956  163.437638454    79.7062   6   9   0.0454   0.0462   0.1964   0.0161  -0.0761  -0.0303   5.00    0.0
2018/11/11 01:39:00.000  -74.407213903  163.437638544    79.7079   6   9   0.0396   0.0399   0.1688   0.0132  -0.0649  -0.0202   5.00    0.0
2018/11/11 01:39:15.000  -74.407213972  163.437638266    79.7546   6   9   0.0344   0.0340   0.1423   0.0103  -0.0541  -0.0042   6.00    0.0
2018/11/11 01:39:30.000  -74.407213872  163.437638323    79.7878   6   9   0.0299   0.0288   0.1177   0.0076  -0.0442   0.0158   6.00    0.0
2018/11/11 01:39:45.000  -74.407213769  163.437638117    79.8051   6   9   0.0267   0.0249   0.0974   0.0052  -0.0365   0.0200   6.00    0.0
2018/11/11 01:40:00.000  -74.407213694  163.437638180    79.7893   6   9   0.0254   0.0232   0.0876   0.0045  -0.0331   0.0214   6.00    0.0
2018/11/11 01:40:15.000  -74.407213660  163.437638477    79.7656   6   9   0.0272   0.0256   0.0984   0.0072  -0.0374   0.0193   6.00    0.0
2018/11/11 01:40:30.000  -74.407213715  163.437638841    79.7579   6   9   0.0308   0.0302   0.1201   0.0105  -0.0464   0.0130   6.00    0.0
2018/11/11 01:40:45.000  -74.407213630  163.437639103    79.7317   6   9   0.0356   0.0361   0.1464   0.0139  -0.0577  -0.0128   6.00    0.0
2018/11/11 01:41:00.000  -74.407213497  163.437639225    79.7106   6   9   0.0411   0.0428   0.1749   0.0174  -0.0699  -0.0253   6.00    0.0
2018/11/11 01:41:15.000  -74.407213496  163.437639733    79.6649   6   9   0.0472   0.0500   0.2045   0.0211  -0.0829  -0.0356   6.00    0.0
2018/11/11 01:41:30.000  -74.407213529  163.437640015    79.6392   6   9   0.0536   0.0576   0.2351   0.0251  -0.0963  -0.0455   6.00    0.0
2018/11/11 01:41:45.000  -74.407213500  163.437640214    79.6476   6   9   0.0604   0.0658   0.2666   0.0294  -0.1103  -0.0555   6.00    0.0
2018/11/11 01:42:00.000  -74.407213548  163.437640057    79.6370   6   9   0.0675   0.0746   0.2993   0.0345  -0.1254  -0.0660   6.00    0.0
2018/11/11 01:42:15.000  -74.407213488  163.437640456    79.5877   6   9   0.0752   0.0853   0.3349   0.0411  -0.1431  -0.0783   6.00    0.0
2018/11/11 01:42:30.000  -74.407213450  163.437639922    79.6040   6   9   0.0846   0.0987   0.3763   0.0515  -0.1653  -0.0956   5.00    0.0
2018/11/11 01:42:45.000  -74.407213631  163.437639677    79.6287   6   9   0.0763   0.0864   0.3390   0.0431  -0.1457  -0.0815   4.00    0.0
2018/11/11 01:43:00.000  -74.407213659  163.437639551    79.6638   6   9   0.0684   0.0776   0.3065   0.0372  -0.1310  -0.0703   4.00    0.0
2018/11/11 01:43:15.000  -74.407213709  163.437639725    79.6321   6   9   0.0619   0.0718   0.2784   0.0348  -0.1205  -0.0632   4.00    0.0
2018/11/11 01:43:30.000  -74.407213863  163.437639468    79.6450   6   9   0.0547   0.0624   0.2468   0.0287  -0.1053  -0.0518   4.00    0.0
2018/11/11 01:43:45.000  -74.407213863  163.437639462    79.6365   6   9   0.0490   0.0556   0.2169   0.0260  -0.0928  -0.0441   4.00    0.0
2018/11/11 01:44:00.000  -74.407213933  163.437638482    79.6971   6   9   0.0441   0.0483   0.1891   0.0228  -0.0805  -0.0368   4.00    0.0
2018/11/11 01:44:15.000  -74.407213925  163.437638096    79.7804   6   9   0.0369   0.0362   0.1557   0.0100  -0.0617  -0.0160   4.00    0.0
2018/11/11 01:44:30.000  -74.407213841  163.437638300    79.7884   6   9   0.0309   0.0295   0.1296   0.0034  -0.0496   0.0098   4.00    0.0
