% program   : RTKLIB ver.2.4.3
% inp file  : _by_type/_obs/base/20181112.18o
% inp file  : _by_type/_sp3+clk/igs20271.clk
% inp file  : _by_type/_sp3+clk/igs20271.sp3
% inp file  : _by_type/_nav/base/20181112.18n
% obs start : 2018/11/12 00:00:00.0 GPST (week2027  86400.0s)
% obs end   : 2018/11/12 23:59:45.0 GPST (week2027 172785.0s)
% pos mode  : ppp-kinematic
% solution  : combined
% elev mask : 15.0 deg
% dynamics  : off
% tidecorr  : on
% tropo opt : est ztd+grad
% ephemeris : precise
% navi sys  : gps glonass
% antenna1  :                       ( 0.0000  0.0000  0.0000)
%
% (lat/lon/height=WGS84/ellipsoidal,Q=1:fix,2:float,3:sbas,4:dgps,5:single,6:ppp,ns=# of satellites)
%  GPST                  latitude(deg) longitude(deg)  height(m)   Q  ns   sdn(m)   sde(m)   sdu(m)  sdne(m)  sdeu(m)  sdun(m) age(s)  ratio
2018/11/12 00:00:00.000  -74.370508554  163.307882894  1012.3619   6  10   0.0292   0.0362   0.1257  -0.0248   0.0535  -0.0399   0.00    0.0
2018/11/12 00:00:15.000  -74.370508514  163.307882946  1012.3721   6  10   0.0318   0.0404   0.1472  -0.0271   0.0623  -0.0446   0.00    0.0
2018/11/12 00:00:30.000  -74.370508331  163.307882381  1012.2701   6  10   0.0369   0.0471   0.1797  -0.0306   0.0751  -0.0519   0.00    0.0
2018/11/12 00:00:45.000  -74.370508249  163.307881861  1012.2295   6  10   0.0436   0.0554   0.2203  -0.0347   0.0903  -0.0594   0.00    0.0
2018/11/12 00:01:00.000  -74.370508168  163.307881651  1012.1835   6  10   0.0509   0.0644   0.2534  -0.0398   0.1046  -0.0707   0.00    0.0
2018/11/12 00:01:15.000  -74.370508248  163.307881441  1012.2182   6  10   0.0593   0.0742   0.2996  -0.0449   0.1215  -0.0787   0.00    0.0
2018/11/12 00:01:30.000  -74.370508290  163.307881021  1012.2448   6  10   0.0677   0.0825   0.2906  -0.0523   0.1257  -0.0972   0.00    0.0
2018/11/12 00:01:45.000  -74.370508238  163.307880479  1012.1970   6  10   0.0769   0.0942   0.3353  -0.0597   0.1457  -0.1122   0.00    0.0
2018/11/12 00:02:00.000  -74.370508145  163.307879916  1012.1089   6  10   0.0870   0.1084   0.3902  -0.0692   0.1715  -0.1316   0.00    0.0
2018/11/12 00:02:15.000  -74.370507814  163.307878593  1011.8752   6  10   0.1002   0.1307   0.4794  -0.0857   0.2168  -0.1649   0.00    0.0
2018/11/12 00:02:30.000  -74.370508174  163.307881234  1012.1733   6  10   0.0968   0.1080   0.3789  -0.0630   0.1494  -0.1182   1.00    0.0
2018/11/12 00:02:45.000  -74.370508163  163.307881076  1012.1780   6  10   0.0892   0.0996   0.3454  -0.0593   0.1358  -0.1069   2.00    0.0
2018/11/12 00:03:00.000  -74.370508103  163.307881130  1012.2045   6  10   0.0830   0.0934   0.3145  -0.0580   0.1228  -0.0963   3.00    0.0
2018/11/12 00:03:15.000  -74.370508376  163.307882172  1012.3097   6  10   0.0711   0.0798   0.2833  -0.0466   0.1134  -0.0895   3.00    0.0
2018/11/12 00:03:30.000  -74.370508376  163.307882167  1012.2750   6  10   0.0632   0.0715   0.2530  -0.0424   0.1021  -0.0806   3.00    0.0
2018/11/12 00:03:45.000  -74.370508521  163.307882902  1012.3177   6  10   0.0555   0.0634   0.2235  -0.0383   0.0911  -0.0720   4.00    0.0
2018/11/12 00:04:00.000  -74.370508634  163.307883374  1012.3894   6  10   0.0482   0.0558   0.1952  -0.0346   0.0808  -0.0638   5.00    0.0
2018/11/12 00:04:15.000  -74.370508674  163.307883385  1012.4331   6  10   0.0415   0.0489   0.1694  -0.0314   0.0714  -0.0565   5.00    0.0
2018/11/12 00:04:30.000  -74.370508566  163.307883373  1012.4082   6  10   0.0358   0.0431   0.1479  -0.0288   0.0639  -0.0507   5.00    0.0
2018/11/12 00:04:45.000  -74.370508460  163.307883116  1012.3830   6  10   0.0317   0.0393   0.1338  -0.0272   0.0594  -0.0471   5.00    0.0
2018/11/12 00:05:00.000  -74.370508538  163.307882874  1012.4064   6  10   0.0303   0.0385   0.1319  -0.0272   0.0597  -0.0470   6.00    0.0
2018/11/12 00:05:15.000  -74.370508565  163.307882507  1012.3569   6  10   0.0328   0.0423   0.1503  -0.0294   0.0676  -0.0516   6.00    0.0
2018/11/12 00:05:30.000  -74.370508528  163.307882077  1012.3158   6  11   0.0371   0.0482   0.1730  -0.0325   0.0779  -0.0601   6.00    0.0
2018/11/12 00:05:45.000  -74.370508397  163.307881577  1012.2317   6  11   0.0428   0.0550   0.2034  -0.0357   0.0895  -0.0677   6.00    0.0
2018/11/12 00:06:00.000  -74.370508292  163.307881183  1012.2019   6  11   0.0498   0.0610   0.2072  -0.0402   0.0932  -0.0779   0.00    0.0
2018/11/12 00:06:15.000  -74.370508234  163.307880420  1012.1395   6  11   0.0574   0.0710   0.2457  -0.0461   0.1103  -0.0915   0.00    0.0
2018/11/12 00:06:30.000  -74.370508120  163.307879833  1012.0552   6  11   0.0657   0.0825   0.2905  -0.0532   0.1309  -0.1075   0.00    0.0
2018/11/12 00:06:45.000  -74.370507976  163.307879091  1011.9571   6  11   0.0761   0.0988   0.3562  -0.0647   0.1631  -0.1315   0.00    0.0
2018/11/12 00:07:00.000  -74.370508227  163.307880800  1012.1712   6  11   0.0740   0.0839   0.2879  -0.0476   0.1170  -0.1019   1.00    0.0
2018/11/12 00:07:15.000  -74.370508185  163.307880602  1012.1252   6  11   0.0806   0.0911   0.3140  -0.0507   0.1266  -0.1103   3.00    0.0
2018/11/12 00:07:30.000  -74.370508150  163.307880159  1012.0740   6  11   0.0872   0.0983   0.3404  -0.0541   0.1365  -0.1189   3.00    0.0
2018/11/12 00:07:45.000  -74.370508177  163.307880757  1012.1097   6  11   0.0806   0.0913   0.3168  -0.0508   0.1275  -0.1109   4.00    0.0
2018/11/12 00:08:00.000  -74.370508300  163.307880544  1012.1169   6  11   0.0736   0.0834   0.2886  -0.0469   0.1163  -0.1013   4.00    0.0
2018/11/12 00:08:15.000  -74.370508413  163.307881624  1012.2212   6  11   0.0666   0.0755   0.2600  -0.0430   0.1049  -0.0916   4.00    0.0
2018/11/12 00:08:30.000  -74.370508489  163.307882034  1012.2909   6  11   0.0597   0.0676   0.2310  -0.0393   0.0935  -0.0818   5.00    0.0
2018/11/12 00:08:45.000  -74.370508389  163.307882180  1012.2955   6  11   0.0530   0.0599   0.2016  -0.0359   0.0819  -0.0720   5.00    0.0
2018/11/12 00:09:00.000  -74.370508350  163.307882323  1012.2883   6  11   0.0473   0.0531   0.1724  -0.0336   0.0709  -0.0629   4.00    0.0
2018/11/12 00:09:15.000  -74.370508286  163.307882529  1012.3072   6  11   0.0403   0.0449   0.1427  -0.0290   0.0583  -0.0522   3.00    0.0
2018/11/12 00:09:30.000  -74.370508357  163.307883113  1012.3701   6  11   0.0328   0.0360   0.1139  -0.0228   0.0446  -0.0409   3.00    0.0
2018/11/12 00:09:45.000  -74.370508408  163.307883134  1012.4085   6  11   0.0284   0.0303   0.0903  -0.0200   0.0340  -0.0329   3.00    0.0
2018/11/12 00:10:00.000  -74.370508558  163.307882489  1012.4064   6  11   0.0262   0.0271   0.0767  -0.0184   0.0268  -0.0281   3.00    0.0
2018/11/12 00:10:15.000  -74.370508710  163.307881780  1012.3761   6  11   0.0286   0.0302   0.0904  -0.0198   0.0336  -0.0330   3.00    0.0
2018/11/12 00:10:30.000  -74.370508740  163.307881086  1012.3773   6  11   0.0330   0.0358   0.1135  -0.0222   0.0437  -0.0408   3.00    0.0
2018/11/12 00:10:45.000  -74.370508774  163.307880996  1012.4247   6  11   0.0388   0.0426   0.1402  -0.0250   0.0547  -0.0499   4.00    0.0
2018/11/12 00:11:00.000  -74.370508701  163.307880816  1012.4055   6  11   0.0456   0.0502   0.1682  -0.0273   0.0652  -0.0597   4.00    0.0
2018/11/12 00:11:15.000  -74.370508595  163.307880020  1012.3474   6  11   0.0510   0.0573   0.1948  -0.0315   0.0766  -0.0673   4.00    0.0
2018/11/12 00:11:30.000  -74.370508508  163.307880212  1012.3104   6  11   0.0575   0.0647   0.2217  -0.0345   0.0869  -0.0759   4.00    0.0
2018/11/12 00:11:45.000  -74.370508468  163.307879412  1012.2666   6  11   0.0641   0.0721   0.2482  -0.0374   0.0969  -0.0844   4.00    0.0
2018/11/12 00:12:00.000  -74.370508528  163.307879218  1012.2631   6  11   0.0706   0.0794   0.2742  -0.0403   0.1067  -0.0928   4.00    0.0
2018/11/12 00:12:15.000  -74.370508541  163.307879080  1012.2429   6  11   0.0773   0.0867   0.3001  -0.0429   0.1163  -0.1014   4.00    0.0
2018/11/12 00:12:30.000  -74.370508537  163.307879097  1012.2198   6  11   0.0848   0.0943   0.3260  -0.0444   0.1253  -0.1107   4.00    0.0
2018/11/12 00:12:45.000  -74.370508535  163.307879667  1012.2732   6  11   0.0772   0.0863   0.3002  -0.0430   0.1162  -0.1015   4.00    0.0
2018/11/12 00:13:00.000  -74.370508553  163.307879502  1012.2750   6  11   0.0718   0.0796   0.2747  -0.0381   0.1056  -0.0939   4.00    0.0
2018/11/12 00:13:15.000  -74.370508472  163.307879448  1012.2322   6  11   0.0629   0.0711   0.2478  -0.0379   0.0968  -0.0833   4.00    0.0
2018/11/12 00:13:30.000  -74.370508579  163.307880149  1012.3256   6  11   0.0564   0.0637   0.2212  -0.0346   0.0865  -0.0747   4.00    0.0
2018/11/12 00:13:45.000  -74.370508618  163.307880573  1012.3380   6  11   0.0499   0.0562   0.1941  -0.0313   0.0760  -0.0659   4.00    0.0
2018/11/12 00:14:00.000  -74.370508645  163.307881088  1012.3560   6  11   0.0436   0.0489   0.1667  -0.0281   0.0653  -0.0570   4.00    0.0
2018/11/12 00:14:15.000  -74.370508547  163.307881280  1012.3380   6  11   0.0375   0.0417   0.1393  -0.0250   0.0543  -0.0481   4.00    0.0
2018/11/12 00:14:30.000  -74.370508589  163.307882085  1012.3937   6  11   0.0321   0.0350   0.1130  -0.0221   0.0434  -0.0393   4.00    0.0
2018/11/12 00:14:45.000  -74.370508580  163.307882069  1012.3702   6  11   0.0278   0.0296   0.0903  -0.0197   0.0334  -0.0315   4.00    0.0
2018/11/12 00:15:00.000  -74.370508638  163.307882342  1012.4098   6  11   0.0255   0.0266   0.0768  -0.0182   0.0266  -0.0263   5.00    0.0
2018/11/12 00:15:15.000  -74.370508464  163.307881533  1012.3128   6  11   0.0278   0.0295   0.0901  -0.0197   0.0325  -0.0309   5.00    0.0
2018/11/12 00:15:30.000  -74.370508371  163.307881544  1012.2834   6  11   0.0320   0.0347   0.1119  -0.0218   0.0412  -0.0374   5.00    0.0
2018/11/12 00:15:45.000  -74.370508345  163.307881183  1012.2215   6  11   0.0372   0.0410   0.1368  -0.0244   0.0502  -0.0442   5.00    0.0
2018/11/12 00:16:00.000  -74.370508338  163.307880755  1012.1605   6  11   0.0430   0.0481   0.1641  -0.0273   0.0583  -0.0502   5.00    0.0
2018/11/12 00:16:15.000  -74.370508399  163.307880181  1012.1190   6  11   0.0484   0.0544   0.1843  -0.0290   0.0705  -0.0603   0.00    0.0
2018/11/12 00:16:30.000  -74.370508431  163.307879384  1012.0570   6  11   0.0545   0.0613   0.2090  -0.0317   0.0799  -0.0678   0.00    0.0
2018/11/12 00:16:45.000  -74.370508463  163.307878972  1012.0511   6  11   0.0605   0.0683   0.2338  -0.0346   0.0894  -0.0754   0.00    0.0
2018/11/12 00:17:00.000  -74.370508395  163.307878909  1012.0038   6  11   0.0665   0.0752   0.2586  -0.0376   0.0989  -0.0831   1.00    0.0
2018/11/12 00:17:15.000  -74.370508455  163.307878569  1011.9942   6  11   0.0725   0.0820   0.2833  -0.0407   0.1085  -0.0910   4.00    0.0
2018/11/12 00:17:30.000  -74.370508513  163.307878341  1011.9892   6  11   0.0785   0.0888   0.3081  -0.0440   0.1182  -0.0991   5.00    0.0
2018/11/12 00:17:45.000  -74.370508459  163.307878457  1012.0328   6  11   0.0721   0.0818   0.2822  -0.0406   0.1078  -0.0902   5.00    0.0
2018/11/12 00:18:00.000  -74.370508605  163.307879365  1012.1469   6  11   0.0661   0.0748   0.2571  -0.0373   0.0979  -0.0820   6.00    0.0
2018/11/12 00:18:15.000  -74.370508524  163.307879142  1012.1628   6  11   0.0600   0.0678   0.2321  -0.0344   0.0880  -0.0739   6.00    0.0
2018/11/12 00:18:30.000  -74.370508510  163.307879346  1012.1651   6  11   0.0542   0.0609   0.2073  -0.0317   0.0781  -0.0659   5.00    0.0
2018/11/12 00:18:45.000  -74.370508489  163.307879544  1012.1736   6  11   0.0488   0.0544   0.1828  -0.0300   0.0680  -0.0577   6.00    0.0
2018/11/12 00:19:00.000  -74.370508492  163.307879783  1012.1629   6  11   0.0417   0.0465   0.1578  -0.0253   0.0597  -0.0519   6.00    0.0
2018/11/12 00:19:15.000  -74.370508527  163.307880598  1012.2412   6  11   0.0361   0.0397   0.1336  -0.0229   0.0502  -0.0447   6.00    0.0
2018/11/12 00:19:30.000  -74.370508627  163.307881468  1012.3328   6  11   0.0313   0.0336   0.1108  -0.0207   0.0409  -0.0379   6.00    0.0
2018/11/12 00:19:45.000  -74.370508608  163.307881727  1012.3423   6  11   0.0274   0.0286   0.0915  -0.0188   0.0325  -0.0320   6.00    0.0
2018/11/12 00:20:00.000  -74.370508628  163.307881925  1012.3955   6  11   0.0254   0.0258   0.0803  -0.0176   0.0267  -0.0278   5.00    0.0
2018/11/12 00:20:15.000  -74.370508679  163.307881403  1012.4025   6  11   0.0276   0.0285   0.0930  -0.0188   0.0322  -0.0323   6.00    0.0
2018/11/12 00:20:30.000  -74.370508690  163.307880983  1012.3591   6  11   0.0314   0.0333   0.1125  -0.0206   0.0401  -0.0379   4.00    0.0
2018/11/12 00:20:45.000  -74.370508689  163.307880641  1012.3339   6  11   0.0362   0.0393   0.1344  -0.0225   0.0485  -0.0439   5.00    0.0
2018/11/12 00:21:00.000  -74.370508784  163.307880659  1012.3560   6  11   0.0415   0.0458   0.1574  -0.0246   0.0571  -0.0500   5.00    0.0
2018/11/12 00:21:15.000  -74.370508769  163.307880345  1012.3482   6  11   0.0470   0.0524   0.1808  -0.0270   0.0658  -0.0564   6.00    0.0
2018/11/12 00:21:30.000  -74.370508822  163.307880268  1012.3411   6  11   0.0528   0.0591   0.2045  -0.0295   0.0745  -0.0629   6.00    0.0
2018/11/12 00:21:45.000  -74.370508797  163.307879809  1012.3020   6  11   0.0585   0.0658   0.2287  -0.0322   0.0832  -0.0696   5.00    0.0
2018/11/12 00:22:00.000  -74.370508926  163.307879585  1012.3257   6  11   0.0643   0.0725   0.2533  -0.0351   0.0919  -0.0764   5.00    0.0
2018/11/12 00:22:15.000  -74.370509073  163.307878861  1012.2918   6  11   0.0701   0.0791   0.2793  -0.0381   0.1004  -0.0830   5.00    0.0
2018/11/12 00:22:30.000  -74.370508995  163.307878211  1012.2005   6  11   0.0760   0.0858   0.3100  -0.0416   0.1079  -0.0884   5.00    0.0
2018/11/12 00:22:45.000  -74.370508942  163.307878088  1012.1945   6  11   0.0702   0.0791   0.2910  -0.0382   0.0986  -0.0811   0.00    0.0
2018/11/12 00:23:00.000  -74.370508854  163.307878353  1012.2048   6  11   0.0640   0.0721   0.2568  -0.0345   0.0912  -0.0760   0.00    0.0
2018/11/12 00:23:15.000  -74.370508817  163.307878746  1012.2043   6  11   0.0584   0.0655   0.2387  -0.0318   0.0802  -0.0664   0.00    0.0
2018/11/12 00:23:30.000  -74.370508773  163.307879331  1012.2382   6  11   0.0522   0.0584   0.2010  -0.0284   0.0742  -0.0633   0.00    0.0
2018/11/12 00:23:45.000  -74.370508749  163.307880059  1012.2783   6  11   0.0465   0.0516   0.1770  -0.0259   0.0651  -0.0564   0.00    0.0
2018/11/12 00:24:00.000  -74.370508714  163.307880679  1012.3179   6  11   0.0411   0.0449   0.1542  -0.0236   0.0562  -0.0500   0.00    0.0
2018/11/12 00:24:15.000  -74.370508606  163.307881009  1012.2969   6  11   0.0359   0.0385   0.1326  -0.0216   0.0476  -0.0441   2.00    0.0
2018/11/12 00:24:30.000  -74.370508602  163.307881120  1012.3012   6  11   0.0314   0.0326   0.1129  -0.0198   0.0394  -0.0388   3.00    0.0
2018/11/12 00:24:45.000  -74.370508597  163.307881431  1012.3321   6  11   0.0279   0.0278   0.0967  -0.0183   0.0320  -0.0341   6.00    0.0
2018/11/12 00:25:00.000  -74.370508583  163.307881616  1012.3480   6  11   0.0259   0.0252   0.0877  -0.0173   0.0271  -0.0307   6.00    0.0
2018/11/12 00:25:15.000  -74.370508778  163.307882094  1012.4368   1  11   0.0282   0.0286   0.1085  -0.0186   0.0410  -0.0468   3.00    1.0
2018/11/12 00:25:30.000  -74.370508579  163.307880810  1012.2951   6  11   0.0321   0.0323   0.1177  -0.0198   0.0391  -0.0409   5.00    0.0
2018/11/12 00:25:45.000  -74.370508442  163.307879977  1012.1928   6  11   0.0365   0.0380   0.1364  -0.0213   0.0466  -0.0460   5.00    0.0
2018/11/12 00:26:00.000  -74.370508403  163.307879531  1012.1292   6  11   0.0415   0.0441   0.1557  -0.0230   0.0543  -0.0511   5.00    0.0
2018/11/12 00:26:15.000  -74.370508385  163.307879180  1012.0728   6  11   0.0467   0.0505   0.1757  -0.0249   0.0622  -0.0564   5.00    0.0
2018/11/12 00:26:30.000  -74.370508378  163.307878758  1012.0267   6  11   0.0520   0.0568   0.1960  -0.0271   0.0703  -0.0620   6.00    0.0
2018/11/12 00:26:45.000  -74.370508406  163.307878474  1012.0102   6  11   0.0574   0.0632   0.2167  -0.0294   0.0785  -0.0680   6.00    0.0
2018/11/12 00:27:00.000  -74.370508522  163.307878266  1012.0263   6  11   0.0628   0.0695   0.2376  -0.0320   0.0868  -0.0743   5.00    0.0
2018/11/12 00:27:15.000  -74.370508664  163.307877833  1012.0607   6  11   0.0682   0.0758   0.2586  -0.0346   0.0951  -0.0807   5.00    0.0
2018/11/12 00:27:30.000  -74.370508756  163.307877699  1012.0760   6  11   0.0736   0.0821   0.2797  -0.0374   0.1035  -0.0874   5.00    0.0
2018/11/12 00:27:45.000  -74.370508763  163.307877746  1012.0711   6  11   0.0682   0.0756   0.2579  -0.0344   0.0947  -0.0807   5.00    0.0
2018/11/12 00:28:00.000  -74.370508622  163.307877819  1012.0535   6  11   0.0627   0.0691   0.2362  -0.0315   0.0857  -0.0739   5.00    0.0
2018/11/12 00:28:15.000  -74.370508677  163.307878405  1012.0850   6  11   0.0572   0.0626   0.2151  -0.0287   0.0769  -0.0676   5.00    0.0
2018/11/12 00:28:30.000  -74.370508671  163.307878570  1012.0806   6  11   0.0519   0.0561   0.1949  -0.0263   0.0684  -0.0617   5.00    0.0
2018/11/12 00:28:45.000  -74.370508630  163.307879233  1012.1060   6  11   0.0467   0.0496   0.1758  -0.0241   0.0602  -0.0566   5.00    0.0
2018/11/12 00:29:00.000  -74.370508569  163.307879645  1012.1504   6  11   0.0418   0.0433   0.1585  -0.0223   0.0524  -0.0522   5.00    0.0
2018/11/12 00:29:15.000  -74.370508495  163.307880311  1012.2055   6  11   0.0374   0.0372   0.1440  -0.0209   0.0451  -0.0487   5.00    0.0
2018/11/12 00:29:30.000  -74.370508500  163.307880506  1012.1998   6  11   0.0338   0.0316   0.1352  -0.0197   0.0385  -0.0460   5.00    0.0
2018/11/12 00:29:45.000  -74.370508467  163.307880525  1012.2073   6  11   0.0317   0.0272   0.1308  -0.0192   0.0351  -0.0477   0.00    0.0
2018/11/12 00:30:00.000  -74.370508601  163.307881441  1012.3541   6  10   0.0285   0.0245   0.1090  -0.0176   0.0291  -0.0397   0.00    0.0
2018/11/12 00:30:15.000  -74.370508677  163.307882048  1012.3908   6  10   0.0324   0.0272   0.1289  -0.0194   0.0356  -0.0481   0.00    0.0
2018/11/12 00:30:30.000  -74.370508771  163.307882298  1012.4201   6  10   0.0391   0.0323   0.1582  -0.0224   0.0453  -0.0606   0.00    0.0
2018/11/12 00:30:45.000  -74.370508753  163.307881725  1012.3729   6  10   0.0474   0.0384   0.1916  -0.0262   0.0564  -0.0749   1.00    0.0
2018/11/12 00:31:00.000  -74.370508897  163.307881220  1012.4039   6  10   0.0565   0.0450   0.2272  -0.0304   0.0682  -0.0903   4.00    0.0
2018/11/12 00:31:15.000  -74.370508969  163.307880879  1012.3963   6  10   0.0663   0.0519   0.2642  -0.0349   0.0804  -0.1065   3.00    0.0
2018/11/12 00:31:30.000  -74.370508979  163.307880133  1012.3619   6  10   0.0772   0.0590   0.3021  -0.0389   0.0929  -0.1231   3.00    0.0
2018/11/12 00:31:45.000  -74.370508826  163.307879459  1012.2418   6  10   0.0879   0.0658   0.3412  -0.0437   0.1052  -0.1410   3.00    0.0
2018/11/12 00:32:00.000  -74.370508539  163.307878853  1012.0714   6  10   0.0958   0.0722   0.3815  -0.0504   0.1177  -0.1589   3.00    0.0
2018/11/12 00:32:15.000  -74.370508524  163.307878153  1012.0199   6  10   0.1059   0.0790   0.4247  -0.0555   0.1306  -0.1770   4.00    0.0
2018/11/12 00:32:30.000  -74.370508640  163.307877849  1012.0120   6  10   0.1177   0.0860   0.4781  -0.0600   0.1442  -0.1977   4.00    0.0
2018/11/12 00:32:45.000  -74.370508810  163.307878108  1012.1736   6  10   0.1066   0.0788   0.4230  -0.0571   0.1319  -0.1816   0.00    0.0
2018/11/12 00:33:00.000  -74.370508841  163.307878263  1012.2013   6  10   0.0951   0.0715   0.3739  -0.0504   0.1164  -0.1589   0.00    0.0
2018/11/12 00:33:15.000  -74.370508921  163.307878932  1012.2657   6  10   0.0852   0.0645   0.3356  -0.0440   0.1025  -0.1396   0.00    0.0
2018/11/12 00:33:30.000  -74.370509092  163.307879948  1012.3634   6  10   0.0767   0.0579   0.3078  -0.0371   0.0895  -0.1215   2.00    0.0
2018/11/12 00:33:45.000  -74.370509104  163.307880596  1012.4510   6   9   0.0657   0.0505   0.2793  -0.0347   0.0768  -0.1126   2.00    0.0
2018/11/12 00:34:00.000  -74.370508871  163.307880559  1012.3687   6   9   0.0560   0.0437   0.2369  -0.0297   0.0641  -0.0948   2.00    0.0
2018/11/12 00:34:15.000  -74.370508850  163.307880927  1012.3922   6   9   0.0468   0.0371   0.1967  -0.0251   0.0519  -0.0778   2.00    0.0
2018/11/12 00:34:30.000  -74.370508777  163.307881010  1012.3880   6   9   0.0384   0.0311   0.1605  -0.0211   0.0406  -0.0622   3.00    0.0
2018/11/12 00:34:45.000  -74.370508621  163.307880778  1012.3046   6   9   0.0316   0.0263   0.1326  -0.0180   0.0309  -0.0495   3.00    0.0
2018/11/12 00:35:00.000  -74.370508593  163.307881271  1012.2743   6   9   0.0281   0.0237   0.1214  -0.0162   0.0246  -0.0428   2.00    0.0
2018/11/12 00:35:15.000  -74.370508468  163.307881130  1012.2077   6   9   0.0317   0.0263   0.1446  -0.0173   0.0285  -0.0514   2.00    0.0
2018/11/12 00:35:30.000  -74.370508512  163.307880950  1012.2095   6   9   0.0385   0.0314   0.1835  -0.0192   0.0354  -0.0658   2.00    0.0
2018/11/12 00:35:45.000  -74.370508366  163.307880415  1012.1735   6   9   0.0473   0.0381   0.2378  -0.0212   0.0435  -0.0849   2.00    0.0
2018/11/12 00:36:00.000  -74.370508242  163.307879989  1012.1577   6   9   0.0582   0.0430   0.2509  -0.0300   0.0655  -0.1023   0.00    0.0
2018/11/12 00:36:15.000  -74.370508043  163.307879244  1012.0306   6   9   0.0660   0.0490   0.2830  -0.0332   0.0735  -0.1149   0.00    0.0
2018/11/12 00:36:30.000  -74.370508075  163.307878661  1011.9838   6   9   0.0745   0.0552   0.3188  -0.0369   0.0827  -0.1296   0.00    0.0
2018/11/12 00:36:45.000  -74.370508477  163.307878066  1012.1110   6  10   0.0660   0.0611   0.2560  -0.0370   0.0838  -0.0919   1.00    0.0
2018/11/12 00:37:00.000  -74.370508508  163.307877620  1012.0751   6  10   0.0712   0.0670   0.2751  -0.0395   0.0903  -0.0968   2.00    0.0
2018/11/12 00:37:15.000  -74.370508596  163.307877835  1012.1212   6  10   0.0769   0.0730   0.2965  -0.0426   0.0977  -0.1033   2.00    0.0
2018/11/12 00:37:30.000  -74.370508628  163.307877350  1012.0772   6  10   0.0829   0.0790   0.3189  -0.0460   0.1055  -0.1106   3.00    0.0
2018/11/12 00:37:45.000  -74.370508661  163.307877466  1012.0568   6  10   0.0762   0.0725   0.2927  -0.0418   0.0959  -0.1009   2.00    0.0
2018/11/12 00:38:00.000  -74.370508679  163.307877688  1012.0420   6  10   0.0695   0.0660   0.2663  -0.0379   0.0866  -0.0914   2.00    0.0
2018/11/12 00:38:15.000  -74.370508666  163.307878293  1012.0850   6  10   0.0629   0.0596   0.2400  -0.0341   0.0774  -0.0821   2.00    0.0
2018/11/12 00:38:30.000  -74.370508656  163.307878838  1012.1526   6  10   0.0564   0.0533   0.2138  -0.0304   0.0683  -0.0730   2.00    0.0
2018/11/12 00:38:45.000  -74.370508690  163.307879228  1012.1651   6  10   0.0499   0.0470   0.1878  -0.0270   0.0594  -0.0642   3.00    0.0
2018/11/12 00:39:00.000  -74.370508731  163.307879399  1012.1796   6  10   0.0436   0.0408   0.1621  -0.0238   0.0507  -0.0557   3.00    0.0
2018/11/12 00:39:15.000  -74.370508751  163.307880198  1012.2400   6  10   0.0376   0.0348   0.1372  -0.0209   0.0423  -0.0478   3.00    0.0
2018/11/12 00:39:30.000  -74.370508981  163.307882297  1012.4012   1  10   0.0292   0.0304   0.1191  -0.0172   0.0410  -0.0437   4.00    2.0
2018/11/12 00:39:45.000  -74.370508934  163.307882100  1012.3973   1  10   0.0277   0.0268   0.0928  -0.0185   0.0309  -0.0317   4.00    1.0
2018/11/12 00:40:00.000  -74.370508902  163.307881891  1012.3943   1  10   0.0247   0.0241   0.0766  -0.0169   0.0257  -0.0250   4.00    1.0
2018/11/12 00:40:15.000  -74.370508851  163.307882159  1012.4028   1  10   0.0277   0.0267   0.0924  -0.0183   0.0305  -0.0314   4.00    1.0
2018/11/12 00:40:30.000  -74.370508888  163.307882331  1012.4559   1  10   0.0335   0.0320   0.1189  -0.0214   0.0390  -0.0416   4.00    1.0
2018/11/12 00:40:45.000  -74.370508635  163.307880633  1012.3567   6  10   0.0363   0.0340   0.1274  -0.0195   0.0383  -0.0427   3.00    0.0
2018/11/12 00:41:00.000  -74.370508679  163.307880448  1012.3657   6  10   0.0420   0.0397   0.1491  -0.0220   0.0456  -0.0491   3.00    0.0
2018/11/12 00:41:15.000  -74.370508706  163.307880379  1012.3573   6  10   0.0479   0.0456   0.1719  -0.0247   0.0532  -0.0563   3.00    0.0
2018/11/12 00:41:30.000  -74.370508557  163.307879237  1012.3017   6  10   0.0540   0.0515   0.1956  -0.0278   0.0611  -0.0641   4.00    0.0
2018/11/12 00:41:45.000  -74.370508578  163.307879168  1012.2731   6  10   0.0603   0.0574   0.2199  -0.0310   0.0691  -0.0723   4.00    0.0
2018/11/12 00:42:00.000  -74.370508521  163.307878531  1012.2319   6  10   0.0666   0.0633   0.2446  -0.0344   0.0771  -0.0809   3.00    0.0
2018/11/12 00:42:15.000  -74.370508480  163.307878363  1012.1990   6  10   0.0729   0.0692   0.2695  -0.0379   0.0852  -0.0898   3.00    0.0
2018/11/12 00:42:30.000  -74.370508483  163.307877754  1012.1627   6  10   0.0793   0.0751   0.2947  -0.0415   0.0932  -0.0987   3.00    0.0
2018/11/12 00:42:45.000  -74.370508470  163.307878007  1012.1102   6  10   0.0727   0.0689   0.2677  -0.0376   0.0842  -0.0887   3.00    0.0
2018/11/12 00:43:00.000  -74.370508549  163.307878256  1012.1049   6  10   0.0663   0.0628   0.2426  -0.0339   0.0754  -0.0798   4.00    0.0
2018/11/12 00:43:15.000  -74.370508533  163.307878630  1012.0926   6  10   0.0600   0.0567   0.2177  -0.0303   0.0667  -0.0710   4.00    0.0
2018/11/12 00:43:30.000  -74.370508477  163.307878786  1012.1199   6  10   0.0537   0.0506   0.1931  -0.0269   0.0582  -0.0626   4.00    0.0
2018/11/12 00:43:45.000  -74.370508409  163.307878779  1012.1091   6  10   0.0475   0.0446   0.1690  -0.0237   0.0500  -0.0546   4.00    0.0
2018/11/12 00:44:00.000  -74.370508408  163.307879484  1012.1552   6  10   0.0415   0.0387   0.1455  -0.0208   0.0420  -0.0470   3.00    0.0
2018/11/12 00:44:15.000  -74.370508393  163.307879918  1012.1715   6  10   0.0358   0.0330   0.1230  -0.0183   0.0346  -0.0402   3.00    0.0
2018/11/12 00:44:30.000  -74.370508775  163.307881726  1012.3240   1  10   0.0286   0.0294   0.1140  -0.0158   0.0367  -0.0412   4.00    2.0
2018/11/12 00:44:45.000  -74.370508820  163.307881655  1012.3385   1  10   0.0216   0.0239   0.0872  -0.0120   0.0289  -0.0316   4.00    2.0
2018/11/12 00:45:00.000  -74.370508792  163.307881679  1012.3301   1  10   0.0178   0.0213   0.0716  -0.0098   0.0246  -0.0260   4.00    2.0
2018/11/12 00:45:15.000  -74.370508720  163.307881396  1012.3006   1  10   0.0275   0.0257   0.0878  -0.0175   0.0265  -0.0288   4.00    1.0
2018/11/12 00:45:30.000  -74.370508548  163.307879984  1012.2136   6  10   0.0305   0.0276   0.0992  -0.0158   0.0262  -0.0331   3.00    0.0
2018/11/12 00:45:45.000  -74.370508502  163.307879183  1012.1807   6  10   0.0355   0.0326   0.1187  -0.0177   0.0324  -0.0387   3.00    0.0
2018/11/12 00:46:00.000  -74.370508501  163.307878794  1012.1546   6  10   0.0411   0.0380   0.1405  -0.0199   0.0392  -0.0454   3.00    0.0
2018/11/12 00:46:15.000  -74.370508573  163.307878758  1012.1378   6  10   0.0469   0.0436   0.1636  -0.0225   0.0463  -0.0530   3.00    0.0
2018/11/12 00:46:30.000  -74.370508585  163.307878665  1012.1438   6  10   0.0530   0.0493   0.1876  -0.0253   0.0536  -0.0611   3.00    0.0
2018/11/12 00:46:45.000  -74.370508662  163.307878290  1012.1396   6  10   0.0592   0.0549   0.2122  -0.0283   0.0608  -0.0696   3.00    0.0
2018/11/12 00:47:00.000  -74.370508631  163.307877887  1012.1217   6  10   0.0654   0.0606   0.2371  -0.0314   0.0681  -0.0783   3.00    0.0
2018/11/12 00:47:15.000  -74.370508585  163.307878210  1012.1836   6  10   0.0717   0.0662   0.2623  -0.0346   0.0752  -0.0872   3.00    0.0
2018/11/12 00:47:30.000  -74.370508532  163.307877845  1012.1836   6  10   0.0781   0.0718   0.2876  -0.0378   0.0823  -0.0962   3.00    0.0
2018/11/12 00:47:45.000  -74.370508471  163.307878060  1012.2040   6  10   0.0718   0.0661   0.2630  -0.0343   0.0743  -0.0877   3.00    0.0
2018/11/12 00:48:00.000  -74.370508377  163.307878380  1012.2014   6  10   0.0654   0.0603   0.2375  -0.0308   0.0661  -0.0786   3.00    0.0
2018/11/12 00:48:15.000  -74.370508311  163.307879062  1012.1767   6  10   0.0591   0.0545   0.2121  -0.0274   0.0582  -0.0696   3.00    0.0
2018/11/12 00:48:30.000  -74.370508325  163.307879159  1012.1769   6  10   0.0528   0.0487   0.1871  -0.0243   0.0503  -0.0609   3.00    0.0
2018/11/12 00:48:45.000  -74.370508352  163.307879381  1012.1837   6  10   0.0467   0.0430   0.1625  -0.0213   0.0427  -0.0525   3.00    0.0
2018/11/12 00:49:00.000  -74.370508425  163.307880008  1012.2176   6  10   0.0407   0.0374   0.1387  -0.0187   0.0353  -0.0446   3.00    0.0
2018/11/12 00:49:15.000  -74.370508497  163.307880198  1012.2431   6  10   0.0351   0.0320   0.1161  -0.0164   0.0283  -0.0374   3.00    0.0
2018/11/12 00:49:30.000  -74.370508469  163.307880427  1012.2575   6  10   0.0301   0.0270   0.0956  -0.0146   0.0220  -0.0311   3.00    0.0
2018/11/12 00:49:45.000  -74.370508537  163.307880235  1012.2594   6  10   0.0262   0.0231   0.0788  -0.0134   0.0169  -0.0262   3.00    0.0
2018/11/12 00:50:00.000  -74.370508586  163.307880220  1012.2701   6  10   0.0245   0.0212   0.0696  -0.0129   0.0143  -0.0236   3.00    0.0
2018/11/12 00:50:15.000  -74.370508564  163.307879675  1012.2281   6  10   0.0263   0.0234   0.0781  -0.0135   0.0165  -0.0263   3.00    0.0
2018/11/12 00:50:30.000  -74.370508467  163.307879199  1012.2070   6  10   0.0304   0.0277   0.0948  -0.0147   0.0210  -0.0317   3.00    0.0
2018/11/12 00:50:45.000  -74.370508495  163.307879031  1012.2268   6  10   0.0356   0.0327   0.1156  -0.0164   0.0266  -0.0387   3.00    0.0
2018/11/12 00:51:00.000  -74.370508518  163.307878860  1012.2284   6  10   0.0414   0.0381   0.1386  -0.0185   0.0328  -0.0466   3.00    0.0
2018/11/12 00:51:15.000  -74.370508622  163.307879033  1012.2750   6  10   0.0475   0.0436   0.1629  -0.0208   0.0390  -0.0552   3.00    0.0
2018/11/12 00:51:30.000  -74.370508604  163.307878766  1012.2735   6  10   0.0537   0.0491   0.1880  -0.0234   0.0453  -0.0642   3.00    0.0
2018/11/12 00:51:45.000  -74.370508622  163.307878480  1012.2663   6  10   0.0602   0.0547   0.2137  -0.0261   0.0514  -0.0736   3.00    0.0
2018/11/12 00:52:00.000  -74.370508703  163.307878694  1012.2596   6  10   0.0668   0.0603   0.2401  -0.0289   0.0574  -0.0834   3.00    0.0
2018/11/12 00:52:15.000  -74.370508654  163.307878496  1012.1974   6  10   0.0736   0.0660   0.2674  -0.0318   0.0630  -0.0938   3.00    0.0
2018/11/12 00:52:30.000  -74.370508639  163.307878088  1012.1956   6  10   0.0808   0.0719   0.2961  -0.0345   0.0682  -0.1051   3.00    0.0
2018/11/12 00:52:45.000  -74.370508629  163.307877847  1012.1834   6  10   0.0766   0.0680   0.2797  -0.0307   0.0581  -0.1025   3.00    0.0
2018/11/12 00:53:00.000  -74.370508646  163.307877800  1012.1888   6  10   0.0729   0.0651   0.2687  -0.0321   0.0564  -0.1017   2.00    0.0
2018/11/12 00:53:15.000  -74.370508861  163.307878985  1012.3220   6  10   0.0659   0.0559   0.2414  -0.0231   0.0423  -0.0918   1.00    0.0
2018/11/12 00:53:30.000  -74.370508769  163.307879658  1012.3093   6  10   0.0547   0.0482   0.1967  -0.0229   0.0433  -0.0690   1.00    0.0
2018/11/12 00:53:45.000  -74.370508734  163.307879495  1012.2926   6  10   0.0473   0.0422   0.1646  -0.0196   0.0362  -0.0559   1.00    0.0
2018/11/12 00:54:00.000  -74.370508682  163.307879365  1012.2763   6  10   0.0408   0.0366   0.1375  -0.0169   0.0293  -0.0456   1.00    0.0
2018/11/12 00:54:15.000  -74.370508646  163.307879398  1012.2622   6  10   0.0349   0.0313   0.1129  -0.0146   0.0226  -0.0368   1.00    0.0
2018/11/12 00:54:30.000  -74.370508652  163.307879564  1012.2444   6  10   0.0297   0.0264   0.0910  -0.0129   0.0162  -0.0293   1.00    0.0
2018/11/12 00:54:45.000  -74.370508577  163.307879723  1012.2269   6  10   0.0258   0.0225   0.0736  -0.0117   0.0108  -0.0235   1.00    0.0
2018/11/12 00:55:00.000  -74.370508559  163.307880221  1012.2319   6  10   0.0239   0.0206   0.0648  -0.0111   0.0062  -0.0209   1.00    0.0
2018/11/12 00:55:15.000  -74.370508576  163.307879771  1012.2379   6  10   0.0258   0.0225   0.0742  -0.0113   0.0095  -0.0241   2.00    0.0
2018/11/12 00:55:30.000  -74.370508555  163.307880057  1012.1837   6  10   0.0297   0.0264   0.0903  -0.0115   0.0120  -0.0293   1.00    0.0
2018/11/12 00:55:45.000  -74.370508602  163.307879952  1012.1924   6  10   0.0352   0.0315   0.1128  -0.0110   0.0129  -0.0380   1.00    0.0
2018/11/12 00:56:00.000  -74.370508607  163.307879655  1012.2259   6  10   0.0417   0.0364   0.1425  -0.0121   0.0180  -0.0496   1.00    0.0
2018/11/12 00:56:15.000  -74.370508619  163.307879518  1012.2490   6  10   0.0480   0.0420   0.1661  -0.0114   0.0181  -0.0586   1.00    0.0
2018/11/12 00:56:30.000  -74.370508638  163.307879218  1012.1809   6  10   0.0560   0.0475   0.2018  -0.0099   0.0140  -0.0739   2.00    0.0
2018/11/12 00:56:45.000  -74.370508637  163.307878648  1012.1533   6  10   0.0589   0.0515   0.2120  -0.0195   0.0362  -0.0722   2.00    0.0
2018/11/12 00:57:00.000  -74.370508664  163.307878656  1012.1294   6  10   0.0641   0.0567   0.2301  -0.0224   0.0423  -0.0770   2.00    0.0
2018/11/12 00:57:15.000  -74.370508617  163.307878306  1012.1173   6  10   0.0699   0.0619   0.2518  -0.0250   0.0473  -0.0838   2.00    0.0
2018/11/12 00:57:30.000  -74.370508677  163.307878821  1012.2164   6  11   0.0666   0.0652   0.2355  -0.0132   0.0205  -0.0564   2.00    0.0
2018/11/12 00:57:45.000  -74.370508673  163.307878640  1012.1707   6  11   0.0602   0.0597   0.2090  -0.0093   0.0081  -0.0451   2.00    0.0
2018/11/12 00:58:00.000  -74.370508614  163.307878626  1012.1451   6  11   0.0547   0.0545   0.1868  -0.0073  -0.0067  -0.0381   2.00    0.0
2018/11/12 00:58:15.000  -74.370508573  163.307878705  1012.1810   6  11   0.0495   0.0494   0.1661  -0.0066  -0.0089  -0.0326   2.00    0.0
2018/11/12 00:58:30.000  -74.370508555  163.307879051  1012.1989   6  11   0.0445   0.0443   0.1464  -0.0066  -0.0090  -0.0282   4.00    0.0
2018/11/12 00:58:45.000  -74.370508526  163.307879023  1012.2032   6  11   0.0398   0.0393   0.1273  -0.0072  -0.0085  -0.0244   4.00    0.0
2018/11/12 00:59:00.000  -74.370508513  163.307879065  1012.1810   6  11   0.0352   0.0345   0.1090  -0.0080  -0.0077  -0.0213   4.00    0.0
2018/11/12 00:59:15.000  -74.370508560  163.307879212  1012.1800   6  11   0.0310   0.0297   0.0918  -0.0089  -0.0069  -0.0188   4.00    0.0
2018/11/12 00:59:30.000  -74.370508580  163.307879514  1012.1952   6  11   0.0272   0.0254   0.0762  -0.0096  -0.0063  -0.0169   4.00    0.0
2018/11/12 00:59:45.000  -74.370508578  163.307879573  1012.2040   6  11   0.0243   0.0219   0.0636  -0.0100  -0.0060  -0.0154   4.00    0.0
2018/11/12 01:00:00.000  -74.370508508  163.307880034  1012.2248   6  11   0.0229   0.0203   0.0569  -0.0101  -0.0061  -0.0145   5.00    0.0
2018/11/12 01:00:15.000  -74.370508501  163.307879907  1012.2630   6  11   0.0243   0.0225   0.0628  -0.0098  -0.0076  -0.0154   5.00    0.0
2018/11/12 01:00:30.000  -74.370508838  163.307880887  1012.3901   1  11   0.0324   0.0269   0.0952  -0.0147   0.0222  -0.0322   7.00    1.0
2018/11/12 01:00:45.000  -74.370508786  163.307881183  1012.3669   1  11   0.0381   0.0332   0.1207  -0.0163   0.0229  -0.0382   7.00    1.0
2018/11/12 01:01:00.000  -74.370508513  163.307879955  1012.2555   6  11   0.0352   0.0349   0.1066  -0.0104   0.0045  -0.0209   3.00    0.0
2018/11/12 01:01:15.000  -74.370508467  163.307879793  1012.2443   6  11   0.0402   0.0397   0.1259  -0.0105   0.0052  -0.0262   3.00    0.0
2018/11/12 01:01:30.000  -74.370508383  163.307879285  1012.2378   6  12   0.0459   0.0424   0.1416  -0.0150  -0.0230  -0.0385   3.00    0.0
2018/11/12 01:01:45.000  -74.370508488  163.307879340  1012.2694   6  12   0.0492   0.0468   0.1608  -0.0137  -0.0301  -0.0421   3.00    0.0
2018/11/12 01:02:00.000  -74.370508477  163.307878913  1012.2569   6  12   0.0528   0.0515   0.1747  -0.0139  -0.0361  -0.0422   3.00    0.0
2018/11/12 01:02:15.000  -74.370508421  163.307878522  1012.2688   6  12   0.0571   0.0562   0.1911  -0.0145  -0.0415  -0.0447   3.00    0.0
2018/11/12 01:02:30.000  -74.370508396  163.307878430  1012.2630   6  12   0.0617   0.0609   0.2085  -0.0154  -0.0467  -0.0482   3.00    0.0
2018/11/12 01:02:45.000  -74.370508409  163.307878478  1012.2748   6  12   0.0569   0.0562   0.1906  -0.0142  -0.0428  -0.0436   4.00    0.0
2018/11/12 01:03:00.000  -74.370508488  163.307878391  1012.2920   6  12   0.0521   0.0517   0.1723  -0.0134  -0.0388  -0.0387   4.00    0.0
2018/11/12 01:03:15.000  -74.370508551  163.307878148  1012.2581   6  12   0.0474   0.0473   0.1541  -0.0132  -0.0350  -0.0338   4.00    0.0
2018/11/12 01:03:30.000  -74.370508548  163.307878193  1012.2559   6  12   0.0430   0.0439   0.1362  -0.0143  -0.0318  -0.0287   5.00    0.0
2018/11/12 01:03:45.000  -74.370508591  163.307878812  1012.2646   6  12   0.0381   0.0372   0.1183  -0.0109  -0.0262  -0.0249   4.00    0.0
2018/11/12 01:04:00.000  -74.370508698  163.307880260  1012.3220   1  12   0.0404   0.0359   0.1312  -0.0129  -0.0262  -0.0358   7.00    1.0
2018/11/12 01:04:15.000  -74.370508790  163.307880207  1012.2943   1  12   0.0350   0.0297   0.1075  -0.0116  -0.0182  -0.0311   7.00    1.0
2018/11/12 01:04:30.000  -74.370508799  163.307879972  1012.2703   1  12   0.0276   0.0237   0.0855  -0.0126  -0.0094  -0.0289   7.00    2.0
2018/11/12 01:04:45.000  -74.370508814  163.307880115  1012.2696   1  12   0.0242   0.0189   0.0680  -0.0122   0.0089  -0.0266   7.00    2.0
2018/11/12 01:05:00.000  -74.370508750  163.307880493  1012.3000   1  12   0.0237   0.0166   0.0595  -0.0119   0.0122  -0.0268   7.00    2.0
2018/11/12 01:05:15.000  -74.370508776  163.307880394  1012.3044   1  12   0.0267   0.0193   0.0708  -0.0125   0.0094  -0.0300   7.00    2.0
2018/11/12 01:05:30.000  -74.370508844  163.307880494  1012.2780   1  12   0.0329   0.0238   0.0921  -0.0135  -0.0094  -0.0373   7.00    2.0
2018/11/12 01:05:45.000  -74.370508502  163.307879607  1012.2323   1  12   0.0315   0.0260   0.0820  -0.0048  -0.0166  -0.0210   7.00    1.0
2018/11/12 01:06:00.000  -74.370508669  163.307879939  1012.2807   6  12   0.0379   0.0319   0.1038  -0.0079  -0.0230  -0.0292   7.00    0.0
2018/11/12 01:06:15.000  -74.370508702  163.307879677  1012.2774   6  12   0.0443   0.0365   0.1246  -0.0068  -0.0278  -0.0385   7.00    0.0
2018/11/12 01:06:30.000  -74.370508751  163.307879202  1012.2942   6  12   0.0459   0.0410   0.1417  -0.0105  -0.0308  -0.0391   6.00    0.0
2018/11/12 01:06:45.000  -74.370508756  163.307879350  1012.2418   6  12   0.0518   0.0458   0.1622  -0.0128  -0.0342  -0.0468   7.00    1.0
2018/11/12 01:07:00.000  -74.370508915  163.307879493  1012.2391   6  12   0.0554   0.0504   0.1823  -0.0120  -0.0399  -0.0507   6.00    0.0
2018/11/12 01:07:15.000  -74.370508823  163.307879107  1012.2167   6  12   0.0592   0.0551   0.1980  -0.0119  -0.0458  -0.0516   6.00    0.0
2018/11/12 01:07:30.000  -74.370508751  163.307878812  1012.2238   6  12   0.0637   0.0599   0.2156  -0.0126  -0.0512  -0.0545   6.00    0.0
2018/11/12 01:07:45.000  -74.370508776  163.307878919  1012.1936   6  12   0.0591   0.0551   0.1964  -0.0118  -0.0466  -0.0489   6.00    0.0
2018/11/12 01:08:00.000  -74.370508765  163.307879432  1012.2142   6  12   0.0558   0.0504   0.1773  -0.0117  -0.0421  -0.0435   6.00    0.0
2018/11/12 01:08:15.000  -74.370508788  163.307879664  1012.1819   6  12   0.0520   0.0457   0.1584  -0.0122  -0.0373  -0.0387   6.00    0.0
2018/11/12 01:08:30.000  -74.370508717  163.307879234  1012.1718   6  12   0.0441   0.0409   0.1398  -0.0095  -0.0328  -0.0336   6.00    0.0
2018/11/12 01:08:45.000  -74.370508707  163.307879626  1012.1997   6  12   0.0393   0.0363   0.1216  -0.0086  -0.0285  -0.0286   6.00    0.0
2018/11/12 01:09:00.000  -74.370508812  163.307880916  1012.2502   1  12   0.0424   0.0346   0.1306  -0.0111  -0.0332  -0.0312   7.00    2.0
2018/11/12 01:09:15.000  -74.370508796  163.307880712  1012.2472   1  12   0.0328   0.0278   0.1052  -0.0067  -0.0263  -0.0253   7.00    2.0
2018/11/12 01:09:30.000  -74.370508798  163.307880650  1012.2741   1  12   0.0278   0.0217   0.0814  -0.0053  -0.0197  -0.0196   7.00    2.0
2018/11/12 01:09:45.000  -74.370508789  163.307880825  1012.2971   1  12   0.0242   0.0164   0.0614  -0.0044  -0.0138  -0.0148   7.00    2.0
2018/11/12 01:10:00.000  -74.370508736  163.307880600  1012.3189   1  12   0.0228   0.0141   0.0503  -0.0037  -0.0105  -0.0121   7.00    2.0
2018/11/12 01:10:15.000  -74.370508694  163.307880374  1012.3244   1  12   0.0251   0.0168   0.0622  -0.0054  -0.0143  -0.0152   7.00    2.0
2018/11/12 01:10:30.000  -74.370508398  163.307879669  1012.2318   1  12   0.0246   0.0200   0.0631  -0.0029  -0.0166  -0.0040   7.00    1.0
2018/11/12 01:10:45.000  -74.370508594  163.307880202  1012.3048   1  12   0.0367   0.0286   0.1073  -0.0104  -0.0275  -0.0266   7.00    2.0
2018/11/12 01:11:00.000  -74.370508681  163.307879918  1012.3106   1  12   0.0421   0.0354   0.1333  -0.0118  -0.0348  -0.0330   6.00    2.0
2018/11/12 01:11:15.000  -74.370508405  163.307878583  1012.2238   6  12   0.0400   0.0363   0.1203  -0.0091  -0.0303  -0.0250   7.00    0.0
2018/11/12 01:11:30.000  -74.370508444  163.307878449  1012.1925   6  12   0.0456   0.0409   0.1386  -0.0103  -0.0351  -0.0299   7.00    0.0
2018/11/12 01:11:45.000  -74.370508449  163.307878377  1012.2128   6  12   0.0474   0.0455   0.1573  -0.0088  -0.0400  -0.0352   7.00    0.0
2018/11/12 01:12:00.000  -74.370508392  163.307878674  1012.1690   6  12   0.0516   0.0502   0.1763  -0.0084  -0.0452  -0.0398   7.00    0.0
2018/11/12 01:12:15.000  -74.370508473  163.307878552  1012.2113   6  12   0.0562   0.0549   0.1954  -0.0087  -0.0505  -0.0446   7.00    0.0
2018/11/12 01:12:30.000  -74.370508485  163.307878769  1012.1830   6  12   0.0610   0.0597   0.2147  -0.0092  -0.0558  -0.0495   7.00    0.0
2018/11/12 01:12:45.000  -74.370508630  163.307879086  1012.2129   6  12   0.0562   0.0551   0.1951  -0.0085  -0.0507  -0.0447   7.00    0.0
2018/11/12 01:13:00.000  -74.370508700  163.307879531  1012.1923   6  12   0.0514   0.0504   0.1763  -0.0081  -0.0460  -0.0398   7.00    0.0
2018/11/12 01:13:15.000  -74.370508637  163.307879877  1012.1835   6  12   0.0467   0.0459   0.1577  -0.0082  -0.0414  -0.0351   7.00    0.0
2018/11/12 01:13:30.000  -74.370508609  163.307880065  1012.2056   6  12   0.0423   0.0416   0.1396  -0.0090  -0.0373  -0.0304   7.00    0.0
2018/11/12 01:13:45.000  -74.370508551  163.307880367  1012.1788   6  12   0.0383   0.0380   0.1229  -0.0110  -0.0346  -0.0254   8.00    0.0
2018/11/12 01:14:00.000  -74.370508562  163.307880451  1012.1235   6  12   0.0346   0.0323   0.1056  -0.0093  -0.0272  -0.0255   7.00    0.0
2018/11/12 01:14:15.000  -74.370508646  163.307880055  1012.1984   6  12   0.0286   0.0275   0.0881  -0.0069  -0.0229  -0.0194   6.00    0.0
2018/11/12 01:14:30.000  -74.370508885  163.307880668  1012.2733   1  12   0.0285   0.0244   0.0841  -0.0090  -0.0145  -0.0250   6.00    1.0
2018/11/12 01:14:45.000  -74.370508768  163.307880426  1012.3134   1  12   0.0256   0.0201   0.0662  -0.0089   0.0045  -0.0231   7.00    1.0
2018/11/12 01:15:00.000  -74.370508545  163.307879810  1012.2426   6  12   0.0201   0.0190   0.0552  -0.0071  -0.0152  -0.0105   5.00    0.0
2018/11/12 01:15:15.000  -74.370508766  163.307880765  1012.2746   1  12   0.0252   0.0207   0.0653  -0.0094   0.0045  -0.0221   7.00    1.0
2018/11/12 01:15:30.000  -74.370508764  163.307880709  1012.2557   1  12   0.0309   0.0256   0.0868  -0.0117  -0.0122  -0.0299   7.00    1.0
2018/11/12 01:15:45.000  -74.370508631  163.307880707  1012.2462   1  12   0.0327   0.0309   0.1063  -0.0095  -0.0249  -0.0280   7.00    1.0
2018/11/12 01:16:00.000  -74.370508568  163.307880970  1012.2497   1  12   0.0388   0.0374   0.1317  -0.0109  -0.0329  -0.0339   7.00    1.0
2018/11/12 01:16:15.000  -74.370508462  163.307878997  1012.2170   6  12   0.0365   0.0365   0.1199  -0.0055  -0.0317  -0.0256   5.00    0.0
2018/11/12 01:16:30.000  -74.370508448  163.307878696  1012.2055   6  12   0.0411   0.0411   0.1378  -0.0056  -0.0365  -0.0301   7.00    0.0
2018/11/12 01:16:45.000  -74.370508485  163.307878431  1012.1981   6  12   0.0458   0.0458   0.1562  -0.0060  -0.0415  -0.0348   6.00    0.0
2018/11/12 01:17:00.000  -74.370508556  163.307878671  1012.2212   6  12   0.0506   0.0506   0.1749  -0.0070  -0.0465  -0.0396   6.00    0.0
2018/11/12 01:17:15.000  -74.370508613  163.307878980  1012.1634   6  12   0.0556   0.0555   0.1937  -0.0084  -0.0517  -0.0446   6.00    0.0
2018/11/12 01:17:30.000  -74.370508478  163.307878829  1012.1526   6  12   0.0606   0.0606   0.2127  -0.0104  -0.0568  -0.0496   5.00    0.0
2018/11/12 01:17:45.000  -74.370508482  163.307879102  1012.1530   6  12   0.0563   0.0570   0.1936  -0.0135  -0.0512  -0.0450   5.00    0.0
2018/11/12 01:18:00.000  -74.370508555  163.307879534  1012.1560   6  12   0.0524   0.0536   0.1747  -0.0167  -0.0450  -0.0411   5.00    0.0
2018/11/12 01:18:15.000  -74.370508536  163.307878985  1012.1914   6  12   0.0473   0.0484   0.1559  -0.0148  -0.0402  -0.0360   6.00    0.0
2018/11/12 01:18:30.000  -74.370508387  163.307878927  1012.1976   6  12   0.0423   0.0433   0.1374  -0.0129  -0.0355  -0.0311   6.00    0.0
2018/11/12 01:18:45.000  -74.370508348  163.307879546  1012.1930   6  12   0.0374   0.0384   0.1194  -0.0112  -0.0311  -0.0263   6.00    0.0
2018/11/12 01:19:00.000  -74.370508479  163.307879824  1012.2159   6  12   0.0327   0.0337   0.1022  -0.0098  -0.0270  -0.0217   6.00    0.0
2018/11/12 01:19:15.000  -74.370508564  163.307879902  1012.2519   6  12   0.0276   0.0277   0.0862  -0.0039  -0.0240  -0.0172   6.00    0.0
2018/11/12 01:19:30.000  -74.370508552  163.307880199  1012.2284   6  12   0.0238   0.0244   0.0724  -0.0023  -0.0214  -0.0139   6.00    0.0
2018/11/12 01:19:45.000  -74.370508570  163.307880154  1012.1814   6  12   0.0209   0.0196   0.0616  -0.0047  -0.0168  -0.0106   6.00    0.0
2018/11/12 01:20:00.000  -74.370508558  163.307879946  1012.1857   6  12   0.0197   0.0179   0.0575  -0.0054  -0.0155  -0.0091   6.00    0.0
2018/11/12 01:20:15.000  -74.370508588  163.307879764  1012.1939   6  12   0.0212   0.0195   0.0639  -0.0053  -0.0174  -0.0095   5.00    0.0
2018/11/12 01:20:30.000  -74.370508484  163.307879678  1012.1625   6  12   0.0241   0.0228   0.0754  -0.0051  -0.0204  -0.0116   5.00    0.0
2018/11/12 01:20:45.000  -74.370508452  163.307879409  1012.1548   6  12   0.0278   0.0268   0.0897  -0.0046  -0.0243  -0.0148   6.00    0.0
2018/11/12 01:21:00.000  -74.370508484  163.307879362  1012.1900   6  12   0.0319   0.0311   0.1057  -0.0037  -0.0286  -0.0188   6.00    0.0
2018/11/12 01:21:15.000  -74.370508487  163.307879163  1012.1992   6  12   0.0363   0.0356   0.1226  -0.0025  -0.0332  -0.0232   6.00    0.0
2018/11/12 01:21:30.000  -74.370508596  163.307879175  1012.1990   6  12   0.0408   0.0402   0.1401   0.0006  -0.0381  -0.0279   6.00    0.0
2018/11/12 01:21:45.000  -74.370508612  163.307878918  1012.2009   6  12   0.0454   0.0449   0.1579   0.0023  -0.0432  -0.0326   7.00    0.0
2018/11/12 01:22:00.000  -74.370508523  163.307879131  1012.1956   6  12   0.0502   0.0496   0.1760   0.0029  -0.0483  -0.0374   7.00    0.0
2018/11/12 01:22:15.000  -74.370508495  163.307879360  1012.1763   6  12   0.0550   0.0543   0.1941   0.0031  -0.0536  -0.0422   7.00    0.0
2018/11/12 01:22:30.000  -74.370508489  163.307879453  1012.1730   6  12   0.0599   0.0591   0.2124   0.0031  -0.0588  -0.0470   7.00    0.0
2018/11/12 01:22:45.000  -74.370508498  163.307879670  1012.1887   6  12   0.0550   0.0541   0.1944   0.0027  -0.0534  -0.0418   7.00    0.0
2018/11/12 01:23:00.000  -74.370508558  163.307879908  1012.2078   6  12   0.0502   0.0494   0.1771   0.0023  -0.0485  -0.0366   7.00    0.0
2018/11/12 01:23:15.000  -74.370508585  163.307879743  1012.1967   6  12   0.0455   0.0447   0.1608   0.0008  -0.0438  -0.0312   7.00    0.0
2018/11/12 01:23:30.000  -74.370508532  163.307879330  1012.1893   6  12   0.0410   0.0401   0.1465  -0.0029  -0.0395  -0.0252   6.00    0.0
2018/11/12 01:23:45.000  -74.370508605  163.307879391  1012.2132   6  12   0.0367   0.0356   0.1368  -0.0048  -0.0362  -0.0169   7.00    0.0
2018/11/12 01:24:00.000  -74.370508466  163.307879854  1012.2374   6  12   0.0324   0.0312   0.1099  -0.0033  -0.0304  -0.0224   0.00    0.0
2018/11/12 01:24:15.000  -74.370508636  163.307880884  1012.2974   1  12   0.0364   0.0297   0.1065  -0.0098  -0.0254  -0.0322   6.00    1.0
2018/11/12 01:24:30.000  -74.370508678  163.307880611  1012.2923   1  12   0.0279   0.0238   0.0837  -0.0046  -0.0194  -0.0237   5.00    1.0
2018/11/12 01:24:45.000  -74.370508684  163.307880355  1012.3057   1  12   0.0229   0.0184   0.0654  -0.0080  -0.0146  -0.0225   5.00    2.0
2018/11/12 01:25:00.000  -74.370508648  163.307880222  1012.2637   1  12   0.0214   0.0159   0.0562  -0.0080  -0.0100  -0.0213   5.00    2.0
2018/11/12 01:25:15.000  -74.370508664  163.307880036  1012.2674   1  12   0.0247   0.0196   0.0678  -0.0045  -0.0129  -0.0218   5.00    1.0
2018/11/12 01:25:30.000  -74.370508712  163.307879925  1012.2469   1  12   0.0287   0.0240   0.0859  -0.0051  -0.0203  -0.0255   5.00    1.0
2018/11/12 01:25:45.000  -74.370508764  163.307879813  1012.2420   1  12   0.0337   0.0298   0.1072  -0.0055  -0.0278  -0.0299   4.00    1.0
2018/11/12 01:26:00.000  -74.370508745  163.307880052  1012.2414   1  12   0.0396   0.0360   0.1302  -0.0061  -0.0352  -0.0349   4.00    1.0
2018/11/12 01:26:15.000  -74.370508529  163.307879051  1012.1603   6  12   0.0361   0.0353   0.1156   0.0020  -0.0322  -0.0233   4.00    0.0
2018/11/12 01:26:30.000  -74.370508548  163.307878778  1012.1516   6  12   0.0406   0.0398   0.1321   0.0034  -0.0369  -0.0274   5.00    0.0
2018/11/12 01:26:45.000  -74.370508574  163.307878503  1012.1544   6  12   0.0452   0.0444   0.1491   0.0042  -0.0417  -0.0317   5.00    0.0
2018/11/12 01:27:00.000  -74.370508621  163.307878495  1012.1414   6  12   0.0500   0.0490   0.1662   0.0048  -0.0467  -0.0361   5.00    0.0
2018/11/12 01:27:15.000  -74.370508586  163.307879001  1012.1283   6  12   0.0548   0.0537   0.1834   0.0052  -0.0518  -0.0406   5.00    0.0
2018/11/12 01:27:30.000  -74.370508547  163.307878916  1012.1122   6  12   0.0596   0.0585   0.2007   0.0054  -0.0569  -0.0450   5.00    0.0
2018/11/12 01:27:45.000  -74.370508616  163.307879080  1012.1022   6  12   0.0548   0.0539   0.1827   0.0055  -0.0517  -0.0404   5.00    0.0
2018/11/12 01:28:00.000  -74.370508553  163.307879290  1012.0634   6  12   0.0500   0.0492   0.1650   0.0052  -0.0467  -0.0357   5.00    0.0
2018/11/12 01:28:15.000  -74.370508617  163.307879563  1012.0651   6  12   0.0453   0.0446   0.1476   0.0047  -0.0417  -0.0312   6.00    0.0
2018/11/12 01:28:30.000  -74.370508515  163.307879673  1012.0341   6  12   0.0407   0.0400   0.1307   0.0040  -0.0370  -0.0268   5.00    0.0
2018/11/12 01:28:45.000  -74.370508466  163.307879682  1012.0259   6  12   0.0362   0.0355   0.1144   0.0028  -0.0325  -0.0227   6.00    0.0
2018/11/12 01:29:00.000  -74.370508728  163.307880821  1012.1211   1  12   0.0401   0.0367   0.1294  -0.0056  -0.0364  -0.0346   4.00    1.0
2018/11/12 01:29:15.000  -74.370508727  163.307880731  1012.1282   1  12   0.0345   0.0307   0.1082  -0.0053  -0.0301  -0.0301   4.00    1.0
2018/11/12 01:29:30.000  -74.370508725  163.307880817  1012.1149   1  12   0.0298   0.0254   0.0898  -0.0050  -0.0245  -0.0266   4.00    1.0
2018/11/12 01:29:45.000  -74.370508616  163.307880528  1012.1875   1  12   0.0265   0.0215   0.0766  -0.0054  -0.0205  -0.0244   4.00    1.0
2018/11/12 01:30:00.000  -74.370508583  163.307880064  1012.2534   1  12   0.0255   0.0183   0.0674  -0.0048  -0.0140  -0.0252   4.00    1.0
2018/11/12 01:30:15.000  -74.370508615  163.307879949  1012.2802   1  12   0.0289   0.0217   0.0821  -0.0060  -0.0211  -0.0291   4.00    1.0
2018/11/12 01:30:30.000  -74.370508557  163.307880294  1012.2534   1  12   0.0342   0.0261   0.0991  -0.0070  -0.0250  -0.0343   4.00    1.0
2018/11/12 01:30:45.000  -74.370508637  163.307880534  1012.1910   1  12   0.0405   0.0323   0.1213  -0.0097  -0.0328  -0.0377   4.00    1.0
2018/11/12 01:31:00.000  -74.370508408  163.307879992  1012.0777   6  12   0.0352   0.0328   0.1057  -0.0067  -0.0310  -0.0180   7.00    0.0
2018/11/12 01:31:15.000  -74.370508444  163.307879716  1012.0880   6  12   0.0405   0.0375   0.1220  -0.0058  -0.0348  -0.0172   6.00    0.0
2018/11/12 01:31:30.000  -74.370508491  163.307879338  1012.0896   6  11   0.0464   0.0423   0.1399  -0.0063  -0.0392  -0.0130   7.00    0.0
2018/11/12 01:31:45.000  -74.370508386  163.307879406  1012.1208   6  11   0.0525   0.0472   0.1570  -0.0084  -0.0441  -0.0124   7.00    0.0
2018/11/12 01:32:00.000  -74.370508475  163.307879614  1012.0855   6  11   0.0588   0.0524   0.1745  -0.0119  -0.0491  -0.0129   6.00    0.0
2018/11/12 01:32:15.000  -74.370508608  163.307879571  1012.0764   6  11   0.0635   0.0575   0.1928  -0.0118  -0.0548  -0.0109   6.00    0.0
2018/11/12 01:32:30.000  -74.370508572  163.307879678  1012.0466   6  11   0.0691   0.0630   0.2122  -0.0139  -0.0614   0.0028   5.00    0.0
2018/11/12 01:32:45.000  -74.370508511  163.307879610  1012.0428   6  11   0.0658   0.0600   0.2020  -0.0199  -0.0622   0.0228   5.00    0.0
2018/11/12 01:33:00.000  -74.370508471  163.307879679  1012.0409   6  10   0.0655   0.0616   0.2034  -0.0316  -0.0721   0.0436   5.00    0.0
2018/11/12 01:33:15.000  -74.370508542  163.307880230  1012.0615   6  10   0.0583   0.0542   0.1817  -0.0258  -0.0654   0.0394   4.00    0.0
2018/11/12 01:33:30.000  -74.370508374  163.307879598  1012.0770   6  10   0.0473   0.0472   0.1606  -0.0165  -0.0576   0.0308   4.00    0.0
2018/11/12 01:33:45.000  -74.370508451  163.307879102  1012.1111   6  10   0.0409   0.0414   0.1410  -0.0118  -0.0507   0.0239   4.00    0.0
2018/11/12 01:34:00.000  -74.370508315  163.307879107  1012.1320   6  10   0.0355   0.0360   0.1234  -0.0071  -0.0447   0.0152   4.00    0.0
2018/11/12 01:34:15.000  -74.370508322  163.307879268  1012.1435   6  10   0.0308   0.0313   0.1098   0.0056  -0.0405  -0.0126   4.00    0.0
2018/11/12 01:34:30.000  -74.370508392  163.307880085  1012.2047   1   9   0.0306   0.0294   0.1237   0.0134  -0.0475  -0.0308   6.00    2.0
2018/11/12 01:34:45.000  -74.370508505  163.307880141  1012.2083   1   9   0.0241   0.0218   0.0903   0.0107  -0.0337  -0.0227   6.00    2.0
2018/11/12 01:35:00.000  -74.370508594  163.307880051  1012.2168   1   9   0.0209   0.0177   0.0718   0.0092  -0.0259  -0.0183   6.00    2.0
2018/11/12 01:35:15.000  -74.370508497  163.307880060  1012.1657   1   9   0.0244   0.0241   0.0951   0.0090  -0.0379  -0.0209   5.00    1.0
2018/11/12 01:35:30.000  -74.370508481  163.307880675  1012.0991   1   9   0.0309   0.0313   0.1283   0.0124  -0.0512  -0.0300   5.00    1.0
2018/11/12 01:35:45.000  -74.370508492  163.307880165  1012.0524   6   9   0.0320   0.0331   0.1275   0.0123  -0.0487  -0.0283   4.00    0.0
2018/11/12 01:36:00.000  -74.370508498  163.307879754  1012.1134   6   9   0.0381   0.0397   0.1560   0.0154  -0.0604  -0.0352   4.00    0.0
2018/11/12 01:36:15.000  -74.370508547  163.307879187  1012.1976   6   9   0.0445   0.0466   0.1858   0.0186  -0.0728  -0.0425   4.00    0.0
2018/11/12 01:36:30.000  -74.370508704  163.307878684  1012.2744   6   9   0.0510   0.0536   0.2164   0.0218  -0.0855  -0.0500   4.00    0.0
2018/11/12 01:36:45.000  -74.370508588  163.307878920  1012.2742   6   9   0.0576   0.0609   0.2475   0.0250  -0.0984  -0.0577   4.00    0.0
2018/11/12 01:37:00.000  -74.370508574  163.307878777  1012.2826   6   9   0.0644   0.0682   0.2790   0.0283  -0.1116  -0.0654   5.00    0.0
2018/11/12 01:37:15.000  -74.370508580  163.307878879  1012.2412   6   9   0.0712   0.0756   0.3108   0.0315  -0.1248  -0.0732   5.00    0.0
2018/11/12 01:37:30.000  -74.370508573  163.307878532  1012.2583   6   9   0.0781   0.0831   0.3427   0.0349  -0.1381  -0.0810   5.00    0.0
2018/11/12 01:37:45.000  -74.370508409  163.307878990  1012.1936   6   9   0.0714   0.0761   0.3123   0.0319  -0.1259  -0.0736   6.00    0.0
2018/11/12 01:38:00.000  -74.370508390  163.307879217  1012.1488   6   9   0.0647   0.0689   0.2812   0.0289  -0.1133  -0.0661   6.00    0.0
2018/11/12 01:38:15.000  -74.370508292  163.307879266  1012.1581   6   9   0.0579   0.0618   0.2503   0.0259  -0.1006  -0.0586   6.00    0.0
2018/11/12 01:38:30.000  -74.370508139  163.307879517  1012.1730   6   9   0.0513   0.0547   0.2196   0.0228  -0.0880  -0.0512   6.00    0.0
2018/11/12 01:38:45.000  -74.370508098  163.307879651  1012.1542   6   9   0.0448   0.0476   0.1894   0.0197  -0.0755  -0.0439   5.00    0.0
2018/11/12 01:39:00.000  -74.370508225  163.307879760  1012.1487   6   9   0.0385   0.0408   0.1599   0.0166  -0.0633  -0.0369   5.00    0.0
2018/11/12 01:39:15.000  -74.370508454  163.307879528  1012.1540   6   9   0.0324   0.0341   0.1318   0.0135  -0.0515  -0.0302   5.00    0.0
2018/11/12 01:39:30.000  -74.370508486  163.307879637  1012.2184   1   9   0.0316   0.0327   0.1354   0.0140  -0.0548  -0.0330   6.00    1.0
2018/11/12 01:39:45.000  -74.370508388  163.307879474  1012.1678   6   9   0.0220   0.0230   0.0843   0.0079  -0.0314  -0.0187   6.00    0.0
2018/11/12 01:40:00.000  -74.370508496  163.307879692  1012.1995   6   9   0.0196   0.0204   0.0723   0.0061  -0.0263  -0.0154   6.00    0.0
2018/11/12 01:40:15.000  -74.370508650  163.307879112  1012.2811   6   9   0.0221   0.0232   0.0849   0.0076  -0.0317  -0.0190   6.00    0.0
2018/11/12 01:40:30.000  -74.370508735  163.307878464  1012.3299   6   9   0.0269   0.0285   0.1070   0.0103  -0.0413  -0.0246   6.00    0.0
2018/11/12 01:40:45.000  -74.370508718  163.307878438  1012.2691   6   9   0.0325   0.0348   0.1331   0.0135  -0.0525  -0.0309   6.00    0.0
2018/11/12 01:41:00.000  -74.370508705  163.307878131  1012.2399   6   9   0.0386   0.0416   0.1614   0.0168  -0.0647  -0.0377   6.00    0.0
2018/11/12 01:41:15.000  -74.370508721  163.307877663  1012.2380   6   9   0.0449   0.0487   0.1909   0.0201  -0.0774  -0.0448   6.00    0.0
2018/11/12 01:41:30.000  -74.370508602  163.307878092  1012.1964   6   9   0.0515   0.0561   0.2213   0.0235  -0.0905  -0.0522   6.00    0.0
2018/11/12 01:41:45.000  -74.370508547  163.307878080  1012.1845   6   9   0.0581   0.0635   0.2521   0.0269  -0.1038  -0.0597   6.00    0.0
2018/11/12 01:42:00.000  -74.370508388  163.307878315  1012.2051   6   9   0.0649   0.0711   0.2833   0.0303  -0.1172  -0.0673   6.00    0.0
2018/11/12 01:42:15.000  -74.370508310  163.307878625  1012.1673   6   9   0.0718   0.0787   0.3146   0.0337  -0.1307  -0.0749   6.00    0.0
2018/11/12 01:42:30.000  -74.370508304  163.307878666  1012.2294   6   9   0.0787   0.0864   0.3460   0.0371  -0.1442  -0.0825   6.00    0.0
2018/11/12 01:42:45.000  -74.370508309  163.307878729  1012.2350   6   9   0.0719   0.0791   0.3146   0.0335  -0.1311  -0.0746   6.00    0.0
2018/11/12 01:43:00.000  -74.370508427  163.307878508  1012.2485   6   9   0.0652   0.0721   0.2833   0.0298  -0.1182  -0.0668   6.00    0.0
2018/11/12 01:43:15.000  -74.370508435  163.307878381  1012.2185   6   9   0.0587   0.0660   0.2526   0.0251  -0.1059  -0.0587   5.00    0.0
2018/11/12 01:43:30.000  -74.370508699  163.307878379  1012.2690   6   9   0.0519   0.0570   0.2218   0.0231  -0.0920  -0.0518   5.00    0.0
2018/11/12 01:43:45.000  -74.370508699  163.307878026  1012.2864   6   9   0.0452   0.0491   0.1914   0.0206  -0.0785  -0.0452   5.00    0.0
2018/11/12 01:44:00.000  -74.370508579  163.307878215  1012.2375   6   9   0.0388   0.0418   0.1623   0.0177  -0.0657  -0.0387   5.00    0.0
2018/11/12 01:44:15.000  -74.370508468  163.307878672  1012.1804   6   9   0.0328   0.0348   0.1349   0.0147  -0.0536  -0.0326   5.00    0.0
2018/11/12 01:44:30.000  -74.370508307  163.307879215  1012.1411   6   9   0.0272   0.0284   0.1102   0.0119  -0.0425  -0.0272   5.00    0.0
