% program   : RTKLIB ver.2.4.3
% inp file  : _by_type/_obs/tuati/20181106.18o
% inp file  : _by_type/_sp3+clk/igs20262.clk
% inp file  : _by_type/_sp3+clk/igs20262.sp3
% inp file  : _by_type/_nav/tuati/20181106.18n
% obs start : 2018/11/06 00:00:00.0 GPST (week2026 172800.0s)
% obs end   : 2018/11/06 23:59:30.0 GPST (week2026 259170.0s)
% pos mode  : ppp-kinematic
% solution  : combined
% elev mask : 15.0 deg
% dynamics  : off
% tidecorr  : on
% tropo opt : est ztd+grad
% ephemeris : precise
% navi sys  : gps glonass
% antenna1  :                       ( 0.0000  0.0000  0.0000)
%
% (lat/lon/height=WGS84/ellipsoidal,Q=1:fix,2:float,3:sbas,4:dgps,5:single,6:ppp,ns=# of satellites)
%  GPST                  latitude(deg) longitude(deg)  height(m)   Q  ns   sdn(m)   sde(m)   sdu(m)  sdne(m)  sdeu(m)  sdun(m) age(s)  ratio
2018/11/06 00:00:00.000  -74.425534532  163.418481220    64.7356   6   8   0.0315   0.0259   0.0878   0.0120  -0.0299  -0.0360   0.00    0.0
2018/11/06 00:00:30.000  -74.425534809  163.418480822    64.7764   6   9   0.0374   0.0336   0.1151   0.0064  -0.0258  -0.0436   0.00    0.0
2018/11/06 00:01:00.000  -74.425534934  163.418479932    64.7666   6   9   0.0550   0.0492   0.1772   0.0090  -0.0298  -0.0710   0.00    0.0
2018/11/06 00:01:30.000  -74.425534786  163.418479681    64.7617   6   9   0.0762   0.0671   0.2528   0.0153  -0.0397  -0.1044   0.00    0.0
2018/11/06 00:02:00.000  -74.425534905  163.418479506    64.7963   6   9   0.1058   0.0872   0.3635   0.0338  -0.0719  -0.1584   0.00    0.0
2018/11/06 00:02:30.000  -74.425534948  163.418479481    64.8159   6   9   0.1274   0.1053   0.4412   0.0394  -0.0831  -0.1916   0.00    0.0
2018/11/06 00:03:00.000  -74.425534587  163.418479958    64.7339   6   9   0.1044   0.0864   0.3623   0.0309  -0.0673  -0.1568   0.00    0.0
2018/11/06 00:03:30.000  -74.425534403  163.418480218    64.6548   6   9   0.0695   0.0653   0.2292  -0.0155   0.0160  -0.0874   1.00    0.0
2018/11/06 00:04:00.000  -74.425534629  163.418480140    64.6285   6   9   0.0597   0.0497   0.2045   0.0160  -0.0392  -0.0866   3.00    0.0
2018/11/06 00:04:30.000  -74.425534650  163.418481224    64.7320   6   9   0.0353   0.0328   0.1085  -0.0073  -0.0164  -0.0381   3.00    0.0
2018/11/06 00:05:00.000  -74.425534561  163.418481406    64.6948   6   9   0.0281   0.0245   0.0819   0.0050  -0.0234  -0.0289   3.00    0.0
2018/11/06 00:05:30.000  -74.425534420  163.418481725    64.6651   6   9   0.0370   0.0330   0.1166  -0.0036  -0.0201  -0.0438   3.00    0.0
2018/11/06 00:06:00.000  -74.425534348  163.418481878    64.6173   6   9   0.0523   0.0481   0.1736  -0.0102  -0.0061  -0.0661   3.00    0.0
2018/11/06 00:06:30.000  -74.425534399  163.418481576    64.5652   6   9   0.0689   0.0648   0.2328  -0.0166   0.0259  -0.0876   3.00    0.0
2018/11/06 00:07:00.000  -74.425534475  163.418480804    64.5726   6   9   0.0855   0.0816   0.2917  -0.0220   0.0402  -0.1083   3.00    0.0
2018/11/06 00:07:30.000  -74.425534368  163.418479851    64.4989   6   9   0.1021   0.0980   0.3506  -0.0262   0.0513  -0.1292   3.00    0.0
2018/11/06 00:08:00.000  -74.425534541  163.418480028    64.5941   6   9   0.0955   0.0833   0.3401   0.0162  -0.0350  -0.1388   3.00    0.0
2018/11/06 00:08:30.000  -74.425534396  163.418481176    64.5904   6   9   0.0771   0.0660   0.2754   0.0133  -0.0311  -0.1132   3.00    0.0
2018/11/06 00:09:00.000  -74.425534129  163.418481675    64.5936   6   9   0.0575   0.0487   0.2029   0.0091  -0.0257  -0.0831   3.00    0.0
2018/11/06 00:09:30.000  -74.425534256  163.418481649    64.6544   6   9   0.0355   0.0324   0.1124  -0.0087  -0.0084  -0.0399   3.00    0.0
2018/11/06 00:10:00.000  -74.425534498  163.418481040    64.6723   6   9   0.0285   0.0240   0.0846   0.0041  -0.0216  -0.0308   3.00    0.0
2018/11/06 00:10:30.000  -74.425534458  163.418480847    64.6328   6   9   0.0366   0.0325   0.1177  -0.0073  -0.0118  -0.0436   3.00    0.0
2018/11/06 00:11:00.000  -74.425534440  163.418480896    64.6463   6   9   0.0500   0.0474   0.1698  -0.0144   0.0249  -0.0609   3.00    0.0
2018/11/06 00:11:30.000  -74.425534449  163.418480166    64.6946   6   9   0.0639   0.0636   0.2212  -0.0211   0.0431  -0.0755   3.00    0.0
2018/11/06 00:12:00.000  -74.425534428  163.418479569    64.6835   6   9   0.0776   0.0795   0.2704  -0.0272   0.0591  -0.0882   3.00    0.0
2018/11/06 00:12:30.000  -74.425534298  163.418478917    64.6063   6   9   0.0910   0.0947   0.3182  -0.0331   0.0743  -0.1001   3.00    0.0
2018/11/06 00:13:00.000  -74.425534390  163.418479544    64.6293   6   9   0.0793   0.0798   0.2811  -0.0247   0.0565  -0.0945   3.00    0.0
2018/11/06 00:13:30.000  -74.425534429  163.418479489    64.6553   6   9   0.0703   0.0648   0.2552  -0.0083   0.0246  -0.0965   3.00    0.0
2018/11/06 00:14:00.000  -74.425534391  163.418479901    64.6451   6   9   0.0465   0.0467   0.1582  -0.0190   0.0381  -0.0496   3.00    0.0
2018/11/06 00:14:30.000  -74.425534416  163.418480182    64.6603   6   9   0.0341   0.0319   0.1085  -0.0118   0.0177  -0.0351   3.00    0.0
2018/11/06 00:15:00.000  -74.425534633  163.418481197    64.6871   6   9   0.0274   0.0234   0.0777  -0.0060  -0.0143  -0.0256   3.00    0.0
2018/11/06 00:15:30.000  -74.425534637  163.418481939    64.7035   6   9   0.0342   0.0318   0.1086  -0.0116   0.0182  -0.0353   3.00    0.0
2018/11/06 00:16:00.000  -74.425534662  163.418481258    64.7314   6  10   0.0452   0.0461   0.1500  -0.0193   0.0420  -0.0440   3.00    0.0
2018/11/06 00:16:30.000  -74.425534743  163.418480229    64.7190   6  10   0.0577   0.0616   0.1971  -0.0257   0.0601  -0.0535   3.00    0.0
2018/11/06 00:17:00.000  -74.425534731  163.418478957    64.7518   6  10   0.0705   0.0769   0.2455  -0.0313   0.0760  -0.0635   3.00    0.0
2018/11/06 00:17:30.000  -74.425534708  163.418478133    64.7904   6  10   0.0835   0.0922   0.2996  -0.0358   0.0882  -0.0775   3.00    0.0
2018/11/06 00:18:00.000  -74.425534512  163.418479073    64.6757   6  10   0.0698   0.0758   0.2384  -0.0335   0.0834  -0.0603   3.00    0.0
2018/11/06 00:18:30.000  -74.425534770  163.418479631    64.7124   6  10   0.0568   0.0609   0.1931  -0.0270   0.0658  -0.0508   4.00    0.0
2018/11/06 00:19:00.000  -74.425534788  163.418479553    64.6188   6  10   0.0444   0.0457   0.1484  -0.0201   0.0466  -0.0423   4.00    0.0
2018/11/06 00:19:30.000  -74.425534762  163.418480849    64.6808   6  10   0.0337   0.0314   0.1063  -0.0127   0.0245  -0.0338   4.00    0.0
2018/11/06 00:20:00.000  -74.425534641  163.418480910    64.6493   6  10   0.0278   0.0229   0.0808  -0.0066  -0.0104  -0.0279   4.00    0.0
2018/11/06 00:20:30.000  -74.425534663  163.418480836    64.6624   6  10   0.0339   0.0313   0.1087  -0.0120   0.0234  -0.0350   4.00    0.0
2018/11/06 00:21:00.000  -74.425534533  163.418480195    64.5865   6  10   0.0441   0.0456   0.1511  -0.0184   0.0447  -0.0421   4.00    0.0
2018/11/06 00:21:30.000  -74.425534550  163.418479763    64.6148   6  10   0.0558   0.0605   0.1966  -0.0246   0.0641  -0.0493   4.00    0.0
2018/11/06 00:22:00.000  -74.425534504  163.418479400    64.5969   6  10   0.0680   0.0752   0.2434  -0.0310   0.0831  -0.0581   4.00    0.0
2018/11/06 00:22:30.000  -74.425534325  163.418478735    64.5557   6  10   0.0804   0.0894   0.2910  -0.0377   0.1022  -0.0690   4.00    0.0
2018/11/06 00:23:00.000  -74.425534433  163.418479435    64.5600   6  10   0.0684   0.0758   0.2490  -0.0308   0.0838  -0.0603   4.00    0.0
2018/11/06 00:23:30.000  -74.425534597  163.418480254    64.6377   6  10   0.0564   0.0618   0.2093  -0.0233   0.0621  -0.0545   4.00    0.0
2018/11/06 00:24:00.000  -74.425534641  163.418480432    64.6466   6  10   0.0442   0.0457   0.1542  -0.0193   0.0495  -0.0428   4.00    0.0
2018/11/06 00:24:30.000  -74.425534651  163.418481358    64.6277   1  10   0.0378   0.0318   0.1249  -0.0164   0.0322  -0.0461   6.00    1.0
2018/11/06 00:25:00.000  -74.425534684  163.418480891    64.6515   6  10   0.0285   0.0229   0.0862  -0.0073  -0.0024  -0.0308   4.00    0.0
2018/11/06 00:25:30.000  -74.425534544  163.418479808    64.5848   6  10   0.0344   0.0315   0.1128  -0.0118   0.0268  -0.0366   4.00    0.0
2018/11/06 00:26:00.000  -74.425534357  163.418478819    64.4967   6  10   0.0442   0.0454   0.1543  -0.0175   0.0481  -0.0423   4.00    0.0
2018/11/06 00:26:30.000  -74.425534217  163.418477609    64.3936   6  10   0.0557   0.0600   0.2014  -0.0240   0.0686  -0.0500   4.00    0.0
2018/11/06 00:27:00.000  -74.425534261  163.418476852    64.4013   6  10   0.0679   0.0745   0.2510  -0.0310   0.0892  -0.0606   4.00    0.0
2018/11/06 00:27:30.000  -74.425534322  163.418476573    64.4510   6  10   0.0802   0.0887   0.3017  -0.0385   0.1099  -0.0736   4.00    0.0
2018/11/06 00:28:00.000  -74.425534550  163.418478026    64.5546   6  10   0.0679   0.0741   0.2525  -0.0309   0.0891  -0.0613   4.00    0.0
2018/11/06 00:28:30.000  -74.425534721  163.418479367    64.6250   6  10   0.0558   0.0596   0.2045  -0.0239   0.0690  -0.0516   4.00    0.0
2018/11/06 00:29:00.000  -74.425534815  163.418480310    64.6765   6  10   0.0446   0.0450   0.1582  -0.0173   0.0485  -0.0445   4.00    0.0
2018/11/06 00:29:30.000  -74.425534895  163.418481141    64.7450   6  10   0.0356   0.0312   0.1189  -0.0115   0.0272  -0.0406   4.00    0.0
2018/11/06 00:30:00.000  -74.425534866  163.418480831    64.7182   6  11   0.0300   0.0230   0.0916  -0.0067   0.0046  -0.0358   3.00    0.0
2018/11/06 00:30:30.000  -74.425535172  163.418481624    64.8687   6  11   0.0381   0.0316   0.1198  -0.0054   0.0225  -0.0479   3.00    0.0
2018/11/06 00:31:00.000  -74.425535317  163.418481571    64.8952   6  11   0.0507   0.0461   0.1632  -0.0026   0.0416  -0.0636   2.00    0.0
2018/11/06 00:31:30.000  -74.425535404  163.418480846    64.9104   6  11   0.0648   0.0613   0.2136  -0.0081   0.0615  -0.0818   2.00    0.0
2018/11/06 00:32:00.000  -74.425535329  163.418479736    64.9184   6  11   0.0799   0.0764   0.2687  -0.0158   0.0815  -0.1029   2.00    1.0
2018/11/06 00:32:30.000  -74.425534868  163.418478219    64.7430   6  11   0.0986   0.0904   0.3335  -0.0265   0.1044  -0.1327   2.00    0.0
2018/11/06 00:33:00.000  -74.425534979  163.418478323    64.7326   6  11   0.1216   0.0776   0.3917  -0.0201   0.0865  -0.1913   2.00    0.0
2018/11/06 00:33:30.000  -74.425534840  163.418478978    64.6828   6  11   0.0597   0.0606   0.2246  -0.0335   0.0849  -0.0803   3.00    0.0
2018/11/06 00:34:00.000  -74.425534847  163.418479851    64.7050   6  11   0.0456   0.0455   0.1651  -0.0254   0.0619  -0.0578   2.00    0.0
2018/11/06 00:34:30.000  -74.425534746  163.418479972    64.6705   6  11   0.0351   0.0313   0.1157  -0.0189   0.0406  -0.0421   2.00    0.0
2018/11/06 00:35:00.000  -74.425535043  163.418480591    64.7807   6  11   0.0263   0.0226   0.0751  -0.0133   0.0238  -0.0230   2.00    0.0
2018/11/06 00:35:30.000  -74.425535068  163.418479329    64.6696   6  11   0.0340   0.0311   0.1124  -0.0181   0.0394  -0.0393   2.00    0.0
2018/11/06 00:36:00.000  -74.425535097  163.418479397    64.7422   6  11   0.0475   0.0453   0.1694  -0.0257   0.0620  -0.0623   3.00    0.0
2018/11/06 00:36:30.000  -74.425535126  163.418479720    64.8134   6  11   0.0547   0.0598   0.2091  -0.0308   0.0814  -0.0672   3.00    0.0
2018/11/06 00:37:00.000  -74.425535201  163.418477812    64.7175   6  11   0.0657   0.0736   0.2562  -0.0366   0.1003  -0.0805   3.00    0.0
2018/11/06 00:37:30.000  -74.425535149  163.418476580    64.6274   6  11   0.0773   0.0874   0.3057  -0.0434   0.1203  -0.0962   4.00    0.0
2018/11/06 00:38:00.000  -74.425535123  163.418477333    64.6532   6  11   0.0649   0.0733   0.2543  -0.0358   0.0995  -0.0785   4.00    0.0
2018/11/06 00:38:30.000  -74.425535026  163.418477913    64.6508   6  11   0.0527   0.0590   0.2028  -0.0286   0.0786  -0.0616   5.00    0.0
2018/11/06 00:39:00.000  -74.425535093  163.418478988    64.7149   6  11   0.0411   0.0445   0.1520  -0.0222   0.0580  -0.0457   4.00    0.0
2018/11/06 00:39:30.000  -74.425535113  163.418479565    64.7157   6  11   0.0312   0.0309   0.1046  -0.0167   0.0383  -0.0312   6.00    0.0
2018/11/06 00:40:00.000  -74.425535034  163.418480157    64.7276   6  11   0.0255   0.0228   0.0744  -0.0131   0.0247  -0.0208   6.00    0.0
2018/11/06 00:40:30.000  -74.425534919  163.418479773    64.7146   6  11   0.0322   0.0308   0.1087  -0.0167   0.0381  -0.0349   6.00    0.0
2018/11/06 00:41:00.000  -74.425534776  163.418479134    64.6775   6  11   0.0447   0.0440   0.1620  -0.0227   0.0580  -0.0559   7.00    0.0
2018/11/06 00:41:30.000  -74.425534646  163.418477941    64.6549   6  11   0.0547   0.0593   0.2122  -0.0314   0.0823  -0.0694   6.00    0.0
2018/11/06 00:42:00.000  -74.425534552  163.418476901    64.6082   6  11   0.0651   0.0725   0.2567  -0.0365   0.0998  -0.0814   6.00    0.0
2018/11/06 00:42:30.000  -74.425534474  163.418476086    64.5472   6  11   0.0762   0.0858   0.3040  -0.0428   0.1186  -0.0960   6.00    0.0
2018/11/06 00:43:00.000  -74.425534443  163.418476014    64.4547   6  11   0.0638   0.0720   0.2510  -0.0350   0.0972  -0.0773   6.00    0.0
2018/11/06 00:43:30.000  -74.425534772  163.418477683    64.6043   6  11   0.0518   0.0579   0.1991  -0.0277   0.0764  -0.0597   6.00    0.0
2018/11/06 00:44:00.000  -74.425535029  163.418478815    64.6712   6  11   0.0402   0.0439   0.1481  -0.0213   0.0561  -0.0432   6.00    0.0
2018/11/06 00:44:30.000  -74.425535079  163.418479738    64.7163   6  11   0.0302   0.0308   0.1010  -0.0160   0.0370  -0.0282   6.00    0.0
2018/11/06 00:45:00.000  -74.425535040  163.418480063    64.7485   6  11   0.0246   0.0235   0.0716  -0.0127   0.0252  -0.0171   7.00    0.0
2018/11/06 00:45:30.000  -74.425535156  163.418479367    64.8063   6  11   0.0297   0.0326   0.0981  -0.0158   0.0355  -0.0258   7.00    0.0
2018/11/06 00:46:00.000  -74.425535058  163.418478787    64.8423   6  11   0.0390   0.0460   0.1406  -0.0207   0.0526  -0.0382   6.00    0.0
2018/11/06 00:46:30.000  -74.425535089  163.418477917    64.8267   6  11   0.0498   0.0620   0.1868  -0.0273   0.0708  -0.0520   6.00    0.0
2018/11/06 00:47:00.000  -74.425535029  163.418477744    64.8005   6  11   0.0611   0.0753   0.2345  -0.0340   0.0906  -0.0677   6.00    0.0
2018/11/06 00:47:30.000  -74.425534847  163.418477316    64.7375   6  11   0.0725   0.0911   0.2819  -0.0418   0.1093  -0.0836   6.00    0.0
2018/11/06 00:48:00.000  -74.425534971  163.418478979    64.7545   6  11   0.0606   0.0706   0.2321  -0.0312   0.0891  -0.0661   6.00    0.0
2018/11/06 00:48:30.000  -74.425535157  163.418480010    64.8105   6  11   0.0492   0.0562   0.1839  -0.0240   0.0691  -0.0501   6.00    0.0
2018/11/06 00:49:00.000  -74.425535102  163.418480077    64.7971   6  11   0.0385   0.0424   0.1381  -0.0182   0.0506  -0.0362   6.00    0.0
2018/11/06 00:49:30.000  -74.425535148  163.418480416    64.7412   6  11   0.0294   0.0300   0.0977  -0.0142   0.0342  -0.0248   6.00    0.0
2018/11/06 00:50:00.000  -74.425535130  163.418480414    64.7496   6  11   0.0242   0.0231   0.0731  -0.0120   0.0247  -0.0164   6.00    0.0
2018/11/06 00:50:30.000  -74.425535123  163.418480066    64.7650   6  11   0.0297   0.0311   0.0987  -0.0144   0.0336  -0.0260   7.00    0.0
2018/11/06 00:51:00.000  -74.425535210  163.418480275    64.8208   6  11   0.0391   0.0446   0.1380  -0.0190   0.0490  -0.0379   7.00    0.0
2018/11/06 00:51:30.000  -74.425535150  163.418479228    64.8454   6  11   0.0496   0.0601   0.1807  -0.0255   0.0660  -0.0508   7.00    0.0
2018/11/06 00:52:00.000  -74.425534869  163.418478606    64.7930   6  11   0.0602   0.0690   0.2250  -0.0297   0.0843  -0.0651   6.00    0.0
2018/11/06 00:52:30.000  -74.425534761  163.418478790    64.7846   6  11   0.0709   0.0811   0.2682  -0.0352   0.1008  -0.0791   6.00    0.0
2018/11/06 00:53:00.000  -74.425534832  163.418479020    64.8080   6  11   0.0600   0.0677   0.2235  -0.0286   0.0826  -0.0644   6.00    0.0
2018/11/06 00:53:30.000  -74.425534991  163.418479341    64.8006   6  11   0.0493   0.0543   0.1802  -0.0223   0.0646  -0.0510   6.00    0.0
2018/11/06 00:54:00.000  -74.425535154  163.418480287    64.8338   6  11   0.0394   0.0412   0.1404  -0.0172   0.0477  -0.0403   6.00    0.0
2018/11/06 00:54:30.000  -74.425535189  163.418480530    64.8276   6  11   0.0309   0.0291   0.1077  -0.0134   0.0329  -0.0325   7.00    0.0
2018/11/06 00:55:00.000  -74.425535232  163.418480188    64.7957   6  10   0.0250   0.0225   0.0797  -0.0119   0.0251  -0.0212   6.00    0.0
2018/11/06 00:55:30.000  -74.425535064  163.418479606    64.6759   6  10   0.0346   0.0301   0.1251  -0.0172   0.0384  -0.0448   6.00    0.0
2018/11/06 00:56:00.000  -74.425534895  163.418479545    64.7294   6  10   0.0514   0.0429   0.1960  -0.0266   0.0611  -0.0778   6.00    0.0
2018/11/06 00:56:30.000  -74.425535027  163.418478981    64.7580   6  10   0.0701   0.0565   0.2714  -0.0372   0.0855  -0.1123   6.00    0.0
2018/11/06 00:57:00.000  -74.425535208  163.418479324    64.8859   6  10   0.0892   0.0699   0.3476  -0.0482   0.1099  -0.1471   6.00    0.0
2018/11/06 00:57:30.000  -74.425535054  163.418479000    64.8879   6  10   0.1084   0.0832   0.4239  -0.0590   0.1339  -0.1819   6.00    0.0
2018/11/06 00:58:00.000  -74.425535208  163.418479463    64.9376   6  10   0.0889   0.0693   0.3593  -0.0468   0.1061  -0.1476   6.00    0.0
2018/11/06 00:58:30.000  -74.425535369  163.418480076    64.9514   6   9   0.0710   0.0556   0.2947  -0.0358   0.0818  -0.1176   6.00    0.0
2018/11/06 00:59:00.000  -74.425535483  163.418479733    64.9602   6   9   0.0518   0.0421   0.2091  -0.0250   0.0569  -0.0803   6.00    0.0
2018/11/06 00:59:30.000  -74.425535373  163.418480179    64.8641   6   9   0.0345   0.0296   0.1292  -0.0159   0.0349  -0.0449   6.00    0.0
2018/11/06 01:00:00.000  -74.425535260  163.418480196    64.7853   6   9   0.0245   0.0224   0.0777  -0.0109   0.0228  -0.0185   6.00    0.0
2018/11/06 01:00:30.000  -74.425535400  163.418479947    64.8107   6   9   0.0344   0.0307   0.1277  -0.0167   0.0352  -0.0447   6.00    0.0
2018/11/06 01:01:00.000  -74.425535629  163.418479968    64.9517   6   9   0.0516   0.0436   0.2061  -0.0258   0.0560  -0.0797   6.00    0.0
2018/11/06 01:01:30.000  -74.425535248  163.418478874    64.7896   6  10   0.0643   0.0567   0.2540  -0.0352   0.0772  -0.0975   6.00    0.0
2018/11/06 01:02:00.000  -74.425535304  163.418478726    64.8296   6  10   0.0754   0.0691   0.2945  -0.0412   0.0908  -0.1103   6.00    0.0
2018/11/06 01:02:30.000  -74.425535212  163.418477662    64.7980   6  10   0.0883   0.0820   0.3441  -0.0491   0.1077  -0.1283   6.00    0.0
2018/11/06 01:03:00.000  -74.425535147  163.418478239    64.9004   6  10   0.0788   0.0727   0.3090  -0.0432   0.0904  -0.1191   6.00    0.0
2018/11/06 01:03:30.000  -74.425535231  163.418479386    64.8509   6  10   0.0583   0.0546   0.2196  -0.0323   0.0720  -0.0781   5.00    0.0
2018/11/06 01:04:00.000  -74.425535153  163.418479691    64.8133   6  10   0.0433   0.0404   0.1573  -0.0218   0.0493  -0.0518   5.00    0.0
2018/11/06 01:04:30.000  -74.425535214  163.418480008    64.7936   6  10   0.0309   0.0280   0.1055  -0.0133   0.0303  -0.0307   5.00    0.0
2018/11/06 01:05:00.000  -74.425535269  163.418480076    64.7607   6  10   0.0235   0.0208   0.0713  -0.0078   0.0182  -0.0126   5.00    0.0
2018/11/06 01:05:30.000  -74.425535407  163.418479568    64.7804   6  10   0.0326   0.0278   0.1180  -0.0120   0.0276  -0.0393   6.00    0.0
2018/11/06 01:06:00.000  -74.425535394  163.418479871    64.8358   6  10   0.0457   0.0392   0.1749  -0.0193   0.0446  -0.0629   6.00    0.0
2018/11/06 01:06:30.000  -74.425535403  163.418479403    64.7903   6  10   0.0575   0.0510   0.2212  -0.0246   0.0570  -0.0789   6.00    0.0
2018/11/06 01:07:00.000  -74.425535444  163.418478902    64.8356   6  10   0.0709   0.0629   0.2757  -0.0311   0.0716  -0.0997   6.00    0.0
2018/11/06 01:07:30.000  -74.425535342  163.418478046    64.8093   6  10   0.0866   0.0747   0.3423  -0.0377   0.0861  -0.1272   6.00    0.0
2018/11/06 01:08:00.000  -74.425535194  163.418478937    64.7389   6  10   0.0751   0.0627   0.3009  -0.0329   0.0749  -0.1136   6.00    0.0
2018/11/06 01:08:30.000  -74.425535201  163.418479230    64.6965   6  10   0.0616   0.0506   0.2450  -0.0224   0.0519  -0.0925   6.00    0.0
2018/11/06 01:09:00.000  -74.425535279  163.418479527    64.7010   6  10   0.0420   0.0384   0.1531  -0.0183   0.0417  -0.0495   6.00    0.0
2018/11/06 01:09:30.000  -74.425535326  163.418480245    64.7597   6  10   0.0297   0.0271   0.0985  -0.0107   0.0245  -0.0262   6.00    0.0
2018/11/06 01:10:00.000  -74.425535216  163.418479871    64.7028   6  10   0.0229   0.0205   0.0651  -0.0056   0.0140  -0.0056   6.00    0.0
2018/11/06 01:10:30.000  -74.425535075  163.418479302    64.7165   6  10   0.0307   0.0271   0.1049  -0.0094   0.0219  -0.0317   6.00    0.0
2018/11/06 01:11:00.000  -74.425534972  163.418478914    64.7565   6  10   0.0427   0.0381   0.1571  -0.0123   0.0295  -0.0532   6.00    0.0
2018/11/06 01:11:30.000  -74.425534834  163.418478896    64.7414   6  10   0.0538   0.0491   0.2018  -0.0234   0.0533  -0.0680   6.00    0.0
2018/11/06 01:12:00.000  -74.425534799  163.418478514    64.7237   6  10   0.0652   0.0604   0.2451  -0.0292   0.0658  -0.0819   6.00    0.0
2018/11/06 01:12:30.000  -74.425534888  163.418478690    64.7213   6  10   0.0774   0.0717   0.2925  -0.0357   0.0792  -0.0982   6.00    0.0
2018/11/06 01:13:00.000  -74.425534909  163.418479014    64.7002   6  10   0.0644   0.0601   0.2395  -0.0285   0.0633  -0.0784   6.00    0.0
2018/11/06 01:13:30.000  -74.425534936  163.418479184    64.6927   6  10   0.0515   0.0484   0.1867  -0.0214   0.0479  -0.0585   6.00    0.0
2018/11/06 01:14:00.000  -74.425535079  163.418479554    64.7246   6  10   0.0392   0.0370   0.1350  -0.0148   0.0334  -0.0384   6.00    0.0
2018/11/06 01:14:30.000  -74.425535127  163.418479535    64.7282   6  10   0.0282   0.0263   0.0868  -0.0089   0.0206  -0.0176   6.00    0.0
2018/11/06 01:15:00.000  -74.425535233  163.418479912    64.7118   6  10   0.0221   0.0198   0.0562  -0.0051   0.0130   0.0117   6.00    0.0
2018/11/06 01:15:30.000  -74.425535447  163.418479917    64.7401   6  10   0.0277   0.0260   0.0835  -0.0081   0.0191  -0.0147   6.00    0.0
2018/11/06 01:16:00.000  -74.425535359  163.418479358    64.7223   6  10   0.0380   0.0364   0.1280  -0.0132   0.0301  -0.0344   7.00    0.0
2018/11/06 01:16:30.000  -74.425535392  163.418479627    64.7251   6  10   0.0498   0.0473   0.1767  -0.0190   0.0423  -0.0530   7.00    0.0
2018/11/06 01:17:00.000  -74.425535241  163.418478976    64.6073   6  10   0.0622   0.0583   0.2266  -0.0251   0.0545  -0.0714   7.00    0.0
2018/11/06 01:17:30.000  -74.425535213  163.418478661    64.7089   6  10   0.0748   0.0692   0.2769  -0.0311   0.0662  -0.0895   7.00    0.0
2018/11/06 01:18:00.000  -74.425535185  163.418478310    64.7690   6  10   0.0619   0.0578   0.2255  -0.0241   0.0519  -0.0706   7.00    0.0
2018/11/06 01:18:30.000  -74.425535298  163.418478812    64.8308   6  10   0.0494   0.0467   0.1748  -0.0176   0.0384  -0.0518   7.00    0.0
2018/11/06 01:19:00.000  -74.425535281  163.418479225    64.7765   6  10   0.0376   0.0357   0.1255  -0.0116   0.0259  -0.0327   7.00    0.0
2018/11/06 01:19:30.000  -74.425535227  163.418479642    64.7343   6  10   0.0273   0.0255   0.0805  -0.0062   0.0156  -0.0119   7.00    0.0
2018/11/06 01:20:00.000  -74.425535133  163.418479598    64.6778   6  10   0.0218   0.0195   0.0526  -0.0023   0.0106   0.0136   7.00    0.0
2018/11/06 01:20:30.000  -74.425535158  163.418479822    64.6828   6  10   0.0271   0.0253   0.0792  -0.0055   0.0149  -0.0111   7.00    0.0
2018/11/06 01:21:00.000  -74.425535087  163.418479234    64.6847   6  10   0.0371   0.0352   0.1229  -0.0101   0.0235  -0.0318   7.00    0.0
2018/11/06 01:21:30.000  -74.425535073  163.418479470    64.7157   6  10   0.0487   0.0457   0.1704  -0.0152   0.0329  -0.0500   7.00    0.0
2018/11/06 01:22:00.000  -74.425535006  163.418479256    64.7700   6  10   0.0609   0.0562   0.2189  -0.0205   0.0420  -0.0677   7.00    0.0
2018/11/06 01:22:30.000  -74.425534736  163.418479147    64.6528   6  11   0.0647   0.0649   0.2307  -0.0105   0.0194  -0.0502   7.00    0.0
2018/11/06 01:23:00.000  -74.425534771  163.418478733    64.7239   6  11   0.0530   0.0545   0.1839   0.0037   0.0049  -0.0328   7.00    0.0
2018/11/06 01:23:30.000  -74.425534963  163.418478716    64.6873   6  11   0.0427   0.0443   0.1429   0.0068  -0.0078  -0.0194   7.00    0.0
2018/11/06 01:24:00.000  -74.425535122  163.418478669    64.6122   6  11   0.0332   0.0342   0.1043   0.0065  -0.0068   0.0037   7.00    0.0
2018/11/06 01:24:30.000  -74.425535125  163.418479420    64.6492   6  11   0.0252   0.0248   0.0694   0.0050   0.0022   0.0146   7.00    0.0
2018/11/06 01:25:00.000  -74.425535168  163.418479766    64.6865   6  11   0.0210   0.0191   0.0483   0.0044   0.0060   0.0167   7.00    0.0
2018/11/06 01:25:30.000  -74.425535052  163.418479591    64.6982   6  11   0.0249   0.0246   0.0675   0.0060  -0.0045   0.0161   7.00    0.0
2018/11/06 01:26:00.000  -74.425534971  163.418479407    64.7117   6  11   0.0323   0.0338   0.1000   0.0086  -0.0123   0.0132   7.00    0.0
2018/11/06 01:26:30.000  -74.425534904  163.418480128    64.7556   6  12   0.0403   0.0417   0.1321   0.0026  -0.0282  -0.0178   7.00    1.0
2018/11/06 01:27:00.000  -74.425534920  163.418480117    64.7597   6  12   0.0496   0.0511   0.1672  -0.0047  -0.0382  -0.0297   7.00    1.0
2018/11/06 01:27:30.000  -74.425534834  163.418480351    64.7810   6  12   0.0592   0.0606   0.2040  -0.0085  -0.0480  -0.0404   7.00    1.0
2018/11/06 01:28:00.000  -74.425535039  163.418480601    64.7613   6  12   0.0497   0.0511   0.1683  -0.0047  -0.0398  -0.0305   7.00    1.0
2018/11/06 01:28:30.000  -74.425535021  163.418480524    64.7416   6  12   0.0403   0.0416   0.1322   0.0026  -0.0310  -0.0196   7.00    1.0
2018/11/06 01:29:00.000  -74.425535155  163.418480625    64.7670   6  12   0.0317   0.0323   0.0971   0.0039  -0.0222  -0.0021   7.00    1.0
2018/11/06 01:29:30.000  -74.425534815  163.418480154    64.7493   1  12   0.0458   0.0315   0.1069   0.0157   0.0238   0.0455   7.00    1.0
2018/11/06 01:30:00.000  -74.425535299  163.418479721    64.6760   1  12   0.0143   0.0154   0.0397  -0.0067   0.0017  -0.0042   7.00    1.0
2018/11/06 01:30:30.000  -74.425534841  163.418480284    64.7292   1  12   0.0447   0.0313   0.1052   0.0157   0.0226   0.0446   7.00    1.0
2018/11/06 01:31:00.000  -74.425535303  163.418480753    64.6905   6  12   0.0314   0.0319   0.0967   0.0054  -0.0228  -0.0039   7.00    1.0
2018/11/06 01:31:30.000  -74.425535351  163.418480750    64.6764   6  12   0.0401   0.0410   0.1328   0.0054  -0.0325  -0.0209   7.00    1.0
2018/11/06 01:32:00.000  -74.425535346  163.418480503    64.6870   6  12   0.0494   0.0504   0.1705   0.0034  -0.0424  -0.0326   7.00    1.0
2018/11/06 01:32:30.000  -74.425535289  163.418480297    64.6641   6  12   0.0591   0.0600   0.2090  -0.0048  -0.0526  -0.0435   7.00    1.0
2018/11/06 01:33:00.000  -74.425535241  163.418480246    64.6664   6  12   0.0496   0.0504   0.1719   0.0040  -0.0429  -0.0335   7.00    1.0
2018/11/06 01:33:30.000  -74.425535274  163.418479879    64.6376   6  12   0.0402   0.0410   0.1343   0.0059  -0.0333  -0.0221   7.00    1.0
2018/11/06 01:34:00.000  -74.425535155  163.418479573    64.6295   6  12   0.0315   0.0318   0.0979   0.0059  -0.0238  -0.0067   7.00    1.0
2018/11/06 01:34:30.000  -74.425534712  163.418479431    64.6949   1  12   0.0441   0.0315   0.1044   0.0164   0.0207   0.0433   7.00    1.0
2018/11/06 01:35:00.000  -74.425534630  163.418479622    64.7163   1  12   0.0401   0.0269   0.0821   0.0168   0.0258   0.0456   7.00    1.0
2018/11/06 01:35:30.000  -74.425534553  163.418479585    64.6817   1  12   0.0432   0.0316   0.1038   0.0165   0.0203   0.0425   7.00    1.0
2018/11/06 01:36:00.000  -74.425534959  163.418479845    64.7151   6  12   0.0313   0.0315   0.0979   0.0068  -0.0240  -0.0074   8.00    1.0
2018/11/06 01:36:30.000  -74.425535020  163.418480023    64.6844   6  12   0.0400   0.0405   0.1348   0.0073  -0.0341  -0.0228   8.00    1.0
2018/11/06 01:37:00.000  -74.425534970  163.418480383    64.7011   6  12   0.0494   0.0498   0.1731   0.0067  -0.0445  -0.0345   8.00    1.0
2018/11/06 01:37:30.000  -74.425534935  163.418480533    64.6577   6  12   0.0592   0.0593   0.2120   0.0049  -0.0551  -0.0454   8.00    1.0
2018/11/06 01:38:00.000  -74.425534941  163.418480722    64.6988   6  12   0.0495   0.0499   0.1734   0.0066  -0.0449  -0.0345   8.00    1.0
2018/11/06 01:38:30.000  -74.425535021  163.418480178    64.7057   6  12   0.0401   0.0406   0.1351   0.0074  -0.0347  -0.0228   8.00    1.0
2018/11/06 01:39:00.000  -74.425535112  163.418480214    64.7282   6  12   0.0313   0.0315   0.0982   0.0070  -0.0249  -0.0074   8.00    1.0
2018/11/06 01:39:30.000  -74.425534688  163.418479659    64.7248   1  12   0.0426   0.0319   0.1034   0.0168   0.0187   0.0418   8.00    1.0
2018/11/06 01:40:00.000  -74.425534653  163.418479485    64.7215   1  12   0.0388   0.0273   0.0806   0.0172   0.0248   0.0440   8.00    1.0
2018/11/06 01:40:30.000  -74.425535658  163.418479710    64.6785   1  12   0.0271   0.0250   0.0830   0.0101  -0.0147  -0.0166   8.00    1.0
2018/11/06 01:41:00.000  -74.425535645  163.418479629    64.6724   1  12   0.0383   0.0366   0.1321   0.0086  -0.0314  -0.0299   8.00    1.0
2018/11/06 01:41:30.000  -74.425535216  163.418480441    64.6004   6  12   0.0399   0.0400   0.1345   0.0081  -0.0353  -0.0229   8.00    0.0
2018/11/06 01:42:00.000  -74.425535359  163.418480756    64.6388   6  12   0.0493   0.0493   0.1724   0.0079  -0.0458  -0.0346   8.00    0.0
2018/11/06 01:42:30.000  -74.425535264  163.418480613    64.6066   6  12   0.0590   0.0589   0.2106   0.0071  -0.0566  -0.0453   8.00    0.0
2018/11/06 01:43:00.000  -74.425535219  163.418480848    64.6038   6  12   0.0494   0.0493   0.1715   0.0085  -0.0462  -0.0347   8.00    0.0
2018/11/06 01:43:30.000  -74.425535161  163.418480733    64.6056   6  12   0.0400   0.0400   0.1335   0.0086  -0.0358  -0.0230   8.00    0.0
2018/11/06 01:44:00.000  -74.425535486  163.418480518    64.5228   1  12   0.0385   0.0367   0.1307   0.0097  -0.0326  -0.0301   6.00    1.0
2018/11/06 01:44:30.000  -74.425535400  163.418479751    64.6265   1  12   0.0273   0.0253   0.0825   0.0107  -0.0166  -0.0172   6.00    1.0
2018/11/06 01:45:00.000  -74.425535480  163.418479719    64.6688   1  12   0.0213   0.0190   0.0532   0.0116   0.0069  -0.0091   6.00    1.0
2018/11/06 01:45:30.000  -74.425535579  163.418479618    64.6896   1  12   0.0273   0.0255   0.0828   0.0110  -0.0174  -0.0174   6.00    1.0
2018/11/06 01:46:00.000  -74.425535547  163.418480620    64.5935   1  12   0.0386   0.0369   0.1302   0.0101  -0.0333  -0.0300   6.00    1.0
2018/11/06 01:46:30.000  -74.425535039  163.418480524    64.5734   6  12   0.0399   0.0395   0.1319   0.0089  -0.0361  -0.0225   8.00    0.0
2018/11/06 01:47:00.000  -74.425534990  163.418480016    64.5732   6  12   0.0492   0.0487   0.1684   0.0090  -0.0466  -0.0338   8.00    0.0
2018/11/06 01:47:30.000  -74.425535053  163.418480182    64.6342   6  12   0.0590   0.0582   0.2052   0.0088  -0.0572  -0.0442   8.00    0.0
2018/11/06 01:48:00.000  -74.425535090  163.418480191    64.6675   6  12   0.0492   0.0486   0.1671   0.0094  -0.0463  -0.0337   8.00    0.0
2018/11/06 01:48:30.000  -74.425535132  163.418480115    64.6646   6  12   0.0398   0.0394   0.1304   0.0093  -0.0360  -0.0222   8.00    0.0
2018/11/06 01:49:00.000  -74.425535511  163.418480099    64.6840   1  12   0.0386   0.0370   0.1282   0.0109  -0.0334  -0.0300   6.00    1.0
2018/11/06 01:49:30.000  -74.425535528  163.418479786    64.6482   1  12   0.0274   0.0258   0.0827   0.0115  -0.0187  -0.0181   5.00    1.0
2018/11/06 01:50:00.000  -74.425535515  163.418479863    64.6616   1  12   0.0214   0.0198   0.0553   0.0118  -0.0041  -0.0109   5.00    1.0
2018/11/06 01:50:30.000  -74.425535345  163.418480348    64.6620   1  12   0.0277   0.0262   0.0844   0.0116  -0.0201  -0.0188   5.00    1.0
2018/11/06 01:51:00.000  -74.425535520  163.418479947    64.6691   1  12   0.0389   0.0374   0.1291   0.0115  -0.0349  -0.0303   6.00    1.0
2018/11/06 01:51:30.000  -74.425535234  163.418480602    64.6265   6  12   0.0398   0.0390   0.1287   0.0094  -0.0364  -0.0216   8.00    0.0
2018/11/06 01:52:00.000  -74.425535257  163.418480633    64.5931   6  12   0.0491   0.0481   0.1630   0.0097  -0.0464  -0.0324   8.00    0.0
2018/11/06 01:52:30.000  -74.425535227  163.418479882    64.6053   6  12   0.0589   0.0575   0.1977   0.0098  -0.0566  -0.0422   8.00    0.0
2018/11/06 01:53:00.000  -74.425535189  163.418480487    64.6249   6  12   0.0492   0.0481   0.1620   0.0096  -0.0463  -0.0319   8.00    0.0
2018/11/06 01:53:30.000  -74.425535167  163.418480195    64.6349   6  12   0.0398   0.0390   0.1275   0.0094  -0.0365  -0.0209   8.00    0.0
2018/11/06 01:54:00.000  -74.425535501  163.418480125    64.6590   1  12   0.0392   0.0378   0.1283   0.0119  -0.0358  -0.0302   6.00    1.0
2018/11/06 01:54:30.000  -74.425535565  163.418480308    64.6513   1  12   0.0282   0.0270   0.0873   0.0122  -0.0231  -0.0200   6.00    1.0
2018/11/06 01:55:00.000  -74.425535527  163.418479901    64.6423   1  12   0.0221   0.0208   0.0621   0.0126  -0.0129  -0.0145   6.00    1.0
2018/11/06 01:55:30.000  -74.425535492  163.418480281    64.6409   1  12   0.0300   0.0289   0.1017   0.0133  -0.0318  -0.0230   6.00    1.0
2018/11/06 01:56:00.000  -74.425535086  163.418480757    64.6108   6  12   0.0330   0.0320   0.1049   0.0102  -0.0334   0.0066   8.00    0.0
2018/11/06 01:56:30.000  -74.425535200  163.418481084    64.5945   6  11   0.0435   0.0411   0.1412   0.0122  -0.0438  -0.0037   6.00    0.0
2018/11/06 01:57:00.000  -74.425535180  163.418481135    64.5889   6  11   0.0543   0.0511   0.1786   0.0130  -0.0556  -0.0098   6.00    0.0
2018/11/06 01:57:30.000  -74.425535111  163.418480757    64.6294   6  11   0.0660   0.0623   0.2198   0.0101  -0.0705   0.0122   6.00    0.0
2018/11/06 01:58:00.000  -74.425534945  163.418481325    64.5981   6  10   0.0567   0.0580   0.2088  -0.0135  -0.0781   0.0350   6.00    0.0
2018/11/06 01:58:30.000  -74.425534973  163.418481270    64.6092   6  10   0.0461   0.0476   0.1722   0.0053  -0.0656   0.0183   6.00    0.0
2018/11/06 01:59:00.000  -74.425535027  163.418481342    64.5437   6   9   0.0378   0.0387   0.1494   0.0158  -0.0581  -0.0294   5.00    0.0
2018/11/06 01:59:30.000  -74.425535493  163.418480478    64.5884   1   9   0.0324   0.0322   0.1254   0.0162  -0.0449  -0.0320   6.00    1.0
2018/11/06 02:00:00.000  -74.425535504  163.418479679    64.6573   1   9   0.0232   0.0225   0.0732   0.0138  -0.0205  -0.0206   6.00    1.0
2018/11/06 02:00:30.000  -74.425535337  163.418479740    64.6720   1   9   0.0326   0.0324   0.1274   0.0165  -0.0457  -0.0333   6.00    1.0
2018/11/06 02:01:00.000  -74.425534982  163.418480347    64.7034   6   9   0.0378   0.0392   0.1524   0.0165  -0.0599  -0.0309   5.00    0.0
2018/11/06 02:01:30.000  -74.425534996  163.418479625    64.7534   6   9   0.0504   0.0530   0.2139   0.0222  -0.0855  -0.0471   5.00    0.0
2018/11/06 02:02:00.000  -74.425535036  163.418480901    64.5975   6   9   0.0638   0.0676   0.2774   0.0284  -0.1119  -0.0631   5.00    0.0
2018/11/06 02:02:30.000  -74.425534992  163.418481012    64.5674   6   9   0.0776   0.0826   0.3416   0.0347  -0.1387  -0.0790   5.00    0.0
2018/11/06 02:03:00.000  -74.425535148  163.418480200    64.6509   6   9   0.0641   0.0680   0.2783   0.0290  -0.1129  -0.0640   5.00    0.0
2018/11/06 02:03:30.000  -74.425535022  163.418479809    64.6527   6   9   0.0507   0.0538   0.2159   0.0232  -0.0873  -0.0486   5.00    0.0
2018/11/06 02:04:00.000  -74.425535154  163.418479471    64.6772   6   9   0.0382   0.0400   0.1553   0.0175  -0.0621  -0.0330   5.00    0.0
2018/11/06 02:04:30.000  -74.425535546  163.418479388    64.7008   1   9   0.0333   0.0335   0.1331   0.0179  -0.0488  -0.0372   5.00    1.0
2018/11/06 02:05:00.000  -74.425535425  163.418479556    64.6433   1   9   0.0238   0.0233   0.0813   0.0149  -0.0247  -0.0256   5.00    1.0
2018/11/06 02:05:30.000  -74.425535385  163.418479230    64.6143   1   9   0.0338   0.0337   0.1365   0.0184  -0.0498  -0.0396   5.00    1.0
2018/11/06 02:06:00.000  -74.425535215  163.418479427    64.6878   6   9   0.0383   0.0404   0.1577   0.0181  -0.0634  -0.0348   5.00    0.0
2018/11/06 02:06:30.000  -74.425535406  163.418478521    64.7769   6   9   0.0510   0.0547   0.2186   0.0243  -0.0896  -0.0505   5.00    0.0
2018/11/06 02:07:00.000  -74.425535451  163.418478194    64.7802   6   9   0.0644   0.0696   0.2811   0.0308  -0.1164  -0.0660   5.00    0.0
2018/11/06 02:07:30.000  -74.425535452  163.418477993    64.8251   6   9   0.0782   0.0850   0.3442   0.0376  -0.1436  -0.0815   5.00    0.0
2018/11/06 02:08:00.000  -74.425535509  163.418478188    64.8898   6   9   0.0646   0.0700   0.2809   0.0311  -0.1170  -0.0657   5.00    0.0
2018/11/06 02:08:30.000  -74.425535714  163.418478170    64.9008   6   9   0.0512   0.0552   0.2188   0.0248  -0.0905  -0.0507   5.00    0.0
2018/11/06 02:09:00.000  -74.425535607  163.418478895    64.7960   6   9   0.0386   0.0411   0.1596   0.0189  -0.0648  -0.0361   5.00    0.0
2018/11/06 02:09:30.000  -74.425535275  163.418479637    64.6189   6   9   0.0279   0.0286   0.1068   0.0137  -0.0414  -0.0224   5.00    0.0
2018/11/06 02:10:00.000  -74.425535496  163.418479477    64.6659   1   9   0.0258   0.0245   0.0973   0.0168  -0.0306  -0.0350   5.00    1.0
2018/11/06 02:10:30.000  -74.425535307  163.418479244    64.6793   6   9   0.0289   0.0289   0.1159   0.0147  -0.0433  -0.0296   5.00    0.0
2018/11/06 02:11:00.000  -74.425535475  163.418478846    64.6801   6   8   0.0496   0.0433   0.2257   0.0279  -0.0797  -0.0795   4.00    0.0
2018/11/06 02:11:30.000  -74.425535393  163.418479134    64.5927   6   8   0.0690   0.0591   0.3239   0.0397  -0.1144  -0.1172   4.00    0.0
2018/11/06 02:12:00.000  -74.425535116  163.418479614    64.5950   6   9   0.0652   0.0690   0.2886   0.0286  -0.1134  -0.0718   4.00    0.0
2018/11/06 02:12:30.000  -74.425535028  163.418478870    64.7665   6   9   0.0766   0.0835   0.3391   0.0317  -0.1360  -0.0765   4.00    0.0
2018/11/06 02:13:00.000  -74.425535032  163.418478456    64.7634   6   9   0.0630   0.0690   0.2782   0.0270  -0.1116  -0.0627   4.00    0.0
2018/11/06 02:13:30.000  -74.425535061  163.418478352    64.7779   6   9   0.0500   0.0547   0.2183   0.0225  -0.0873  -0.0493   4.00    0.0
2018/11/06 02:14:00.000  -74.425535068  163.418478978    64.7550   6   9   0.0378   0.0410   0.1604   0.0181  -0.0637  -0.0360   4.00    0.0
2018/11/06 02:14:30.000  -74.425535272  163.418479845    64.5912   1   9   0.0306   0.0350   0.1285   0.0173  -0.0497  -0.0300   5.00    1.0
2018/11/06 02:15:00.000  -74.425535388  163.418479185    64.6617   1   9   0.0225   0.0253   0.0862   0.0162  -0.0303  -0.0257   5.00    1.0
2018/11/06 02:15:30.000  -74.425535406  163.418479923    64.5690   1   9   0.0306   0.0353   0.1300   0.0179  -0.0506  -0.0310   5.00    1.0
2018/11/06 02:16:00.000  -74.425535068  163.418480633    64.5099   6   9   0.0361   0.0410   0.1523   0.0175  -0.0625  -0.0285   4.00    0.0
2018/11/06 02:16:30.000  -74.425535057  163.418480300    64.5499   6   9   0.0475   0.0546   0.2074   0.0220  -0.0858  -0.0393   4.00    0.0
2018/11/06 02:17:00.000  -74.425535091  163.418480286    64.5887   6   9   0.0598   0.0691   0.2660   0.0271  -0.1104  -0.0514   4.00    0.0
2018/11/06 02:17:30.000  -74.425534994  163.418480939    64.5404   6   9   0.0725   0.0840   0.3265   0.0328  -0.1356  -0.0647   4.00    0.0
2018/11/06 02:18:00.000  -74.425534999  163.418481721    64.4881   6   9   0.0601   0.0695   0.2693   0.0287  -0.1117  -0.0553   4.00    0.0
2018/11/06 02:18:30.000  -74.425535048  163.418482110    64.4484   6   9   0.0479   0.0551   0.2118   0.0240  -0.0876  -0.0446   4.00    0.0
2018/11/06 02:19:00.000  -74.425535066  163.418480559    64.6551   6   9   0.0365   0.0415   0.1561   0.0195  -0.0642  -0.0335   4.00    0.0
2018/11/06 02:19:30.000  -74.425535269  163.418479252    64.6983   1   9   0.0310   0.0362   0.1354   0.0197  -0.0534  -0.0355   5.00    1.0
2018/11/06 02:20:00.000  -74.425535403  163.418479193    64.6780   1   9   0.0231   0.0271   0.0926   0.0178  -0.0348  -0.0295   5.00    1.0
2018/11/06 02:20:30.000  -74.425535500  163.418479499    64.6432   1   9   0.0313   0.0370   0.1379   0.0207  -0.0552  -0.0375   5.00    1.0
2018/11/06 02:21:00.000  -74.425535239  163.418479204    64.6865   6   9   0.0366   0.0416   0.1568   0.0206  -0.0647  -0.0359   4.00    0.0
2018/11/06 02:21:30.000  -74.425535296  163.418479080    64.6890   6   9   0.0484   0.0554   0.2149   0.0264  -0.0889  -0.0503   4.00    0.0
2018/11/06 02:22:00.000  -74.425535404  163.418478653    64.8228   6   9   0.0612   0.0700   0.2763   0.0330  -0.1142  -0.0660   4.00    0.0
2018/11/06 02:22:30.000  -74.425535212  163.418479874    64.6949   6   9   0.0745   0.0850   0.3392   0.0401  -0.1401  -0.0827   5.00    0.0
2018/11/06 02:23:00.000  -74.425535311  163.418480076    64.7005   6   9   0.0616   0.0700   0.2771   0.0337  -0.1145  -0.0677   5.00    0.0
2018/11/06 02:23:30.000  -74.425535306  163.418479936    64.7024   6   9   0.0490   0.0555   0.2164   0.0276  -0.0894  -0.0533   5.00    0.0
2018/11/06 02:24:00.000  -74.425535305  163.418479383    64.6959   6   9   0.0372   0.0418   0.1581   0.0219  -0.0653  -0.0391   5.00    0.0
2018/11/06 02:24:30.000  -74.425535242  163.418479281    64.7073   6   9   0.0273   0.0303   0.1071   0.0172  -0.0443  -0.0264   5.00    1.0
2018/11/06 02:25:00.000  -74.425535503  163.418478714    64.7694   1   9   0.0254   0.0311   0.1065   0.0221  -0.0447  -0.0383   5.00    1.0
2018/11/06 02:25:30.000  -74.425534935  163.418480112    64.6887   6   9   0.0283   0.0325   0.1122   0.0199  -0.0486  -0.0316   5.00    1.0
2018/11/06 02:26:00.000  -74.425534980  163.418480101    64.6859   6   9   0.0392   0.0458   0.1687   0.0272  -0.0733  -0.0489   5.00    0.0
2018/11/06 02:26:30.000  -74.425535046  163.418479607    64.6745   6   9   0.0524   0.0615   0.2339   0.0362  -0.1017  -0.0694   5.00    0.0
2018/11/06 02:27:00.000  -74.425535106  163.418479433    64.6954   6   9   0.0670   0.0792   0.3052   0.0470  -0.1333  -0.0929   5.00    0.0
2018/11/06 02:27:30.000  -74.425535030  163.418479758    64.6278   6   9   0.0834   0.1003   0.3870   0.0615  -0.1717  -0.1223   5.00    0.0
2018/11/06 02:28:00.000  -74.425535122  163.418478872    64.6905   6   9   0.0680   0.0802   0.3148   0.0490  -0.1375  -0.0983   4.00    0.0
2018/11/06 02:28:30.000  -74.425534957  163.418479021    64.6134   6   9   0.0528   0.0605   0.2377   0.0365  -0.1017  -0.0725   4.00    0.0
2018/11/06 02:29:00.000  -74.425534772  163.418479768    64.4866   6   9   0.0391   0.0437   0.1697   0.0263  -0.0712  -0.0503   4.00    0.0
2018/11/06 02:29:30.000  -74.425535343  163.418479297    64.6571   1   9   0.0305   0.0335   0.1338   0.0184  -0.0489  -0.0371   6.00    1.0
2018/11/06 02:30:00.000  -74.425535455  163.418478980    64.7548   1   9   0.0202   0.0231   0.0893   0.0133  -0.0272  -0.0244   6.00    1.0
2018/11/06 02:30:30.000  -74.425535231  163.418479775    64.6943   1   9   0.0306   0.0334   0.1335   0.0186  -0.0482  -0.0375   6.00    1.0
2018/11/06 02:31:00.000  -74.425534763  163.418480671    64.5349   6   9   0.0383   0.0402   0.1571   0.0238  -0.0630  -0.0459   5.00    0.0
2018/11/06 02:31:30.000  -74.425534811  163.418480581    64.4841   6   9   0.0514   0.0540   0.2156   0.0319  -0.0872  -0.0653   5.00    0.0
2018/11/06 02:32:00.000  -74.425534808  163.418480785    64.4771   6   9   0.0654   0.0684   0.2762   0.0404  -0.1121  -0.0855   4.00    0.0
2018/11/06 02:32:30.000  -74.425534740  163.418480396    64.5507   6   9   0.0799   0.0830   0.3376   0.0493  -0.1371  -0.1061   5.00    0.0
2018/11/06 02:33:00.000  -74.425534885  163.418480193    64.5833   6   9   0.0658   0.0682   0.2746   0.0408  -0.1112  -0.0869   4.00    0.0
2018/11/06 02:33:30.000  -74.425534686  163.418480877    64.5250   6   9   0.0520   0.0536   0.2129   0.0325  -0.0857  -0.0673   5.00    0.0
2018/11/06 02:34:00.000  -74.425535100  163.418479817    64.7077   6   9   0.0388   0.0397   0.1540   0.0243  -0.0610  -0.0477   5.00    0.0
2018/11/06 02:34:30.000  -74.425535611  163.418477689    64.9407   1   9   0.0330   0.0310   0.1316   0.0207  -0.0441  -0.0377   6.00    1.0
2018/11/06 02:35:00.000  -74.425535454  163.418478994    64.7958   1   9   0.0232   0.0202   0.0895   0.0155  -0.0207  -0.0223   6.00    1.0
2018/11/06 02:35:30.000  -74.425535648  163.418478390    64.9053   1   9   0.0332   0.0309   0.1314   0.0208  -0.0431  -0.0382   6.00    1.0
2018/11/06 02:36:00.000  -74.425535368  163.418477771    64.8712   6   9   0.0389   0.0385   0.1497   0.0239  -0.0579  -0.0474   5.00    0.0
2018/11/06 02:36:30.000  -74.425535219  163.418478276    64.7899   6   9   0.0526   0.0520   0.2058   0.0324  -0.0814  -0.0681   5.00    0.0
2018/11/06 02:37:00.000  -74.425535046  163.418479056    64.7494   6   9   0.0671   0.0660   0.2637   0.0414  -0.1052  -0.0892   5.00    0.0
2018/11/06 02:37:30.000  -74.425535408  163.418477737    64.9598   6   9   0.0821   0.0803   0.3219   0.0507  -0.1289  -0.1106   5.00    0.0
2018/11/06 02:38:00.000  -74.425535187  163.418478571    64.8173   6   9   0.0677   0.0657   0.2610   0.0418  -0.1040  -0.0898   5.00    0.0
2018/11/06 02:38:30.000  -74.425535157  163.418478112    64.8175   6   9   0.0533   0.0514   0.2016   0.0328  -0.0793  -0.0689   5.00    0.0
2018/11/06 02:39:00.000  -74.425534902  163.418479206    64.6693   6   9   0.0396   0.0379   0.1453   0.0242  -0.0553  -0.0483   5.00    0.0
2018/11/06 02:39:30.000  -74.425535314  163.418479756    64.7273   1   9   0.0341   0.0306   0.1291   0.0212  -0.0400  -0.0404   5.00    1.0
2018/11/06 02:40:00.000  -74.425535571  163.418478808    64.8189   1   9   0.0237   0.0203   0.0906   0.0157  -0.0164  -0.0248   5.00    1.0
2018/11/06 02:40:30.000  -74.425535469  163.418479079    64.8373   1   9   0.0346   0.0306   0.1347   0.0209  -0.0375  -0.0430   5.00    1.0
2018/11/06 02:41:00.000  -74.425535146  163.418478032    64.8501   6   9   0.0399   0.0370   0.1455   0.0234  -0.0513  -0.0494   5.00    0.0
2018/11/06 02:41:30.000  -74.425534868  163.418478737    64.7779   6   9   0.0542   0.0502   0.2005   0.0320  -0.0731  -0.0714   5.00    0.0
2018/11/06 02:42:00.000  -74.425535124  163.418478096    64.9085   6   9   0.0695   0.0639   0.2586   0.0409  -0.0947  -0.0945   5.00    0.0
2018/11/06 02:42:30.000  -74.425535181  163.418477927    64.8962   6   9   0.0857   0.0779   0.3220   0.0496  -0.1150  -0.1197   5.00    0.0
2018/11/06 02:43:00.000  -74.425535178  163.418478468    64.9666   6   8   0.0733   0.0640   0.2923   0.0385  -0.0861  -0.1100   4.00    0.0
2018/11/06 02:43:30.000  -74.425534983  163.418478813    64.8610   6   8   0.0576   0.0499   0.2255   0.0301  -0.0650  -0.0843   4.00    0.0
2018/11/06 02:44:00.000  -74.425535069  163.418478250    64.8982   6   8   0.0423   0.0365   0.1612   0.0222  -0.0445  -0.0587   4.00    0.0
2018/11/06 02:44:30.000  -74.425535456  163.418478398    64.9237   1   8   0.0360   0.0304   0.1411   0.0204  -0.0308  -0.0482   5.00    1.0
2018/11/06 02:45:00.000  -74.425535499  163.418478777    64.8285   1   8   0.0244   0.0205   0.0938   0.0155  -0.0085  -0.0280   5.00    1.0
2018/11/06 02:45:30.000  -74.425535267  163.418480109    64.7653   1   8   0.0361   0.0303   0.1408   0.0204  -0.0294  -0.0480   5.00    1.0
2018/11/06 02:46:00.000  -74.425535034  163.418479765    64.7928   6   8   0.0427   0.0359   0.1588   0.0216  -0.0412  -0.0590   4.00    0.0
2018/11/06 02:46:30.000  -74.425535012  163.418478989    64.8125   6   8   0.0588   0.0487   0.2213   0.0293  -0.0593  -0.0860   4.00    0.0
2018/11/06 02:47:00.000  -74.425535288  163.418478606    64.9362   6   8   0.0758   0.0621   0.2857   0.0372  -0.0772  -0.1135   4.00    0.0
2018/11/06 02:47:30.000  -74.425535424  163.418479326    64.9325   6   8   0.0932   0.0757   0.3503   0.0452  -0.0946  -0.1413   4.00    0.0
2018/11/06 02:48:00.000  -74.425535455  163.418478782    64.9382   6   8   0.0767   0.0618   0.2841   0.0369  -0.0748  -0.1148   4.00    0.0
2018/11/06 02:48:30.000  -74.425535665  163.418477816    65.0206   6   8   0.0600   0.0483   0.2188   0.0288  -0.0556  -0.0876   4.00    0.0
2018/11/06 02:49:00.000  -74.425535558  163.418478207    64.9079   6   9   0.0437   0.0354   0.1486   0.0211  -0.0366  -0.0622   4.00    0.0
2018/11/06 02:49:30.000  -74.425535742  163.418478484    64.8975   1   9   0.0371   0.0303   0.1276   0.0201  -0.0237  -0.0525   5.00    1.0
2018/11/06 02:50:00.000  -74.425535603  163.418478733    64.8371   1   9   0.0244   0.0210   0.0865   0.0155   0.0064  -0.0299   4.00    1.0
2018/11/06 02:50:30.000  -74.425535449  163.418478679    64.7856   1   9   0.0373   0.0308   0.1309   0.0203  -0.0188  -0.0521   5.00    1.0
2018/11/06 02:51:00.000  -74.425535037  163.418478035    64.8017   6   9   0.0441   0.0356   0.1463   0.0210  -0.0303  -0.0622   4.00    0.0
2018/11/06 02:51:30.000  -74.425535058  163.418478688    64.8132   6   9   0.0609   0.0487   0.2060   0.0288  -0.0431  -0.0901   4.00    0.0
2018/11/06 02:52:00.000  -74.425535034  163.418478765    64.8412   6   8   0.0787   0.0642   0.2784   0.0377  -0.0442  -0.1168   4.00    0.0
2018/11/06 02:52:30.000  -74.425535080  163.418478321    64.9576   6   8   0.0966   0.0785   0.3436   0.0456  -0.0530  -0.1453   4.00    0.0
2018/11/06 02:53:00.000  -74.425535166  163.418478262    64.9699   6   8   0.0786   0.0640   0.2804   0.0368  -0.0395  -0.1171   4.00    0.0
2018/11/06 02:53:30.000  -74.425534938  163.418478927    64.9264   6   8   0.0612   0.0499   0.2172   0.0284  -0.0267  -0.0893   4.00    0.0
2018/11/06 02:54:00.000  -74.425535331  163.418477773    64.9765   6   8   0.0444   0.0364   0.1554   0.0204  -0.0140  -0.0617   4.00    0.0
2018/11/06 02:54:30.000  -74.425535661  163.418478945    64.8923   1   8   0.0376   0.0314   0.1356   0.0196   0.0099  -0.0524   5.00    1.0
2018/11/06 02:55:00.000  -74.425535600  163.418478727    64.8335   1   8   0.0247   0.0218   0.0876   0.0152   0.0146  -0.0307   5.00    1.0
2018/11/06 02:55:30.000  -74.425535777  163.418478904    64.8916   1   8   0.0376   0.0314   0.1358   0.0193   0.0130  -0.0528   5.00    1.0
2018/11/06 02:56:00.000  -74.425535082  163.418479116    64.8066   6   8   0.0443   0.0363   0.1558   0.0192   0.0073  -0.0622   4.00    0.0
2018/11/06 02:56:30.000  -74.425534918  163.418480367    64.7581   6   8   0.0614   0.0497   0.2196   0.0257   0.0049  -0.0906   4.00    0.0
2018/11/06 02:57:00.000  -74.425534884  163.418479904    64.7490   6   9   0.0732   0.0616   0.2427   0.0233   0.0510  -0.0988   4.00    0.0
2018/11/06 02:57:30.000  -74.425535047  163.418479615    64.8190   6   9   0.0879   0.0748   0.2852   0.0238   0.0709  -0.1160   4.00    0.0
2018/11/06 02:58:00.000  -74.425534801  163.418479225    64.7899   6   9   0.0720   0.0615   0.2332   0.0195   0.0589  -0.0944   4.00    0.0
2018/11/06 02:58:30.000  -74.425534627  163.418479944    64.7146   6   9   0.0564   0.0482   0.1822   0.0158   0.0463  -0.0727   4.00    0.0
2018/11/06 02:59:00.000  -74.425534850  163.418480037    64.7657   6   9   0.0415   0.0355   0.1326   0.0129   0.0335  -0.0512   4.00    0.0
2018/11/06 02:59:30.000  -74.425534845  163.418480217    64.7550   6   9   0.0282   0.0244   0.0870   0.0104   0.0216  -0.0304   4.00    0.0
2018/11/06 03:00:00.000  -74.425535172  163.418478436    64.8107   6   9   0.0208   0.0185   0.0586   0.0085   0.0152  -0.0157   4.00    0.0
2018/11/06 03:00:30.000  -74.425534681  163.418479605    64.7401   6   9   0.0279   0.0244   0.0845   0.0096   0.0232  -0.0293   5.00    0.0
2018/11/06 03:01:00.000  -74.425534340  163.418480566    64.6713   6   9   0.0410   0.0356   0.1293   0.0103   0.0376  -0.0498   5.00    0.0
2018/11/06 03:01:30.000  -74.425534471  163.418480441    64.7130   6   9   0.0560   0.0486   0.1800   0.0102   0.0540  -0.0717   5.00    0.0
2018/11/06 03:02:00.000  -74.425534765  163.418479724    64.7057   6   9   0.0719   0.0623   0.2333   0.0090   0.0712  -0.0944   5.00    0.0
2018/11/06 03:02:30.000  -74.425534899  163.418479702    64.7694   6   9   0.0881   0.0764   0.2881   0.0057   0.0890  -0.1174   5.00    0.0
2018/11/06 03:03:00.000  -74.425535091  163.418479606    64.8351   6   9   0.0724   0.0629   0.2374   0.0048   0.0736  -0.0960   4.00    0.0
2018/11/06 03:03:30.000  -74.425535089  163.418479006    64.8263   6   9   0.0567   0.0493   0.1852   0.0062   0.0574  -0.0740   4.00    0.0
2018/11/06 03:04:00.000  -74.425535152  163.418478187    64.8452   6   9   0.0416   0.0363   0.1340   0.0075   0.0413  -0.0520   4.00    0.0
2018/11/06 03:04:30.000  -74.425535051  163.418479007    64.7970   6   9   0.0282   0.0249   0.0866   0.0082   0.0262  -0.0307   4.00    0.0
2018/11/06 03:05:00.000  -74.425535193  163.418478442    64.7994   6   9   0.0207   0.0187   0.0568   0.0078   0.0173  -0.0154   4.00    0.0
2018/11/06 03:05:30.000  -74.425535289  163.418480011    64.7983   1   9   0.0354   0.0331   0.1204   0.0099   0.0358  -0.0486   5.00    1.0
2018/11/06 03:06:00.000  -74.425535140  163.418480356    64.8557   6   9   0.0417   0.0366   0.1354   0.0046   0.0434  -0.0529   5.00    0.0
2018/11/06 03:06:30.000  -74.425535387  163.418479734    64.9410   6   9   0.0572   0.0502   0.1898  -0.0077   0.0618  -0.0764   5.00    0.0
2018/11/06 03:07:00.000  -74.425535393  163.418478461    64.9411   6   9   0.0734   0.0645   0.2464  -0.0138   0.0811  -0.1004   5.00    0.0
2018/11/06 03:07:30.000  -74.425535458  163.418477717    64.9292   6   9   0.0900   0.0791   0.3041  -0.0193   0.1009  -0.1248   5.00    0.0
2018/11/06 03:08:00.000  -74.425535410  163.418476846    64.8785   6   9   0.0735   0.0648   0.2479  -0.0152   0.0824  -0.1011   5.00    0.0
2018/11/06 03:08:30.000  -74.425535551  163.418476643    64.9506   6   9   0.0573   0.0507   0.1921  -0.0106   0.0640  -0.0776   5.00    0.0
2018/11/06 03:09:00.000  -74.425535680  163.418477277    64.9535   6   9   0.0418   0.0372   0.1374  -0.0043   0.0458  -0.0540   5.00    0.0
2018/11/06 03:09:30.000  -74.425535414  163.418478664    64.8487   1   9   0.0254   0.0228   0.0853  -0.0060   0.0264  -0.0344   5.00    1.0
2018/11/06 03:10:00.000  -74.425535250  163.418479049    64.7981   1   9   0.0165   0.0152   0.0531  -0.0044   0.0149  -0.0213   5.00    1.0
2018/11/06 03:10:30.000  -74.425535472  163.418479187    64.8754   1   9   0.0360   0.0338   0.1222   0.0060   0.0390  -0.0505   5.00    1.0
2018/11/06 03:11:00.000  -74.425535314  163.418479150    64.9150   6   9   0.0418   0.0375   0.1383  -0.0070   0.0474  -0.0546   5.00    0.0
2018/11/06 03:11:30.000  -74.425535195  163.418479855    64.9180   6   9   0.0576   0.0516   0.1948  -0.0141   0.0675  -0.0790   5.00    1.0
2018/11/06 03:12:00.000  -74.425535217  163.418479371    64.9245   6   9   0.0741   0.0664   0.2529  -0.0206   0.0884  -0.1038   5.00    0.0
2018/11/06 03:12:30.000  -74.425535411  163.418479269    64.9858   6   9   0.0909   0.0816   0.3118  -0.0269   0.1098  -0.1287   5.00    0.0
2018/11/06 03:13:00.000  -74.425535229  163.418479370    64.8953   6   9   0.0744   0.0671   0.2540  -0.0216   0.0899  -0.1043   5.00    0.0
2018/11/06 03:13:30.000  -74.425535147  163.418479511    64.8702   6   9   0.0580   0.0524   0.1961  -0.0158   0.0696  -0.0798   5.00    1.0
2018/11/06 03:14:00.000  -74.425535204  163.418478748    64.8370   6   9   0.0422   0.0383   0.1395  -0.0092   0.0496  -0.0554   5.00    1.0
2018/11/06 03:14:30.000  -74.425535036  163.418478436    64.7669   1   9   0.0364   0.0388   0.1211   0.0131   0.0480  -0.0457   5.00    1.0
2018/11/06 03:15:00.000  -74.425535123  163.418478559    64.8234   1  10   0.0240   0.0302   0.0748   0.0151   0.0344  -0.0234   5.00    1.0
2018/11/06 03:15:30.000  -74.425535019  163.418478803    64.8156   1  10   0.0354   0.0352   0.1042   0.0165   0.0366  -0.0405   5.00    1.0
2018/11/06 03:16:00.000  -74.425535253  163.418479026    64.7745   6  10   0.0406   0.0297   0.1080   0.0131   0.0197  -0.0456   5.00    1.0
2018/11/06 03:16:30.000  -74.425535326  163.418478919    64.7969   6  10   0.0554   0.0388   0.1472   0.0173   0.0209  -0.0650   5.00    1.0
2018/11/06 03:17:00.000  -74.425535100  163.418479360    64.7755   6  10   0.0711   0.0485   0.1883   0.0217   0.0232  -0.0847   5.00    1.0
2018/11/06 03:17:30.000  -74.425535176  163.418478829    64.8157   6  10   0.0870   0.0586   0.2304   0.0260   0.0267  -0.1047   5.00    1.0
2018/11/06 03:18:00.000  -74.425535183  163.418478790    64.7971   6  10   0.0708   0.0484   0.1885   0.0208   0.0263  -0.0845   5.00    1.0
2018/11/06 03:18:30.000  -74.425535408  163.418478847    64.8689   6  10   0.0552   0.0387   0.1473   0.0161   0.0243  -0.0648   5.00    1.0
2018/11/06 03:19:00.000  -74.425535472  163.418478808    64.8489   6  10   0.0404   0.0296   0.1077   0.0120   0.0219  -0.0454   5.00    1.0
2018/11/06 03:19:30.000  -74.425534950  163.418479040    64.7801   1  10   0.0348   0.0346   0.1003   0.0157   0.0352  -0.0394   5.00    1.0
2018/11/06 03:20:00.000  -74.425535030  163.418478495    64.8106   1  10   0.0232   0.0293   0.0679   0.0148   0.0309  -0.0221   5.00    1.0
2018/11/06 03:20:30.000  -74.425535155  163.418478067    64.8130   1  10   0.0345   0.0341   0.0981   0.0157   0.0340  -0.0388   5.00    1.0
2018/11/06 03:21:00.000  -74.425535364  163.418478657    64.7747   6  10   0.0403   0.0295   0.1071   0.0116   0.0225  -0.0452   5.00    1.0
2018/11/06 03:21:30.000  -74.425535448  163.418479078    64.7650   6  10   0.0551   0.0387   0.1468   0.0149   0.0275  -0.0646   5.00    1.0
2018/11/06 03:22:00.000  -74.425535458  163.418479067    64.7866   6  10   0.0706   0.0486   0.1884   0.0183   0.0336  -0.0844   5.00    1.0
2018/11/06 03:22:30.000  -74.425535404  163.418479126    64.7813   6  10   0.0864   0.0588   0.2306   0.0216   0.0407  -0.1042   5.00    1.0
2018/11/06 03:23:00.000  -74.425535570  163.418479299    64.8178   6  10   0.0709   0.0488   0.1891   0.0178   0.0352  -0.0850   5.00    1.0
2018/11/06 03:23:30.000  -74.425535433  163.418480093    64.7983   6  10   0.0553   0.0390   0.1474   0.0141   0.0297  -0.0652   5.00    1.0
2018/11/06 03:24:00.000  -74.425535351  163.418479662    64.7836   6  10   0.0405   0.0298   0.1074   0.0109   0.0243  -0.0458   5.00    1.0
2018/11/06 03:24:30.000  -74.425535177  163.418478099    64.8012   1  10   0.0347   0.0342   0.0974   0.0149   0.0339  -0.0397   5.00    1.0
2018/11/06 03:25:00.000  -74.425535023  163.418478339    64.8006   1  10   0.0230   0.0292   0.0660   0.0139   0.0298  -0.0231   5.00    1.0
2018/11/06 03:25:30.000  -74.425535107  163.418478351    64.8195   1  10   0.0345   0.0340   0.0964   0.0147   0.0335  -0.0394   5.00    1.0
2018/11/06 03:26:00.000  -74.425535203  163.418479285    64.8127   6  10   0.0404   0.0298   0.1071   0.0103   0.0254  -0.0457   5.00    1.0
2018/11/06 03:26:30.000  -74.425535199  163.418479021    64.7529   6  10   0.0551   0.0392   0.1466   0.0126   0.0328  -0.0648   4.00    1.0
2018/11/06 03:27:00.000  -74.425535213  163.418478830    64.7698   6  10   0.0705   0.0493   0.1877   0.0149   0.0413  -0.0841   4.00    1.0
2018/11/06 03:27:30.000  -74.425535266  163.418478886    64.7772   6  10   0.0861   0.0598   0.2293   0.0171   0.0506  -0.1035   4.00    1.0
2018/11/06 03:28:00.000  -74.425535207  163.418478733    64.7805   6  10   0.0704   0.0494   0.1870   0.0143   0.0422  -0.0839   4.00    1.0
2018/11/06 03:28:30.000  -74.425535133  163.418478544    64.7432   6  10   0.0550   0.0394   0.1457   0.0117   0.0343  -0.0645   4.00    1.0
2018/11/06 03:29:00.000  -74.425535105  163.418478225    64.7915   6  11   0.0392   0.0296   0.1022   0.0065   0.0292  -0.0423   4.00    1.0
