% program   : RTKLIB ver.2.4.3
% inp file  : _by_type/_obs/hillary/20181111_20181113.18o
% inp file  : _by_type/_sp3+clk/igs20270.clk
% inp file  : _by_type/_sp3+clk/igs20270.sp3
% inp file  : _by_type/_nav/hillary/20181111_20181113.18n
% obs start : 2018/11/11 00:00:00.0 GPST (week2027      0.0s)
% obs end   : 2018/11/13 23:59:45.0 GPST (week2027 259185.0s)
% pos mode  : ppp-kinematic
% solution  : combined
% elev mask : 15.0 deg
% dynamics  : off
% tidecorr  : on
% tropo opt : est ztd+grad
% ephemeris : precise
% navi sys  : gps glonass
% antenna1  :                       ( 0.0000  0.0000  0.0000)
%
% (lat/lon/height=WGS84/ellipsoidal,Q=1:fix,2:float,3:sbas,4:dgps,5:single,6:ppp,ns=# of satellites)
%  GPST                  latitude(deg) longitude(deg)  height(m)   Q  ns   sdn(m)   sde(m)   sdu(m)  sdne(m)  sdeu(m)  sdun(m) age(s)  ratio
2018/11/11 00:00:00.000  -74.393412085  163.452933389    97.5987   1  10   0.0260   0.0254   0.0663  -0.0206   0.0168  -0.0213   4.00    1.0
2018/11/11 00:00:15.000  -74.393411979  163.452932806    97.5590   6  10   0.0301   0.0308   0.0799  -0.0200   0.0263  -0.0233   0.00    0.0
2018/11/11 00:00:30.000  -74.393412041  163.452932721    97.5589   6  10   0.0357   0.0376   0.1029  -0.0244   0.0371  -0.0311   0.00    0.0
2018/11/11 00:00:45.000  -74.393412068  163.452933044    97.5629   6  10   0.0396   0.0417   0.1303  -0.0239   0.0471  -0.0378   0.00    0.0
2018/11/11 00:01:00.000  -74.393411963  163.452932691    97.5359   6  10   0.0468   0.0498   0.1605  -0.0281   0.0596  -0.0473   1.00    0.0
2018/11/11 00:01:15.000  -74.393411959  163.452932519    97.5423   6  10   0.0544   0.0584   0.1918  -0.0326   0.0724  -0.0571   1.00    0.0
2018/11/11 00:01:30.000  -74.393411955  163.452932550    97.5500   6  10   0.0623   0.0672   0.2237  -0.0373   0.0852  -0.0669   1.00    0.0
2018/11/11 00:01:45.000  -74.393412005  163.452932464    97.5735   6  10   0.0703   0.0760   0.2556  -0.0419   0.0978  -0.0767   1.00    0.0
2018/11/11 00:02:00.000  -74.393411922  163.452932139    97.4866   6  10   0.0783   0.0847   0.2873  -0.0466   0.1101  -0.0864   1.00    0.0
2018/11/11 00:02:15.000  -74.393412021  163.452932203    97.5197   6  10   0.0862   0.0933   0.3185  -0.0510   0.1222  -0.0960   2.00    0.0
2018/11/11 00:02:30.000  -74.393412025  163.452931709    97.5243   6  10   0.0939   0.1016   0.3491  -0.0554   0.1338  -0.1053   2.00    0.0
2018/11/11 00:02:45.000  -74.393412159  163.452932099    97.5571   6  10   0.0856   0.0928   0.3184  -0.0509   0.1221  -0.0960   2.00    0.0
2018/11/11 00:03:00.000  -74.393412092  163.452931915    97.5048   6  10   0.0776   0.0841   0.2879  -0.0463   0.1103  -0.0867   3.00    0.0
2018/11/11 00:03:15.000  -74.393412165  163.452931672    97.4869   6  10   0.0696   0.0753   0.2572  -0.0417   0.0983  -0.0774   3.00    0.0
2018/11/11 00:03:30.000  -74.393412191  163.452932319    97.5517   6  10   0.0617   0.0666   0.2262  -0.0372   0.0862  -0.0679   3.00    0.0
2018/11/11 00:03:45.000  -74.393412281  163.452932548    97.5972   6  10   0.0540   0.0581   0.1951  -0.0327   0.0740  -0.0584   4.00    0.0
2018/11/11 00:04:00.000  -74.393412311  163.452932873    97.6159   6  10   0.0465   0.0497   0.1643  -0.0284   0.0616  -0.0490   4.00    0.0
2018/11/11 00:04:15.000  -74.393412195  163.452932890    97.5630   6  10   0.0396   0.0417   0.1342  -0.0243   0.0494  -0.0396   5.00    0.0
2018/11/11 00:04:30.000  -74.393412201  163.452933226    97.5679   6  10   0.0335   0.0346   0.1059  -0.0207   0.0375  -0.0308   5.00    0.0
2018/11/11 00:04:45.000  -74.393412160  163.452933289    97.5669   6  10   0.0289   0.0291   0.0821  -0.0180   0.0270  -0.0231   4.00    0.0
2018/11/11 00:05:00.000  -74.393412125  163.452933060    97.5763   6  10   0.0267   0.0264   0.0688  -0.0166   0.0206  -0.0185   5.00    0.0
2018/11/11 00:05:15.000  -74.393412088  163.452933145    97.5649   6  10   0.0292   0.0293   0.0824  -0.0185   0.0274  -0.0234   5.00    0.0
2018/11/11 00:05:30.000  -74.393412201  163.452933094    97.5924   6  10   0.0338   0.0349   0.1065  -0.0212   0.0382  -0.0312   5.00    0.0
2018/11/11 00:05:45.000  -74.393412258  163.452933253    97.6152   6  10   0.0397   0.0419   0.1349  -0.0248   0.0500  -0.0400   5.00    0.0
2018/11/11 00:06:00.000  -74.393412186  163.452932963    97.5709   6  10   0.0465   0.0496   0.1649  -0.0285   0.0620  -0.0490   5.00    0.0
2018/11/11 00:06:15.000  -74.393412238  163.452933018    97.5793   6  10   0.0535   0.0575   0.1951  -0.0324   0.0739  -0.0579   5.00    0.0
2018/11/11 00:06:30.000  -74.393412220  163.452932786    97.5490   6  10   0.0607   0.0655   0.2250  -0.0363   0.0853  -0.0664   5.00    0.0
2018/11/11 00:06:45.000  -74.393412116  163.452932520    97.5367   6  10   0.0679   0.0734   0.2541  -0.0400   0.0963  -0.0747   5.00    0.0
2018/11/11 00:07:00.000  -74.393412076  163.452932855    97.4986   6  10   0.0749   0.0811   0.2826  -0.0437   0.1068  -0.0827   6.00    0.0
2018/11/11 00:07:15.000  -74.393412067  163.452932041    97.4512   6  10   0.0819   0.0886   0.3103  -0.0472   0.1171  -0.0904   5.00    0.0
2018/11/11 00:07:30.000  -74.393412143  163.452931773    97.3968   6  10   0.0886   0.0960   0.3375  -0.0507   0.1270  -0.0980   6.00    0.0
2018/11/11 00:07:45.000  -74.393412184  163.452932109    97.4327   6  10   0.0818   0.0882   0.3111  -0.0471   0.1170  -0.0909   6.00    0.0
2018/11/11 00:08:00.000  -74.393412205  163.452932594    97.4945   6  10   0.0747   0.0805   0.2841  -0.0434   0.1069  -0.0834   6.00    0.0
2018/11/11 00:08:15.000  -74.393412199  163.452932244    97.4809   6  10   0.0676   0.0727   0.2562  -0.0397   0.0965  -0.0756   6.00    0.0
2018/11/11 00:08:30.000  -74.393412198  163.452932124    97.4758   6  10   0.0604   0.0649   0.2276  -0.0360   0.0858  -0.0674   6.00    0.0
2018/11/11 00:08:45.000  -74.393412128  163.452932267    97.4589   6  10   0.0533   0.0570   0.1981  -0.0322   0.0746  -0.0590   6.00    0.0
2018/11/11 00:09:00.000  -74.393412186  163.452932224    97.4809   6  10   0.0464   0.0492   0.1682  -0.0285   0.0630  -0.0503   6.00    0.0
2018/11/11 00:09:15.000  -74.393412179  163.452932213    97.4656   6  10   0.0399   0.0416   0.1382  -0.0248   0.0513  -0.0414   6.00    0.0
2018/11/11 00:09:30.000  -74.393412145  163.452932525    97.4993   6  11   0.0337   0.0348   0.1059  -0.0216   0.0395  -0.0350   6.00    0.0
2018/11/11 00:09:45.000  -74.393412182  163.452932993    97.5689   6  11   0.0295   0.0296   0.0831  -0.0190   0.0291  -0.0264   6.00    0.0
2018/11/11 00:10:00.000  -74.393412203  163.452933223    97.5830   6  11   0.0274   0.0270   0.0702  -0.0179   0.0229  -0.0213   6.00    0.0
2018/11/11 00:10:15.000  -74.393412146  163.452932882    97.5306   6  11   0.0296   0.0297   0.0830  -0.0193   0.0292  -0.0265   6.00    0.0
2018/11/11 00:10:30.000  -74.393412230  163.452932805    97.5384   6  11   0.0337   0.0349   0.1053  -0.0217   0.0392  -0.0345   6.00    0.0
2018/11/11 00:10:45.000  -74.393412309  163.452932569    97.5536   6  11   0.0388   0.0414   0.1309  -0.0245   0.0501  -0.0433   6.00    0.0
2018/11/11 00:11:00.000  -74.393412314  163.452932496    97.5414   6  11   0.0445   0.0485   0.1572  -0.0275   0.0609  -0.0520   6.00    0.0
2018/11/11 00:11:15.000  -74.393412340  163.452932084    97.5393   6  11   0.0505   0.0557   0.1833  -0.0304   0.0713  -0.0603   6.00    0.0
2018/11/11 00:11:30.000  -74.393412456  163.452932814    97.6032   6  11   0.0566   0.0630   0.2091  -0.0334   0.0815  -0.0684   6.00    0.0
2018/11/11 00:11:45.000  -74.393412358  163.452932237    97.5510   6  11   0.0628   0.0703   0.2345  -0.0364   0.0914  -0.0764   6.00    0.0
2018/11/11 00:12:00.000  -74.393412373  163.452931977    97.5615   6  11   0.0689   0.0774   0.2598  -0.0395   0.1013  -0.0843   6.00    0.0
2018/11/11 00:12:15.000  -74.393412447  163.452931947    97.6037   6  11   0.0750   0.0845   0.2849  -0.0427   0.1111  -0.0923   6.00    0.0
2018/11/11 00:12:30.000  -74.393412477  163.452931666    97.6004   6  11   0.0811   0.0915   0.3100  -0.0461   0.1210  -0.1005   6.00    0.0
2018/11/11 00:12:45.000  -74.393412458  163.452931912    97.6359   6  11   0.0746   0.0842   0.2842  -0.0423   0.1105  -0.0918   6.00    0.0
2018/11/11 00:13:00.000  -74.393412436  163.452932397    97.6696   6  11   0.0684   0.0769   0.2595  -0.0390   0.1007  -0.0838   6.00    0.0
2018/11/11 00:13:15.000  -74.393412434  163.452932882    97.6852   6  11   0.0621   0.0697   0.2344  -0.0358   0.0908  -0.0758   6.00    0.0
2018/11/11 00:13:30.000  -74.393412364  163.452933344    97.6771   6  11   0.0559   0.0624   0.2090  -0.0327   0.0808  -0.0677   6.00    0.0
2018/11/11 00:13:45.000  -74.393412317  163.452933114    97.6254   6  11   0.0498   0.0550   0.1832  -0.0296   0.0706  -0.0595   6.00    0.0
2018/11/11 00:14:00.000  -74.393412378  163.452933345    97.6362   6  11   0.0439   0.0478   0.1570  -0.0267   0.0602  -0.0512   6.00    0.0
2018/11/11 00:14:15.000  -74.393412346  163.452933496    97.6368   6  11   0.0383   0.0408   0.1307  -0.0239   0.0495  -0.0426   6.00    0.0
2018/11/11 00:14:30.000  -74.393412361  163.452933545    97.6437   6  11   0.0334   0.0345   0.1054  -0.0213   0.0390  -0.0342   6.00    0.0
2018/11/11 00:14:45.000  -74.393412290  163.452933512    97.6125   6  11   0.0297   0.0295   0.0838  -0.0193   0.0295  -0.0267   6.00    0.0
2018/11/11 00:15:00.000  -74.393412253  163.452933394    97.5862   6  11   0.0279   0.0272   0.0721  -0.0183   0.0242  -0.0223   6.00    0.0
2018/11/11 00:15:15.000  -74.393412221  163.452933359    97.5582   6  11   0.0295   0.0295   0.0826  -0.0192   0.0291  -0.0259   6.00    0.0
2018/11/11 00:15:30.000  -74.393412246  163.452933117    97.5471   6  11   0.0330   0.0342   0.1027  -0.0210   0.0376  -0.0323   6.00    0.0
2018/11/11 00:15:45.000  -74.393412154  163.452932329    97.5043   6  11   0.0376   0.0402   0.1256  -0.0229   0.0470  -0.0393   6.00    0.0
2018/11/11 00:16:00.000  -74.393412230  163.452932385    97.5439   6  11   0.0427   0.0467   0.1496  -0.0251   0.0565  -0.0464   6.00    0.0
2018/11/11 00:16:15.000  -74.393412198  163.452932173    97.5335   6  11   0.0483   0.0535   0.1739  -0.0275   0.0661  -0.0537   5.00    0.0
2018/11/11 00:16:30.000  -74.393412209  163.452932033    97.5279   6  11   0.0540   0.0605   0.1986  -0.0302   0.0759  -0.0612   5.00    0.0
2018/11/11 00:16:45.000  -74.393412388  163.452932198    97.5806   6  11   0.0599   0.0674   0.2234  -0.0331   0.0857  -0.0690   5.00    0.0
2018/11/11 00:17:00.000  -74.393412584  163.452932470    97.6351   6  11   0.0658   0.0744   0.2485  -0.0362   0.0957  -0.0771   5.00    0.0
2018/11/11 00:17:15.000  -74.393412729  163.452932251    97.6907   6  11   0.0717   0.0813   0.2737  -0.0395   0.1058  -0.0854   5.00    0.0
2018/11/11 00:17:30.000  -74.393412887  163.452932492    97.7568   6  11   0.0776   0.0881   0.2991  -0.0430   0.1160  -0.0939   5.00    0.0
2018/11/11 00:17:45.000  -74.393412806  163.452932826    97.7474   6  11   0.0717   0.0814   0.2748  -0.0398   0.1064  -0.0859   5.00    0.0
2018/11/11 00:18:00.000  -74.393412711  163.452932796    97.7019   6  11   0.0657   0.0743   0.2496  -0.0363   0.0962  -0.0775   5.00    0.0
2018/11/11 00:18:15.000  -74.393412555  163.452932533    97.6366   6  11   0.0597   0.0672   0.2245  -0.0331   0.0861  -0.0693   5.00    0.0
2018/11/11 00:18:30.000  -74.393412490  163.452932695    97.6239   6  11   0.0538   0.0602   0.1995  -0.0300   0.0761  -0.0614   5.00    0.0
2018/11/11 00:18:45.000  -74.393412456  163.452932628    97.5756   6  11   0.0480   0.0532   0.1747  -0.0272   0.0662  -0.0537   5.00    0.0
2018/11/11 00:19:00.000  -74.393412447  163.452933063    97.5744   6  11   0.0424   0.0463   0.1501  -0.0247   0.0564  -0.0462   5.00    0.0
2018/11/11 00:19:15.000  -74.393412453  163.452933123    97.5405   6  11   0.0373   0.0398   0.1261  -0.0225   0.0468  -0.0389   5.00    0.0
2018/11/11 00:19:30.000  -74.393412400  163.452933590    97.5729   6  11   0.0328   0.0339   0.1033  -0.0206   0.0375  -0.0320   5.00    0.0
2018/11/11 00:19:45.000  -74.393412332  163.452933385    97.5919   6  11   0.0294   0.0293   0.0836  -0.0190   0.0292  -0.0257   5.00    0.0
2018/11/11 00:20:00.000  -74.393412345  163.452933204    97.6147   6  11   0.0277   0.0270   0.0725  -0.0179   0.0241  -0.0215   5.00    0.0
2018/11/11 00:20:15.000  -74.393412379  163.452933135    97.6249   6  11   0.0293   0.0292   0.0827  -0.0187   0.0285  -0.0249   5.00    0.0
2018/11/11 00:20:30.000  -74.393412351  163.452933282    97.5950   6  11   0.0325   0.0335   0.1005  -0.0199   0.0359  -0.0302   5.00    0.0
2018/11/11 00:20:45.000  -74.393412306  163.452933379    97.5832   6  11   0.0368   0.0391   0.1215  -0.0215   0.0443  -0.0362   5.00    0.0
2018/11/11 00:21:00.000  -74.393412434  163.452933556    97.6407   6  11   0.0417   0.0453   0.1440  -0.0234   0.0533  -0.0428   5.00    0.0
2018/11/11 00:21:15.000  -74.393412314  163.452932326    97.5345   6  11   0.0471   0.0519   0.1675  -0.0257   0.0627  -0.0499   5.00    0.0
2018/11/11 00:21:30.000  -74.393412427  163.452932588    97.5934   6  11   0.0526   0.0585   0.1916  -0.0283   0.0723  -0.0574   5.00    0.0
2018/11/11 00:21:45.000  -74.393412485  163.452932609    97.6040   6  11   0.0583   0.0653   0.2160  -0.0312   0.0821  -0.0653   5.00    0.0
2018/11/11 00:22:00.000  -74.393412556  163.452932227    97.6071   6  11   0.0640   0.0720   0.2407  -0.0343   0.0921  -0.0735   5.00    0.0
2018/11/11 00:22:15.000  -74.393412592  163.452932313    97.6045   6  11   0.0698   0.0787   0.2655  -0.0376   0.1020  -0.0818   5.00    0.0
2018/11/11 00:22:30.000  -74.393412454  163.452931925    97.5678   6  11   0.0755   0.0853   0.2904  -0.0410   0.1121  -0.0903   5.00    0.0
2018/11/11 00:22:45.000  -74.393412456  163.452931978    97.5531   6  11   0.0699   0.0786   0.2661  -0.0375   0.1019  -0.0823   5.00    0.0
2018/11/11 00:23:00.000  -74.393412459  163.452932122    97.5351   6  11   0.0641   0.0717   0.2409  -0.0340   0.0916  -0.0737   5.00    0.0
2018/11/11 00:23:15.000  -74.393412446  163.452932109    97.5358   6  11   0.0582   0.0649   0.2159  -0.0307   0.0814  -0.0653   5.00    0.0
2018/11/11 00:23:30.000  -74.393412290  163.452931584    97.4645   6  11   0.0525   0.0580   0.1913  -0.0277   0.0714  -0.0573   5.00    0.0
2018/11/11 00:23:45.000  -74.393412387  163.452931550    97.4933   6  11   0.0469   0.0513   0.1671  -0.0250   0.0617  -0.0497   5.00    0.0
2018/11/11 00:24:00.000  -74.393412335  163.452931527    97.4716   6  11   0.0416   0.0447   0.1437  -0.0226   0.0522  -0.0426   5.00    0.0
2018/11/11 00:24:15.000  -74.393412266  163.452931951    97.4642   6  11   0.0367   0.0385   0.1214  -0.0207   0.0431  -0.0360   5.00    0.0
2018/11/11 00:24:30.000  -74.393412434  163.452933712    97.5571   1  11   0.0379   0.0353   0.1189  -0.0266   0.0430  -0.0465   6.00    1.0
2018/11/11 00:24:45.000  -74.393412448  163.452933492    97.5510   1  11   0.0339   0.0295   0.0949  -0.0242   0.0317  -0.0387   6.00    1.0
2018/11/11 00:25:00.000  -74.393412376  163.452932916    97.5716   6  11   0.0275   0.0263   0.0741  -0.0170   0.0227  -0.0210   5.00    0.0
2018/11/11 00:25:15.000  -74.393412545  163.452933142    97.6116   6  11   0.0293   0.0283   0.0846  -0.0175   0.0265  -0.0253   5.00    0.0
2018/11/11 00:25:30.000  -74.393412675  163.452933092    97.6451   6  11   0.0330   0.0325   0.1029  -0.0186   0.0335  -0.0320   5.00    0.0
2018/11/11 00:25:45.000  -74.393412646  163.452932666    97.5796   6  11   0.0378   0.0378   0.1244  -0.0202   0.0418  -0.0397   5.00    0.0
2018/11/11 00:26:00.000  -74.393412755  163.452932556    97.5993   6  11   0.0434   0.0438   0.1480  -0.0223   0.0509  -0.0482   5.00    0.0
2018/11/11 00:26:15.000  -74.393412853  163.452932581    97.6594   6  11   0.0494   0.0501   0.1732  -0.0249   0.0605  -0.0577   5.00    0.0
2018/11/11 00:26:30.000  -74.393412864  163.452931988    97.6389   6  11   0.0561   0.0566   0.2003  -0.0281   0.0706  -0.0684   5.00    0.0
2018/11/11 00:26:45.000  -74.393412824  163.452931041    97.5727   6  11   0.0635   0.0632   0.2304  -0.0320   0.0815  -0.0814   5.00    0.0
2018/11/11 00:27:00.000  -74.393412889  163.452930975    97.5722   6  11   0.0729   0.0700   0.2673  -0.0371   0.0939  -0.0994   5.00    0.0
2018/11/11 00:27:15.000  -74.393413110  163.452931289    97.6579   6  11   0.0845   0.0800   0.3273  -0.0497   0.1202  -0.1276   4.00    0.0
2018/11/11 00:27:30.000  -74.393413128  163.452932054    97.6912   6  11   0.0875   0.0852   0.3374  -0.0499   0.1240  -0.1279   4.00    0.0
2018/11/11 00:27:45.000  -74.393413084  163.452932422    97.6923   6  11   0.0823   0.0783   0.3133  -0.0460   0.1132  -0.1202   4.00    0.0
2018/11/11 00:28:00.000  -74.393412956  163.452931963    97.6584   6  11   0.0800   0.0717   0.3012  -0.0440   0.1054  -0.1205   4.00    0.0
2018/11/11 00:28:15.000  -74.393412890  163.452932225    97.6477   6  11   0.0817   0.0676   0.3116  -0.0477   0.1083  -0.1322   4.00    0.0
2018/11/11 00:28:30.000  -74.393412664  163.452932227    97.5777   6  11   0.0723   0.0602   0.2728  -0.0418   0.0941  -0.1148   4.00    0.0
2018/11/11 00:28:45.000  -74.393412606  163.452932330    97.5498   6  11   0.0534   0.0518   0.1951  -0.0305   0.0704  -0.0719   4.00    0.0
2018/11/11 00:29:00.000  -74.393412491  163.452932403    97.5281   6  11   0.0469   0.0446   0.1660  -0.0259   0.0574  -0.0607   4.00    0.0
2018/11/11 00:29:15.000  -74.393412367  163.452932463    97.4752   6  11   0.0426   0.0382   0.1480  -0.0231   0.0475  -0.0562   4.00    0.0
2018/11/11 00:29:30.000  -74.393412438  163.452933004    97.5358   6  11   0.0335   0.0327   0.1045  -0.0198   0.0361  -0.0333   4.00    0.0
2018/11/11 00:29:45.000  -74.393412435  163.452932917    97.5395   6  11   0.0292   0.0280   0.0842  -0.0172   0.0266  -0.0242   4.00    0.0
2018/11/11 00:30:00.000  -74.393412334  163.452933012    97.5262   6  11   0.0272   0.0257   0.0742  -0.0158   0.0214  -0.0190   4.00    0.0
2018/11/11 00:30:15.000  -74.393412332  163.452933050    97.5452   6  11   0.0288   0.0277   0.0833  -0.0161   0.0248  -0.0225   4.00    0.0
2018/11/11 00:30:30.000  -74.393412394  163.452933026    97.5576   6  11   0.0324   0.0318   0.1001  -0.0168   0.0311  -0.0291   4.00    0.0
2018/11/11 00:30:45.000  -74.393412461  163.452932770    97.5645   6  11   0.0371   0.0371   0.1200  -0.0180   0.0387  -0.0364   4.00    0.0
2018/11/11 00:31:00.000  -74.393412476  163.452932078    97.5347   6  11   0.0424   0.0429   0.1419  -0.0197   0.0471  -0.0446   4.00    0.0
2018/11/11 00:31:15.000  -74.393412564  163.452932016    97.5689   6  11   0.0482   0.0489   0.1655  -0.0221   0.0560  -0.0536   4.00    0.0
2018/11/11 00:31:30.000  -74.393412570  163.452931934    97.5705   6  11   0.0545   0.0551   0.1910  -0.0250   0.0655  -0.0639   4.00    0.0
2018/11/11 00:31:45.000  -74.393412586  163.452931858    97.5903   6  11   0.0616   0.0614   0.2192  -0.0286   0.0755  -0.0763   4.00    0.0
2018/11/11 00:32:00.000  -74.393412606  163.452931723    97.5739   6  11   0.0703   0.0679   0.2538  -0.0333   0.0869  -0.0931   4.00    0.0
2018/11/11 00:32:15.000  -74.393412530  163.452931730    97.5523   6  11   0.1018   0.0802   0.3899  -0.0584   0.1328  -0.1699   4.00    0.0
2018/11/11 00:32:30.000  -74.393412573  163.452931791    97.5763   6  11   0.0928   0.0841   0.3546  -0.0523   0.1260  -0.1427   4.00    0.0
2018/11/11 00:32:45.000  -74.393412665  163.452932347    97.6240   6  11   0.0851   0.0770   0.3202  -0.0462   0.1122  -0.1283   4.00    0.0
2018/11/11 00:33:00.000  -74.393412707  163.452931876    97.6607   6  11   0.0817   0.0708   0.3045  -0.0431   0.1034  -0.1254   4.00    0.0
2018/11/11 00:33:15.000  -74.393412835  163.452931909    97.6980   6  11   0.0823   0.0669   0.3092  -0.0449   0.1042  -0.1330   4.00    0.0
2018/11/11 00:33:30.000  -74.393412719  163.452931399    97.6381   6  11   0.0611   0.0607   0.2217  -0.0299   0.0794  -0.0839   4.00    0.0
2018/11/11 00:33:45.000  -74.393412583  163.452932207    97.5969   6  11   0.0536   0.0495   0.1916  -0.0283   0.0646  -0.0726   4.00    0.0
2018/11/11 00:34:00.000  -74.393412528  163.452931983    97.5537   6  11   0.0491   0.0427   0.1735  -0.0253   0.0544  -0.0678   4.00    0.0
2018/11/11 00:34:15.000  -74.393412478  163.452932170    97.5233   6  10   0.0445   0.0373   0.1561  -0.0243   0.0485  -0.0623   4.00    0.0
2018/11/11 00:34:30.000  -74.393412395  163.452932482    97.4937   6  10   0.0366   0.0314   0.1225  -0.0202   0.0359  -0.0459   4.00    0.0
2018/11/11 00:34:45.000  -74.393412371  163.452932613    97.4495   6  10   0.0304   0.0268   0.0946  -0.0172   0.0249  -0.0311   4.00    0.0
2018/11/11 00:35:00.000  -74.393412483  163.452932888    97.5246   6  10   0.0273   0.0245   0.0796  -0.0157   0.0184  -0.0218   4.00    0.0
2018/11/11 00:35:15.000  -74.393412676  163.452932998    97.6045   6  10   0.0302   0.0267   0.0943  -0.0170   0.0242  -0.0305   4.00    0.0
2018/11/11 00:35:30.000  -74.393412726  163.452932812    97.6371   6  10   0.0364   0.0310   0.1221  -0.0198   0.0344  -0.0449   4.00    0.0
2018/11/11 00:35:45.000  -74.393412786  163.452932595    97.6793   6  10   0.0441   0.0365   0.1555  -0.0236   0.0461  -0.0612   4.00    0.0
2018/11/11 00:36:00.000  -74.393413155  163.452932963    97.8633   6  10   0.0528   0.0426   0.1913  -0.0280   0.0584  -0.0781   4.00    0.0
2018/11/11 00:36:15.000  -74.393413099  163.452932476    97.8639   6  10   0.0618   0.0490   0.2282  -0.0328   0.0707  -0.0952   4.00    0.0
2018/11/11 00:36:30.000  -74.393413013  163.452931850    97.8134   6  10   0.0711   0.0555   0.2657  -0.0379   0.0831  -0.1125   4.00    0.0
2018/11/11 00:36:45.000  -74.393412940  163.452931105    97.7297   6  10   0.0805   0.0620   0.3036  -0.0432   0.0954  -0.1299   4.00    0.0
2018/11/11 00:37:00.000  -74.393413003  163.452931401    97.7573   6  10   0.0900   0.0685   0.3418  -0.0485   0.1076  -0.1474   4.00    0.0
2018/11/11 00:37:15.000  -74.393413083  163.452931531    97.7827   6  10   0.0995   0.0750   0.3807  -0.0538   0.1196  -0.1649   4.00    0.0
2018/11/11 00:37:30.000  -74.393413063  163.452931290    97.7766   6  10   0.1090   0.0815   0.4209  -0.0590   0.1314  -0.1826   4.00    0.0
2018/11/11 00:37:45.000  -74.393413112  163.452931400    97.7732   6  10   0.0994   0.0746   0.3941  -0.0527   0.1170  -0.1662   4.00    0.0
2018/11/11 00:38:00.000  -74.393413129  163.452931356    97.7399   6   9   0.0914   0.0678   0.3784  -0.0473   0.1052  -0.1558   4.00    0.0
2018/11/11 00:38:15.000  -74.393413154  163.452931674    97.7321   6   9   0.0815   0.0610   0.3346  -0.0416   0.0919  -0.1367   4.00    0.0
2018/11/11 00:38:30.000  -74.393413114  163.452931869    97.7281   6   9   0.0717   0.0544   0.2910  -0.0361   0.0787  -0.1176   4.00    0.0
2018/11/11 00:38:45.000  -74.393413109  163.452931904    97.7241   6   9   0.0621   0.0478   0.2479  -0.0308   0.0658  -0.0988   4.00    0.0
2018/11/11 00:39:00.000  -74.393413021  163.452932017    97.6935   6   9   0.0528   0.0415   0.2056  -0.0260   0.0532  -0.0801   4.00    0.0
2018/11/11 00:39:15.000  -74.393412949  163.452932215    97.6826   6   9   0.0439   0.0355   0.1648  -0.0217   0.0409  -0.0618   4.00    0.0
2018/11/11 00:39:30.000  -74.393412915  163.452932451    97.6486   6   9   0.0360   0.0301   0.1269  -0.0181   0.0293  -0.0442   4.00    0.0
2018/11/11 00:39:45.000  -74.393412719  163.452932541    97.5713   6   9   0.0298   0.0258   0.0956  -0.0156   0.0191  -0.0282   4.00    0.0
2018/11/11 00:40:00.000  -74.393412568  163.452932589    97.4869   6   9   0.0269   0.0236   0.0793  -0.0143   0.0130  -0.0179   4.00    0.0
2018/11/11 00:40:15.000  -74.393412604  163.452932520    97.4627   6   9   0.0297   0.0256   0.0949  -0.0154   0.0186  -0.0277   4.00    0.0
2018/11/11 00:40:30.000  -74.393412615  163.452932166    97.3936   6   9   0.0357   0.0297   0.1254  -0.0177   0.0281  -0.0434   4.00    0.0
2018/11/11 00:40:45.000  -74.393412608  163.452931750    97.3561   6  10   0.0381   0.0349   0.1300  -0.0205   0.0382  -0.0406   4.00    0.0
2018/11/11 00:41:00.000  -74.393412720  163.452931623    97.3703   6  10   0.0427   0.0401   0.1468  -0.0223   0.0446  -0.0452   4.00    0.0
2018/11/11 00:41:15.000  -74.393412740  163.452931658    97.4062   6  10   0.0481   0.0458   0.1672  -0.0250   0.0525  -0.0520   4.00    0.0
2018/11/11 00:41:30.000  -74.393412626  163.452931278    97.3814   6  10   0.0539   0.0517   0.1894  -0.0281   0.0610  -0.0598   4.00    0.0
2018/11/11 00:41:45.000  -74.393412726  163.452931357    97.3764   6  10   0.0598   0.0576   0.2127  -0.0315   0.0697  -0.0682   4.00    0.0
2018/11/11 00:42:00.000  -74.393412641  163.452930880    97.3011   6  10   0.0660   0.0637   0.2368  -0.0352   0.0785  -0.0770   4.00    0.0
2018/11/11 00:42:15.000  -74.393412636  163.452930599    97.2904   6  10   0.0722   0.0698   0.2613  -0.0389   0.0874  -0.0859   4.00    0.0
2018/11/11 00:42:30.000  -74.393412632  163.452930319    97.3147   6  10   0.0785   0.0759   0.2862  -0.0427   0.0963  -0.0950   4.00    0.0
2018/11/11 00:42:45.000  -74.393412749  163.452930542    97.3401   6  10   0.0720   0.0696   0.2610  -0.0386   0.0867  -0.0857   4.00    0.0
2018/11/11 00:43:00.000  -74.393412811  163.452930673    97.3488   6  10   0.0657   0.0633   0.2361  -0.0346   0.0772  -0.0765   4.00    0.0
2018/11/11 00:43:15.000  -74.393412834  163.452931225    97.3943   6  10   0.0595   0.0570   0.2112  -0.0307   0.0677  -0.0672   4.00    0.0
2018/11/11 00:43:30.000  -74.393412778  163.452931435    97.4266   6  10   0.0533   0.0509   0.1866  -0.0270   0.0583  -0.0579   4.00    0.0
2018/11/11 00:43:45.000  -74.393412745  163.452931703    97.4574   6  10   0.0472   0.0449   0.1623  -0.0235   0.0490  -0.0487   4.00    0.0
2018/11/11 00:44:00.000  -74.393412649  163.452931607    97.4667   6  10   0.0414   0.0390   0.1386  -0.0203   0.0397  -0.0395   4.00    0.0
2018/11/11 00:44:15.000  -74.393412637  163.452932031    97.5178   6  10   0.0359   0.0335   0.1158  -0.0176   0.0305  -0.0302   4.00    0.0
2018/11/11 00:44:30.000  -74.393412625  163.452931930    97.5111   6  10   0.0310   0.0286   0.0947  -0.0153   0.0213  -0.0206   4.00    0.0
2018/11/11 00:44:45.000  -74.393412589  163.452932118    97.4891   6  10   0.0272   0.0248   0.0771  -0.0138   0.0121  -0.0091   5.00    0.0
2018/11/11 00:45:00.000  -74.393412980  163.452934146    97.4675   1  10   0.0281   0.0198   0.0877  -0.0117   0.0320  -0.0333   6.00    1.0
2018/11/11 00:45:15.000  -74.393412989  163.452934255    97.4570   1  10   0.0305   0.0227   0.0996  -0.0134   0.0351  -0.0372   6.00    1.0
2018/11/11 00:45:30.000  -74.393412981  163.452934422    97.4215   1  10   0.0356   0.0286   0.1224  -0.0168   0.0421  -0.0450   6.00    1.0
2018/11/11 00:45:45.000  -74.393412655  163.452932189    97.4385   6  10   0.0353   0.0330   0.1118  -0.0168   0.0283  -0.0278   5.00    0.0
2018/11/11 00:46:00.000  -74.393412526  163.452931944    97.4360   6  10   0.0406   0.0382   0.1340  -0.0193   0.0370  -0.0371   5.00    0.0
2018/11/11 00:46:15.000  -74.393412543  163.452931852    97.4365   6  10   0.0463   0.0438   0.1576  -0.0222   0.0457  -0.0465   5.00    0.0
2018/11/11 00:46:30.000  -74.393412477  163.452931696    97.4335   6  10   0.0522   0.0494   0.1820  -0.0254   0.0543  -0.0559   5.00    0.0
2018/11/11 00:46:45.000  -74.393412509  163.452931640    97.4407   6  10   0.0583   0.0552   0.2070  -0.0288   0.0628  -0.0654   5.00    0.0
2018/11/11 00:47:00.000  -74.393412489  163.452931351    97.4136   6  10   0.0645   0.0610   0.2324  -0.0323   0.0712  -0.0749   5.00    0.0
2018/11/11 00:47:15.000  -74.393412480  163.452930568    97.3654   6  10   0.0708   0.0668   0.2579  -0.0359   0.0795  -0.0844   5.00    0.0
2018/11/11 00:47:30.000  -74.393412444  163.452930546    97.3381   6  10   0.0772   0.0726   0.2837  -0.0395   0.0877  -0.0939   5.00    0.0
2018/11/11 00:47:45.000  -74.393412447  163.452930799    97.3798   6  10   0.0707   0.0666   0.2574  -0.0357   0.0788  -0.0839   5.00    0.0
2018/11/11 00:48:00.000  -74.393412426  163.452931116    97.3670   6  10   0.0644   0.0605   0.2318  -0.0319   0.0697  -0.0744   5.00    0.0
2018/11/11 00:48:15.000  -74.393412446  163.452931391    97.3888   6  10   0.0581   0.0546   0.2063  -0.0282   0.0608  -0.0648   5.00    0.0
2018/11/11 00:48:30.000  -74.393412438  163.452931464    97.3847   6  10   0.0520   0.0487   0.1812  -0.0246   0.0519  -0.0552   5.00    0.0
2018/11/11 00:48:45.000  -74.393412533  163.452931691    97.4089   6  10   0.0460   0.0430   0.1564  -0.0214   0.0430  -0.0456   5.00    0.0
2018/11/11 00:49:00.000  -74.393412607  163.452932047    97.4334   6  10   0.0403   0.0375   0.1325  -0.0184   0.0342  -0.0359   5.00    0.0
2018/11/11 00:49:15.000  -74.393412578  163.452932344    97.4330   6  10   0.0349   0.0322   0.1097  -0.0159   0.0254  -0.0260   5.00    0.0
2018/11/11 00:49:30.000  -74.393412926  163.452933973    97.4203   1  10   0.0374   0.0328   0.1126  -0.0224   0.0320  -0.0315   6.00    1.0
2018/11/11 00:49:45.000  -74.393412872  163.452933409    97.4099   1  10   0.0327   0.0281   0.0870  -0.0201   0.0236  -0.0186   6.00    1.0
2018/11/11 00:50:00.000  -74.393412968  163.452933504    97.4764   1  10   0.0306   0.0260   0.0734  -0.0192   0.0190  -0.0082   6.00    1.0
2018/11/11 00:50:15.000  -74.393412889  163.452933120    97.4696   1  10   0.0327   0.0282   0.0864  -0.0200   0.0229  -0.0179   6.00    1.0
2018/11/11 00:50:30.000  -74.393412873  163.452933238    97.4673   1  10   0.0375   0.0326   0.1118  -0.0222   0.0308  -0.0307   6.00    1.0
2018/11/11 00:50:45.000  -74.393412464  163.452931227    97.5081   6  10   0.0346   0.0317   0.1080  -0.0153   0.0242  -0.0256   5.00    0.0
2018/11/11 00:51:00.000  -74.393412534  163.452931168    97.5119   6  10   0.0398   0.0367   0.1306  -0.0175   0.0324  -0.0355   5.00    0.0
2018/11/11 00:51:15.000  -74.393412518  163.452931001    97.4703   6  10   0.0454   0.0420   0.1544  -0.0201   0.0403  -0.0452   5.00    0.0
2018/11/11 00:51:30.000  -74.393412536  163.452930876    97.3909   6  10   0.0513   0.0474   0.1790  -0.0230   0.0480  -0.0548   5.00    0.0
2018/11/11 00:51:45.000  -74.393412551  163.452931061    97.3984   6  10   0.0573   0.0528   0.2040  -0.0261   0.0556  -0.0643   5.00    0.0
2018/11/11 00:52:00.000  -74.393412635  163.452931100    97.4064   6  10   0.0635   0.0584   0.2293  -0.0293   0.0629  -0.0737   5.00    0.0
2018/11/11 00:52:15.000  -74.393412647  163.452931305    97.4151   6  10   0.0698   0.0639   0.2549  -0.0326   0.0702  -0.0831   5.00    0.0
2018/11/11 00:52:30.000  -74.393412661  163.452930797    97.4448   6  10   0.0761   0.0695   0.2805  -0.0359   0.0773  -0.0924   5.00    0.0
2018/11/11 00:52:45.000  -74.393412646  163.452931050    97.5055   6  10   0.0698   0.0637   0.2552  -0.0321   0.0690  -0.0831   5.00    0.0
2018/11/11 00:53:00.000  -74.393412643  163.452931250    97.5447   6  10   0.0634   0.0579   0.2294  -0.0286   0.0608  -0.0735   5.00    0.0
2018/11/11 00:53:15.000  -74.393412611  163.452931285    97.5632   6  10   0.0572   0.0523   0.2038  -0.0252   0.0528  -0.0639   5.00    0.0
2018/11/11 00:53:30.000  -74.393412631  163.452931415    97.5540   6  10   0.0511   0.0467   0.1784  -0.0219   0.0447  -0.0542   5.00    0.0
2018/11/11 00:53:45.000  -74.393412658  163.452931646    97.5820   6  10   0.0452   0.0413   0.1536  -0.0189   0.0367  -0.0445   5.00    0.0
2018/11/11 00:54:00.000  -74.393412678  163.452931534    97.5610   6  10   0.0395   0.0360   0.1295  -0.0163   0.0287  -0.0346   5.00    0.0
2018/11/11 00:54:15.000  -74.393412757  163.452931902    97.5406   6  10   0.0343   0.0311   0.1066  -0.0141   0.0205  -0.0243   5.00    0.0
2018/11/11 00:54:30.000  -74.393412775  163.452931820    97.5071   6  10   0.0298   0.0267   0.0859  -0.0125   0.0116  -0.0122   5.00    0.0
2018/11/11 00:54:45.000  -74.393412767  163.452932133    97.4800   6  10   0.0263   0.0232   0.0694  -0.0117  -0.0066   0.0114   5.00    0.0
2018/11/11 00:55:00.000  -74.393412684  163.452932221    97.4752   6  10   0.0246   0.0216   0.0610  -0.0113  -0.0105   0.0156   5.00    0.0
2018/11/11 00:55:15.000  -74.393412638  163.452932238    97.4635   6  10   0.0262   0.0231   0.0688  -0.0114  -0.0064   0.0114   5.00    0.0
2018/11/11 00:55:30.000  -74.393412660  163.452932171    97.4800   6  10   0.0295   0.0263   0.0849  -0.0120   0.0111  -0.0120   5.00    0.0
2018/11/11 00:55:45.000  -74.393412715  163.452932318    97.4997   6  10   0.0339   0.0306   0.1051  -0.0133   0.0194  -0.0239   5.00    0.0
2018/11/11 00:56:00.000  -74.393412699  163.452932261    97.5390   6  10   0.0390   0.0353   0.1275  -0.0151   0.0266  -0.0341   5.00    0.0
2018/11/11 00:56:15.000  -74.393412700  163.452931997    97.5473   6  10   0.0446   0.0403   0.1511  -0.0174   0.0335  -0.0437   5.00    0.0
2018/11/11 00:56:30.000  -74.393412709  163.452932077    97.5288   6  10   0.0504   0.0454   0.1753  -0.0200   0.0400  -0.0532   5.00    0.0
2018/11/11 00:56:45.000  -74.393412736  163.452931795    97.5000   6  10   0.0563   0.0507   0.2000  -0.0227   0.0463  -0.0624   5.00    0.0
2018/11/11 00:57:00.000  -74.393412769  163.452931783    97.4874   6  10   0.0625   0.0560   0.2249  -0.0256   0.0524  -0.0716   5.00    0.0
2018/11/11 00:57:15.000  -74.393412797  163.452931755    97.4783   6  10   0.0687   0.0614   0.2498  -0.0285   0.0583  -0.0807   5.00    0.0
2018/11/11 00:57:30.000  -74.393412840  163.452931842    97.5032   6  10   0.0750   0.0668   0.2749  -0.0313   0.0640  -0.0896   5.00    0.0
2018/11/11 00:57:45.000  -74.393412817  163.452931951    97.4651   6  10   0.0687   0.0612   0.2490  -0.0282   0.0569  -0.0804   5.00    0.0
2018/11/11 00:58:00.000  -74.393412816  163.452932222    97.4930   6  10   0.0624   0.0557   0.2234  -0.0250   0.0499  -0.0710   5.00    0.0
2018/11/11 00:58:15.000  -74.393412827  163.452932226    97.4785   6  10   0.0562   0.0503   0.1981  -0.0219   0.0430  -0.0616   5.00    0.0
2018/11/11 00:58:30.000  -74.393412767  163.452931999    97.4938   6  10   0.0501   0.0450   0.1731  -0.0190   0.0361  -0.0521   5.00    0.0
2018/11/11 00:58:45.000  -74.393412817  163.452932023    97.4821   6  10   0.0443   0.0398   0.1486  -0.0163   0.0293  -0.0425   5.00    0.0
2018/11/11 00:59:00.000  -74.393412747  163.452932006    97.4653   6  10   0.0388   0.0348   0.1249  -0.0141   0.0222  -0.0326   5.00    0.0
2018/11/11 00:59:15.000  -74.393412861  163.452932113    97.4723   6  10   0.0337   0.0301   0.1025  -0.0123   0.0148  -0.0222   5.00    0.0
2018/11/11 00:59:30.000  -74.393412830  163.452932180    97.4471   6  10   0.0292   0.0259   0.0823  -0.0111   0.0050  -0.0088   5.00    0.0
2018/11/11 00:59:45.000  -74.393413154  163.452933367    97.4474   1  10   0.0332   0.0268   0.0796  -0.0185   0.0130   0.0029   6.00    1.0
2018/11/11 01:00:00.000  -74.393413090  163.452933226    97.4387   1  10   0.0312   0.0247   0.0668  -0.0179   0.0084   0.0153   6.00    1.0
2018/11/11 01:00:15.000  -74.393413031  163.452933295    97.4611   1  10   0.0332   0.0267   0.0792  -0.0183   0.0120   0.0061   6.00    1.0
2018/11/11 01:00:30.000  -74.393413051  163.452933288    97.4685   1  10   0.0377   0.0308   0.1038  -0.0198   0.0183  -0.0219   6.00    1.0
2018/11/11 01:00:45.000  -74.393413113  163.452933283    97.4508   1  10   0.0438   0.0363   0.1338  -0.0219   0.0251  -0.0359   6.00    1.0
2018/11/11 01:01:00.000  -74.393412769  163.452931683    97.4694   6  10   0.0383   0.0341   0.1227  -0.0128   0.0196  -0.0318   5.00    0.0
2018/11/11 01:01:15.000  -74.393412780  163.452931634    97.4935   6  10   0.0437   0.0389   0.1456  -0.0147   0.0251  -0.0412   5.00    0.0
2018/11/11 01:01:30.000  -74.393412788  163.452932060    97.5204   6  11   0.0478   0.0435   0.1617  -0.0146   0.0252  -0.0436   5.00    0.0
2018/11/11 01:01:45.000  -74.393412767  163.452931857    97.4819   6  11   0.0526   0.0483   0.1800  -0.0154   0.0261  -0.0480   5.00    0.0
2018/11/11 01:02:00.000  -74.393412795  163.452931922    97.4755   6  11   0.0563   0.0530   0.1951  -0.0145   0.0234  -0.0479   5.00    0.0
2018/11/11 01:02:15.000  -74.393412793  163.452931926    97.4677   6  11   0.0597   0.0577   0.2069  -0.0121   0.0142  -0.0442   5.00    0.0
2018/11/11 01:02:30.000  -74.393412774  163.452931551    97.4406   6  11   0.0640   0.0626   0.2230  -0.0112  -0.0027  -0.0445   5.00    0.0
2018/11/11 01:02:45.000  -74.393412746  163.452931137    97.4589   6  11   0.0592   0.0576   0.2051  -0.0106   0.0039  -0.0414   5.00    0.0
2018/11/11 01:03:00.000  -74.393412653  163.452931366    97.4410   6  11   0.0548   0.0526   0.1879  -0.0108   0.0094  -0.0399   5.00    0.0
2018/11/11 01:03:15.000  -74.393412506  163.452930973    97.4107   6  11   0.0513   0.0479   0.1741  -0.0124   0.0163  -0.0418   5.00    0.0
2018/11/11 01:03:30.000  -74.393412574  163.452931265    97.4370   6  11   0.0491   0.0435   0.1673  -0.0156   0.0255  -0.0488   5.00    0.0
2018/11/11 01:03:45.000  -74.393412582  163.452931138    97.4323   6  11   0.0400   0.0379   0.1292  -0.0080  -0.0059  -0.0227   5.00    0.0
2018/11/11 01:04:00.000  -74.393412948  163.452932651    97.3317   1  11   0.0447   0.0410   0.1353  -0.0171  -0.0170   0.0074   6.00    1.0
2018/11/11 01:04:15.000  -74.393412972  163.452932488    97.3145   1  11   0.0396   0.0350   0.1110  -0.0170  -0.0140   0.0145   6.00    1.0
2018/11/11 01:04:30.000  -74.393412989  163.452932740    97.3166   1  11   0.0354   0.0298   0.0889  -0.0170  -0.0114   0.0184   6.00    1.0
2018/11/11 01:04:45.000  -74.393413051  163.452933087    97.3587   1  11   0.0324   0.0260   0.0707  -0.0169  -0.0095   0.0208   6.00    1.0
2018/11/11 01:05:00.000  -74.393413156  163.452932997    97.4009   1  11   0.0310   0.0195   0.0587  -0.0186  -0.0185   0.0203   6.00    2.0
2018/11/11 01:05:15.000  -74.393413208  163.452932934    97.4519   1  11   0.0326   0.0218   0.0699  -0.0185  -0.0184   0.0181   6.00    2.0
2018/11/11 01:05:30.000  -74.393413191  163.452932626    97.4416   1  12   0.0360   0.0252   0.0868  -0.0195  -0.0230   0.0069   7.00    2.0
2018/11/11 01:05:45.000  -74.393413186  163.452932374    97.4289   1  12   0.0408   0.0306   0.1098  -0.0204  -0.0269  -0.0186   7.00    2.0
2018/11/11 01:06:00.000  -74.393413154  163.452932371    97.3877   1  12   0.0466   0.0368   0.1353  -0.0217  -0.0314  -0.0304   7.00    2.0
2018/11/11 01:06:15.000  -74.393412690  163.452931158    97.3941   6  12   0.0383   0.0354   0.1164  -0.0084  -0.0264  -0.0198   5.00    0.0
2018/11/11 01:06:30.000  -74.393412542  163.452931234    97.3992   6  12   0.0431   0.0398   0.1351  -0.0095  -0.0302  -0.0283   5.00    0.0
2018/11/11 01:06:45.000  -74.393412545  163.452931199    97.3725   6  12   0.0491   0.0444   0.1565  -0.0118  -0.0335  -0.0391   5.00    0.0
2018/11/11 01:07:00.000  -74.393412634  163.452931295    97.3736   6  12   0.0538   0.0492   0.1769  -0.0138  -0.0369  -0.0459   5.00    0.0
2018/11/11 01:07:15.000  -74.393412692  163.452931401    97.3535   6  12   0.0570   0.0538   0.1912  -0.0135  -0.0432  -0.0454   5.00    0.0
2018/11/11 01:07:30.000  -74.393412738  163.452931219    97.3315   6  12   0.0612   0.0585   0.2081  -0.0140  -0.0487  -0.0480   5.00    0.0
2018/11/11 01:07:45.000  -74.393412849  163.452931211    97.3937   6  12   0.0562   0.0537   0.1896  -0.0122  -0.0446  -0.0423   5.00    0.0
2018/11/11 01:08:00.000  -74.393412906  163.452931402    97.4282   6  12   0.0513   0.0490   0.1710  -0.0106  -0.0404  -0.0365   5.00    0.0
2018/11/11 01:08:15.000  -74.393412840  163.452931481    97.4444   6  12   0.0465   0.0443   0.1526  -0.0092  -0.0362  -0.0305   5.00    0.0
2018/11/11 01:08:30.000  -74.393412722  163.452931194    97.4152   6  12   0.0420   0.0398   0.1345  -0.0081  -0.0320  -0.0244   5.00    0.0
2018/11/11 01:08:45.000  -74.393412690  163.452930914    97.4001   6  12   0.0376   0.0353   0.1168  -0.0073  -0.0279  -0.0176   6.00    0.0
2018/11/11 01:09:00.000  -74.393413153  163.452931977    97.3535   1  12   0.0423   0.0361   0.1304  -0.0180  -0.0353  -0.0183   8.00    3.0
2018/11/11 01:09:15.000  -74.393413185  163.452932340    97.3536   1  12   0.0371   0.0300   0.1066  -0.0172  -0.0300  -0.0033   8.00    3.0
2018/11/11 01:09:30.000  -74.393413207  163.452932721    97.3853   1  12   0.0329   0.0245   0.0847  -0.0167  -0.0254   0.0152   8.00    3.0
2018/11/11 01:09:45.000  -74.393413213  163.452932762    97.4054   1  12   0.0300   0.0204   0.0669  -0.0164  -0.0222   0.0196   8.00    3.0
2018/11/11 01:10:00.000  -74.393413173  163.452932845    97.4047   1  12   0.0288   0.0188   0.0577  -0.0163  -0.0208   0.0215   8.00    3.0
2018/11/11 01:10:15.000  -74.393412505  163.452931068    97.4624   1  12   0.0209   0.0132   0.0468   0.0043  -0.0057   0.0104   6.00    1.0
2018/11/11 01:10:30.000  -74.393413081  163.452933049    97.3887   1  12   0.0332   0.0250   0.0853  -0.0172  -0.0267   0.0167   9.00    3.0
2018/11/11 01:10:45.000  -74.393413086  163.452932972    97.3525   1  12   0.0375   0.0305   0.1076  -0.0178  -0.0317   0.0075   9.00    3.0
2018/11/11 01:11:00.000  -74.393413119  163.452932900    97.3415   1  12   0.0427   0.0367   0.1320  -0.0185  -0.0374  -0.0163   9.00    3.0
2018/11/11 01:11:15.000  -74.393412760  163.452931335    97.3257   6  12   0.0369   0.0349   0.1160  -0.0056  -0.0295  -0.0136   5.00    0.0
2018/11/11 01:11:30.000  -74.393412753  163.452931109    97.2967   6  12   0.0412   0.0393   0.1341  -0.0060  -0.0342  -0.0210   5.00    0.0
2018/11/11 01:11:45.000  -74.393412647  163.452931033    97.3458   6  12   0.0456   0.0439   0.1526  -0.0067  -0.0390  -0.0273   5.00    0.0
2018/11/11 01:12:00.000  -74.393412670  163.452931193    97.3869   6  12   0.0502   0.0485   0.1715  -0.0077  -0.0439  -0.0331   5.00    0.0
2018/11/11 01:12:15.000  -74.393412666  163.452931203    97.4245   6  12   0.0549   0.0533   0.1906  -0.0088  -0.0489  -0.0388   5.00    0.0
2018/11/11 01:12:30.000  -74.393412702  163.452931225    97.4581   6  12   0.0597   0.0581   0.2099  -0.0099  -0.0540  -0.0442   5.00    0.0
2018/11/11 01:12:45.000  -74.393412717  163.452931369    97.4835   6  12   0.0549   0.0532   0.1902  -0.0085  -0.0487  -0.0389   5.00    0.0
2018/11/11 01:13:00.000  -74.393412760  163.452931238    97.5085   6  12   0.0502   0.0485   0.1714  -0.0073  -0.0440  -0.0334   5.00    0.0
2018/11/11 01:13:15.000  -74.393412841  163.452931139    97.5410   6  12   0.0456   0.0438   0.1527  -0.0062  -0.0394  -0.0276   5.00    0.0
2018/11/11 01:13:30.000  -74.393412883  163.452931652    97.5461   6  12   0.0411   0.0393   0.1343  -0.0055  -0.0348  -0.0213   5.00    0.0
2018/11/11 01:13:45.000  -74.393412889  163.452931615    97.4871   6  12   0.0369   0.0350   0.1163  -0.0052  -0.0305  -0.0138   5.00    0.0
2018/11/11 01:14:00.000  -74.393413210  163.452932701    97.4394   1  12   0.0434   0.0394   0.1354  -0.0206  -0.0436  -0.0073   7.00    2.0
2018/11/11 01:14:15.000  -74.393413167  163.452932726    97.4142   1  12   0.0386   0.0350   0.1128  -0.0211  -0.0406   0.0192   7.00    2.0
2018/11/11 01:14:30.000  -74.393413140  163.452932896    97.3952   1  12   0.0358   0.0303   0.0909  -0.0173  -0.0337   0.0256   7.00    1.0
2018/11/11 01:14:45.000  -74.393413275  163.452933062    97.3666   1  12   0.0328   0.0255   0.0723  -0.0159  -0.0283   0.0271   8.00    1.0
2018/11/11 01:15:00.000  -74.393412789  163.452931870    97.3953   6  12   0.0235   0.0198   0.0532  -0.0079  -0.0168   0.0210   5.00    0.0
2018/11/11 01:15:15.000  -74.393412790  163.452931740    97.3866   6  12   0.0245   0.0209   0.0582  -0.0074  -0.0177   0.0204   5.00    0.0
2018/11/11 01:15:30.000  -74.393412725  163.452932070    97.4026   6  12   0.0265   0.0234   0.0692  -0.0069  -0.0200   0.0185   5.00    0.0
2018/11/11 01:15:45.000  -74.393412676  163.452932197    97.4011   6  12   0.0294   0.0267   0.0837  -0.0062  -0.0233   0.0148   5.00    0.0
2018/11/11 01:16:00.000  -74.393412717  163.452932486    97.4016   6  12   0.0330   0.0305   0.1000  -0.0057  -0.0273   0.0070   5.00    0.0
2018/11/11 01:16:15.000  -74.393412784  163.452932628    97.3757   6  12   0.0369   0.0347   0.1175  -0.0055  -0.0317  -0.0131   5.00    0.0
2018/11/11 01:16:30.000  -74.393412836  163.452932476    97.3392   6  12   0.0411   0.0391   0.1357  -0.0056  -0.0364  -0.0211   6.00    0.0
2018/11/11 01:16:45.000  -74.393412783  163.452932113    97.2896   6  12   0.0455   0.0436   0.1544  -0.0060  -0.0413  -0.0277   7.00    0.0
2018/11/11 01:17:00.000  -74.393412770  163.452932316    97.2726   6  12   0.0501   0.0483   0.1733  -0.0066  -0.0463  -0.0337   6.00    0.0
2018/11/11 01:17:15.000  -74.393412771  163.452932529    97.2722   6  12   0.0548   0.0530   0.1925  -0.0074  -0.0514  -0.0395   7.00    0.0
2018/11/11 01:17:30.000  -74.393412820  163.452932597    97.2933   6  12   0.0597   0.0578   0.2118  -0.0082  -0.0566  -0.0451   7.00    0.0
2018/11/11 01:17:45.000  -74.393412958  163.452932228    97.2660   6  12   0.0550   0.0532   0.1932  -0.0072  -0.0521  -0.0396   7.00    0.0
2018/11/11 01:18:00.000  -74.393412915  163.452932090    97.2982   6  12   0.0503   0.0485   0.1742  -0.0062  -0.0471  -0.0338   7.00    0.0
2018/11/11 01:18:15.000  -74.393412980  163.452931809    97.3509   6  12   0.0457   0.0438   0.1553  -0.0053  -0.0423  -0.0278   7.00    0.0
2018/11/11 01:18:30.000  -74.393413047  163.452931752    97.3657   6  12   0.0412   0.0393   0.1367  -0.0048  -0.0375  -0.0211   7.00    0.0
2018/11/11 01:18:45.000  -74.393412981  163.452931510    97.3879   6  12   0.0370   0.0349   0.1186  -0.0047  -0.0329  -0.0131   7.00    0.0
2018/11/11 01:19:00.000  -74.393413022  163.452931742    97.4030   6  12   0.0331   0.0307   0.1012  -0.0050  -0.0285   0.0073   7.00    0.0
2018/11/11 01:19:15.000  -74.393412967  163.452931805    97.3996   6  12   0.0296   0.0268   0.0851  -0.0056  -0.0246   0.0152   7.00    0.0
2018/11/11 01:19:30.000  -74.393412883  163.452932133    97.3987   6  12   0.0267   0.0235   0.0709  -0.0064  -0.0214   0.0189   7.00    0.0
2018/11/11 01:19:45.000  -74.393412791  163.452931961    97.3995   6  12   0.0246   0.0211   0.0602  -0.0071  -0.0191   0.0210   7.00    0.0
2018/11/11 01:20:00.000  -74.393412822  163.452931774    97.3358   6  12   0.0238   0.0199   0.0553  -0.0072  -0.0181   0.0217   7.00    0.0
2018/11/11 01:20:15.000  -74.393412945  163.452931612    97.3481   6  12   0.0249   0.0211   0.0609  -0.0066  -0.0195   0.0209   7.00    0.0
2018/11/11 01:20:30.000  -74.393412855  163.452931652    97.3497   6  12   0.0276   0.0237   0.0729  -0.0044  -0.0225   0.0179   8.00    0.0
2018/11/11 01:20:45.000  -74.393412801  163.452931770    97.3442   6  12   0.0314   0.0270   0.0906   0.0010  -0.0263   0.0061   8.00    0.0
2018/11/11 01:21:00.000  -74.393412688  163.452931950    97.3574   6  12   0.0352   0.0309   0.1057   0.0054  -0.0298  -0.0059   8.00    0.0
2018/11/11 01:21:15.000  -74.393412670  163.452932120    97.3563   6  12   0.0388   0.0349   0.1230   0.0030  -0.0350  -0.0156   8.00    1.0
2018/11/11 01:21:30.000  -74.393412575  163.452931773    97.3619   6  12   0.0428   0.0393   0.1403   0.0042  -0.0398  -0.0245   8.00    0.0
2018/11/11 01:21:45.000  -74.393412476  163.452931548    97.3512   6  12   0.0473   0.0438   0.1586   0.0051  -0.0449  -0.0316   8.00    0.0
2018/11/11 01:22:00.000  -74.393412495  163.452931550    97.3561   6  12   0.0521   0.0485   0.1775   0.0060  -0.0502  -0.0383   8.00    0.0
2018/11/11 01:22:15.000  -74.393412489  163.452931322    97.3994   6  12   0.0571   0.0533   0.1969   0.0071  -0.0557  -0.0451   8.00    0.0
2018/11/11 01:22:30.000  -74.393412434  163.452931028    97.4331   6  12   0.0625   0.0582   0.2169   0.0089  -0.0615  -0.0525   8.00    0.0
2018/11/11 01:22:45.000  -74.393412426  163.452930812    97.4347   6  12   0.0594   0.0536   0.2012   0.0126  -0.0580  -0.0527   8.00    0.0
2018/11/11 01:23:00.000  -74.393412630  163.452930619    97.4784   6  12   0.0535   0.0485   0.1822   0.0085  -0.0515  -0.0453   8.00    0.0
2018/11/11 01:23:15.000  -74.393412536  163.452931189    97.4329   6  12   0.0475   0.0437   0.1600   0.0054  -0.0453  -0.0345   0.00    0.0
2018/11/11 01:23:30.000  -74.393412587  163.452931200    97.3988   6  12   0.0425   0.0392   0.1404   0.0035  -0.0401  -0.0261   0.00    0.0
2018/11/11 01:23:45.000  -74.393412679  163.452931265    97.4187   6  12   0.0379   0.0348   0.1220   0.0009  -0.0352  -0.0177   0.00    0.0
2018/11/11 01:24:00.000  -74.393412769  163.452931168    97.4100   6  12   0.0338   0.0306   0.1048  -0.0031  -0.0307  -0.0055   1.00    0.0
2018/11/11 01:24:15.000  -74.393412773  163.452931053    97.3921   6  12   0.0301   0.0268   0.0889  -0.0047  -0.0268   0.0135   4.00    0.0
2018/11/11 01:24:30.000  -74.393412811  163.452930993    97.3306   6  12   0.0271   0.0236   0.0750  -0.0058  -0.0235   0.0183   4.00    0.0
2018/11/11 01:24:45.000  -74.393412815  163.452931415    97.3081   6  12   0.0250   0.0212   0.0643  -0.0065  -0.0212   0.0208   4.00    0.0
2018/11/11 01:25:00.000  -74.393412854  163.452931652    97.3167   6  12   0.0240   0.0200   0.0593  -0.0073  -0.0203   0.0218   4.00    0.0
2018/11/11 01:25:15.000  -74.393412989  163.452931550    97.3306   6  12   0.0250   0.0212   0.0647  -0.0068  -0.0217   0.0212   4.00    0.0
2018/11/11 01:25:30.000  -74.393412935  163.452930857    97.3492   6  12   0.0272   0.0238   0.0758  -0.0060  -0.0243   0.0190   4.00    0.0
2018/11/11 01:25:45.000  -74.393412951  163.452930794    97.3469   6  12   0.0302   0.0271   0.0898  -0.0053  -0.0277   0.0146   4.00    0.0
2018/11/11 01:26:00.000  -74.393412909  163.452930835    97.3135   6  12   0.0339   0.0310   0.1055  -0.0049  -0.0316   0.0029   4.00    0.0
2018/11/11 01:26:15.000  -74.393412904  163.452930657    97.2919   6  12   0.0380   0.0354   0.1222  -0.0054  -0.0358  -0.0160   4.00    0.0
2018/11/11 01:26:30.000  -74.393412858  163.452930604    97.2756   6  12   0.0426   0.0403   0.1396  -0.0078  -0.0399  -0.0243   4.00    0.0
2018/11/11 01:26:45.000  -74.393412882  163.452930972    97.3031   6  12   0.0474   0.0447   0.1575  -0.0084  -0.0444  -0.0317   3.00    0.0
2018/11/11 01:27:00.000  -74.393412849  163.452931154    97.3244   6  12   0.0516   0.0488   0.1752  -0.0048  -0.0500  -0.0367   3.00    0.0
2018/11/11 01:27:15.000  -74.393412865  163.452931693    97.2632   6  12   0.0562   0.0534   0.1931  -0.0014  -0.0554  -0.0422   3.00    0.0
2018/11/11 01:27:30.000  -74.393413019  163.452931187    97.2705   6  12   0.0610   0.0580   0.2113   0.0036  -0.0607  -0.0477   3.00    0.0
2018/11/11 01:27:45.000  -74.393412988  163.452930857    97.3253   6  12   0.0565   0.0532   0.1936   0.0058  -0.0560  -0.0436   3.00    0.0
2018/11/11 01:28:00.000  -74.393413007  163.452930849    97.3459   6  12   0.0524   0.0486   0.1767   0.0079  -0.0517  -0.0402   3.00    0.0
2018/11/11 01:28:15.000  -74.393412937  163.452931063    97.3219   6  12   0.0492   0.0442   0.1619   0.0109  -0.0485  -0.0395   3.00    0.0
2018/11/11 01:28:30.000  -74.393412917  163.452931299    97.3143   6  12   0.0439   0.0393   0.1470   0.0073  -0.0428  -0.0340   3.00    0.0
2018/11/11 01:28:45.000  -74.393412799  163.452931373    97.2910   6  12   0.0385   0.0348   0.1267   0.0040  -0.0371  -0.0227   3.00    0.0
2018/11/11 01:29:00.000  -74.393412811  163.452931528    97.2721   6  12   0.0341   0.0306   0.1096   0.0004  -0.0325  -0.0121   3.00    0.0
2018/11/11 01:29:15.000  -74.393412806  163.452931470    97.2682   6  12   0.0303   0.0268   0.0943  -0.0034  -0.0285   0.0104   4.00    0.0
2018/11/11 01:29:30.000  -74.393412864  163.452931386    97.2467   6  12   0.0271   0.0236   0.0810  -0.0047  -0.0254   0.0170   4.00    0.0
2018/11/11 01:29:45.000  -74.393412865  163.452931301    97.2768   6  12   0.0249   0.0212   0.0705  -0.0055  -0.0231   0.0202   4.00    0.0
2018/11/11 01:30:00.000  -74.393412735  163.452931425    97.2905   6  12   0.0239   0.0202   0.0655  -0.0060  -0.0223   0.0216   4.00    0.0
2018/11/11 01:30:15.000  -74.393412657  163.452931042    97.2971   6  12   0.0248   0.0213   0.0710  -0.0056  -0.0238   0.0215   4.00    0.0
2018/11/11 01:30:30.000  -74.393412716  163.452931215    97.3304   6  12   0.0268   0.0236   0.0821  -0.0048  -0.0266   0.0203   4.00    0.0
2018/11/11 01:30:45.000  -74.393412793  163.452931009    97.3087   6  12   0.0297   0.0268   0.0957  -0.0038  -0.0301   0.0179   5.00    0.0
2018/11/11 01:31:00.000  -74.393412751  163.452931186    97.2608   6  12   0.0332   0.0305   0.1105  -0.0029  -0.0341   0.0135   5.00    0.0
2018/11/11 01:31:15.000  -74.393412680  163.452931140    97.2775   6  12   0.0371   0.0346   0.1259  -0.0020  -0.0384  -0.0009   5.00    0.0
2018/11/11 01:31:30.000  -74.393412626  163.452931520    97.2642   6  12   0.0412   0.0389   0.1417  -0.0008  -0.0428  -0.0150   5.00    0.0
2018/11/11 01:31:45.000  -74.393412549  163.452931200    97.2836   6  12   0.0456   0.0433   0.1579   0.0013  -0.0474  -0.0222   5.00    0.0
2018/11/11 01:32:00.000  -74.393412443  163.452931536    97.2485   6  12   0.0502   0.0479   0.1742   0.0018  -0.0520  -0.0283   5.00    0.0
2018/11/11 01:32:15.000  -74.393412418  163.452931871    97.2329   6  12   0.0549   0.0526   0.1906   0.0021  -0.0567  -0.0339   5.00    0.0
2018/11/11 01:32:30.000  -74.393412443  163.452931881    97.2361   6  12   0.0597   0.0573   0.2071   0.0023  -0.0615  -0.0391   5.00    0.0
2018/11/11 01:32:45.000  -74.393412513  163.452931803    97.2156   6  12   0.0549   0.0528   0.1904   0.0022  -0.0567  -0.0335   5.00    0.0
2018/11/11 01:33:00.000  -74.393412661  163.452932258    97.1978   6  12   0.0503   0.0481   0.1736   0.0021  -0.0520  -0.0275   5.00    0.0
2018/11/11 01:33:15.000  -74.393412743  163.452932337    97.1948   6  12   0.0457   0.0435   0.1572   0.0019  -0.0474  -0.0209   5.00    0.0
2018/11/11 01:33:30.000  -74.393412879  163.452932347    97.2389   6  12   0.0413   0.0391   0.1412   0.0013  -0.0429  -0.0128   5.00    0.0
2018/11/11 01:33:45.000  -74.393412956  163.452931968    97.2455   6  12   0.0372   0.0348   0.1259  -0.0012  -0.0387   0.0079   5.00    0.0
2018/11/11 01:34:00.000  -74.393412876  163.452931733    97.2510   6  12   0.0333   0.0308   0.1112  -0.0023  -0.0347   0.0156   5.00    0.0
2018/11/11 01:34:15.000  -74.393412880  163.452931545    97.2381   6  12   0.0299   0.0271   0.0976  -0.0032  -0.0312   0.0196   6.00    0.0
2018/11/11 01:34:30.000  -74.393412887  163.452931729    97.2364   6  12   0.0271   0.0240   0.0855  -0.0041  -0.0281   0.0219   6.00    0.0
2018/11/11 01:34:45.000  -74.393412867  163.452932083    97.2137   6  12   0.0251   0.0216   0.0758  -0.0051  -0.0259   0.0233   6.00    0.0
2018/11/11 01:35:00.000  -74.393412837  163.452932000    97.2286   6  12   0.0241   0.0205   0.0711  -0.0054  -0.0250   0.0239   6.00    0.0
2018/11/11 01:35:15.000  -74.393412745  163.452932017    97.2306   6  12   0.0253   0.0219   0.0768  -0.0042  -0.0265   0.0237   6.00    0.0
2018/11/11 01:35:30.000  -74.393412749  163.452932054    97.1591   6  11   0.0279   0.0245   0.0886  -0.0019  -0.0296   0.0239   5.00    0.0
2018/11/11 01:35:45.000  -74.393412838  163.452931816    97.1505   6  11   0.0313   0.0279   0.1026   0.0036  -0.0333   0.0232   5.00    0.0
2018/11/11 01:36:00.000  -74.393412987  163.452931640    97.1531   6  11   0.0354   0.0318   0.1180   0.0056  -0.0376   0.0222   5.00    0.0
2018/11/11 01:36:15.000  -74.393412956  163.452931842    97.1446   6  11   0.0398   0.0361   0.1343   0.0071  -0.0422   0.0209   5.00    0.0
2018/11/11 01:36:30.000  -74.393412846  163.452932232    97.1410   6  11   0.0447   0.0408   0.1513   0.0081  -0.0472   0.0195   5.00    0.0
2018/11/11 01:36:45.000  -74.393412758  163.452932402    97.1775   6  11   0.0498   0.0458   0.1690   0.0085  -0.0529   0.0187   6.00    0.0
2018/11/11 01:37:00.000  -74.393412581  163.452932494    97.2120   6  11   0.0554   0.0516   0.1888   0.0056  -0.0605   0.0214   6.00    0.0
2018/11/11 01:37:15.000  -74.393412741  163.452932853    97.1992   6  10   0.0631   0.0636   0.2382  -0.0208  -0.0881   0.0487   6.00    0.0
2018/11/11 01:37:30.000  -74.393412755  163.452932806    97.2485   6  10   0.0689   0.0696   0.2599  -0.0229  -0.0964   0.0524   6.00    0.0
2018/11/11 01:37:45.000  -74.393412727  163.452932857    97.2524   6  10   0.0635   0.0639   0.2400  -0.0197  -0.0894   0.0467   6.00    0.0
2018/11/11 01:38:00.000  -74.393412827  163.452932716    97.2357   6  10   0.0583   0.0585   0.2213  -0.0158  -0.0829   0.0403   6.00    0.0
2018/11/11 01:38:15.000  -74.393412742  163.452932492    97.2256   6  10   0.0537   0.0536   0.2049  -0.0091  -0.0778   0.0306   6.00    0.0
2018/11/11 01:38:30.000  -74.393412856  163.452932068    97.2277   6   9   0.0516   0.0526   0.2237   0.0188  -0.0874  -0.0390   6.00    0.0
2018/11/11 01:38:45.000  -74.393412920  163.452932065    97.1899   6   9   0.0455   0.0460   0.1955   0.0159  -0.0759  -0.0298   6.00    0.0
2018/11/11 01:39:00.000  -74.393412921  163.452932046    97.1816   6   9   0.0397   0.0396   0.1680   0.0130  -0.0647  -0.0193   6.00    0.0
2018/11/11 01:39:15.000  -74.393413009  163.452931847    97.2294   6   9   0.0344   0.0337   0.1416   0.0101  -0.0538   0.0042   6.00    0.0
2018/11/11 01:39:30.000  -74.393412941  163.452931948    97.2554   6   9   0.0300   0.0284   0.1172   0.0073  -0.0440   0.0169   6.00    0.0
2018/11/11 01:39:45.000  -74.393412838  163.452931751    97.2536   6   9   0.0268   0.0245   0.0972   0.0047  -0.0363   0.0208   6.00    0.0
2018/11/11 01:40:00.000  -74.393412737  163.452931891    97.2300   6   9   0.0255   0.0229   0.0875   0.0041  -0.0329   0.0220   6.00    0.0
2018/11/11 01:40:15.000  -74.393412703  163.452932218    97.2237   6   9   0.0273   0.0252   0.0982   0.0069  -0.0373   0.0200   6.00    0.0
2018/11/11 01:40:30.000  -74.393412764  163.452932555    97.2335   6   9   0.0309   0.0299   0.1197   0.0103  -0.0463   0.0139   6.00    0.0
2018/11/11 01:40:45.000  -74.393412637  163.452932899    97.2200   6   9   0.0357   0.0358   0.1459   0.0138  -0.0575  -0.0121   6.00    0.0
2018/11/11 01:41:00.000  -74.393412508  163.452933087    97.1802   6   9   0.0413   0.0426   0.1742   0.0174  -0.0698  -0.0252   6.00    0.0
2018/11/11 01:41:15.000  -74.393412464  163.452933431    97.1473   6   9   0.0474   0.0498   0.2038   0.0211  -0.0827  -0.0357   6.00    0.0
2018/11/11 01:41:30.000  -74.393412507  163.452933728    97.1310   6   9   0.0539   0.0574   0.2343   0.0251  -0.0961  -0.0457   6.00    0.0
2018/11/11 01:41:45.000  -74.393412465  163.452933948    97.1105   6   9   0.0606   0.0655   0.2658   0.0295  -0.1101  -0.0557   6.00    0.0
2018/11/11 01:42:00.000  -74.393412549  163.452933645    97.1353   6   9   0.0678   0.0744   0.2985   0.0345  -0.1252  -0.0663   6.00    0.0
2018/11/11 01:42:15.000  -74.393412496  163.452933905    97.0953   6   9   0.0755   0.0851   0.3341   0.0412  -0.1428  -0.0786   6.00    0.0
2018/11/11 01:42:30.000  -74.393412471  163.452933363    97.1307   6   9   0.0846   0.0976   0.3739   0.0508  -0.1637  -0.0949   5.00    0.0
2018/11/11 01:42:45.000  -74.393412605  163.452933265    97.1174   6   9   0.0763   0.0848   0.3360   0.0419  -0.1435  -0.0803   4.00    0.0
2018/11/11 01:43:00.000  -74.393412586  163.452933050    97.1379   6   9   0.0683   0.0753   0.3025   0.0354  -0.1277  -0.0683   4.00    0.0
2018/11/11 01:43:15.000  -74.393412725  163.452932930    97.1341   6   9   0.0615   0.0672   0.2713   0.0308  -0.1140  -0.0586   5.00    0.0
2018/11/11 01:43:30.000  -74.393412833  163.452932895    97.1403   6   9   0.0555   0.0600   0.2417   0.0275  -0.1015  -0.0504   5.00    0.0
2018/11/11 01:43:45.000  -74.393412824  163.452933225    97.1069   6   9   0.0510   0.0545   0.2148   0.0262  -0.0912  -0.0455   5.00    0.0
2018/11/11 01:44:00.000  -74.393413059  163.452932208    97.1737   6   9   0.0432   0.0433   0.1827   0.0150  -0.0741  -0.0271   3.00    0.0
2018/11/11 01:44:15.000  -74.393412911  163.452931907    97.2318   6   9   0.0361   0.0356   0.1538   0.0098  -0.0606  -0.0132   3.00    0.0
2018/11/11 01:44:30.000  -74.393412856  163.452931993    97.2575   6   9   0.0307   0.0292   0.1290   0.0032  -0.0493   0.0120   3.00    0.0
