% program   : RTKLIB ver.2.4.3
% inp file  : _by_type/_obs/hillary/20181107_20181109.18o
% inp file  : _by_type/_sp3+clk/igs20263.clk
% inp file  : _by_type/_sp3+clk/igs20263.sp3
% inp file  : _by_type/_nav/hillary/20181107_20181109.18n
% obs start : 2018/11/07 00:00:00.0 GPST (week2026 259200.0s)
% obs end   : 2018/11/09 23:59:45.0 GPST (week2026 518385.0s)
% pos mode  : ppp-kinematic
% solution  : combined
% elev mask : 15.0 deg
% dynamics  : off
% tidecorr  : on
% tropo opt : est ztd+grad
% ephemeris : precise
% navi sys  : gps glonass
% antenna1  :                       ( 0.0000  0.0000  0.0000)
%
% (lat/lon/height=WGS84/ellipsoidal,Q=1:fix,2:float,3:sbas,4:dgps,5:single,6:ppp,ns=# of satellites)
%  GPST                  latitude(deg) longitude(deg)  height(m)   Q  ns   sdn(m)   sde(m)   sdu(m)  sdne(m)  sdeu(m)  sdun(m) age(s)  ratio
2018/11/07 00:00:00.000  -74.393397483  163.452953599    97.5258   6   9   0.0285   0.0275   0.0796   0.0029  -0.0171  -0.0294   0.00    0.0
2018/11/07 00:00:15.000  -74.393397553  163.452953512    97.5244   6   9   0.0334   0.0311   0.0975   0.0084  -0.0195  -0.0392   0.00    0.0
2018/11/07 00:00:30.000  -74.393397643  163.452953817    97.5038   6   9   0.0415   0.0375   0.1271   0.0123  -0.0214  -0.0534   0.00    0.0
2018/11/07 00:00:45.000  -74.393397599  163.452954043    97.4969   6   9   0.0515   0.0456   0.1634   0.0160  -0.0226  -0.0701   0.00    0.0
2018/11/07 00:01:00.000  -74.393397646  163.452953440    97.4891   6   9   0.0634   0.0551   0.2078   0.0205  -0.0257  -0.0904   0.00    0.0
2018/11/07 00:01:15.000  -74.393397803  163.452952771    97.5248   6   9   0.0800   0.0665   0.2745   0.0292  -0.0396  -0.1223   0.00    0.0
2018/11/07 00:01:30.000  -74.393397932  163.452952425    97.5705   6   9   0.0663   0.0750   0.2349  -0.0297   0.0803  -0.0766   1.00    0.0
2018/11/07 00:01:45.000  -74.393397976  163.452952694    97.6288   6   9   0.0765   0.0742   0.2321  -0.0230   0.0535  -0.0795   2.00    0.0
2018/11/07 00:02:00.000  -74.393397909  163.452953312    97.6077   6   9   0.0853   0.0827   0.2602  -0.0260   0.0612  -0.0889   2.00    0.0
2018/11/07 00:02:15.000  -74.393397930  163.452953169    97.5827   6   9   0.0885   0.0902   0.2875  -0.0350   0.0705  -0.0949   2.00    0.0
2018/11/07 00:02:30.000  -74.393397927  163.452952928    97.5692   6   9   0.0967   0.0983   0.3152  -0.0381   0.0779  -0.1040   2.00    0.0
2018/11/07 00:02:45.000  -74.393397848  163.452952581    97.5284   6   9   0.0894   0.0898   0.2880  -0.0332   0.0705  -0.0957   2.00    0.0
2018/11/07 00:03:00.000  -74.393397775  163.452952708    97.5235   6   9   0.0847   0.0818   0.2619  -0.0260   0.0622  -0.0897   2.00    0.0
2018/11/07 00:03:15.000  -74.393397860  163.452952995    97.5263   6   9   0.0700   0.0724   0.2337  -0.0297   0.0579  -0.0761   3.00    0.0
2018/11/07 00:03:30.000  -74.393397919  163.452953192    97.5139   6   9   0.0621   0.0640   0.2068  -0.0263   0.0506  -0.0674   3.00    0.0
2018/11/07 00:03:45.000  -74.393397903  163.452953510    97.5219   6   9   0.0543   0.0557   0.1799  -0.0229   0.0433  -0.0587   3.00    0.0
2018/11/07 00:04:00.000  -74.393397858  163.452953148    97.5291   6   9   0.0468   0.0477   0.1534  -0.0195   0.0358  -0.0502   3.00    0.0
2018/11/07 00:04:15.000  -74.393397781  163.452952995    97.5347   1   9   0.0368   0.0370   0.1267  -0.0074   0.0274  -0.0437   7.00    2.0
2018/11/07 00:04:30.000  -74.393397775  163.452953109    97.5642   1   9   0.0298   0.0307   0.1046   0.0053   0.0242  -0.0363   6.00    1.0
2018/11/07 00:04:45.000  -74.393397768  163.452952932    97.5715   6   9   0.0289   0.0283   0.0852  -0.0121   0.0159  -0.0275   4.00    0.0
2018/11/07 00:05:00.000  -74.393397783  163.452953144    97.5990   6   9   0.0266   0.0260   0.0752  -0.0121   0.0149  -0.0240   4.00    0.0
2018/11/07 00:05:15.000  -74.393397776  163.452953171    97.5866   6   9   0.0293   0.0294   0.0901  -0.0136   0.0219  -0.0298   4.00    0.0
2018/11/07 00:05:30.000  -74.393397702  163.452953204    97.5504   6   9   0.0346   0.0369   0.1197  -0.0177   0.0369  -0.0403   4.00    0.0
2018/11/07 00:05:45.000  -74.393397671  163.452953026    97.5412   6   9   0.0404   0.0421   0.1383  -0.0191   0.0386  -0.0462   3.00    0.0
2018/11/07 00:06:00.000  -74.393397673  163.452953050    97.5627   6   9   0.0475   0.0504   0.1683  -0.0230   0.0495  -0.0559   3.00    0.0
2018/11/07 00:06:15.000  -74.393397612  163.452952607    97.5363   6   9   0.0550   0.0593   0.2006  -0.0275   0.0617  -0.0664   3.00    0.0
2018/11/07 00:06:30.000  -74.393397673  163.452951858    97.5366   6   9   0.0629   0.0692   0.2369  -0.0327   0.0766  -0.0782   3.00    0.0
2018/11/07 00:06:45.000  -74.393397632  163.452950908    97.4674   6   9   0.0716   0.0821   0.2860  -0.0409   0.1012  -0.0946   3.00    0.0
2018/11/07 00:07:00.000  -74.393397740  163.452951128    97.5361   6   9   0.0774   0.0824   0.2835  -0.0373   0.0844  -0.0925   3.00    0.0
2018/11/07 00:07:15.000  -74.393397844  163.452950688    97.5214   6   9   0.0847   0.0902   0.3128  -0.0408   0.0935  -0.1017   3.00    0.0
2018/11/07 00:07:30.000  -74.393397852  163.452950773    97.5129   6   9   0.0920   0.0980   0.3423  -0.0445   0.1031  -0.1110   3.00    0.0
2018/11/07 00:07:45.000  -74.393397753  163.452950428    97.5143   6   9   0.0853   0.0930   0.3259  -0.0440   0.1043  -0.1065   3.00    0.0
2018/11/07 00:08:00.000  -74.393397613  163.452950194    97.4465   6   9   0.0794   0.0913   0.3241  -0.0465   0.1159  -0.1072   3.00    0.0
2018/11/07 00:08:15.000  -74.393397613  163.452950597    97.4348   6   9   0.0719   0.0831   0.2948  -0.0428   0.1066  -0.0981   3.00    0.0
2018/11/07 00:08:30.000  -74.393397779  163.452951200    97.5173   6   9   0.0616   0.0633   0.2179  -0.0280   0.0581  -0.0711   3.00    0.0
2018/11/07 00:08:45.000  -74.393397835  163.452951273    97.5139   6   9   0.0542   0.0553   0.1898  -0.0246   0.0497  -0.0623   3.00    0.0
2018/11/07 00:09:00.000  -74.393397843  163.452951785    97.5660   6   9   0.0470   0.0475   0.1619  -0.0212   0.0413  -0.0535   3.00    0.0
2018/11/07 00:09:15.000  -74.393397781  163.452952178    97.5802   6   9   0.0402   0.0401   0.1347  -0.0180   0.0328  -0.0449   3.00    0.0
2018/11/07 00:09:30.000  -74.393397794  163.452952643    97.5805   6   9   0.0342   0.0333   0.1094  -0.0153   0.0244  -0.0369   3.00    0.0
2018/11/07 00:09:45.000  -74.393397752  163.452953011    97.5700   6   9   0.0296   0.0281   0.0884  -0.0132   0.0169  -0.0300   3.00    0.0
2018/11/07 00:10:00.000  -74.393397800  163.452953186    97.5615   6   9   0.0273   0.0255   0.0770  -0.0126   0.0124  -0.0261   3.00    0.0
2018/11/07 00:10:15.000  -74.393397848  163.452953224    97.5697   6   9   0.0301   0.0286   0.0904  -0.0137   0.0166  -0.0314   3.00    0.0
2018/11/07 00:10:30.000  -74.393397696  163.452952859    97.5288   6   9   0.0351   0.0344   0.1133  -0.0162   0.0241  -0.0394   3.00    0.0
2018/11/07 00:10:45.000  -74.393397763  163.452952917    97.5371   6   9   0.0413   0.0415   0.1397  -0.0193   0.0327  -0.0479   3.00    0.0
2018/11/07 00:11:00.000  -74.393397839  163.452953087    97.5355   6   9   0.0481   0.0492   0.1672  -0.0227   0.0415  -0.0563   3.00    0.0
2018/11/07 00:11:15.000  -74.393397852  163.452952754    97.5250   6   9   0.0551   0.0572   0.1947  -0.0265   0.0503  -0.0644   3.00    0.0
2018/11/07 00:11:30.000  -74.393397843  163.452952241    97.4951   6   9   0.0622   0.0653   0.2218  -0.0305   0.0590  -0.0722   5.00    0.0
2018/11/07 00:11:45.000  -74.393397922  163.452951108    97.4956   6  10   0.0679   0.0720   0.2210  -0.0390   0.0807  -0.0679   5.00    0.0
2018/11/07 00:12:00.000  -74.393397760  163.452950072    97.4188   6  10   0.0769   0.0819   0.2463  -0.0470   0.0928  -0.0776   5.00    0.0
2018/11/07 00:12:15.000  -74.393397836  163.452950188    97.4080   6  10   0.0782   0.0833   0.2666  -0.0405   0.0948  -0.0761   4.00    0.0
2018/11/07 00:12:30.000  -74.393397760  163.452949534    97.3496   6  10   0.0841   0.0898   0.2891  -0.0430   0.1025  -0.0812   3.00    0.0
2018/11/07 00:12:45.000  -74.393397704  163.452949642    97.3302   6  10   0.0778   0.0825   0.2670  -0.0391   0.0934  -0.0755   3.00    0.0
2018/11/07 00:13:00.000  -74.393397770  163.452950240    97.3464   6  10   0.0716   0.0754   0.2455  -0.0356   0.0850  -0.0707   2.00    0.0
2018/11/07 00:13:15.000  -74.393397779  163.452950757    97.3709   6  10   0.0657   0.0683   0.2245  -0.0319   0.0761  -0.0668   2.00    0.0
2018/11/07 00:13:30.000  -74.393397783  163.452951450    97.3850   6  10   0.0608   0.0612   0.2066  -0.0276   0.0660  -0.0663   2.00    0.0
2018/11/07 00:13:45.000  -74.393397896  163.452951653    97.4570   6  10   0.0506   0.0536   0.1709  -0.0263   0.0598  -0.0484   2.00    0.0
2018/11/07 00:14:00.000  -74.393397815  163.452951878    97.4581   6  10   0.0441   0.0463   0.1464  -0.0228   0.0504  -0.0418   2.00    0.0
2018/11/07 00:14:15.000  -74.393397851  163.452952187    97.4578   6  10   0.0379   0.0392   0.1222  -0.0195   0.0406  -0.0353   3.00    0.0
2018/11/07 00:14:30.000  -74.393397861  163.452952532    97.4756   6  10   0.0323   0.0327   0.0996  -0.0163   0.0310  -0.0291   2.00    0.0
2018/11/07 00:14:45.000  -74.393397839  163.452952810    97.4963   6  10   0.0281   0.0276   0.0808  -0.0140   0.0226  -0.0238   2.00    0.0
2018/11/07 00:15:00.000  -74.393397797  163.452953173    97.5306   6  10   0.0260   0.0250   0.0708  -0.0132   0.0184  -0.0210   2.00    0.0
2018/11/07 00:15:15.000  -74.393397700  163.452952973    97.4766   6  10   0.0279   0.0275   0.0801  -0.0140   0.0223  -0.0234   2.00    0.0
2018/11/07 00:15:30.000  -74.393397658  163.452952912    97.4720   6  10   0.0320   0.0326   0.0987  -0.0163   0.0307  -0.0282   2.00    0.0
2018/11/07 00:15:45.000  -74.393397644  163.452952207    97.4392   6  10   0.0372   0.0389   0.1210  -0.0190   0.0402  -0.0335   2.00    0.0
2018/11/07 00:16:00.000  -74.393397565  163.452951254    97.3804   6  10   0.0430   0.0458   0.1446  -0.0219   0.0497  -0.0388   2.00    0.0
2018/11/07 00:16:15.000  -74.393397579  163.452950625    97.3473   6  10   0.0491   0.0529   0.1685  -0.0249   0.0589  -0.0440   2.00    0.0
2018/11/07 00:16:30.000  -74.393397643  163.452950143    97.3553   6  10   0.0552   0.0599   0.1923  -0.0278   0.0679  -0.0491   2.00    0.0
2018/11/07 00:16:45.000  -74.393397691  163.452949974    97.3932   6  10   0.0613   0.0669   0.2160  -0.0308   0.0768  -0.0544   2.00    0.0
2018/11/07 00:17:00.000  -74.393397784  163.452949209    97.3653   6  10   0.0674   0.0738   0.2396  -0.0339   0.0857  -0.0599   2.00    0.0
2018/11/07 00:17:15.000  -74.393397789  163.452948844    97.3592   6  10   0.0735   0.0806   0.2631  -0.0371   0.0945  -0.0658   2.00    0.0
2018/11/07 00:17:30.000  -74.393397791  163.452948244    97.3421   6  10   0.0795   0.0873   0.2866  -0.0405   0.1035  -0.0720   2.00    0.0
2018/11/07 00:17:45.000  -74.393397789  163.452948723    97.3842   6  10   0.0734   0.0807   0.2655  -0.0373   0.0956  -0.0668   2.00    0.0
2018/11/07 00:18:00.000  -74.393397760  163.452948996    97.3941   6  10   0.0673   0.0739   0.2430  -0.0342   0.0873  -0.0613   2.00    0.0
2018/11/07 00:18:15.000  -74.393397831  163.452950056    97.4569   6  10   0.0611   0.0670   0.2201  -0.0311   0.0788  -0.0559   2.00    0.0
2018/11/07 00:18:30.000  -74.393397886  163.452950873    97.4968   6  10   0.0549   0.0600   0.1969  -0.0281   0.0702  -0.0506   2.00    0.0
2018/11/07 00:18:45.000  -74.393397912  163.452951446    97.5134   6  10   0.0488   0.0530   0.1732  -0.0251   0.0613  -0.0453   2.00    0.0
2018/11/07 00:19:00.000  -74.393397869  163.452952127    97.5279   6  10   0.0428   0.0460   0.1492  -0.0221   0.0522  -0.0400   2.00    0.0
2018/11/07 00:19:15.000  -74.393397868  163.452952419    97.5144   6  10   0.0370   0.0391   0.1253  -0.0192   0.0429  -0.0345   2.00    0.0
2018/11/07 00:19:30.000  -74.393397891  163.452952767    97.5432   6  10   0.0318   0.0328   0.1023  -0.0166   0.0335  -0.0290   2.00    0.0
2018/11/07 00:19:45.000  -74.393397945  163.452952981    97.5658   6  10   0.0279   0.0278   0.0829  -0.0144   0.0252  -0.0241   2.00    0.0
2018/11/07 00:20:00.000  -74.393397943  163.452952790    97.5601   6  10   0.0260   0.0251   0.0722  -0.0134   0.0206  -0.0213   2.00    0.0
2018/11/07 00:20:15.000  -74.393397861  163.452952347    97.4961   6  10   0.0278   0.0278   0.0825  -0.0144   0.0251  -0.0237   2.00    0.0
2018/11/07 00:20:30.000  -74.393397805  163.452952127    97.4963   6  10   0.0315   0.0327   0.1011  -0.0162   0.0332  -0.0276   2.00    0.0
2018/11/07 00:20:45.000  -74.393397818  163.452952119    97.4865   6  10   0.0364   0.0389   0.1231  -0.0185   0.0422  -0.0320   2.00    0.0
2018/11/07 00:21:00.000  -74.393397927  163.452951894    97.4760   6  10   0.0418   0.0455   0.1464  -0.0211   0.0513  -0.0367   2.00    0.0
2018/11/07 00:21:15.000  -74.393397982  163.452951521    97.4448   6  10   0.0477   0.0524   0.1703  -0.0239   0.0605  -0.0417   2.00    0.0
2018/11/07 00:21:30.000  -74.393397990  163.452951342    97.4379   6  10   0.0536   0.0593   0.1945  -0.0269   0.0698  -0.0472   2.00    0.0
2018/11/07 00:21:45.000  -74.393397856  163.452950598    97.4072   6  10   0.0597   0.0662   0.2190  -0.0301   0.0793  -0.0532   2.00    0.0
2018/11/07 00:22:00.000  -74.393397896  163.452950223    97.4174   6  10   0.0658   0.0730   0.2436  -0.0335   0.0888  -0.0598   2.00    0.0
2018/11/07 00:22:15.000  -74.393397804  163.452949677    97.3927   6  10   0.0719   0.0798   0.2685  -0.0371   0.0986  -0.0668   2.00    0.0
2018/11/07 00:22:30.000  -74.393397694  163.452949316    97.3211   6  10   0.0779   0.0866   0.2935  -0.0407   0.1084  -0.0742   2.00    0.0
2018/11/07 00:22:45.000  -74.393397779  163.452949960    97.3193   6  10   0.0718   0.0797   0.2697  -0.0372   0.0991  -0.0674   2.00    0.0
2018/11/07 00:23:00.000  -74.393397705  163.452949252    97.2668   6  10   0.0657   0.0729   0.2458  -0.0337   0.0898  -0.0608   2.00    0.0
2018/11/07 00:23:15.000  -74.393397655  163.452949378    97.2502   6  10   0.0595   0.0660   0.2218  -0.0303   0.0805  -0.0545   2.00    0.0
2018/11/07 00:23:30.000  -74.393397700  163.452949757    97.2805   6  10   0.0534   0.0591   0.1976  -0.0271   0.0713  -0.0485   2.00    0.0
2018/11/07 00:23:45.000  -74.393397810  163.452950458    97.3847   6  10   0.0474   0.0522   0.1734  -0.0240   0.0620  -0.0429   2.00    0.0
2018/11/07 00:24:00.000  -74.393397864  163.452950771    97.4059   6  10   0.0416   0.0453   0.1493  -0.0212   0.0528  -0.0375   2.00    0.0
2018/11/07 00:24:15.000  -74.393397872  163.452951483    97.4524   6  10   0.0361   0.0387   0.1256  -0.0185   0.0436  -0.0325   2.00    0.0
2018/11/07 00:24:30.000  -74.393397909  163.452953051    97.5248   1  10   0.0292   0.0312   0.1149  -0.0098   0.0384  -0.0342   4.00    1.0
2018/11/07 00:24:45.000  -74.393397895  163.452952999    97.5148   1  10   0.0235   0.0245   0.0915   0.0029   0.0274  -0.0265   4.00    1.0
2018/11/07 00:25:00.000  -74.393397975  163.452953288    97.5255   1  10   0.0206   0.0213   0.0796   0.0075   0.0214  -0.0224   4.00    1.0
2018/11/07 00:25:15.000  -74.393397933  163.452953121    97.4669   1  10   0.0236   0.0247   0.0923   0.0031   0.0275  -0.0265   4.00    1.0
2018/11/07 00:25:30.000  -74.393397836  163.452951599    97.4051   6  10   0.0308   0.0324   0.1015  -0.0157   0.0338  -0.0260   2.00    0.0
2018/11/07 00:25:45.000  -74.393397704  163.452950757    97.3502   6  10   0.0355   0.0383   0.1231  -0.0178   0.0425  -0.0301   2.00    0.0
2018/11/07 00:26:00.000  -74.393397587  163.452949844    97.2669   6  11   0.0397   0.0448   0.1402  -0.0202   0.0520  -0.0407   2.00    0.0
2018/11/07 00:26:15.000  -74.393397527  163.452949514    97.2209   6  11   0.0451   0.0515   0.1631  -0.0231   0.0616  -0.0478   2.00    0.0
2018/11/07 00:26:30.000  -74.393397548  163.452949461    97.2546   6  11   0.0508   0.0584   0.1868  -0.0263   0.0715  -0.0553   3.00    0.0
2018/11/07 00:26:45.000  -74.393397585  163.452949129    97.2786   6  11   0.0566   0.0652   0.2111  -0.0298   0.0815  -0.0633   2.00    0.0
2018/11/07 00:27:00.000  -74.393397611  163.452948739    97.2919   6  11   0.0625   0.0721   0.2357  -0.0335   0.0918  -0.0717   2.00    0.0
2018/11/07 00:27:15.000  -74.393397763  163.452948428    97.3306   6  11   0.0685   0.0789   0.2606  -0.0373   0.1021  -0.0804   2.00    0.0
2018/11/07 00:27:30.000  -74.393397814  163.452948140    97.3476   6  11   0.0744   0.0858   0.2856  -0.0412   0.1125  -0.0893   2.00    0.0
2018/11/07 00:27:45.000  -74.393397816  163.452948344    97.3533   6  11   0.0685   0.0791   0.2616  -0.0374   0.1024  -0.0803   2.00    0.0
2018/11/07 00:28:00.000  -74.393397883  163.452947895    97.3421   6  11   0.0626   0.0722   0.2375  -0.0336   0.0923  -0.0719   2.00    0.0
2018/11/07 00:28:15.000  -74.393397801  163.452948206    97.3280   6  11   0.0566   0.0653   0.2134  -0.0299   0.0823  -0.0637   2.00    0.0
2018/11/07 00:28:30.000  -74.393397772  163.452948487    97.3410   6  11   0.0508   0.0585   0.1895  -0.0264   0.0724  -0.0557   2.00    0.0
2018/11/07 00:28:45.000  -74.393397712  163.452949161    97.2884   6  11   0.0451   0.0516   0.1658  -0.0231   0.0625  -0.0481   2.00    0.0
2018/11/07 00:29:00.000  -74.393397772  163.452948948    97.2671   6  11   0.0396   0.0448   0.1426  -0.0201   0.0528  -0.0409   2.00    0.0
2018/11/07 00:29:15.000  -74.393397765  163.452949369    97.2887   6  11   0.0345   0.0383   0.1203  -0.0175   0.0435  -0.0342   2.00    0.0
2018/11/07 00:29:30.000  -74.393397734  163.452949925    97.3218   6  11   0.0301   0.0324   0.1000  -0.0153   0.0346  -0.0284   2.00    0.0
2018/11/07 00:29:45.000  -74.393397783  163.452951022    97.3886   6  11   0.0267   0.0277   0.0835  -0.0137   0.0271  -0.0237   2.00    0.0
2018/11/07 00:30:00.000  -74.393397835  163.452951820    97.4650   6  11   0.0251   0.0253   0.0747  -0.0131   0.0229  -0.0213   2.00    0.0
2018/11/07 00:30:15.000  -74.393397826  163.452951756    97.4677   6  11   0.0266   0.0277   0.0827  -0.0137   0.0263  -0.0226   2.00    0.0
2018/11/07 00:30:30.000  -74.393397755  163.452951844    97.4839   6  11   0.0299   0.0324   0.0989  -0.0152   0.0332  -0.0265   2.00    0.0
2018/11/07 00:30:45.000  -74.393397765  163.452951169    97.4814   6  11   0.0343   0.0382   0.1192  -0.0175   0.0416  -0.0320   2.00    0.0
2018/11/07 00:31:00.000  -74.393397740  163.452950423    97.4602   6  11   0.0394   0.0448   0.1419  -0.0203   0.0508  -0.0385   3.00    0.0
2018/11/07 00:31:15.000  -74.393397828  163.452949938    97.4810   6  11   0.0451   0.0516   0.1662  -0.0238   0.0602  -0.0455   3.00    0.0
2018/11/07 00:31:30.000  -74.393397949  163.452949591    97.4963   6  11   0.0512   0.0590   0.1923  -0.0283   0.0690  -0.0522   3.00    0.0
2018/11/07 00:31:45.000  -74.393398019  163.452948787    97.4474   6  11   0.0564   0.0651   0.2158  -0.0307   0.0809  -0.0624   3.00    0.0
2018/11/07 00:32:00.000  -74.393398124  163.452948133    97.5143   6  11   0.0623   0.0719   0.2415  -0.0346   0.0913  -0.0710   3.00    0.0
2018/11/07 00:32:15.000  -74.393397943  163.452947371    97.4474   6  11   0.0684   0.0789   0.2678  -0.0388   0.1013  -0.0795   3.00    0.0
2018/11/07 00:32:30.000  -74.393397830  163.452947258    97.4594   6  11   0.0748   0.0864   0.2957  -0.0438   0.1102  -0.0870   2.00    0.0
2018/11/07 00:32:45.000  -74.393397952  163.452948101    97.4383   6  11   0.0677   0.0781   0.2662  -0.0374   0.1029  -0.0817   0.00    0.0
2018/11/07 00:33:00.000  -74.393398052  163.452948688    97.4951   6  11   0.0617   0.0710   0.2408  -0.0332   0.0928  -0.0730   0.00    0.0
2018/11/07 00:33:15.000  -74.393398049  163.452949134    97.5297   6  11   0.0558   0.0641   0.2157  -0.0293   0.0825  -0.0643   0.00    0.0
2018/11/07 00:33:30.000  -74.393398034  163.452950084    97.5808   6  11   0.0499   0.0572   0.1908  -0.0255   0.0722  -0.0560   2.00    0.0
2018/11/07 00:33:45.000  -74.393397951  163.452950356    97.5723   6  11   0.0442   0.0504   0.1665  -0.0220   0.0622  -0.0480   4.00    0.0
2018/11/07 00:34:00.000  -74.393397953  163.452950579    97.5832   6  11   0.0387   0.0437   0.1430  -0.0188   0.0523  -0.0406   5.00    0.0
2018/11/07 00:34:15.000  -74.393397904  163.452950912    97.5669   6  11   0.0337   0.0373   0.1208  -0.0160   0.0430  -0.0339   6.00    0.0
2018/11/07 00:34:30.000  -74.393398011  163.452951112    97.5245   6  11   0.0293   0.0315   0.1012  -0.0138   0.0345  -0.0284   6.00    0.0
2018/11/07 00:34:45.000  -74.393398014  163.452951771    97.5068   6  11   0.0261   0.0269   0.0862  -0.0122   0.0278  -0.0245   6.00    0.0
2018/11/07 00:35:00.000  -74.393398020  163.452951848    97.5306   6  11   0.0245   0.0247   0.0792  -0.0118   0.0247  -0.0231   6.00    0.0
2018/11/07 00:35:15.000  -74.393397951  163.452951546    97.5426   6  11   0.0262   0.0273   0.0875  -0.0127   0.0283  -0.0255   6.00    0.0
2018/11/07 00:35:30.000  -74.393397874  163.452950598    97.5169   6  11   0.0297   0.0320   0.1031  -0.0144   0.0352  -0.0299   6.00    0.0
2018/11/07 00:35:45.000  -74.393397910  163.452949813    97.5181   6  11   0.0341   0.0378   0.1227  -0.0167   0.0436  -0.0355   6.00    0.0
2018/11/07 00:36:00.000  -74.393397947  163.452948939    97.5058   6  11   0.0391   0.0441   0.1447  -0.0195   0.0528  -0.0422   6.00    0.0
2018/11/07 00:36:15.000  -74.393397926  163.452948526    97.4894   6  11   0.0445   0.0506   0.1680  -0.0226   0.0626  -0.0495   6.00    0.0
2018/11/07 00:36:30.000  -74.393397912  163.452948253    97.4635   6  11   0.0500   0.0572   0.1921  -0.0260   0.0726  -0.0574   6.00    0.0
2018/11/07 00:36:45.000  -74.393397955  163.452947972    97.4803   6  11   0.0556   0.0638   0.2167  -0.0296   0.0827  -0.0656   6.00    0.0
2018/11/07 00:37:00.000  -74.393397977  163.452947702    97.4655   6  11   0.0613   0.0705   0.2415  -0.0333   0.0929  -0.0741   6.00    0.0
2018/11/07 00:37:15.000  -74.393397949  163.452947282    97.4624   6  11   0.0671   0.0771   0.2665  -0.0371   0.1032  -0.0829   6.00    0.0
2018/11/07 00:37:30.000  -74.393397931  163.452947122    97.3931   6  11   0.0728   0.0838   0.2915  -0.0409   0.1135  -0.0917   6.00    0.0
2018/11/07 00:37:45.000  -74.393397948  163.452947857    97.4319   6  11   0.0669   0.0771   0.2660  -0.0368   0.1028  -0.0826   6.00    0.0
2018/11/07 00:38:00.000  -74.393398020  163.452947671    97.4161   6  11   0.0611   0.0705   0.2410  -0.0330   0.0924  -0.0738   6.00    0.0
2018/11/07 00:38:15.000  -74.393398081  163.452947718    97.3817   6  11   0.0554   0.0642   0.2163  -0.0294   0.0820  -0.0653   6.00    0.0
2018/11/07 00:38:30.000  -74.393398066  163.452947896    97.3942   6  11   0.0499   0.0582   0.1920  -0.0261   0.0717  -0.0572   6.00    0.0
2018/11/07 00:38:45.000  -74.393397994  163.452947912    97.3940   6  11   0.0445   0.0536   0.1685  -0.0234   0.0615  -0.0495   6.00    0.0
2018/11/07 00:39:00.000  -74.393398056  163.452949221    97.4174   6  11   0.0394   0.0438   0.1464  -0.0196   0.0529  -0.0429   5.00    0.0
2018/11/07 00:39:15.000  -74.393398034  163.452949499    97.4353   6  11   0.0349   0.0376   0.1262  -0.0174   0.0432  -0.0365   5.00    0.0
2018/11/07 00:39:30.000  -74.393398063  163.452950276    97.4605   6  11   0.0303   0.0314   0.1080  -0.0143   0.0366  -0.0336   5.00    0.0
2018/11/07 00:39:45.000  -74.393398092  163.452950792    97.5054   6  11   0.0275   0.0270   0.0962  -0.0130   0.0307  -0.0315   5.00    0.0
2018/11/07 00:40:00.000  -74.393398060  163.452951147    97.5223   6  11   0.0256   0.0254   0.0886  -0.0134   0.0296  -0.0290   4.00    0.0
2018/11/07 00:40:15.000  -74.393397940  163.452950512    97.4958   6  11   0.0269   0.0276   0.0946  -0.0136   0.0321  -0.0299   5.00    0.0
2018/11/07 00:40:30.000  -74.393397849  163.452950703    97.4796   6  11   0.0299   0.0322   0.1084  -0.0149   0.0379  -0.0333   5.00    0.0
2018/11/07 00:40:45.000  -74.393397886  163.452950558    97.4769   6  11   0.0340   0.0379   0.1262  -0.0169   0.0454  -0.0380   5.00    0.0
2018/11/07 00:41:00.000  -74.393397981  163.452950345    97.5126   6  11   0.0388   0.0441   0.1464  -0.0193   0.0538  -0.0437   5.00    0.0
2018/11/07 00:41:15.000  -74.393398054  163.452950009    97.5003   6  11   0.0438   0.0506   0.1682  -0.0222   0.0627  -0.0502   5.00    0.0
2018/11/07 00:41:30.000  -74.393398209  163.452949874    97.5596   6  11   0.0491   0.0572   0.1907  -0.0254   0.0719  -0.0572   5.00    0.0
2018/11/07 00:41:45.000  -74.393398317  163.452949874    97.5841   6  11   0.0545   0.0640   0.2137  -0.0288   0.0813  -0.0648   5.00    0.0
2018/11/07 00:42:00.000  -74.393398457  163.452949440    97.5994   6  11   0.0601   0.0709   0.2370  -0.0324   0.0909  -0.0726   5.00    0.0
2018/11/07 00:42:15.000  -74.393398486  163.452949319    97.6053   6  11   0.0656   0.0784   0.2605  -0.0363   0.1004  -0.0806   5.00    0.0
2018/11/07 00:42:30.000  -74.393398511  163.452948725    97.6308   6  11   0.0713   0.0876   0.2840  -0.0409   0.1102  -0.0888   5.00    0.0
2018/11/07 00:42:45.000  -74.393398452  163.452949330    97.6680   6  11   0.0659   0.0839   0.2605  -0.0390   0.1022  -0.0810   4.00    0.0
2018/11/07 00:43:00.000  -74.393398365  163.452949671    97.6190   6  11   0.0600   0.0732   0.2364  -0.0337   0.0918  -0.0726   4.00    0.0
2018/11/07 00:43:15.000  -74.393398179  163.452948727    97.5504   6  11   0.0545   0.0680   0.2125  -0.0305   0.0816  -0.0644   4.00    0.0
2018/11/07 00:43:30.000  -74.393398145  163.452950170    97.5376   6  11   0.0488   0.0563   0.1895  -0.0250   0.0719  -0.0568   4.00    0.0
2018/11/07 00:43:45.000  -74.393398127  163.452950630    97.5590   6  11   0.0435   0.0492   0.1670  -0.0215   0.0622  -0.0497   4.00    0.0
2018/11/07 00:44:00.000  -74.393398082  163.452950568    97.4972   6  11   0.0384   0.0427   0.1457  -0.0185   0.0532  -0.0433   4.00    0.0
2018/11/07 00:44:15.000  -74.393398135  163.452950526    97.4969   6  11   0.0338   0.0366   0.1261  -0.0161   0.0449  -0.0379   4.00    0.0
2018/11/07 00:44:30.000  -74.393398199  163.452950909    97.5401   6  11   0.0297   0.0310   0.1091  -0.0142   0.0376  -0.0335   4.00    0.0
2018/11/07 00:44:45.000  -74.393398126  163.452950959    97.5160   6  11   0.0266   0.0266   0.0958  -0.0128   0.0317  -0.0299   5.00    0.0
2018/11/07 00:45:00.000  -74.393398177  163.452951249    97.5300   6  11   0.0250   0.0243   0.0890  -0.0121   0.0287  -0.0281   6.00    0.0
2018/11/07 00:45:15.000  -74.393398221  163.452951270    97.5565   6  11   0.0272   0.0265   0.0981  -0.0126   0.0315  -0.0320   6.00    0.0
2018/11/07 00:45:30.000  -74.393398294  163.452950866    97.5468   6  11   0.0355   0.0320   0.1334  -0.0187   0.0448  -0.0513   5.00    0.0
2018/11/07 00:45:45.000  -74.393398284  163.452950200    97.5285   6  11   0.0372   0.0375   0.1413  -0.0201   0.0510  -0.0498   5.00    0.0
2018/11/07 00:46:00.000  -74.393398317  163.452950161    97.5654   6  11   0.0405   0.0428   0.1540  -0.0208   0.0561  -0.0509   5.00    0.0
2018/11/07 00:46:15.000  -74.393398217  163.452949392    97.5303   6  11   0.0447   0.0486   0.1710  -0.0225   0.0630  -0.0547   5.00    0.0
2018/11/07 00:46:30.000  -74.393398137  163.452948762    97.5178   6  11   0.0494   0.0546   0.1899  -0.0247   0.0707  -0.0598   5.00    0.0
2018/11/07 00:46:45.000  -74.393398026  163.452948155    97.4771   6  11   0.0543   0.0608   0.2099  -0.0274   0.0787  -0.0657   5.00    0.0
2018/11/07 00:47:00.000  -74.393398065  163.452948309    97.4725   6  11   0.0595   0.0669   0.2305  -0.0302   0.0870  -0.0721   5.00    0.0
2018/11/07 00:47:15.000  -74.393398180  163.452948411    97.5422   6  11   0.0647   0.0731   0.2514  -0.0332   0.0954  -0.0789   5.00    0.0
2018/11/07 00:47:30.000  -74.393398215  163.452948601    97.5633   6  11   0.0700   0.0794   0.2726  -0.0362   0.1039  -0.0859   5.00    0.0
2018/11/07 00:47:45.000  -74.393398234  163.452948506    97.5465   6  11   0.0645   0.0728   0.2501  -0.0330   0.0947  -0.0785   5.00    0.0
2018/11/07 00:48:00.000  -74.393398296  163.452949014    97.5561   6  11   0.0590   0.0664   0.2276  -0.0296   0.0855  -0.0708   5.00    0.0
2018/11/07 00:48:15.000  -74.393398170  163.452948775    97.4586   6  11   0.0537   0.0600   0.2055  -0.0264   0.0765  -0.0635   5.00    0.0
2018/11/07 00:48:30.000  -74.393398151  163.452949037    97.4382   6  11   0.0484   0.0537   0.1840  -0.0233   0.0677  -0.0565   5.00    0.0
2018/11/07 00:48:45.000  -74.393398074  163.452949190    97.4145   6  11   0.0433   0.0476   0.1633  -0.0205   0.0592  -0.0501   5.00    0.0
2018/11/07 00:49:00.000  -74.393398057  163.452949449    97.4109   6  11   0.0384   0.0415   0.1436  -0.0180   0.0510  -0.0442   5.00    0.0
2018/11/07 00:49:15.000  -74.393398030  163.452949892    97.4078   6  11   0.0339   0.0357   0.1252  -0.0158   0.0433  -0.0389   5.00    0.0
2018/11/07 00:49:30.000  -74.393398097  163.452950399    97.4315   6  11   0.0298   0.0305   0.1087  -0.0139   0.0364  -0.0341   4.00    0.0
2018/11/07 00:49:45.000  -74.393398059  163.452950499    97.4466   6  11   0.0265   0.0264   0.0948  -0.0123   0.0306  -0.0296   4.00    0.0
2018/11/07 00:50:00.000  -74.393398189  163.452950962    97.5027   6  11   0.0248   0.0243   0.0869  -0.0114   0.0273  -0.0267   4.00    0.0
2018/11/07 00:50:15.000  -74.393398245  163.452950581    97.4667   6  11   0.0269   0.0270   0.0966  -0.0126   0.0310  -0.0311   4.00    0.0
2018/11/07 00:50:30.000  -74.393398319  163.452949732    97.4414   6  11   0.0313   0.0318   0.1146  -0.0144   0.0374  -0.0389   4.00    0.0
2018/11/07 00:50:45.000  -74.393398271  163.452948757    97.3921   6  10   0.0449   0.0399   0.1735  -0.0251   0.0591  -0.0712   4.00    0.0
2018/11/07 00:51:00.000  -74.393398222  163.452948312    97.3925   6  10   0.0545   0.0471   0.2118  -0.0309   0.0727  -0.0894   4.00    0.0
2018/11/07 00:51:15.000  -74.393398339  163.452948190    97.4561   6  10   0.0649   0.0551   0.2526  -0.0366   0.0866  -0.1090   4.00    0.0
2018/11/07 00:51:30.000  -74.393398208  163.452948590    97.4499   6  10   0.0757   0.0610   0.2975  -0.0455   0.1037  -0.1303   4.00    0.0
2018/11/07 00:51:45.000  -74.393398207  163.452948786    97.4989   6  10   0.0865   0.0695   0.3421  -0.0539   0.1216  -0.1511   4.00    0.0
2018/11/07 00:52:00.000  -74.393398056  163.452948379    97.4581   6  10   0.0999   0.0801   0.3985  -0.0650   0.1450  -0.1780   4.00    0.0
2018/11/07 00:52:15.000  -74.393398405  163.452949627    97.6826   6  10   0.1117   0.0850   0.4397  -0.0707   0.1558  -0.1989   4.00    0.0
2018/11/07 00:52:30.000  -74.393398261  163.452948766    97.6108   6  10   0.1167   0.0887   0.4549  -0.0712   0.1580  -0.2050   4.00    0.0
2018/11/07 00:52:45.000  -74.393398109  163.452949035    97.5927   6  10   0.1048   0.0800   0.4059  -0.0624   0.1393  -0.1818   4.00    0.0
2018/11/07 00:53:00.000  -74.393398272  163.452949681    97.6547   6  10   0.0936   0.0719   0.3610  -0.0546   0.1224  -0.1605   4.00    0.0
2018/11/07 00:53:15.000  -74.393398413  163.452949591    97.6981   6  10   0.0829   0.0642   0.3188  -0.0474   0.1068  -0.1404   4.00    0.0
2018/11/07 00:53:30.000  -74.393398540  163.452950377    97.7656   6  10   0.0727   0.0568   0.2789  -0.0407   0.0919  -0.1212   4.00    0.0
2018/11/07 00:53:45.000  -74.393398594  163.452950823    97.8101   6  10   0.0627   0.0496   0.2417  -0.0342   0.0776  -0.1029   5.00    0.0
2018/11/07 00:54:00.000  -74.393398504  163.452950931    97.7997   6  10   0.0532   0.0427   0.2099  -0.0281   0.0636  -0.0857   5.00    0.0
2018/11/07 00:54:15.000  -74.393398533  163.452951043    97.7549   6   9   0.0448   0.0362   0.1768  -0.0227   0.0513  -0.0705   5.00    0.0
2018/11/07 00:54:30.000  -74.393398363  163.452950752    97.6281   6   9   0.0363   0.0303   0.1375  -0.0177   0.0396  -0.0530   5.00    0.0
2018/11/07 00:54:45.000  -74.393398246  163.452950715    97.5498   6   9   0.0295   0.0256   0.1046  -0.0137   0.0300  -0.0377   5.00    0.0
2018/11/07 00:55:00.000  -74.393398208  163.452950840    97.4900   6   9   0.0261   0.0232   0.0864  -0.0117   0.0246  -0.0287   5.00    0.0
2018/11/07 00:55:15.000  -74.393398269  163.452950703    97.4629   6   9   0.0294   0.0259   0.1027  -0.0140   0.0302  -0.0368   5.00    0.0
2018/11/07 00:55:30.000  -74.393398226  163.452950443    97.4538   6   9   0.0360   0.0311   0.1349  -0.0183   0.0404  -0.0520   5.00    0.0
2018/11/07 00:55:45.000  -74.393398242  163.452950317    97.5132   6   9   0.0447   0.0375   0.1750  -0.0240   0.0531  -0.0702   5.00    0.0
2018/11/07 00:56:00.000  -74.393398058  163.452950221    97.5008   6   9   0.0552   0.0456   0.2224  -0.0317   0.0698  -0.0919   5.00    0.0
2018/11/07 00:56:15.000  -74.393398183  163.452950492    97.6099   6   9   0.0726   0.0573   0.3014  -0.0464   0.1006  -0.1302   5.00    0.0
2018/11/07 00:56:30.000  -74.393398265  163.452950047    97.6190   6   9   0.0751   0.0563   0.3121  -0.0409   0.0913  -0.1312   5.00    0.0
2018/11/07 00:56:45.000  -74.393398292  163.452949729    97.6328   6   9   0.0821   0.0613   0.3429  -0.0430   0.0968  -0.1432   5.00    0.0
2018/11/07 00:57:00.000  -74.393398067  163.452949311    97.4639   6  10   0.0712   0.0663   0.2746  -0.0406   0.0926  -0.1021   5.00    0.0
2018/11/07 00:57:15.000  -74.393398101  163.452949318    97.5025   6  10   0.0759   0.0720   0.2892  -0.0434   0.0991  -0.1054   5.00    0.0
2018/11/07 00:57:30.000  -74.393398195  163.452949092    97.5398   6  10   0.0813   0.0780   0.3079  -0.0465   0.1063  -0.1109   5.00    0.0
2018/11/07 00:57:45.000  -74.393398183  163.452948981    97.4904   6  10   0.0742   0.0713   0.2794  -0.0418   0.0960  -0.0996   5.00    0.0
2018/11/07 00:58:00.000  -74.393398223  163.452949355    97.5109   6  10   0.0673   0.0648   0.2515  -0.0373   0.0859  -0.0888   5.00    0.0
2018/11/07 00:58:15.000  -74.393398114  163.452949169    97.4593   6  10   0.0605   0.0584   0.2242  -0.0329   0.0759  -0.0782   5.00    0.0
2018/11/07 00:58:30.000  -74.393398140  163.452949492    97.4509   6  10   0.0539   0.0520   0.1974  -0.0286   0.0661  -0.0678   5.00    0.0
2018/11/07 00:58:45.000  -74.393398191  163.452949817    97.4919   6  10   0.0474   0.0458   0.1712  -0.0243   0.0564  -0.0577   5.00    0.0
2018/11/07 00:59:00.000  -74.393398195  163.452950100    97.5010   6  10   0.0412   0.0397   0.1457  -0.0203   0.0468  -0.0479   5.00    0.0
2018/11/07 00:59:15.000  -74.393398167  163.452950049    97.4842   6  10   0.0353   0.0338   0.1212  -0.0164   0.0376  -0.0384   5.00    0.0
2018/11/07 00:59:30.000  -74.393398269  163.452950570    97.4979   6  10   0.0300   0.0285   0.0985  -0.0128   0.0289  -0.0294   5.00    0.0
2018/11/07 00:59:45.000  -74.393398307  163.452950887    97.5154   6  10   0.0258   0.0243   0.0792  -0.0099   0.0214  -0.0211   5.00    0.0
2018/11/07 01:00:00.000  -74.393398292  163.452950782    97.4890   6  10   0.0236   0.0221   0.0680  -0.0082   0.0169  -0.0151   6.00    0.0
2018/11/07 01:00:15.000  -74.393398187  163.452950767    97.4441   6  10   0.0255   0.0242   0.0763  -0.0097   0.0206  -0.0189   6.00    0.0
2018/11/07 01:00:30.000  -74.393398235  163.452950893    97.4554   6  10   0.0293   0.0285   0.0926  -0.0122   0.0271  -0.0256   6.00    0.0
2018/11/07 01:00:45.000  -74.393398120  163.452950417    97.4195   6  10   0.0341   0.0336   0.1126  -0.0153   0.0347  -0.0332   6.00    0.0
2018/11/07 01:01:00.000  -74.393398067  163.452950298    97.4655   6  10   0.0396   0.0391   0.1348  -0.0187   0.0428  -0.0414   6.00    0.0
2018/11/07 01:01:15.000  -74.393397977  163.452949911    97.4335   6  10   0.0454   0.0449   0.1584  -0.0223   0.0511  -0.0502   6.00    0.0
2018/11/07 01:01:30.000  -74.393397897  163.452949280    97.3970   6  10   0.0515   0.0507   0.1828  -0.0260   0.0596  -0.0592   6.00    0.0
2018/11/07 01:01:45.000  -74.393397873  163.452948750    97.4129   6  10   0.0577   0.0566   0.2078  -0.0298   0.0681  -0.0683   6.00    0.0
2018/11/07 01:02:00.000  -74.393397904  163.452948873    97.4594   6  10   0.0640   0.0625   0.2331  -0.0336   0.0765  -0.0776   6.00    0.0
2018/11/07 01:02:15.000  -74.393397943  163.452949364    97.5061   6  10   0.0704   0.0684   0.2587  -0.0374   0.0849  -0.0870   6.00    0.0
2018/11/07 01:02:30.000  -74.393397971  163.452949519    97.5503   6  10   0.0768   0.0744   0.2844  -0.0413   0.0932  -0.0964   6.00    0.0
2018/11/07 01:02:45.000  -74.393397999  163.452949540    97.5289   6  10   0.0704   0.0684   0.2593  -0.0375   0.0846  -0.0871   6.00    0.0
2018/11/07 01:03:00.000  -74.393397919  163.452949579    97.5106   6  10   0.0642   0.0626   0.2342  -0.0339   0.0762  -0.0782   6.00    0.0
2018/11/07 01:03:15.000  -74.393398007  163.452949644    97.5192   6  10   0.0582   0.0571   0.2096  -0.0308   0.0684  -0.0698   6.00    0.0
2018/11/07 01:03:30.000  -74.393398058  163.452949684    97.5009   6  10   0.0528   0.0527   0.1867  -0.0291   0.0627  -0.0628   6.00    0.0
2018/11/07 01:03:45.000  -74.393398224  163.452949951    97.5084   6  10   0.0461   0.0447   0.1613  -0.0230   0.0511  -0.0525   6.00    0.0
2018/11/07 01:04:00.000  -74.393398242  163.452949861    97.4642   6  10   0.0396   0.0382   0.1347  -0.0180   0.0403  -0.0414   6.00    0.0
2018/11/07 01:04:15.000  -74.393398300  163.452949698    97.4355   6  10   0.0338   0.0325   0.1106  -0.0140   0.0312  -0.0317   7.00    0.0
2018/11/07 01:04:30.000  -74.393398292  163.452950021    97.4281   6  10   0.0288   0.0273   0.0889  -0.0105   0.0229  -0.0227   7.00    0.0
2018/11/07 01:04:45.000  -74.393398323  163.452950376    97.4432   6  10   0.0248   0.0233   0.0709  -0.0076   0.0158  -0.0139   7.00    0.0
2018/11/07 01:05:00.000  -74.393398337  163.452950912    97.4757   6  10   0.0229   0.0213   0.0608  -0.0061   0.0115  -0.0063   7.00    0.0
2018/11/07 01:05:15.000  -74.393398333  163.452950781    97.4548   6  10   0.0247   0.0234   0.0698  -0.0072   0.0154  -0.0125   8.00    0.0
2018/11/07 01:05:30.000  -74.393398361  163.452950567    97.4528   6  10   0.0284   0.0273   0.0869  -0.0095   0.0220  -0.0206   8.00    0.0
2018/11/07 01:05:45.000  -74.393398307  163.452950144    97.4519   6  10   0.0332   0.0323   0.1080  -0.0124   0.0295  -0.0292   8.00    0.0
2018/11/07 01:06:00.000  -74.393398148  163.452949638    97.4238   6  10   0.0387   0.0376   0.1311  -0.0156   0.0373  -0.0381   8.00    0.0
2018/11/07 01:06:15.000  -74.393398122  163.452949620    97.4292   6  10   0.0445   0.0432   0.1555  -0.0190   0.0452  -0.0471   8.00    0.0
2018/11/07 01:06:30.000  -74.393398038  163.452949182    97.4082   6  10   0.0505   0.0490   0.1806  -0.0224   0.0533  -0.0563   8.00    0.0
2018/11/07 01:06:45.000  -74.393398089  163.452949425    97.4423   6  10   0.0567   0.0549   0.2064  -0.0258   0.0617  -0.0656   8.00    0.0
2018/11/07 01:07:00.000  -74.393398018  163.452949508    97.4494   6  10   0.0630   0.0616   0.2334  -0.0290   0.0712  -0.0746   8.00    0.0
2018/11/07 01:07:15.000  -74.393398150  163.452950039    97.5155   6  10   0.0693   0.0688   0.2628  -0.0325   0.0826  -0.0839   7.00    0.0
2018/11/07 01:07:30.000  -74.393398210  163.452950401    97.5237   6  10   0.0757   0.0721   0.2852  -0.0369   0.0853  -0.0940   7.00    0.0
2018/11/07 01:07:45.000  -74.393398208  163.452950557    97.5056   6  10   0.0694   0.0656   0.2576  -0.0332   0.0753  -0.0846   7.00    0.0
2018/11/07 01:08:00.000  -74.393398283  163.452950918    97.5433   6  10   0.0630   0.0594   0.2311  -0.0294   0.0664  -0.0751   7.00    0.0
2018/11/07 01:08:15.000  -74.393398311  163.452951001    97.5081   6  10   0.0566   0.0535   0.2051  -0.0257   0.0578  -0.0657   7.00    0.0
2018/11/07 01:08:30.000  -74.393398353  163.452951018    97.4624   6  10   0.0504   0.0477   0.1794  -0.0220   0.0495  -0.0562   7.00    0.0
2018/11/07 01:08:45.000  -74.393398341  163.452950839    97.4142   6  10   0.0443   0.0420   0.1542  -0.0185   0.0414  -0.0468   8.00    0.0
2018/11/07 01:09:00.000  -74.393398332  163.452950900    97.3720   6  10   0.0385   0.0365   0.1296  -0.0151   0.0335  -0.0375   7.00    0.0
2018/11/07 01:09:15.000  -74.393398295  163.452951013    97.3564   6  10   0.0330   0.0312   0.1062  -0.0119   0.0258  -0.0283   7.00    0.0
2018/11/07 01:09:30.000  -74.393398304  163.452951100    97.3571   6  10   0.0281   0.0264   0.0847  -0.0090   0.0185  -0.0191   6.00    0.0
2018/11/07 01:09:45.000  -74.393398346  163.452950943    97.4003   6  10   0.0243   0.0225   0.0671  -0.0067   0.0119  -0.0093   6.00    0.0
2018/11/07 01:10:00.000  -74.393398301  163.452950893    97.4630   6  10   0.0226   0.0205   0.0575  -0.0056   0.0074   0.0065   7.00    0.0
2018/11/07 01:10:15.000  -74.393398216  163.452950714    97.5152   6  10   0.0243   0.0226   0.0665  -0.0067   0.0115  -0.0086   7.00    0.0
2018/11/07 01:10:30.000  -74.393398226  163.452950757    97.5591   6  10   0.0280   0.0266   0.0837  -0.0087   0.0178  -0.0184   7.00    0.0
2018/11/07 01:10:45.000  -74.393398174  163.452950383    97.5114   6  10   0.0328   0.0315   0.1048  -0.0114   0.0247  -0.0275   6.00    0.0
2018/11/07 01:11:00.000  -74.393398085  163.452950133    97.4749   6  10   0.0382   0.0369   0.1279  -0.0144   0.0318  -0.0366   6.00    0.0
2018/11/07 01:11:15.000  -74.393398124  163.452950364    97.4853   6  10   0.0439   0.0430   0.1523  -0.0176   0.0396  -0.0459   6.00    0.0
2018/11/07 01:11:30.000  -74.393398064  163.452950084    97.4904   6  10   0.0500   0.0494   0.1780  -0.0215   0.0483  -0.0556   5.00    0.0
2018/11/07 01:11:45.000  -74.393397958  163.452949532    97.4497   6  10   0.0561   0.0535   0.2026  -0.0244   0.0534  -0.0647   5.00    0.0
2018/11/07 01:12:00.000  -74.393397925  163.452948876    97.4235   6  10   0.0623   0.0586   0.2274  -0.0273   0.0590  -0.0736   5.00    0.0
2018/11/07 01:12:15.000  -74.393397979  163.452948578    97.4307   6  10   0.0686   0.0641   0.2527  -0.0303   0.0652  -0.0826   5.00    0.0
2018/11/07 01:12:30.000  -74.393397949  163.452948343    97.3979   6  10   0.0750   0.0699   0.2781  -0.0335   0.0717  -0.0917   5.00    0.0
2018/11/07 01:12:45.000  -74.393397962  163.452948169    97.3772   6  10   0.0687   0.0655   0.2532  -0.0305   0.0660  -0.0827   5.00    0.0
2018/11/07 01:13:00.000  -74.393398051  163.452948536    97.3775   6  10   0.0623   0.0580   0.2271  -0.0268   0.0569  -0.0734   5.00    0.0
2018/11/07 01:13:15.000  -74.393398043  163.452948685    97.3622   6  10   0.0560   0.0517   0.2010  -0.0230   0.0486  -0.0637   5.00    0.0
2018/11/07 01:13:30.000  -74.393398047  163.452949059    97.4099   6  10   0.0498   0.0460   0.1756  -0.0195   0.0411  -0.0543   5.00    0.0
2018/11/07 01:13:45.000  -74.393398065  163.452949066    97.4318   6  10   0.0438   0.0405   0.1506  -0.0162   0.0340  -0.0449   5.00    0.0
2018/11/07 01:14:00.000  -74.393398169  163.452949358    97.4309   6  10   0.0380   0.0352   0.1263  -0.0131   0.0270  -0.0356   5.00    0.0
2018/11/07 01:14:15.000  -74.393398258  163.452949921    97.4395   6  10   0.0325   0.0302   0.1031  -0.0102   0.0202  -0.0262   6.00    0.0
2018/11/07 01:14:30.000  -74.393398257  163.452950114    97.4226   6  10   0.0277   0.0255   0.0818  -0.0076   0.0136  -0.0166   6.00    0.0
2018/11/07 01:14:45.000  -74.393398341  163.452950557    97.4578   6  10   0.0241   0.0218   0.0645  -0.0054   0.0071  -0.0041   6.00    0.0
2018/11/07 01:15:00.000  -74.393398365  163.452950628    97.4534   6  10   0.0223   0.0201   0.0553  -0.0039  -0.0026   0.0098   6.00    0.0
2018/11/07 01:15:15.000  -74.393398301  163.452950375    97.4832   6  10   0.0240   0.0218   0.0642  -0.0052   0.0062  -0.0024   6.00    0.0
2018/11/07 01:15:30.000  -74.393398273  163.452950484    97.5330   6  10   0.0276   0.0253   0.0810  -0.0071   0.0122  -0.0157   6.00    0.0
2018/11/07 01:15:45.000  -74.393398247  163.452950421    97.5170   6  10   0.0323   0.0298   0.1017  -0.0095   0.0180  -0.0252   6.00    0.0
2018/11/07 01:16:00.000  -74.393398165  163.452950164    97.4834   6  10   0.0376   0.0346   0.1242  -0.0120   0.0237  -0.0343   6.00    0.0
2018/11/07 01:16:15.000  -74.393398096  163.452950133    97.4721   6  10   0.0433   0.0397   0.1477  -0.0147   0.0292  -0.0433   6.00    0.0
2018/11/07 01:16:30.000  -74.393398065  163.452949980    97.4723   6  10   0.0491   0.0448   0.1717  -0.0174   0.0344  -0.0522   6.00    0.0
2018/11/07 01:16:45.000  -74.393397992  163.452949427    97.4869   6  10   0.0552   0.0500   0.1960  -0.0201   0.0395  -0.0611   6.00    0.0
2018/11/07 01:17:00.000  -74.393398011  163.452949033    97.4271   6  10   0.0613   0.0552   0.2204  -0.0229   0.0444  -0.0698   6.00    0.0
2018/11/07 01:17:15.000  -74.393398026  163.452948733    97.4118   6  10   0.0676   0.0605   0.2448  -0.0256   0.0491  -0.0785   6.00    0.0
2018/11/07 01:17:30.000  -74.393398068  163.452948676    97.4595   6  10   0.0738   0.0659   0.2693  -0.0283   0.0537  -0.0871   6.00    0.0
2018/11/07 01:17:45.000  -74.393398164  163.452948788    97.4712   6  10   0.0674   0.0605   0.2441  -0.0251   0.0477  -0.0781   6.00    0.0
2018/11/07 01:18:00.000  -74.393398300  163.452949391    97.5019   6  11   0.0540   0.0533   0.1892  -0.0097   0.0150  -0.0400   6.00    0.0
2018/11/07 01:18:15.000  -74.393398281  163.452949359    97.5067   6  11   0.0479   0.0481   0.1639  -0.0047  -0.0053  -0.0283   6.00    0.0
2018/11/07 01:18:30.000  -74.393398238  163.452949471    97.5012   6  11   0.0426   0.0430   0.1426   0.0024  -0.0105  -0.0203   6.00    0.0
2018/11/07 01:18:45.000  -74.393398236  163.452949557    97.4729   6  11   0.0378   0.0381   0.1229   0.0042  -0.0116  -0.0134   6.00    0.0
2018/11/07 01:19:00.000  -74.393398658  163.452951003    97.4033   1  11   0.0405   0.0394   0.1347  -0.0009  -0.0210  -0.0147   6.00    1.0
2018/11/07 01:19:15.000  -74.393398574  163.452951307    97.4249   1  11   0.0348   0.0329   0.1105   0.0022  -0.0191  -0.0086   6.00    1.0
2018/11/07 01:19:30.000  -74.393398555  163.452951393    97.4279   1  11   0.0299   0.0272   0.0883   0.0024  -0.0177   0.0065   6.00    1.0
2018/11/07 01:19:45.000  -74.393398525  163.452951187    97.4177   1  11   0.0263   0.0229   0.0699   0.0028  -0.0168   0.0116   6.00    1.0
2018/11/07 01:20:00.000  -74.393398552  163.452950980    97.3870   1  11   0.0248   0.0208   0.0598   0.0035  -0.0164   0.0135   6.00    1.0
2018/11/07 01:20:15.000  -74.393398553  163.452950573    97.3740   1  11   0.0263   0.0230   0.0698   0.0032  -0.0170   0.0119   6.00    1.0
2018/11/07 01:20:30.000  -74.393398621  163.452951062    97.3840   1  11   0.0299   0.0273   0.0881   0.0029  -0.0185   0.0076   6.00    1.0
2018/11/07 01:20:45.000  -74.393398668  163.452951289    97.4057   1  11   0.0348   0.0330   0.1105   0.0026  -0.0208  -0.0079   6.00    1.0
2018/11/07 01:21:00.000  -74.393398715  163.452951392    97.4355   1  11   0.0405   0.0394   0.1351   0.0025  -0.0237  -0.0150   6.00    1.0
2018/11/07 01:21:15.000  -74.393398270  163.452949997    97.4960   6  11   0.0368   0.0377   0.1185   0.0070  -0.0183   0.0068   6.00    0.0
2018/11/07 01:21:30.000  -74.393398311  163.452950084    97.4800   6  11   0.0413   0.0424   0.1368   0.0076  -0.0210  -0.0080   6.00    0.0
2018/11/07 01:21:45.000  -74.393398341  163.452949944    97.4724   6  11   0.0459   0.0473   0.1557   0.0081  -0.0239  -0.0144   7.00    0.0
2018/11/07 01:22:00.000  -74.393398428  163.452949555    97.5216   6  11   0.0507   0.0523   0.1748   0.0085  -0.0269  -0.0196   7.00    0.0
2018/11/07 01:22:15.000  -74.393398385  163.452949552    97.5460   6  12   0.0545   0.0551   0.1876  -0.0092  -0.0411  -0.0334   7.00    0.0
2018/11/07 01:22:30.000  -74.393398322  163.452949392    97.4670   6  12   0.0593   0.0596   0.2043  -0.0115  -0.0475  -0.0397   7.00    0.0
2018/11/07 01:22:45.000  -74.393398361  163.452949156    97.4180   6  12   0.0545   0.0548   0.1861  -0.0104  -0.0439  -0.0354   7.00    0.0
2018/11/07 01:23:00.000  -74.393398239  163.452949072    97.3931   6  12   0.0497   0.0499   0.1678  -0.0089  -0.0401  -0.0307   7.00    0.0
2018/11/07 01:23:15.000  -74.393398239  163.452949455    97.4042   6  12   0.0450   0.0452   0.1498  -0.0075  -0.0361  -0.0258   7.00    0.0
2018/11/07 01:23:30.000  -74.393398317  163.452949774    97.4199   6  12   0.0405   0.0406   0.1320  -0.0061  -0.0321  -0.0205   7.00    0.0
2018/11/07 01:23:45.000  -74.393398334  163.452950077    97.4300   6  12   0.0361   0.0360   0.1145  -0.0048  -0.0281  -0.0147   7.00    0.0
2018/11/07 01:24:00.000  -74.393398728  163.452951558    97.3913   1  12   0.0399   0.0376   0.1304  -0.0085  -0.0344  -0.0234   7.00    1.0
2018/11/07 01:24:15.000  -74.393398708  163.452951412    97.3637   1  12   0.0343   0.0317   0.1068  -0.0062  -0.0290  -0.0154   7.00    1.0
2018/11/07 01:24:30.000  -74.393398692  163.452951409    97.3650   1  12   0.0296   0.0265   0.0852  -0.0042  -0.0244  -0.0030   7.00    1.0
2018/11/07 01:24:45.000  -74.393398693  163.452951051    97.4034   1  12   0.0262   0.0226   0.0675  -0.0022  -0.0210   0.0120   7.00    1.0
2018/11/07 01:25:00.000  -74.393398657  163.452950924    97.4086   1  12   0.0247   0.0208   0.0579   0.0029  -0.0195   0.0144   7.00    1.0
2018/11/07 01:25:15.000  -74.393398687  163.452950735    97.4027   1  12   0.0261   0.0226   0.0674  -0.0015  -0.0212   0.0121   7.00    1.0
2018/11/07 01:25:30.000  -74.393398850  163.452950959    97.3842   1  12   0.0296   0.0266   0.0852  -0.0037  -0.0248  -0.0022   7.00    1.0
2018/11/07 01:25:45.000  -74.393398864  163.452951339    97.3926   1  12   0.0344   0.0319   0.1072  -0.0057  -0.0298  -0.0154   7.00    1.0
2018/11/07 01:26:00.000  -74.393398845  163.452951000    97.4046   1  12   0.0349   0.0377   0.1289  -0.0027  -0.0346  -0.0326   7.00    2.0
2018/11/07 01:26:15.000  -74.393398354  163.452949617    97.4586   6  12   0.0359   0.0356   0.1149  -0.0036  -0.0294  -0.0156   7.00    0.0
2018/11/07 01:26:30.000  -74.393398360  163.452949789    97.4483   6  12   0.0403   0.0401   0.1330  -0.0049  -0.0340  -0.0219   7.00    0.0
2018/11/07 01:26:45.000  -74.393398302  163.452949958    97.4552   6  12   0.0448   0.0447   0.1515  -0.0063  -0.0387  -0.0276   7.00    0.0
2018/11/07 01:27:00.000  -74.393398192  163.452949951    97.4863   6  12   0.0495   0.0493   0.1704  -0.0076  -0.0435  -0.0332   7.00    0.0
2018/11/07 01:27:15.000  -74.393398225  163.452949724    97.5172   6  12   0.0543   0.0541   0.1894  -0.0090  -0.0484  -0.0386   7.00    0.0
2018/11/07 01:27:30.000  -74.393398196  163.452949955    97.5118   6  12   0.0591   0.0588   0.2086  -0.0103  -0.0534  -0.0439   7.00    0.0
2018/11/07 01:27:45.000  -74.393398203  163.452949992    97.5196   6  12   0.0544   0.0540   0.1906  -0.0091  -0.0486  -0.0390   7.00    0.0
2018/11/07 01:28:00.000  -74.393398147  163.452949943    97.5368   6  12   0.0497   0.0493   0.1719  -0.0076  -0.0439  -0.0337   7.00    0.0
2018/11/07 01:28:15.000  -74.393398077  163.452949513    97.5015   6  12   0.0450   0.0446   0.1532  -0.0060  -0.0393  -0.0283   7.00    0.0
2018/11/07 01:28:30.000  -74.393398089  163.452949364    97.4650   6  12   0.0404   0.0400   0.1348  -0.0045  -0.0348  -0.0226   7.00    0.0
2018/11/07 01:28:45.000  -74.393398101  163.452949925    97.4654   6  12   0.0360   0.0356   0.1166  -0.0030  -0.0303  -0.0165   7.00    0.0
2018/11/07 01:29:00.000  -74.393398648  163.452950924    97.4016   1  12   0.0397   0.0349   0.1302   0.0060  -0.0302  -0.0277   7.00    2.0
2018/11/07 01:29:15.000  -74.393398654  163.452950447    97.3841   1  12   0.0340   0.0284   0.1047   0.0079  -0.0229  -0.0205   7.00    2.0
2018/11/07 01:29:30.000  -74.393398651  163.452950704    97.3762   1  12   0.0299   0.0268   0.0863  -0.0032  -0.0262   0.0038   7.00    1.0
2018/11/07 01:29:45.000  -74.393398707  163.452950857    97.3959   1  12   0.0265   0.0230   0.0678   0.0017  -0.0225   0.0131   7.00    1.0
2018/11/07 01:30:00.000  -74.393398696  163.452951042    97.3931   1  12   0.0248   0.0213   0.0577   0.0033  -0.0210   0.0153   7.00    1.0
2018/11/07 01:30:15.000  -74.393398726  163.452950841    97.3630   1  12   0.0265   0.0232   0.0677   0.0025  -0.0226   0.0131   7.00    1.0
2018/11/07 01:30:30.000  -74.393398718  163.452950955    97.3697   1  12   0.0300   0.0271   0.0863  -0.0028  -0.0264   0.0033   7.00    1.0
2018/11/07 01:30:45.000  -74.393398600  163.452950730    97.3882   1  12   0.0347   0.0323   0.1092  -0.0050  -0.0314  -0.0156   7.00    1.0
2018/11/07 01:31:00.000  -74.393398503  163.452950453    97.3688   1  12   0.0403   0.0382   0.1342  -0.0070  -0.0373  -0.0244   7.00    1.0
2018/11/07 01:31:15.000  -74.393397913  163.452949354    97.3867   6  12   0.0358   0.0353   0.1171  -0.0010  -0.0309  -0.0172   7.00    0.0
2018/11/07 01:31:30.000  -74.393397872  163.452949312    97.4423   6  12   0.0402   0.0397   0.1357  -0.0031  -0.0356  -0.0235   7.00    0.0
2018/11/07 01:31:45.000  -74.393397857  163.452949335    97.4798   6  12   0.0448   0.0443   0.1546  -0.0045  -0.0406  -0.0294   7.00    0.0
2018/11/07 01:32:00.000  -74.393397786  163.452949351    97.4751   6  12   0.0495   0.0489   0.1737  -0.0059  -0.0456  -0.0350   7.00    0.0
2018/11/07 01:32:15.000  -74.393397790  163.452949151    97.4318   6  12   0.0543   0.0537   0.1931  -0.0072  -0.0507  -0.0405   7.00    0.0
2018/11/07 01:32:30.000  -74.393397796  163.452949566    97.4043   6  12   0.0592   0.0585   0.2125  -0.0084  -0.0559  -0.0459   7.00    0.0
2018/11/07 01:32:45.000  -74.393397839  163.452949713    97.4082   6  12   0.0543   0.0538   0.1927  -0.0068  -0.0511  -0.0406   7.00    0.0
2018/11/07 01:33:00.000  -74.393397839  163.452949746    97.4229   6  12   0.0495   0.0491   0.1735  -0.0054  -0.0461  -0.0352   7.00    0.0
2018/11/07 01:33:15.000  -74.393397934  163.452949420    97.3601   6  12   0.0447   0.0445   0.1545  -0.0039  -0.0410  -0.0297   7.00    0.0
2018/11/07 01:33:30.000  -74.393398000  163.452949295    97.3519   6  12   0.0402   0.0401   0.1357  -0.0027  -0.0359  -0.0239   7.00    0.0
2018/11/07 01:33:45.000  -74.393398035  163.452949415    97.3377   6  12   0.0358   0.0361   0.1175  -0.0027  -0.0304  -0.0179   7.00    0.0
2018/11/07 01:34:00.000  -74.393398580  163.452950226    97.3104   1  12   0.0398   0.0350   0.1301   0.0085  -0.0327  -0.0278   7.00    2.0
2018/11/07 01:34:15.000  -74.393398611  163.452950351    97.3359   1  12   0.0349   0.0297   0.1057   0.0052  -0.0221  -0.0235   7.00    1.0
2018/11/07 01:34:30.000  -74.393398614  163.452950015    97.3723   1  12   0.0229   0.0234   0.0813  -0.0087  -0.0154  -0.0228   6.00    2.0
2018/11/07 01:34:45.000  -74.393398153  163.452949506    97.4077   6  12   0.0221   0.0205   0.0550   0.0038  -0.0168   0.0151   6.00    0.0
2018/11/07 01:35:00.000  -74.393398568  163.452950512    97.3607   1  12   0.0248   0.0210   0.0571  -0.0049  -0.0149   0.0171   7.00    1.0
2018/11/07 01:35:15.000  -74.393398584  163.452950376    97.3743   1  12   0.0265   0.0230   0.0668  -0.0055  -0.0175   0.0151   7.00    1.0
2018/11/07 01:35:30.000  -74.393398069  163.452948244    97.4616   1  12   0.0230   0.0180   0.0604   0.0099  -0.0041   0.0073   7.00    1.0
2018/11/07 01:35:45.000  -74.393398482  163.452949629    97.4059   1  12   0.0333   0.0297   0.1052   0.0084  -0.0232  -0.0211   7.00    2.0
2018/11/07 01:36:00.000  -74.393398497  163.452949311    97.3937   1  12   0.0391   0.0360   0.1308   0.0075  -0.0314  -0.0283   6.00    2.0
2018/11/07 01:36:15.000  -74.393398035  163.452948210    97.4600   6  12   0.0355   0.0347   0.1168   0.0042  -0.0325  -0.0176   7.00    0.0
2018/11/07 01:36:30.000  -74.393398038  163.452947899    97.4652   6  12   0.0399   0.0391   0.1352   0.0037  -0.0374  -0.0240   7.00    0.0
2018/11/07 01:36:45.000  -74.393398066  163.452947924    97.4451   6  12   0.0445   0.0437   0.1540   0.0027  -0.0425  -0.0298   7.00    0.0
2018/11/07 01:37:00.000  -74.393398086  163.452948213    97.4437   6  12   0.0493   0.0483   0.1730  -0.0011  -0.0476  -0.0354   7.00    1.0
2018/11/07 01:37:15.000  -74.393398087  163.452948291    97.4492   6  12   0.0541   0.0531   0.1921  -0.0033  -0.0528  -0.0408   7.00    0.0
2018/11/07 01:37:30.000  -74.393398152  163.452948532    97.4188   6  12   0.0590   0.0579   0.2112  -0.0047  -0.0581  -0.0462   7.00    0.0
2018/11/07 01:37:45.000  -74.393398154  163.452948243    97.4008   6  12   0.0540   0.0531   0.1919  -0.0024  -0.0528  -0.0407   8.00    0.0
2018/11/07 01:38:00.000  -74.393398118  163.452947941    97.4163   6  12   0.0492   0.0483   0.1727   0.0025  -0.0477  -0.0353   8.00    0.0
2018/11/07 01:38:15.000  -74.393398091  163.452947810    97.4079   6  12   0.0445   0.0436   0.1536   0.0039  -0.0426  -0.0296   8.00    0.0
2018/11/07 01:38:30.000  -74.393398109  163.452947649    97.4323   6  12   0.0399   0.0390   0.1348   0.0046  -0.0377  -0.0238   7.00    0.0
2018/11/07 01:38:45.000  -74.393398163  163.452947930    97.4349   6  12   0.0355   0.0346   0.1165   0.0050  -0.0329  -0.0174   8.00    0.0
2018/11/07 01:39:00.000  -74.393398799  163.452948920    97.3990   1  12   0.0400   0.0352   0.1292   0.0102  -0.0339  -0.0275   7.00    2.0
2018/11/07 01:39:15.000  -74.393398722  163.452949107    97.4018   1  12   0.0343   0.0287   0.1035   0.0107  -0.0265  -0.0200   7.00    2.0
2018/11/07 01:39:30.000  -74.393398603  163.452949497    97.3892   1  12   0.0296   0.0230   0.0797   0.0112  -0.0194  -0.0123   7.00    2.0
2018/11/07 01:39:45.000  -74.393398547  163.452949883    97.3941   1  12   0.0261   0.0182   0.0598   0.0112  -0.0132   0.0016   7.00    2.0
2018/11/07 01:40:00.000  -74.393398546  163.452950167    97.4102   1  12   0.0248   0.0160   0.0489   0.0115  -0.0087   0.0074   7.00    2.0
2018/11/07 01:40:15.000  -74.393398548  163.452949957    97.4287   1  12   0.0263   0.0183   0.0598   0.0113  -0.0134  -0.0012   7.00    2.0
2018/11/07 01:40:30.000  -74.393398581  163.452949734    97.4241   1  12   0.0297   0.0231   0.0797   0.0113  -0.0198  -0.0123   7.00    2.0
2018/11/07 01:40:45.000  -74.393398527  163.452949331    97.4266   1  12   0.0345   0.0289   0.1032   0.0110  -0.0270  -0.0200   7.00    2.0
2018/11/07 01:41:00.000  -74.393398434  163.452949654    97.4151   1  12   0.0401   0.0353   0.1283   0.0107  -0.0343  -0.0273   7.00    2.0
2018/11/07 01:41:15.000  -74.393397760  163.452948647    97.4599   6  12   0.0353   0.0342   0.1158   0.0054  -0.0333  -0.0175   8.00    0.0
2018/11/07 01:41:30.000  -74.393397721  163.452948931    97.4316   6  12   0.0397   0.0386   0.1336   0.0053  -0.0381  -0.0237   7.00    0.0
2018/11/07 01:41:45.000  -74.393397711  163.452949084    97.4453   6  12   0.0443   0.0432   0.1518   0.0050  -0.0431  -0.0294   7.00    0.0
2018/11/07 01:42:00.000  -74.393397669  163.452949117    97.4297   6  12   0.0490   0.0478   0.1701   0.0045  -0.0482  -0.0349   7.00    0.0
2018/11/07 01:42:15.000  -74.393397703  163.452948796    97.4283   6  12   0.0538   0.0526   0.1886   0.0040  -0.0534  -0.0401   7.00    0.0
2018/11/07 01:42:30.000  -74.393397645  163.452948740    97.4491   6  12   0.0587   0.0574   0.2070   0.0032  -0.0586  -0.0453   7.00    0.0
2018/11/07 01:42:45.000  -74.393397752  163.452948879    97.4447   6  12   0.0538   0.0526   0.1878   0.0043  -0.0535  -0.0398   7.00    0.0
2018/11/07 01:43:00.000  -74.393397737  163.452948908    97.4448   6  12   0.0490   0.0478   0.1690   0.0050  -0.0483  -0.0344   7.00    0.0
2018/11/07 01:43:15.000  -74.393397827  163.452949441    97.4364   6  12   0.0443   0.0431   0.1505   0.0055  -0.0433  -0.0288   7.00    0.0
2018/11/07 01:43:30.000  -74.393397842  163.452949515    97.4341   6  12   0.0397   0.0386   0.1323   0.0058  -0.0384  -0.0230   7.00    0.0
2018/11/07 01:43:45.000  -74.393397912  163.452949260    97.4440   6  12   0.0353   0.0342   0.1147   0.0059  -0.0337  -0.0167   7.00    0.0
2018/11/07 01:44:00.000  -74.393398380  163.452949746    97.4222   1  12   0.0410   0.0364   0.1280   0.0080  -0.0324  -0.0292   5.00    1.0
2018/11/07 01:44:15.000  -74.393398042  163.452949229    97.4596   6  12   0.0274   0.0262   0.0821   0.0058  -0.0252   0.0084   7.00    0.0
2018/11/07 01:44:30.000  -74.393398066  163.452949552    97.4472   6  12   0.0243   0.0229   0.0683   0.0056  -0.0218   0.0132   7.00    0.0
