% program   : RTKLIB ver.2.4.3
% inp file  : _by_type/_obs/hillary/20181110_20181112.18o
% inp file  : _by_type/_sp3+clk/igs20266.clk
% inp file  : _by_type/_sp3+clk/igs20266.sp3
% inp file  : _by_type/_nav/hillary/20181110_20181112.18n
% obs start : 2018/11/10 00:00:00.0 GPST (week2026 518400.0s)
% obs end   : 2018/11/12 23:59:45.0 GPST (week2027 172785.0s)
% pos mode  : ppp-kinematic
% solution  : combined
% elev mask : 15.0 deg
% dynamics  : off
% tidecorr  : on
% tropo opt : est ztd+grad
% ephemeris : precise
% navi sys  : gps glonass
% antenna1  :                       ( 0.0000  0.0000  0.0000)
%
% (lat/lon/height=WGS84/ellipsoidal,Q=1:fix,2:float,3:sbas,4:dgps,5:single,6:ppp,ns=# of satellites)
%  GPST                  latitude(deg) longitude(deg)  height(m)   Q  ns   sdn(m)   sde(m)   sdu(m)  sdne(m)  sdeu(m)  sdun(m) age(s)  ratio
2018/11/10 00:00:00.000  -74.393409433  163.452934420    97.1955   6  10   0.0719   0.0744   0.1934  -0.0237   0.0627  -0.0223   0.00    0.0
2018/11/10 00:00:15.000  -74.393409267  163.452933624    97.1326   6  10   0.0741   0.0761   0.2035  -0.0268   0.0669  -0.0360   0.00    0.0
2018/11/10 00:00:30.000  -74.393409225  163.452933404    97.1128   6  10   0.0765   0.0780   0.2173  -0.0280   0.0705  -0.0454   0.00    0.0
2018/11/10 00:00:45.000  -74.393409137  163.452933357    97.0780   6  10   0.0802   0.0815   0.2378  -0.0304   0.0755  -0.0573   0.00    0.0
2018/11/10 00:01:00.000  -74.393409041  163.452933129    96.9755   6  10   0.0843   0.0858   0.2587  -0.0333   0.0819  -0.0671   1.00    0.0
2018/11/10 00:01:15.000  -74.393409085  163.452932612    96.9691   6  10   0.0875   0.0903   0.2636  -0.0384   0.0939  -0.0654   1.00    0.0
2018/11/10 00:01:30.000  -74.393409223  163.452932977    96.9453   6  10   0.0923   0.0956   0.2846  -0.0420   0.1025  -0.0735   1.00    0.0
2018/11/10 00:01:45.000  -74.393409159  163.452933366    96.9134   6  10   0.0975   0.1013   0.3068  -0.0457   0.1114  -0.0815   2.00    0.0
2018/11/10 00:02:00.000  -74.393409346  163.452933985    96.9942   6  10   0.1029   0.1072   0.3298  -0.0494   0.1205  -0.0896   2.00    0.0
2018/11/10 00:02:15.000  -74.393409180  163.452933701    96.9393   6  10   0.1084   0.1132   0.3532  -0.0531   0.1295  -0.0976   3.00    0.0
2018/11/10 00:02:30.000  -74.393409082  163.452932727    96.8766   6  10   0.1141   0.1193   0.3768  -0.0566   0.1385  -0.1055   4.00    0.0
2018/11/10 00:02:45.000  -74.393409038  163.452932992    96.8488   6  10   0.1080   0.1124   0.3542  -0.0526   0.1292  -0.0980   3.00    0.0
2018/11/10 00:03:00.000  -74.393409120  163.452933243    96.8849   6  10   0.1023   0.1060   0.3321  -0.0488   0.1204  -0.0908   4.00    0.0
2018/11/10 00:03:15.000  -74.393409149  163.452933474    96.9312   6  10   0.0970   0.1000   0.3109  -0.0451   0.1119  -0.0838   4.00    0.0
2018/11/10 00:03:30.000  -74.393409162  163.452933788    96.9604   6  10   0.0924   0.0944   0.2910  -0.0415   0.1037  -0.0775   3.00    0.0
2018/11/10 00:03:45.000  -74.393409348  163.452934460    97.0269   6  10   0.0891   0.0894   0.2733  -0.0381   0.0959  -0.0732   3.00    0.0
2018/11/10 00:04:00.000  -74.393409397  163.452934819    97.0162   6  10   0.0846   0.0850   0.2570  -0.0353   0.0894  -0.0666   2.00    0.0
2018/11/10 00:04:15.000  -74.393409394  163.452934677    97.0159   6  10   0.0796   0.0814   0.2419  -0.0330   0.0837  -0.0576   2.00    0.0
2018/11/10 00:04:30.000  -74.393409341  163.452934556    97.0448   6  10   0.0771   0.0786   0.2312  -0.0309   0.0791  -0.0532   2.00    0.0
2018/11/10 00:04:45.000  -74.393409311  163.452934159    97.0261   6  10   0.0756   0.0769   0.2243  -0.0294   0.0758  -0.0504   2.00    0.0
2018/11/10 00:05:00.000  -74.393409316  163.452933955    97.1200   6  10   0.0748   0.0764   0.2212  -0.0288   0.0744  -0.0484   2.00    0.0
2018/11/10 00:05:15.000  -74.393409342  163.452934138    97.1769   6  10   0.0757   0.0778   0.2268  -0.0303   0.0766  -0.0516   2.00    0.0
2018/11/10 00:05:30.000  -74.393409443  163.452933915    97.1842   6  10   0.0781   0.0807   0.2365  -0.0332   0.0808  -0.0571   1.00    0.0
2018/11/10 00:05:45.000  -74.393409458  163.452934215    97.2026   6  10   0.0801   0.0826   0.2476  -0.0335   0.0839  -0.0602   0.00    0.0
2018/11/10 00:06:00.000  -74.393409410  163.452934530    97.2440   6  10   0.0840   0.0870   0.2632  -0.0355   0.0886  -0.0675   0.00    0.0
2018/11/10 00:06:15.000  -74.393409370  163.452935110    97.2510   6  10   0.0859   0.0905   0.2801  -0.0391   0.0962  -0.0720   0.00    0.0
2018/11/10 00:06:30.000  -74.393409498  163.452935453    97.3047   6  10   0.0895   0.0966   0.2982  -0.0414   0.1019  -0.0771   0.00    0.0
2018/11/10 00:06:45.000  -74.393409608  163.452935712    97.3347   6  10   0.0935   0.1020   0.3168  -0.0439   0.1087  -0.0824   0.00    0.0
2018/11/10 00:07:00.000  -74.393409507  163.452935126    97.2706   6  10   0.0977   0.1040   0.3353  -0.0469   0.1185  -0.0878   0.00    0.0
2018/11/10 00:07:15.000  -74.393409536  163.452934962    97.2348   6  10   0.1021   0.1091   0.3551  -0.0497   0.1261  -0.0935   0.00    0.0
2018/11/10 00:07:30.000  -74.393409561  163.452934944    97.2281   6  10   0.1066   0.1143   0.3753  -0.0525   0.1338  -0.0995   0.00    0.0
2018/11/10 00:07:45.000  -74.393409523  163.452934944    97.1920   6  10   0.1018   0.1092   0.3568  -0.0497   0.1266  -0.0940   0.00    0.0
2018/11/10 00:08:00.000  -74.393409408  163.452934141    97.1063   6  10   0.0972   0.1046   0.3391  -0.0470   0.1193  -0.0888   0.00    0.0
2018/11/10 00:08:15.000  -74.393409414  163.452933368    97.0560   6  10   0.0929   0.1014   0.3223  -0.0442   0.1113  -0.0838   2.00    0.0
2018/11/10 00:08:30.000  -74.393409271  163.452933284    97.0396   6  10   0.0888   0.0937   0.3052  -0.0421   0.1076  -0.0786   1.00    0.0
2018/11/10 00:08:45.000  -74.393409277  163.452933419    97.0854   6  10   0.0852   0.0895   0.2902  -0.0397   0.1016  -0.0738   1.00    0.0
2018/11/10 00:09:00.000  -74.393409278  163.452934001    97.0702   6  10   0.0820   0.0859   0.2767  -0.0375   0.0961  -0.0691   1.00    0.0
2018/11/10 00:09:15.000  -74.393409393  163.452934348    97.0995   6  10   0.0792   0.0830   0.2650  -0.0355   0.0913  -0.0645   2.00    0.0
2018/11/10 00:09:30.000  -74.393409461  163.452933684    97.1044   6  10   0.0770   0.0808   0.2552  -0.0336   0.0869  -0.0599   2.00    0.0
2018/11/10 00:09:45.000  -74.393409469  163.452933837    97.0857   6  10   0.0744   0.0795   0.2434  -0.0320   0.0834  -0.0499   2.00    0.0
2018/11/10 00:10:00.000  -74.393409405  163.452934029    97.0876   6  10   0.0731   0.0788   0.2381  -0.0309   0.0807  -0.0427   1.00    0.0
2018/11/10 00:10:15.000  -74.393409492  163.452933730    97.0922   6  10   0.0737   0.0804   0.2417  -0.0321   0.0814  -0.0400   1.00    0.0
2018/11/10 00:10:30.000  -74.393409429  163.452933071    97.1279   6  10   0.0755   0.0835   0.2501  -0.0348   0.0829  -0.0399   0.00    0.0
2018/11/10 00:10:45.000  -74.393409513  163.452932642    97.1138   6  10   0.0778   0.0876   0.2594  -0.0380   0.0858  -0.0433   0.00    0.0
2018/11/10 00:11:00.000  -74.393409441  163.452932205    97.0830   6  10   0.0811   0.0904   0.2723  -0.0404   0.0937  -0.0447   0.00    0.0
2018/11/10 00:11:15.000  -74.393409379  163.452931363    97.0422   6  10   0.0848   0.0950   0.2866  -0.0445   0.0982  -0.0497   0.00    0.0
2018/11/10 00:11:30.000  -74.393409405  163.452931628    97.0721   6  10   0.0884   0.0991   0.3057  -0.0464   0.1063  -0.0542   0.00    0.0
2018/11/10 00:11:45.000  -74.393409402  163.452931652    97.0939   6  10   0.0931   0.1043   0.3229  -0.0510   0.1128  -0.0625   0.00    0.0
2018/11/10 00:12:00.000  -74.393409482  163.452931913    97.0707   6  10   0.0997   0.1107   0.3488  -0.0569   0.1219  -0.0667   0.00    0.0
2018/11/10 00:12:15.000  -74.393409327  163.452931453    97.1164   6  10   0.1034   0.1164   0.3443  -0.0614   0.1286  -0.0893   0.00    0.0
2018/11/10 00:12:30.000  -74.393409083  163.452931073    97.0702   6  10   0.1089   0.1224   0.3670  -0.0659   0.1352  -0.0965   0.00    0.0
2018/11/10 00:12:45.000  -74.393409220  163.452932232    97.0728   6  10   0.1003   0.1137   0.3531  -0.0546   0.1222  -0.0895   0.00    0.0
2018/11/10 00:13:00.000  -74.393409224  163.452933156    97.0839   6  10   0.0945   0.1080   0.3317  -0.0500   0.1189  -0.0843   0.00    0.0
2018/11/10 00:13:15.000  -74.393409194  163.452933631    97.1263   6  10   0.0907   0.1058   0.3215  -0.0482   0.1116  -0.0793   1.00    0.0
2018/11/10 00:13:30.000  -74.393409502  163.452933864    97.1844   6  11   0.0861   0.1047   0.3069  -0.0480   0.1184  -0.0844   1.00    0.0
2018/11/10 00:13:45.000  -74.393409478  163.452933744    97.1568   6  11   0.0861   0.1018   0.3099  -0.0515   0.1293  -0.0958   0.00    0.0
2018/11/10 00:14:00.000  -74.393409642  163.452933384    97.2921   6  11   0.0807   0.0892   0.2477  -0.0403   0.0954  -0.0718   0.00    0.0
2018/11/10 00:14:15.000  -74.393409611  163.452933167    97.2691   6  11   0.0771   0.0845   0.2307  -0.0356   0.0885  -0.0636   0.00    0.0
2018/11/10 00:14:30.000  -74.393409594  163.452933774    97.2273   6  11   0.0749   0.0817   0.2188  -0.0338   0.0844  -0.0572   0.00    0.0
2018/11/10 00:14:45.000  -74.393409486  163.452933739    97.1336   6  11   0.0735   0.0800   0.2142  -0.0320   0.0817  -0.0549   0.00    0.0
2018/11/10 00:15:00.000  -74.393409261  163.452933590    97.0442   6  11   0.0729   0.0794   0.2113  -0.0315   0.0819  -0.0552   2.00    0.0
2018/11/10 00:15:15.000  -74.393409081  163.452932502    96.9473   6  11   0.0729   0.0797   0.2215  -0.0310   0.0847  -0.0577   1.00    0.0
2018/11/10 00:15:30.000  -74.393408887  163.452932322    96.8063   6  11   0.0745   0.0820   0.2381  -0.0335   0.0915  -0.0649   2.00    0.0
2018/11/10 00:15:45.000  -74.393408975  163.452932664    96.7703   6  11   0.0766   0.0847   0.2541  -0.0357   0.0977  -0.0715   2.00    0.0
2018/11/10 00:16:00.000  -74.393408857  163.452932087    96.6330   6  11   0.0790   0.0879   0.2704  -0.0377   0.1033  -0.0781   2.00    0.0
2018/11/10 00:16:15.000  -74.393408720  163.452932201    96.5292   6  11   0.0821   0.0914   0.2874  -0.0399   0.1092  -0.0852   3.00    0.0
2018/11/10 00:16:30.000  -74.393408668  163.452932970    96.4926   6  11   0.0852   0.0950   0.3034  -0.0427   0.1162  -0.0912   3.00    0.0
2018/11/10 00:16:45.000  -74.393408670  163.452933006    96.4979   6  11   0.0887   0.0995   0.3218  -0.0449   0.1222  -0.0982   3.00    0.0
2018/11/10 00:17:00.000  -74.393408627  163.452931073    96.5583   6  11   0.0920   0.1034   0.3364  -0.0489   0.1318  -0.1030   3.00    0.0
2018/11/10 00:17:15.000  -74.393408623  163.452930485    96.5673   6  11   0.0957   0.1080   0.3552  -0.0521   0.1398  -0.1097   3.00    0.0
2018/11/10 00:17:30.000  -74.393408782  163.452930697    96.5841   6  11   0.0998   0.1129   0.3751  -0.0554   0.1479  -0.1171   3.00    0.0
2018/11/10 00:17:45.000  -74.393408858  163.452930934    96.5579   6  11   0.0956   0.1084   0.3573  -0.0525   0.1407  -0.1100   3.00    0.0
2018/11/10 00:18:00.000  -74.393408755  163.452930755    96.4997   6  11   0.0916   0.1039   0.3400  -0.0496   0.1338  -0.1034   3.00    0.0
2018/11/10 00:18:15.000  -74.393408681  163.452930751    96.4742   6  11   0.0879   0.0996   0.3237  -0.0469   0.1272  -0.0970   3.00    0.0
2018/11/10 00:18:30.000  -74.393408727  163.452930979    96.5442   6  11   0.0845   0.0957   0.3086  -0.0443   0.1211  -0.0910   3.00    0.0
2018/11/10 00:18:45.000  -74.393408900  163.452931577    96.5895   6  11   0.0814   0.0923   0.2949  -0.0418   0.1154  -0.0853   3.00    0.0
2018/11/10 00:19:00.000  -74.393408947  163.452931110    96.6229   6  11   0.0787   0.0895   0.2829  -0.0395   0.1101  -0.0801   3.00    0.0
2018/11/10 00:19:15.000  -74.393409059  163.452931353    96.6738   6  11   0.0764   0.0866   0.2725  -0.0377   0.1072  -0.0756   2.00    0.0
2018/11/10 00:19:30.000  -74.393409009  163.452931542    96.6521   6  11   0.0746   0.0843   0.2639  -0.0356   0.1032  -0.0712   2.00    0.0
2018/11/10 00:19:45.000  -74.393409051  163.452931440    96.6597   6  11   0.0731   0.0826   0.2573  -0.0338   0.1000  -0.0673   2.00    0.0
2018/11/10 00:20:00.000  -74.393409101  163.452931871    96.7184   6  11   0.0723   0.0817   0.2536  -0.0324   0.0978  -0.0646   3.00    0.0
2018/11/10 00:20:15.000  -74.393409063  163.452931942    96.7093   6  11   0.0728   0.0822   0.2584  -0.0329   0.0990  -0.0661   4.00    0.0
2018/11/10 00:20:30.000  -74.393408964  163.452931584    96.6550   6  11   0.0740   0.0838   0.2668  -0.0342   0.1020  -0.0696   4.00    0.0
2018/11/10 00:20:45.000  -74.393408992  163.452931139    96.6416   6  11   0.0760   0.0860   0.2778  -0.0364   0.1061  -0.0745   5.00    0.0
2018/11/10 00:21:00.000  -74.393408939  163.452931261    96.6483   6  11   0.0786   0.0890   0.2911  -0.0391   0.1114  -0.0806   5.00    0.0
2018/11/10 00:21:15.000  -74.393408864  163.452930977    96.6537   6  11   0.0817   0.0926   0.3066  -0.0425   0.1174  -0.0873   5.00    0.0
2018/11/10 00:21:30.000  -74.393408903  163.452930592    96.6407   6  11   0.0857   0.0974   0.3249  -0.0471   0.1262  -0.0970   5.00    0.0
2018/11/10 00:21:45.000  -74.393408833  163.452929433    96.5549   6  11   0.0892   0.1014   0.3428  -0.0499   0.1332  -0.1043   5.00    0.0
2018/11/10 00:22:00.000  -74.393408750  163.452929112    96.5203   6  11   0.0932   0.1060   0.3622  -0.0534   0.1410  -0.1123   5.00    0.0
2018/11/10 00:22:15.000  -74.393408766  163.452929502    96.4875   6  11   0.0976   0.1110   0.3826  -0.0572   0.1493  -0.1207   5.00    0.0
2018/11/10 00:22:30.000  -74.393408689  163.452928459    96.4597   6  11   0.1022   0.1163   0.4037  -0.0611   0.1578  -0.1292   5.00    0.0
2018/11/10 00:22:45.000  -74.393408763  163.452928353    96.4663   6  11   0.0982   0.1116   0.3853  -0.0579   0.1484  -0.1207   5.00    0.0
2018/11/10 00:23:00.000  -74.393408888  163.452928221    96.5153   6  11   0.0950   0.1081   0.3689  -0.0561   0.1404  -0.1140   5.00    0.0
2018/11/10 00:23:15.000  -74.393409030  163.452928477    96.6054   6  11   0.0906   0.1038   0.3537  -0.0513   0.1306  -0.1060   5.00    0.0
2018/11/10 00:23:30.000  -74.393409359  163.452930137    96.6739   6  11   0.0866   0.0985   0.3373  -0.0454   0.1265  -0.1020   0.00    0.0
2018/11/10 00:23:45.000  -74.393408913  163.452929399    96.5442   6  11   0.0886   0.0968   0.3499  -0.0517   0.1348  -0.1155   0.00    0.0
2018/11/10 00:24:00.000  -74.393409085  163.452930632    96.6395   6  11   0.0824   0.0911   0.3228  -0.0442   0.1216  -0.0987   0.00    0.0
2018/11/10 00:24:15.000  -74.393409121  163.452931411    96.7176   6  11   0.0778   0.0873   0.3037  -0.0390   0.1133  -0.0861   1.00    0.0
2018/11/10 00:24:30.000  -74.393409269  163.452931577    96.7290   6  11   0.0744   0.0838   0.2888  -0.0345   0.1066  -0.0760   1.00    0.0
2018/11/10 00:24:45.000  -74.393409356  163.452932148    96.8125   6  11   0.0720   0.0816   0.2776  -0.0309   0.1011  -0.0678   2.00    0.0
2018/11/10 00:25:00.000  -74.393409436  163.452932440    96.8621   6  11   0.0708   0.0805   0.2708  -0.0289   0.0980  -0.0626   2.00    0.0
2018/11/10 00:25:15.000  -74.393409522  163.452933064    96.9633   6  11   0.0714   0.0813   0.2735  -0.0297   0.0993  -0.0644   2.00    0.0
2018/11/10 00:25:30.000  -74.393409546  163.452932417    96.9408   6  11   0.0731   0.0834   0.2815  -0.0322   0.1035  -0.0694   2.00    0.0
2018/11/10 00:25:45.000  -74.393409503  163.452931835    96.9404   6  11   0.0758   0.0863   0.2934  -0.0354   0.1088  -0.0768   2.00    0.0
2018/11/10 00:26:00.000  -74.393409532  163.452931687    96.9314   6  11   0.0864   0.0931   0.3415  -0.0488   0.1302  -0.1115   3.00    0.0
2018/11/10 00:26:15.000  -74.393409326  163.452931472    96.8676   6  11   0.0931   0.0988   0.3728  -0.0563   0.1434  -0.1289   2.00    0.0
2018/11/10 00:26:30.000  -74.393409543  163.452931679    96.9252   6  11   0.0945   0.1048   0.3770  -0.0579   0.1469  -0.1278   2.00    0.0
2018/11/10 00:26:45.000  -74.393409392  163.452931472    96.8237   6  11   0.1113   0.1157   0.4520  -0.0762   0.1808  -0.1730   3.00    0.0
2018/11/10 00:27:00.000  -74.393409559  163.452931280    96.8645   6  11   0.1098   0.1168   0.4480  -0.0720   0.1765  -0.1648   3.00    0.0
2018/11/10 00:27:15.000  -74.393408629  163.452928486    96.3858   6  11   0.2002   0.1988   0.8983  -0.1766   0.3925  -0.3950   3.00    0.0
2018/11/10 00:27:30.000  -74.393408559  163.452928758    96.4158   6  11   0.1817   0.1879   0.8177  -0.1576   0.3578  -0.3509   3.00    0.0
2018/11/10 00:27:45.000  -74.393408704  163.452928907    96.4593   6  11   0.1638   0.1650   0.7224  -0.1350   0.3092  -0.3072   3.00    0.0
2018/11/10 00:28:00.000  -74.393408128  163.452928004    96.1846   6  11   0.1416   0.1492   0.6278  -0.1140   0.2684  -0.2575   2.00    0.0
2018/11/10 00:28:15.000  -74.393408566  163.452929316    96.4032   6  11   0.1325   0.1428   0.5906  -0.1069   0.2538  -0.2380   2.00    0.0
2018/11/10 00:28:30.000  -74.393408626  163.452929302    96.4376   6  11   0.1207   0.1288   0.5309  -0.0930   0.2231  -0.2079   1.00    0.0
2018/11/10 00:28:45.000  -74.393408790  163.452931182    96.6471   6  11   0.1173   0.1255   0.5217  -0.0927   0.2212  -0.2055   1.00    0.0
2018/11/10 00:29:00.000  -74.393408960  163.452931686    96.7121   6  11   0.1167   0.1190   0.5287  -0.0915   0.2198  -0.2096   1.00    0.0
2018/11/10 00:29:15.000  -74.393409062  163.452931604    96.7684   6  11   0.1183   0.1205   0.5384  -0.0951   0.2263  -0.2159   1.00    0.0
2018/11/10 00:29:30.000  -74.393408386  163.452929893    96.4906   6  11   0.1004   0.1019   0.4500  -0.0719   0.1799  -0.1701   1.00    0.0
2018/11/10 00:29:45.000  -74.393408585  163.452930310    96.5922   6  11   0.0978   0.1003   0.4383  -0.0704   0.1763  -0.1644   1.00    0.0
2018/11/10 00:30:00.000  -74.393408542  163.452930371    96.5746   6  11   0.0970   0.0997   0.4339  -0.0698   0.1749  -0.1624   1.00    0.0
2018/11/10 00:30:15.000  -74.393408614  163.452930614    96.5303   6  11   0.0972   0.1002   0.4344  -0.0702   0.1755  -0.1624   3.00    0.0
2018/11/10 00:30:30.000  -74.393408536  163.452930020    96.4936   6  11   0.0980   0.1015   0.4370  -0.0707   0.1764  -0.1630   3.00    0.0
2018/11/10 00:30:45.000  -74.393408594  163.452929849    96.5199   6  11   0.0992   0.1037   0.4405  -0.0715   0.1780  -0.1640   3.00    0.0
2018/11/10 00:31:00.000  -74.393408681  163.452929612    96.5193   6  11   0.1009   0.1069   0.4454  -0.0725   0.1807  -0.1652   3.00    0.0
2018/11/10 00:31:15.000  -74.393408673  163.452929468    96.5292   6  11   0.1032   0.1095   0.4508  -0.0733   0.1824  -0.1667   3.00    0.0
2018/11/10 00:31:30.000  -74.393408802  163.452928603    96.5651   6  11   0.1056   0.1131   0.4580  -0.0753   0.1857  -0.1690   4.00    0.0
2018/11/10 00:31:45.000  -74.393408829  163.452928288    96.6044   6  11   0.1089   0.1183   0.4675  -0.0778   0.1903  -0.1712   4.00    0.0
2018/11/10 00:32:00.000  -74.393408885  163.452929017    96.6113   6  11   0.1115   0.1193   0.4770  -0.0773   0.1919  -0.1725   3.00    0.0
2018/11/10 00:32:15.000  -74.393408825  163.452929289    96.6772   6  11   0.1152   0.1241   0.4892  -0.0794   0.1982  -0.1761   3.00    0.0
2018/11/10 00:32:30.000  -74.393408734  163.452928732    96.6417   6  11   0.1184   0.1308   0.5044  -0.0812   0.2067  -0.1807   3.00    0.0
2018/11/10 00:32:45.000  -74.393408611  163.452929790    96.6724   6  11   0.1162   0.1300   0.4962  -0.0813   0.2064  -0.1814   3.00    0.0
2018/11/10 00:33:00.000  -74.393408627  163.452930862    96.7681   6  11   0.1084   0.1172   0.4535  -0.0701   0.1805  -0.1618   3.00    0.0
2018/11/10 00:33:15.000  -74.393408574  163.452931345    96.7745   6  11   0.1045   0.1091   0.4362  -0.0659   0.1689  -0.1553   5.00    0.0
2018/11/10 00:33:30.000  -74.393408545  163.452931571    96.7700   6  11   0.1013   0.1050   0.4234  -0.0639   0.1633  -0.1514   5.00    0.0
2018/11/10 00:33:45.000  -74.393408430  163.452931338    96.7364   6  11   0.0984   0.0994   0.4113  -0.0619   0.1564  -0.1489   5.00    0.0
2018/11/10 00:34:00.000  -74.393408438  163.452931287    96.7293   6  11   0.0960   0.0959   0.4025  -0.0607   0.1522  -0.1463   5.00    0.0
2018/11/10 00:34:15.000  -74.393408439  163.452931278    96.6984   6  11   0.0942   0.0935   0.3957  -0.0594   0.1489  -0.1440   5.00    0.0
2018/11/10 00:34:30.000  -74.393408385  163.452931224    96.6783   6  11   0.0929   0.0903   0.3894  -0.0580   0.1446  -0.1420   5.00    0.0
2018/11/10 00:34:45.000  -74.393408481  163.452931398    96.6578   6  11   0.0920   0.0889   0.3857  -0.0575   0.1428  -0.1412   5.00    0.0
2018/11/10 00:35:00.000  -74.393408490  163.452931425    96.6596   6  11   0.0916   0.0884   0.3858  -0.0573   0.1424  -0.1409   5.00    0.0
2018/11/10 00:35:15.000  -74.393408394  163.452930648    96.5524   6  11   0.0918   0.0892   0.3907  -0.0577   0.1440  -0.1418   6.00    0.0
2018/11/10 00:35:30.000  -74.393408364  163.452930761    96.5462   6  11   0.0925   0.0908   0.3965  -0.0584   0.1462  -0.1430   6.00    0.0
2018/11/10 00:35:45.000  -74.393408395  163.452930826    96.5341   6  11   0.0935   0.0930   0.4037  -0.0592   0.1486  -0.1443   6.00    0.0
2018/11/10 00:36:00.000  -74.393408303  163.452930874    96.5059   6  11   0.0952   0.0964   0.4116  -0.0610   0.1525  -0.1466   6.00    0.0
2018/11/10 00:36:15.000  -74.393408288  163.452931041    96.5507   6  11   0.0974   0.1014   0.4233  -0.0636   0.1586  -0.1499   6.00    0.0
2018/11/10 00:36:30.000  -74.393408245  163.452931005    96.5438   6  11   0.0997   0.1058   0.4317  -0.0655   0.1606  -0.1507   6.00    0.0
2018/11/10 00:36:45.000  -74.393408420  163.452932713    96.4865   6  11   0.1013   0.1078   0.4592  -0.0645   0.1617  -0.1523   0.00    0.0
2018/11/10 00:37:00.000  -74.393408517  163.452933030    96.5785   6  11   0.1007   0.1057   0.4484  -0.0584   0.1537  -0.1448   0.00    0.0
2018/11/10 00:37:15.000  -74.393408379  163.452932858    96.4285   6  11   0.1041   0.1089   0.4611  -0.0591   0.1584  -0.1489   0.00    0.0
2018/11/10 00:37:30.000  -74.393408278  163.452932284    96.3936   6  11   0.1081   0.1139   0.4694  -0.0611   0.1654  -0.1545   0.00    0.0
2018/11/10 00:37:45.000  -74.393408395  163.452932167    96.4277   6  11   0.1059   0.1086   0.4588  -0.0601   0.1607  -0.1536   0.00    0.0
2018/11/10 00:38:00.000  -74.393408525  163.452932378    96.4946   6  11   0.1062   0.1049   0.4568  -0.0612   0.1595  -0.1584   1.00    0.0
2018/11/10 00:38:15.000  -74.393408301  163.452932107    96.4364   6  10   0.1144   0.1020   0.5018  -0.0656   0.1664  -0.1880   3.00    0.0
2018/11/10 00:38:30.000  -74.393408433  163.452932154    96.4937   6  10   0.1077   0.0976   0.4783  -0.0609   0.1577  -0.1747   4.00    0.0
2018/11/10 00:38:45.000  -74.393408652  163.452932036    96.5988   6  10   0.1015   0.0937   0.4571  -0.0565   0.1497  -0.1625   5.00    0.0
2018/11/10 00:39:00.000  -74.393408750  163.452931935    96.6371   6  10   0.0960   0.0902   0.4385  -0.0525   0.1425  -0.1514   5.00    0.0
2018/11/10 00:39:15.000  -74.393408839  163.452932288    96.7517   6  10   0.0916   0.0873   0.4229  -0.0487   0.1358  -0.1421   5.00    0.0
2018/11/10 00:39:30.000  -74.393409014  163.452932627    96.8151   6  10   0.0882   0.0851   0.4121  -0.0451   0.1298  -0.1351   5.00    0.0
2018/11/10 00:39:45.000  -74.393408968  163.452932365    96.7903   6  10   0.0838   0.0849   0.3916  -0.0429   0.1279  -0.1223   4.00    0.0
2018/11/10 00:40:00.000  -74.393408975  163.452932612    96.7884   6  10   0.0821   0.0843   0.3875  -0.0423   0.1284  -0.1179   2.00    0.0
2018/11/10 00:40:15.000  -74.393409030  163.452932388    96.8179   6  10   0.0833   0.0848   0.3898  -0.0424   0.1291  -0.1195   2.00    0.0
2018/11/10 00:40:30.000  -74.393408925  163.452932242    96.7470   6  10   0.0868   0.0867   0.3965  -0.0421   0.1305  -0.1233   1.00    0.0
2018/11/10 00:40:45.000  -74.393408701  163.452931322    96.6222   6  10   0.0905   0.0888   0.4068  -0.0436   0.1334  -0.1305   1.00    0.0
2018/11/10 00:41:00.000  -74.393408752  163.452931478    96.5978   6  10   0.0966   0.0921   0.4214  -0.0437   0.1366  -0.1409   1.00    0.0
2018/11/10 00:41:15.000  -74.393408475  163.452931890    96.5369   6  10   0.1074   0.1010   0.4379  -0.0317   0.1419  -0.1501   2.00    0.0
2018/11/10 00:41:30.000  -74.393408529  163.452931959    96.5353   6  10   0.1123   0.1030   0.4588  -0.0392   0.1471  -0.1627   2.00    0.0
2018/11/10 00:41:45.000  -74.393408369  163.452932646    96.5184   6  10   0.1174   0.1068   0.4701  -0.0453   0.1592  -0.1674   2.00    0.0
2018/11/10 00:42:00.000  -74.393408402  163.452933367    96.6025   6   9   0.1255   0.1118   0.5245  -0.0493   0.1669  -0.1866   2.00    0.0
2018/11/10 00:42:15.000  -74.393408589  163.452932714    96.6539   6   9   0.1362   0.1152   0.5670  -0.0533   0.1741  -0.1971   2.00    0.0
2018/11/10 00:42:30.000  -74.393408623  163.452932934    96.6786   6   9   0.1492   0.1215   0.6045  -0.0515   0.1804  -0.2126   2.00    0.0
2018/11/10 00:42:45.000  -74.393408414  163.452932959    96.5749   6   9   0.1460   0.1228   0.5897  -0.0213   0.1925  -0.1667   2.00    0.0
2018/11/10 00:43:00.000  -74.393408364  163.452932828    96.6478   6   9   0.1322   0.1112   0.5440  -0.0428   0.1740  -0.1622   2.00    0.0
2018/11/10 00:43:15.000  -74.393408556  163.452932133    96.6337   6   9   0.1178   0.1042   0.5082  -0.0516   0.1591  -0.1575   2.00    0.0
2018/11/10 00:43:30.000  -74.393408775  163.452932272    96.7486   6   9   0.1081   0.1028   0.4761  -0.0529   0.1522  -0.1526   2.00    0.0
2018/11/10 00:43:45.000  -74.393408788  163.452935334    96.9800   6   9   0.1011   0.0933   0.4580  -0.0481   0.1454  -0.1416   1.00    0.0
2018/11/10 00:44:00.000  -74.393408672  163.452935902    97.1497   6   9   0.0902   0.0794   0.4448  -0.0558   0.1312  -0.1360   1.00    0.0
2018/11/10 00:44:15.000  -74.393408595  163.452935752    96.8538   6   9   0.0823   0.0723   0.3782  -0.0566   0.0964  -0.1412   0.00    0.0
2018/11/10 00:44:30.000  -74.393408518  163.452935692    96.8123   6   9   0.0787   0.0697   0.3540  -0.0546   0.0914  -0.1328   0.00    0.0
2018/11/10 00:44:45.000  -74.393408344  163.452935402    96.7245   6  10   0.0734   0.0683   0.3321  -0.0551   0.0884  -0.1219   0.00    0.0
2018/11/10 00:45:00.000  -74.393408371  163.452935089    96.7332   6  10   0.0725   0.0672   0.3285  -0.0550   0.0859  -0.1214   0.00    0.0
2018/11/10 00:45:15.000  -74.393408341  163.452934876    96.7159   6  10   0.0736   0.0685   0.3313  -0.0549   0.0871  -0.1221   0.00    0.0
2018/11/10 00:45:30.000  -74.393408474  163.452934830    96.7206   6  10   0.0759   0.0719   0.3377  -0.0552   0.0910  -0.1238   1.00    0.0
2018/11/10 00:45:45.000  -74.393408575  163.452934677    96.7496   6  10   0.0799   0.0756   0.3472  -0.0548   0.0960  -0.1256   1.00    0.0
2018/11/10 00:46:00.000  -74.393408944  163.452936279    96.8853   6  10   0.0804   0.0698   0.3348  -0.0487   0.0764  -0.1099   2.00    0.0
2018/11/10 00:46:15.000  -74.393408863  163.452936395    96.8315   6  10   0.0873   0.0724   0.3727  -0.0503   0.0846  -0.1215   2.00    0.0
2018/11/10 00:46:30.000  -74.393408765  163.452936373    96.8589   6  10   0.0953   0.0771   0.4133  -0.0527   0.0952  -0.1326   2.00    0.0
2018/11/10 00:46:45.000  -74.393408576  163.452935920    96.8050   6  10   0.1051   0.0827   0.4559  -0.0565   0.1063  -0.1446   3.00    0.0
2018/11/10 00:47:00.000  -74.393408768  163.452935962    96.7381   6  10   0.1135   0.0897   0.5051  -0.0623   0.1209  -0.1624   3.00    0.0
2018/11/10 00:47:15.000  -74.393408839  163.452935627    96.6926   6  10   0.1217   0.0971   0.5626  -0.0649   0.1361  -0.1757   3.00    0.0
2018/11/10 00:47:30.000  -74.393408567  163.452935317    96.6836   6  10   0.1295   0.1025   0.6704  -0.0741   0.1421  -0.2033   0.00    0.0
2018/11/10 00:47:45.000  -74.393408552  163.452934855    96.7643   6  10   0.1262   0.1010   0.4869  -0.0749   0.1382  -0.1975   0.00    0.0
2018/11/10 00:48:00.000  -74.393408545  163.452935766    96.7004   6  10   0.1333   0.1010   0.4809  -0.0836   0.1439  -0.2084   0.00    0.0
2018/11/10 00:48:15.000  -74.393408654  163.452936702    96.7267   6  10   0.1322   0.0874   0.4887  -0.0731   0.1276  -0.2142   0.00    0.0
2018/11/10 00:48:30.000  -74.393409003  163.452936652    96.8812   6  10   0.0868   0.0819   0.3256  -0.0569   0.0933  -0.1198   0.00    0.0
2018/11/10 00:48:45.000  -74.393408966  163.452936887    96.8784   6  10   0.0852   0.0766   0.3030  -0.0558   0.0841  -0.1128   0.00    0.0
2018/11/10 00:49:00.000  -74.393409135  163.452937751    96.9367   6  10   0.0736   0.0655   0.2790  -0.0443   0.0651  -0.1000   1.00    0.0
2018/11/10 00:49:15.000  -74.393408985  163.452937264    96.9406   6  10   0.0648   0.0611   0.2626  -0.0404   0.0565  -0.0953   1.00    0.0
2018/11/10 00:49:30.000  -74.393409048  163.452936874    96.9779   6  10   0.0608   0.0581   0.2506  -0.0385   0.0492  -0.0911   1.00    0.0
2018/11/10 00:49:45.000  -74.393408989  163.452936917    96.9411   6  10   0.0587   0.0565   0.2444  -0.0379   0.0456  -0.0894   1.00    0.0
2018/11/10 00:50:00.000  -74.393408858  163.452936884    96.9070   6  10   0.0575   0.0549   0.2438  -0.0365   0.0419  -0.0886   1.00    0.0
2018/11/10 00:50:15.000  -74.393408767  163.452936817    96.9211   6  10   0.0601   0.0565   0.2580  -0.0379   0.0474  -0.0953   1.00    0.0
2018/11/10 00:50:30.000  -74.393408694  163.452936854    96.8904   6  10   0.0650   0.0587   0.2764  -0.0399   0.0543  -0.1034   1.00    0.0
2018/11/10 00:50:45.000  -74.393408691  163.452936859    96.8712   6  10   0.0687   0.0622   0.2949  -0.0417   0.0645  -0.1138   2.00    0.0
2018/11/10 00:51:00.000  -74.393408470  163.452936144    96.8012   6  10   0.0744   0.0679   0.3157  -0.0458   0.0750  -0.1221   2.00    0.0
2018/11/10 00:51:15.000  -74.393408457  163.452936562    96.7675   6  10   0.0804   0.0738   0.3356  -0.0500   0.0848  -0.1298   2.00    0.0
2018/11/10 00:51:30.000  -74.393408102  163.452935198    96.6293   6  10   0.0866   0.0797   0.3555  -0.0542   0.0943  -0.1374   3.00    0.0
2018/11/10 00:51:45.000  -74.393408047  163.452934889    96.5720   6  10   0.0916   0.0810   0.3726  -0.0541   0.0973  -0.1424   3.00    0.0
2018/11/10 00:52:00.000  -74.393407741  163.452934234    96.4712   6  10   0.0996   0.0860   0.3929  -0.0580   0.1059  -0.1509   3.00    0.0
2018/11/10 00:52:15.000  -74.393407912  163.452933742    96.4276   6  10   0.0994   0.0915   0.4111  -0.0588   0.1132  -0.1535   3.00    0.0
2018/11/10 00:52:30.000  -74.393407632  163.452932717    96.2948   6  10   0.1058   0.1004   0.4330  -0.0651   0.1254  -0.1622   3.00    0.0
2018/11/10 00:52:45.000  -74.393408036  163.452934724    96.4268   6  10   0.0982   0.0893   0.4104  -0.0562   0.1080  -0.1520   4.00    0.0
2018/11/10 00:53:00.000  -74.393408082  163.452934841    96.4750   6  10   0.0926   0.0831   0.3921  -0.0521   0.0987  -0.1459   4.00    0.0
2018/11/10 00:53:15.000  -74.393408068  163.452934522    96.4876   6  10   0.0877   0.0781   0.3755  -0.0492   0.0903  -0.1407   4.00    0.0
2018/11/10 00:53:30.000  -74.393408241  163.452934972    96.4925   6  10   0.0834   0.0741   0.3611  -0.0471   0.0829  -0.1367   5.00    0.0
2018/11/10 00:53:45.000  -74.393408196  163.452934657    96.4614   6  10   0.0804   0.0718   0.3510  -0.0467   0.0787  -0.1350   5.00    0.0
2018/11/10 00:54:00.000  -74.393408264  163.452935322    96.4578   6  10   0.0783   0.0677   0.3465  -0.0444   0.0715  -0.1354   5.00    0.0
2018/11/10 00:54:15.000  -74.393408624  163.452935769    96.6169   6  10   0.0630   0.0584   0.2805  -0.0356   0.0586  -0.0987   4.00    0.0
2018/11/10 00:54:30.000  -74.393408643  163.452936155    96.6034   6  10   0.0608   0.0555   0.2420  -0.0350   0.0581  -0.0962   0.00    0.0
2018/11/10 00:54:45.000  -74.393408640  163.452937023    96.6509   6  10   0.0573   0.0522   0.2328  -0.0341   0.0538  -0.0929   0.00    0.0
2018/11/10 00:55:00.000  -74.393408806  163.452937369    96.7023   6  10   0.0567   0.0515   0.2297  -0.0337   0.0526  -0.0922   0.00    0.0
2018/11/10 00:55:15.000  -74.393408718  163.452937173    96.7105   6  10   0.0592   0.0544   0.2351  -0.0360   0.0573  -0.0954   2.00    0.0
2018/11/10 00:55:30.000  -74.393408573  163.452936415    96.6831   6  10   0.0618   0.0590   0.2447  -0.0391   0.0641  -0.0991   3.00    0.0
2018/11/10 00:55:45.000  -74.393408315  163.452935640    96.6578   6  10   0.0664   0.0647   0.2585  -0.0431   0.0725  -0.1048   5.00    0.0
2018/11/10 00:56:00.000  -74.393408234  163.452935365    96.6468   6  10   0.0721   0.0718   0.2758  -0.0480   0.0824  -0.1120   4.00    0.0
2018/11/10 00:56:15.000  -74.393408058  163.452935283    96.6244   6  10   0.0789   0.0803   0.2957  -0.0539   0.0938  -0.1206   4.00    0.0
2018/11/10 00:56:30.000  -74.393407965  163.452935095    96.6110   6  10   0.0858   0.0832   0.3142  -0.0569   0.0981  -0.1285   3.00    0.0
2018/11/10 00:56:45.000  -74.393407627  163.452933728    96.4644   6  10   0.0966   0.0922   0.3393  -0.0646   0.1110  -0.1420   3.00    0.0
2018/11/10 00:57:00.000  -74.393407967  163.452934289    96.4846   6  10   0.1034   0.1061   0.3628  -0.0721   0.1257  -0.1516   3.00    0.0
2018/11/10 00:57:15.000  -74.393407789  163.452935587    96.4405   6  10   0.1124   0.1117   0.3862  -0.0779   0.1335  -0.1631   3.00    0.0
2018/11/10 00:57:30.000  -74.393407788  163.452934535    96.4195   6  10   0.1177   0.1194   0.4086  -0.0838   0.1440  -0.1710   3.00    0.0
2018/11/10 00:57:45.000  -74.393407544  163.452933507    96.3682   6  10   0.1187   0.1229   0.3953  -0.0881   0.1485  -0.1729   3.00    0.0
2018/11/10 00:58:00.000  -74.393408417  163.452937152    96.5671   6  10   0.0954   0.1001   0.3533  -0.0641   0.1143  -0.1418   4.00    0.0
2018/11/10 00:58:15.000  -74.393408484  163.452936882    96.5869   6  10   0.0884   0.0990   0.3308  -0.0603   0.1080  -0.1325   5.00    0.0
2018/11/10 00:58:30.000  -74.393408664  163.452938386    96.6509   6  10   0.0789   0.0697   0.3027  -0.0443   0.0764  -0.1186   5.00    0.0
2018/11/10 00:58:45.000  -74.393408849  163.452938789    96.6706   6  10   0.0712   0.0603   0.2806  -0.0357   0.0612  -0.1085   5.00    0.0
2018/11/10 00:59:00.000  -74.393408872  163.452938653    96.6407   6  10   0.0665   0.0552   0.2640  -0.0326   0.0533  -0.1030   5.00    0.0
2018/11/10 00:59:15.000  -74.393408946  163.452938788    96.6682   6  10   0.0625   0.0511   0.2502  -0.0301   0.0464  -0.0986   5.00    0.0
2018/11/10 00:59:30.000  -74.393409013  163.452938668    96.6515   6  10   0.0595   0.0479   0.2396  -0.0283   0.0406  -0.0954   5.00    0.0
2018/11/10 00:59:45.000  -74.393409018  163.452938610    96.6796   6  10   0.0577   0.0459   0.2333  -0.0272   0.0364  -0.0934   5.00    0.0
2018/11/10 01:00:00.000  -74.393409143  163.452938604    96.7490   6  10   0.0572   0.0451   0.2322  -0.0270   0.0347  -0.0930   6.00    0.0
2018/11/10 01:00:15.000  -74.393409097  163.452938819    96.7458   6  10   0.0590   0.0465   0.2391  -0.0283   0.0366  -0.0950   6.00    0.0
2018/11/10 01:00:30.000  -74.393409039  163.452938623    96.6953   6  10   0.0625   0.0498   0.2540  -0.0312   0.0419  -0.0987   6.00    0.0
2018/11/10 01:00:45.000  -74.393409041  163.452938322    96.6942   6  10   0.0668   0.0535   0.2817  -0.0338   0.0465  -0.1033   6.00    0.0
2018/11/10 01:01:00.000  -74.393408856  163.452937775    96.8160   6  10   0.0723   0.0585   0.2519  -0.0380   0.0549  -0.1046   0.00    0.0
2018/11/10 01:01:15.000  -74.393408520  163.452937019    96.6850   6  10   0.0797   0.0654   0.2721  -0.0441   0.0659  -0.1143   0.00    0.0
2018/11/10 01:01:30.000  -74.393408436  163.452937488    96.6501   6  10   0.0876   0.0697   0.2928  -0.0474   0.0711  -0.1239   0.00    0.0
2018/11/10 01:01:45.000  -74.393408288  163.452936837    96.6108   6  10   0.0987   0.0772   0.3190  -0.0558   0.0837  -0.1385   0.00    0.0
2018/11/10 01:02:00.000  -74.393408232  163.452937105    96.5403   6  10   0.1072   0.0832   0.3438  -0.0613   0.0937  -0.1503   1.00    0.0
2018/11/10 01:02:15.000  -74.393408453  163.452937879    96.5928   6  10   0.1104   0.0832   0.3611  -0.0577   0.0905  -0.1539   2.00    0.0
2018/11/10 01:02:30.000  -74.393408203  163.452936874    96.5418   6  10   0.1162   0.0869   0.3820  -0.0586   0.0934  -0.1612   3.00    0.0
2018/11/10 01:02:45.000  -74.393408298  163.452936988    96.5701   6  10   0.1101   0.0826   0.3606  -0.0563   0.0882  -0.1539   2.00    0.0
2018/11/10 01:03:00.000  -74.393408720  163.452937195    96.6658   6  10   0.0980   0.0802   0.3320  -0.0530   0.0818  -0.1378   2.00    0.0
2018/11/10 01:03:15.000  -74.393409086  163.452938351    96.7410   6  10   0.0869   0.0668   0.3013  -0.0338   0.0497  -0.1209   2.00    0.0
2018/11/10 01:03:30.000  -74.393409526  163.452938220    96.8493   6  10   0.0676   0.0616   0.2627  -0.0247   0.0310  -0.0918   3.00    0.0
2018/11/10 01:03:45.000  -74.393409370  163.452938414    96.8370   6  10   0.0631   0.0583   0.2494  -0.0182  -0.0035  -0.0887   3.00    0.0
2018/11/10 01:04:00.000  -74.393409689  163.452938956    96.9724   6  10   0.0566   0.0519   0.2259  -0.0152  -0.0219  -0.0785   2.00    0.0
2018/11/10 01:04:15.000  -74.393410057  163.452938897    97.1078   6  10   0.0465   0.0477   0.1855  -0.0172  -0.0138  -0.0547   2.00    0.0
2018/11/10 01:04:30.000  -74.393410128  163.452939031    97.1466   6  10   0.0419   0.0448   0.1698  -0.0148  -0.0224  -0.0471   2.00    0.0
2018/11/10 01:04:45.000  -74.393410080  163.452938665    97.1714   6  10   0.0389   0.0429   0.1597  -0.0131  -0.0266  -0.0419   4.00    0.0
2018/11/10 01:05:00.000  -74.393410028  163.452938873    97.1682   6  10   0.0381   0.0421   0.1575  -0.0124  -0.0282  -0.0401   4.00    0.0
2018/11/10 01:05:15.000  -74.393410071  163.452939090    97.1213   6  10   0.0385   0.0429   0.1673  -0.0118  -0.0260  -0.0442   3.00    0.0
2018/11/10 01:05:30.000  -74.393409843  163.452938901    97.0284   6  10   0.0425   0.0451   0.1848  -0.0142  -0.0202  -0.0518   3.00    0.0
2018/11/10 01:05:45.000  -74.393409735  163.452938455    96.9774   6  11   0.0453   0.0478   0.1989  -0.0142  -0.0193  -0.0531   3.00    0.0
2018/11/10 01:06:00.000  -74.393409532  163.452938008    96.8462   6  11   0.0507   0.0516   0.2211  -0.0163  -0.0106  -0.0604   3.00    0.0
2018/11/10 01:06:15.000  -74.393409376  163.452937555    96.7075   6  11   0.0574   0.0564   0.2462  -0.0186   0.0152  -0.0690   3.00    0.0
2018/11/10 01:06:30.000  -74.393409413  163.452936932    96.6529   6  11   0.0597   0.0625   0.2735  -0.0238   0.0272  -0.0735   3.00    0.0
2018/11/10 01:06:45.000  -74.393409200  163.452936594    96.5648   6  11   0.0666   0.0687   0.3097  -0.0286   0.0345  -0.0844   3.00    0.0
2018/11/10 01:07:00.000  -74.393409035  163.452936890    96.3837   6  11   0.0748   0.0712   0.3600  -0.0305   0.0316  -0.0996   3.00    0.0
2018/11/10 01:07:15.000  -74.393409478  163.452937216    97.0410   6  11   0.0708   0.0754   0.2860  -0.0246  -0.0368  -0.0568   0.00    0.0
2018/11/10 01:07:30.000  -74.393409297  163.452937626    96.9567   6  11   0.0737   0.0781   0.2983  -0.0177  -0.0330  -0.0618   0.00    0.0
2018/11/10 01:07:45.000  -74.393409396  163.452938211    96.9829   6  11   0.0685   0.0738   0.2765  -0.0158  -0.0324  -0.0581   0.00    0.0
2018/11/10 01:08:00.000  -74.393409610  163.452938559    97.0297   6  11   0.0634   0.0686   0.2576  -0.0137  -0.0340  -0.0540   1.00    0.0
2018/11/10 01:08:15.000  -74.393409743  163.452938922    97.0504   6  11   0.0583   0.0617   0.2391  -0.0095  -0.0421  -0.0488   2.00    0.0
2018/11/10 01:08:30.000  -74.393409827  163.452938814    97.0855   6  11   0.0534   0.0574   0.2252  -0.0082  -0.0428  -0.0447   2.00    0.0
2018/11/10 01:08:45.000  -74.393409911  163.452939506    97.1074   6  11   0.0487   0.0535   0.2156  -0.0073  -0.0440  -0.0403   2.00    0.0
2018/11/10 01:09:00.000  -74.393409981  163.452939665    97.0775   6  11   0.0444   0.0501   0.2173  -0.0068  -0.0466  -0.0348   2.00    0.0
2018/11/10 01:09:15.000  -74.393410074  163.452939652    97.1229   6  11   0.0404   0.0471   0.1808  -0.0057  -0.0432  -0.0347   0.00    0.0
2018/11/10 01:09:30.000  -74.393410165  163.452939918    97.0781   6  11   0.0372   0.0448   0.1789  -0.0049  -0.0439  -0.0318   0.00    0.0
2018/11/10 01:09:45.000  -74.393410128  163.452939629    97.0641   6  12   0.0350   0.0429   0.1483  -0.0045  -0.0443  -0.0323   0.00    0.0
2018/11/10 01:10:00.000  -74.393410129  163.452939205    97.0433   6  12   0.0341   0.0424   0.1498  -0.0042  -0.0437  -0.0321   0.00    0.0
2018/11/10 01:10:15.000  -74.393410044  163.452939142    97.0422   6  12   0.0354   0.0434   0.1595  -0.0060  -0.0442  -0.0349   0.00    0.0
2018/11/10 01:10:30.000  -74.393410056  163.452939534    97.0569   6  12   0.0383   0.0451   0.1758  -0.0084  -0.0453  -0.0397   2.00    0.0
2018/11/10 01:10:45.000  -74.393409967  163.452939641    96.9788   6  12   0.0423   0.0476   0.2012  -0.0110  -0.0478  -0.0457   3.00    0.0
2018/11/10 01:11:00.000  -74.393409792  163.452939373    96.9233   6  12   0.0474   0.0509   0.2314  -0.0139  -0.0527  -0.0539   0.00    0.0
2018/11/10 01:11:15.000  -74.393409539  163.452938970    96.8241   6  12   0.0547   0.0545   0.2650  -0.0172  -0.0554  -0.0682   0.00    0.0
2018/11/10 01:11:30.000  -74.393409637  163.452938711    97.0672   6  12   0.0578   0.0580   0.2247  -0.0190  -0.0499  -0.0652   0.00    0.0
2018/11/10 01:11:45.000  -74.393409318  163.452938336    96.9406   6  12   0.0659   0.0624   0.2445  -0.0233  -0.0453  -0.0786   0.00    0.0
2018/11/10 01:12:00.000  -74.393409323  163.452939038    96.9413   6  12   0.0723   0.0665   0.2621  -0.0264  -0.0440  -0.0872   0.00    0.0
2018/11/10 01:12:15.000  -74.393409382  163.452939032    96.9807   6  12   0.0744   0.0712   0.2717  -0.0271  -0.0460  -0.0854   3.00    0.0
2018/11/10 01:12:30.000  -74.393408975  163.452938513    96.8363   6  12   0.0827   0.0766   0.2958  -0.0313  -0.0425  -0.0987   4.00    0.0
2018/11/10 01:12:45.000  -74.393409447  163.452938764    96.9977   6  12   0.0704   0.0728   0.2663  -0.0252  -0.0444  -0.0750   4.00    0.0
2018/11/10 01:13:00.000  -74.393409429  163.452938430    97.0222   6  12   0.0659   0.0661   0.2451  -0.0234  -0.0539  -0.0686   3.00    0.0
2018/11/10 01:13:15.000  -74.393409476  163.452938647    97.0263   6  12   0.0627   0.0627   0.2317  -0.0243  -0.0518  -0.0664   2.00    0.0
2018/11/10 01:13:30.000  -74.393409465  163.452938765    96.9750   6  12   0.0593   0.0563   0.2228  -0.0186  -0.0488  -0.0684   2.00    0.0
2018/11/10 01:13:45.000  -74.393409845  163.452938813    97.0637   6  12   0.0491   0.0523   0.1980  -0.0125  -0.0504  -0.0497   2.00    0.0
2018/11/10 01:14:00.000  -74.393409857  163.452938733    97.1322   6  12   0.0451   0.0494   0.1861  -0.0117  -0.0484  -0.0461   3.00    0.0
2018/11/10 01:14:15.000  -74.393409930  163.452938493    97.1059   6  12   0.0421   0.0472   0.1765  -0.0124  -0.0463  -0.0437   3.00    0.0
2018/11/10 01:14:30.000  -74.393409956  163.452938472    97.0468   6  12   0.0401   0.0451   0.1701  -0.0124  -0.0438  -0.0434   5.00    0.0
2018/11/10 01:14:45.000  -74.393410059  163.452938603    97.0658   6  12   0.0358   0.0425   0.1652  -0.0051  -0.0424  -0.0399   5.00    0.0
2018/11/10 01:15:00.000  -74.393410095  163.452938618    97.0148   6  12   0.0346   0.0421   0.1666  -0.0051  -0.0410  -0.0389   6.00    0.0
2018/11/10 01:15:15.000  -74.393410128  163.452938548    96.9443   6  12   0.0355   0.0432   0.1767  -0.0060  -0.0404  -0.0410   6.00    0.0
2018/11/10 01:15:30.000  -74.393410053  163.452938079    96.9124   6  12   0.0383   0.0456   0.1937  -0.0086  -0.0393  -0.0461   6.00    0.0
2018/11/10 01:15:45.000  -74.393409963  163.452937641    96.8156   6  12   0.0426   0.0494   0.2143  -0.0126  -0.0373  -0.0523   6.00    0.0
2018/11/10 01:16:00.000  -74.393409801  163.452937214    96.6918   6  12   0.0485   0.0542   0.2389  -0.0173  -0.0380  -0.0599   5.00    0.0
2018/11/10 01:16:15.000  -74.393410023  163.452937606    96.7214   6  12   0.0475   0.0551   0.2562  -0.0093  -0.0470  -0.0474   4.00    0.0
2018/11/10 01:16:30.000  -74.393409942  163.452937962    96.8514   6  12   0.0517   0.0600   0.3053  -0.0103  -0.0563  -0.0557   0.00    0.0
2018/11/10 01:16:45.000  -74.393409886  163.452938293    96.8045   6  12   0.0560   0.0627   0.3194  -0.0080  -0.0618  -0.0593   0.00    0.0
2018/11/10 01:17:00.000  -74.393409831  163.452938514    96.6873   6  12   0.0606   0.0672   0.3477  -0.0073  -0.0685  -0.0635   1.00    0.0
2018/11/10 01:17:15.000  -74.393409584  163.452936812    96.8433   6  12   0.0654   0.0743   0.4248  -0.0009  -0.0923  -0.0697   0.00    0.0
2018/11/10 01:17:30.000  -74.393409512  163.452936572    96.7650   6  12   0.0705   0.0828   0.4768   0.0134  -0.1073  -0.0783   0.00    0.0
2018/11/10 01:17:45.000  -74.393409671  163.452935942    96.8674   6  12   0.0656   0.0806   0.4823   0.0088  -0.0811  -0.0680   0.00    0.0
2018/11/10 01:18:00.000  -74.393409901  163.452937461    97.3244   6  12   0.0607   0.0677   0.2683   0.0094  -0.0768  -0.0580   0.00    0.0
2018/11/10 01:18:15.000  -74.393409984  163.452937474    97.3218   6  12   0.0552   0.0595   0.2393  -0.0098  -0.0658  -0.0495   0.00    0.0
2018/11/10 01:18:30.000  -74.393409980  163.452938104    97.3513   6  12   0.0507   0.0549   0.2178  -0.0094  -0.0612  -0.0446   2.00    0.0
2018/11/10 01:18:45.000  -74.393410080  163.452938698    97.3547   6  12   0.0465   0.0510   0.1992  -0.0087  -0.0576  -0.0397   1.00    0.0
2018/11/10 01:19:00.000  -74.393410028  163.452938087    97.3870   6  12   0.0425   0.0476   0.1833  -0.0079  -0.0548  -0.0350   3.00    0.0
2018/11/10 01:19:15.000  -74.393410051  163.452937623    97.3780   6  12   0.0390   0.0447   0.1703  -0.0074  -0.0526  -0.0305   3.00    0.0
2018/11/10 01:19:30.000  -74.393410119  163.452937765    97.3746   6  12   0.0363   0.0426   0.1612  -0.0075  -0.0514  -0.0260   6.00    0.0
2018/11/10 01:19:45.000  -74.393410082  163.452937749    97.3596   6  12   0.0342   0.0407   0.1582  -0.0057  -0.0501  -0.0235   7.00    0.0
2018/11/10 01:20:00.000  -74.393410149  163.452937998    97.3045   6  12   0.0340   0.0399   0.1464  -0.0060  -0.0481  -0.0229   0.00    0.0
2018/11/10 01:20:15.000  -74.393410023  163.452937424    97.2535   6  12   0.0341   0.0407   0.1517  -0.0046  -0.0488  -0.0262   0.00    0.0
2018/11/10 01:20:30.000  -74.393410004  163.452937078    97.2165   6  12   0.0345   0.0428   0.1563  -0.0067  -0.0519  -0.0166   0.00    0.0
2018/11/10 01:20:45.000  -74.393410027  163.452937173    97.1891   6  12   0.0378   0.0459   0.1706  -0.0094  -0.0557  -0.0208   2.00    0.0
2018/11/10 01:21:00.000  -74.393409912  163.452936477    97.1857   6  12   0.0417   0.0495   0.1862  -0.0118  -0.0597  -0.0252   4.00    0.0
2018/11/10 01:21:15.000  -74.393409905  163.452936525    97.1383   6  12   0.0458   0.0530   0.2027  -0.0128  -0.0635  -0.0305   5.00    0.0
2018/11/10 01:21:30.000  -74.393409855  163.452936150    97.1253   6  12   0.0505   0.0575   0.2196  -0.0157  -0.0679  -0.0346   5.00    0.0
2018/11/10 01:21:45.000  -74.393409808  163.452936194    97.0350   6  12   0.0553   0.0632   0.2405  -0.0187  -0.0756  -0.0373   5.00    0.0
2018/11/10 01:22:00.000  -74.393409722  163.452936798    97.0462   6  12   0.0595   0.0659   0.2584  -0.0162  -0.0779  -0.0449   7.00    0.0
2018/11/10 01:22:15.000  -74.393409561  163.452936729    97.0096   6  12   0.0644   0.0704   0.2778  -0.0145  -0.0820  -0.0513   7.00    0.0
2018/11/10 01:22:30.000  -74.393409553  163.452936379    97.0071   6  12   0.0695   0.0770   0.3033  -0.0130  -0.0909  -0.0575   6.00    0.0
2018/11/10 01:22:45.000  -74.393409445  163.452936648    96.9554   6  12   0.0655   0.0738   0.3056  -0.0177  -0.0895  -0.0513   6.00    0.0
2018/11/10 01:23:00.000  -74.393409492  163.452936416    97.1830   6  12   0.0598   0.0710   0.3040  -0.0196  -0.0991  -0.0361   0.00    0.0
2018/11/10 01:23:15.000  -74.393409538  163.452937252    97.0690   6  12   0.0558   0.0683   0.2978  -0.0194  -0.0968  -0.0283   0.00    0.0
2018/11/10 01:23:30.000  -74.393409658  163.452936651    97.2198   6  12   0.0520   0.0666   0.2583  -0.0215  -0.0909  -0.0239   0.00    0.0
2018/11/10 01:23:45.000  -74.393409849  163.452936552    97.1093   6  12   0.0458   0.0563   0.2489  -0.0139  -0.0806  -0.0213   0.00    0.0
2018/11/10 01:24:00.000  -74.393409943  163.452936133    97.1584   6  12   0.0412   0.0496   0.2183   0.0006  -0.0670  -0.0277   0.00    0.0
2018/11/10 01:24:15.000  -74.393409958  163.452936224    97.2465   6  12   0.0372   0.0449   0.1732  -0.0029  -0.0558  -0.0252   0.00    0.0
2018/11/10 01:24:30.000  -74.393410050  163.452936491    97.2159   6  12   0.0343   0.0425   0.1641  -0.0012  -0.0535  -0.0210   0.00    0.0
2018/11/10 01:24:45.000  -74.393410089  163.452936991    97.1970   6  12   0.0321   0.0410   0.1638   0.0049  -0.0535  -0.0180   0.00    0.0
2018/11/10 01:25:00.000  -74.393410029  163.452937630    97.2165   6  12   0.0312   0.0400   0.1587   0.0069  -0.0516  -0.0206   0.00    0.0
2018/11/10 01:25:15.000  -74.393409967  163.452937647    97.2002   6  12   0.0321   0.0409   0.1648   0.0065  -0.0531  -0.0230   0.00    0.0
2018/11/10 01:25:30.000  -74.393409916  163.452937789    97.0808   6  12   0.0343   0.0428   0.1800   0.0060  -0.0559  -0.0257   0.00    0.0
2018/11/10 01:25:45.000  -74.393409821  163.452938071    96.9917   6  12   0.0374   0.0454   0.1752   0.0050  -0.0552  -0.0304   0.00    0.0
2018/11/10 01:26:00.000  -74.393409734  163.452938261    96.9229   6  12   0.0411   0.0489   0.1850  -0.0016  -0.0576  -0.0340   0.00    0.0
2018/11/10 01:26:15.000  -74.393409624  163.452938684    96.9047   6  12   0.0454   0.0540   0.1980  -0.0073  -0.0626  -0.0368   0.00    0.0
2018/11/10 01:26:30.000  -74.393409579  163.452938381    96.8676   6  12   0.0493   0.0571   0.2133  -0.0102  -0.0668  -0.0404   1.00    0.0
2018/11/10 01:26:45.000  -74.393409469  163.452938596    96.8709   6  12   0.0538   0.0608   0.2261  -0.0129  -0.0692  -0.0439   2.00    0.0
2018/11/10 01:27:00.000  -74.393409383  163.452938931    96.8404   6  12   0.0587   0.0663   0.2424  -0.0175  -0.0750  -0.0459   2.00    0.0
2018/11/10 01:27:15.000  -74.393409352  163.452938771    96.8282   6  12   0.0629   0.0702   0.2579  -0.0170  -0.0765  -0.0528   3.00    0.0
2018/11/10 01:27:30.000  -74.393409357  163.452939099    96.8006   6  12   0.0672   0.0731   0.2702  -0.0159  -0.0800  -0.0566   3.00    0.0
2018/11/10 01:27:45.000  -74.393409365  163.452938853    96.8007   6  12   0.0628   0.0692   0.2553  -0.0153  -0.0771  -0.0520   4.00    0.0
2018/11/10 01:28:00.000  -74.393409500  163.452938935    96.8334   6  12   0.0587   0.0666   0.2427  -0.0169  -0.0765  -0.0454   4.00    0.0
2018/11/10 01:28:15.000  -74.393409585  163.452938914    96.8606   6  12   0.0543   0.0643   0.2309  -0.0167  -0.0754  -0.0406   5.00    0.0
2018/11/10 01:28:30.000  -74.393409618  163.452938873    96.8823   6  12   0.0495   0.0577   0.2133  -0.0064  -0.0640  -0.0426   6.00    0.0
2018/11/10 01:28:45.000  -74.393409738  163.452938949    96.9145   6  12   0.0451   0.0530   0.1998   0.0062  -0.0628  -0.0385   6.00    0.0
2018/11/10 01:29:00.000  -74.393409907  163.452938431    96.9281   6  12   0.0410   0.0482   0.1885  -0.0027  -0.0590  -0.0339   7.00    0.0
2018/11/10 01:29:15.000  -74.393410077  163.452938520    96.9545   6  12   0.0376   0.0457   0.1799  -0.0043  -0.0574  -0.0298   7.00    0.0
2018/11/10 01:29:30.000  -74.393410065  163.452938172    96.9436   6  12   0.0347   0.0435   0.1730  -0.0014  -0.0553  -0.0277   6.00    0.0
2018/11/10 01:29:45.000  -74.393410037  163.452938610    96.9166   6  12   0.0325   0.0410   0.1682   0.0076  -0.0543  -0.0257   6.00    0.0
2018/11/10 01:30:00.000  -74.393409992  163.452938750    96.9151   6  12   0.0317   0.0399   0.1673   0.0087  -0.0534  -0.0250   6.00    0.0
2018/11/10 01:30:15.000  -74.393410007  163.452938814    96.9218   6  12   0.0326   0.0408   0.1728   0.0076  -0.0557  -0.0270   5.00    0.0
2018/11/10 01:30:30.000  -74.393409987  163.452938928    96.9402   6  12   0.0350   0.0435   0.1888   0.0055  -0.0610  -0.0266   0.00    0.0
2018/11/10 01:30:45.000  -74.393409950  163.452938722    96.9308   6  12   0.0374   0.0454   0.2065   0.0106  -0.0643  -0.0325   0.00    0.0
2018/11/10 01:31:00.000  -74.393409961  163.452938594    96.9242   6  12   0.0408   0.0465   0.2132   0.0083  -0.0657  -0.0366   0.00    0.0
2018/11/10 01:31:15.000  -74.393409896  163.452938983    96.8384   6  12   0.0447   0.0493   0.2280   0.0065  -0.0670  -0.0377   0.00    0.0
2018/11/10 01:31:30.000  -74.393409706  163.452938483    96.9164   6  12   0.0487   0.0531   0.2448   0.0057  -0.0717  -0.0424   0.00    0.0
2018/11/10 01:31:45.000  -74.393409590  163.452938395    96.8323   6  12   0.0531   0.0565   0.2619   0.0026  -0.0739  -0.0434   0.00    0.0
2018/11/10 01:32:00.000  -74.393409601  163.452938686    96.8446   6  12   0.0574   0.0609   0.2956  -0.0034  -0.0826  -0.0463   0.00    0.0
2018/11/10 01:32:15.000  -74.393409616  163.452938811    96.8371   6  12   0.0618   0.0648   0.3007  -0.0039  -0.0845  -0.0519   0.00    0.0
2018/11/10 01:32:30.000  -74.393409627  163.452939126    96.7053   6  12   0.0664   0.0687   0.3189  -0.0065  -0.0875  -0.0531   0.00    0.0
2018/11/10 01:32:45.000  -74.393409559  163.452938805    96.8325   6  12   0.0618   0.0646   0.2954  -0.0025  -0.0829  -0.0521   0.00    0.0
2018/11/10 01:33:00.000  -74.393409586  163.452938776    96.7409   6  12   0.0574   0.0605   0.2815  -0.0036  -0.0770  -0.0465   1.00    0.0
2018/11/10 01:33:15.000  -74.393409577  163.452938646    96.7610   6  12   0.0532   0.0572   0.2454  -0.0042  -0.0704  -0.0480   0.00    0.0
2018/11/10 01:33:30.000  -74.393409639  163.452938739    96.7378   6  12   0.0488   0.0525   0.2267   0.0060  -0.0657  -0.0439   0.00    0.0
2018/11/10 01:33:45.000  -74.393409672  163.452938946    96.7184   6  12   0.0448   0.0491   0.2149   0.0067  -0.0622  -0.0405   0.00    0.0
2018/11/10 01:34:00.000  -74.393409839  163.452939377    96.6926   6  12   0.0413   0.0463   0.2101   0.0061  -0.0590  -0.0374   3.00    0.0
2018/11/10 01:34:15.000  -74.393409963  163.452939382    96.7635   6  12   0.0381   0.0439   0.1954   0.0069  -0.0575  -0.0372   0.00    0.0
2018/11/10 01:34:30.000  -74.393409958  163.452939358    96.7296   6  12   0.0361   0.0420   0.1920   0.0059  -0.0530  -0.0362   0.00    0.0
2018/11/10 01:34:45.000  -74.393410024  163.452939148    96.8623   6  12   0.0315   0.0392   0.1633   0.0108  -0.0597  -0.0280   0.00    0.0
2018/11/10 01:35:00.000  -74.393410196  163.452939609    96.8137   6  12   0.0304   0.0384   0.1595   0.0116  -0.0591  -0.0259   0.00    0.0
2018/11/10 01:35:15.000  -74.393410231  163.452939724    96.7997   6  12   0.0317   0.0397   0.1629   0.0106  -0.0588  -0.0257   0.00    0.0
2018/11/10 01:35:30.000  -74.393410142  163.452939680    96.7483   6  12   0.0341   0.0422   0.1701   0.0098  -0.0592  -0.0251   3.00    0.0
2018/11/10 01:35:45.000  -74.393410063  163.452939613    96.7335   6  12   0.0377   0.0459   0.1814   0.0082  -0.0598  -0.0258   4.00    0.0
2018/11/10 01:36:00.000  -74.393410035  163.452939493    96.6714   6  12   0.0419   0.0497   0.1958  -0.0050  -0.0627  -0.0275   3.00    0.0
2018/11/10 01:36:15.000  -74.393410018  163.452939047    96.7128   6  12   0.0463   0.0548   0.2233  -0.0116  -0.0694  -0.0283   0.00    0.0
2018/11/10 01:36:30.000  -74.393410154  163.452939376    96.7296   6  12   0.0499   0.0590   0.2238  -0.0120  -0.0721  -0.0326   0.00    0.0
2018/11/10 01:36:45.000  -74.393410119  163.452939372    96.6600   6  12   0.0548   0.0644   0.2356  -0.0164  -0.0740  -0.0352   0.00    0.0
2018/11/10 01:37:00.000  -74.393409909  163.452938305    96.6903   6  12   0.0594   0.0690   0.2499  -0.0152  -0.0716  -0.0473   0.00    0.0
2018/11/10 01:37:15.000  -74.393409883  163.452938600    96.6511   6  12   0.0649   0.0747   0.2650  -0.0175  -0.0700  -0.0537   3.00    0.0
2018/11/10 01:37:30.000  -74.393409848  163.452938392    96.6691   6  12   0.0702   0.0820   0.2844  -0.0157  -0.0735  -0.0590   3.00    0.0
2018/11/10 01:37:45.000  -74.393409824  163.452938096    96.5881   6  12   0.0652   0.0778   0.2847  -0.0136  -0.0727  -0.0528   3.00    0.0
2018/11/10 01:38:00.000  -74.393409962  163.452938229    96.6516   6  12   0.0602   0.0761   0.2743  -0.0104  -0.0846  -0.0455   0.00    0.0
2018/11/10 01:38:15.000  -74.393410189  163.452938356    96.6842   6  12   0.0541   0.0615   0.2496   0.0152  -0.0781  -0.0403   0.00    0.0
2018/11/10 01:38:30.000  -74.393410242  163.452938668    96.7295   6  12   0.0495   0.0547   0.1943   0.0154  -0.0642  -0.0411   0.00    0.0
2018/11/10 01:38:45.000  -74.393410254  163.452938643    96.7262   6  12   0.0450   0.0490   0.1778   0.0131  -0.0586  -0.0374   0.00    0.0
2018/11/10 01:39:00.000  -74.393410094  163.452938465    96.7374   6  12   0.0416   0.0457   0.1655   0.0144  -0.0541  -0.0345   0.00    0.0
2018/11/10 01:39:15.000  -74.393410081  163.452938654    96.7710   6  12   0.0386   0.0415   0.1534   0.0155  -0.0530  -0.0303   2.00    0.0
2018/11/10 01:39:30.000  -74.393410065  163.452938490    96.7840   6  11   0.0346   0.0375   0.1446   0.0129  -0.0519  -0.0306   3.00    0.0
2018/11/10 01:39:45.000  -74.393410039  163.452938906    96.7963   6  11   0.0322   0.0356   0.1390   0.0130  -0.0510  -0.0306   4.00    0.0
2018/11/10 01:40:00.000  -74.393410085  163.452939192    96.7435   6  11   0.0314   0.0349   0.1381   0.0134  -0.0511  -0.0314   4.00    0.0
2018/11/10 01:40:15.000  -74.393410049  163.452939854    96.6440   6  11   0.0327   0.0363   0.1446   0.0142  -0.0531  -0.0333   4.00    0.0
2018/11/10 01:40:30.000  -74.393410075  163.452939676    96.6344   6  11   0.0356   0.0391   0.1544   0.0148  -0.0559  -0.0353   5.00    0.0
2018/11/10 01:40:45.000  -74.393410087  163.452939432    96.6632   6  11   0.0393   0.0429   0.1654   0.0155  -0.0588  -0.0366   5.00    0.0
2018/11/10 01:41:00.000  -74.393410040  163.452939294    96.6822   6  11   0.0437   0.0473   0.1780   0.0156  -0.0629  -0.0373   5.00    0.0
2018/11/10 01:41:15.000  -74.393410001  163.452939275    96.6813   6  11   0.0491   0.0532   0.1933   0.0142  -0.0684  -0.0351   6.00    0.0
2018/11/10 01:41:30.000  -74.393409879  163.452939588    96.6813   6  10   0.0544   0.0622   0.2197   0.0128  -0.0829  -0.0322   5.00    0.0
2018/11/10 01:41:45.000  -74.393409898  163.452938839    96.6843   6  10   0.0597   0.0662   0.2383   0.0091  -0.0883  -0.0306   5.00    0.0
2018/11/10 01:42:00.000  -74.393409973  163.452938972    96.6675   6  10   0.0655   0.0691   0.2613   0.0066  -0.0965  -0.0337   5.00    0.0
2018/11/10 01:42:15.000  -74.393409805  163.452940205    96.5774   6  10   0.0723   0.0748   0.2905   0.0118  -0.1076  -0.0446   6.00    0.0
2018/11/10 01:42:30.000  -74.393410081  163.452938630    96.7981   6   9   0.0835   0.0884   0.3669   0.0348  -0.1434  -0.0881   6.00    0.0
2018/11/10 01:42:45.000  -74.393409806  163.452939127    96.7124   6   9   0.0770   0.0815   0.3385   0.0319  -0.1319  -0.0807   5.00    0.0
2018/11/10 01:43:00.000  -74.393409683  163.452939383    96.6277   6   9   0.0706   0.0748   0.3113   0.0293  -0.1207  -0.0742   7.00    0.0
2018/11/10 01:43:15.000  -74.393409743  163.452939789    96.6031   6   9   0.0644   0.0683   0.2847   0.0269  -0.1098  -0.0680   6.00    0.0
2018/11/10 01:43:30.000  -74.393409849  163.452940022    96.5458   6   9   0.0584   0.0620   0.2592   0.0245  -0.0993  -0.0622   6.00    0.0
2018/11/10 01:43:45.000  -74.393409893  163.452939805    96.4899   6   9   0.0526   0.0560   0.2351   0.0224  -0.0894  -0.0568   6.00    0.0
2018/11/10 01:44:00.000  -74.393409973  163.452939292    96.5148   6   9   0.0470   0.0504   0.2129   0.0205  -0.0803  -0.0519   6.00    0.0
2018/11/10 01:44:15.000  -74.393409902  163.452939897    96.5065   6   9   0.0420   0.0455   0.1937   0.0191  -0.0723  -0.0478   6.00    0.0
2018/11/10 01:44:30.000  -74.393409891  163.452940217    96.4950   6   9   0.0376   0.0418   0.1784   0.0182  -0.0660  -0.0447   6.00    0.0
