% program   : RTKLIB ver.2.4.3
% inp file  : _by_type/_obs/tuati/20181105.18o
% inp file  : _by_type/_sp3+clk/igs20261.clk
% inp file  : _by_type/_sp3+clk/igs20261.sp3
% inp file  : _by_type/_nav/tuati/20181105.18n
% obs start : 2018/11/05 00:00:00.0 GPST (week2026  86400.0s)
% obs end   : 2018/11/05 23:59:30.0 GPST (week2026 172770.0s)
% pos mode  : ppp-kinematic
% solution  : combined
% elev mask : 15.0 deg
% dynamics  : off
% tidecorr  : on
% tropo opt : est ztd+grad
% ephemeris : precise
% navi sys  : gps glonass
% antenna1  :                       ( 0.0000  0.0000  0.0000)
%
% (lat/lon/height=WGS84/ellipsoidal,Q=1:fix,2:float,3:sbas,4:dgps,5:single,6:ppp,ns=# of satellites)
%  GPST                  latitude(deg) longitude(deg)  height(m)   Q  ns   sdn(m)   sde(m)   sdu(m)  sdne(m)  sdeu(m)  sdun(m) age(s)  ratio
2018/11/05 00:00:00.000  -74.425533225  163.418485889    65.1201   6   8   0.1146   0.0452   0.3074   0.0340  -0.0676  -0.1695   0.00    0.0
2018/11/05 00:00:30.000  -74.425532808  163.418485440    65.0104   6   8   0.1229   0.0539   0.3481   0.0396  -0.0803  -0.1861   0.00    0.0
2018/11/05 00:01:00.000  -74.425532759  163.418485306    65.0155   6   8   0.1333   0.0682   0.4025   0.0452  -0.0934  -0.2056   0.00    0.0
2018/11/05 00:01:30.000  -74.425533323  163.418485209    65.1964   6   8   0.1453   0.0848   0.4630   0.0500  -0.1036  -0.2263   0.00    0.0
2018/11/05 00:02:00.000  -74.425533563  163.418484854    65.2215   6   8   0.1588   0.1029   0.5297   0.0540  -0.1103  -0.2486   0.00    0.0
2018/11/05 00:02:30.000  -74.425533425  163.418484816    65.2172   6   8   0.1733   0.1240   0.6060   0.0556  -0.1054  -0.2729   1.00    0.0
2018/11/05 00:03:00.000  -74.425533312  163.418485884    65.2720   6   8   0.1585   0.1051   0.5875   0.0501  -0.1022  -0.2559   2.00    0.0
2018/11/05 00:03:30.000  -74.425533454  163.418485699    65.2326   6   8   0.1441   0.0859   0.4672   0.0506  -0.1197  -0.2261   0.00    0.0
2018/11/05 00:04:00.000  -74.425533524  163.418485267    65.1617   6   8   0.1334   0.0696   0.3761   0.0451  -0.0867  -0.2050   0.00    0.0
2018/11/05 00:04:30.000  -74.425532945  163.418486619    64.9895   6   9   0.1204   0.0469   0.3184   0.0241  -0.0434  -0.1811   0.00    0.0
2018/11/05 00:05:00.000  -74.425532868  163.418486839    65.0146   6   9   0.1162   0.0429   0.3076   0.0257  -0.0466  -0.1761   0.00    0.0
2018/11/05 00:05:30.000  -74.425532712  163.418487929    65.0238   6   9   0.1177   0.0530   0.3139   0.0203  -0.0427  -0.1769   0.00    0.0
2018/11/05 00:06:00.000  -74.425532641  163.418487644    65.0104   6   9   0.1223   0.0703   0.3325  -0.0062  -0.0355  -0.1807   1.00    0.0
2018/11/05 00:06:30.000  -74.425532872  163.418486350    65.0081   6   9   0.1291   0.0911   0.3577  -0.0302   0.0103  -0.1857   1.00    0.0
2018/11/05 00:07:00.000  -74.425532922  163.418486255    65.0463   6   9   0.1327   0.1000   0.3827  -0.0117  -0.0387  -0.1857   2.00    0.0
2018/11/05 00:07:30.000  -74.425532708  163.418485978    65.0220   6   9   0.1414   0.1206   0.4168  -0.0260  -0.0304  -0.1919   3.00    0.0
2018/11/05 00:08:00.000  -74.425532564  163.418487059    65.0343   6   9   0.1354   0.0965   0.3878  -0.0443   0.0605  -0.1896   2.00    0.0
2018/11/05 00:08:30.000  -74.425532519  163.418486950    65.0547   6   9   0.1309   0.0788   0.3801  -0.0319   0.0388  -0.1944   1.00    0.0
2018/11/05 00:09:00.000  -74.425532157  163.418486744    64.9136   6   9   0.0996   0.0615   0.2922   0.0333  -0.0586  -0.1446   1.00    0.0
2018/11/05 00:09:30.000  -74.425532456  163.418486528    64.9669   6   9   0.0609   0.0468   0.1920  -0.0220   0.0274  -0.0773   0.00    0.0
2018/11/05 00:10:00.000  -74.425532471  163.418486751    64.8932   6   9   0.0468   0.0386   0.1481  -0.0092  -0.0141  -0.0455   1.00    0.0
2018/11/05 00:10:30.000  -74.425532559  163.418486415    64.8778   6   9   0.0533   0.0463   0.1764  -0.0036  -0.0231  -0.0602   1.00    0.0
2018/11/05 00:11:00.000  -74.425532725  163.418487036    65.0052   6   9   0.0656   0.0617   0.2260   0.0129  -0.0368  -0.0825   2.00    0.0
2018/11/05 00:11:30.000  -74.425532723  163.418487111    65.0446   6   9   0.0791   0.0706   0.2737  -0.0159   0.0255  -0.1009   1.00    0.0
2018/11/05 00:12:00.000  -74.425532786  163.418486101    65.0919   6   9   0.0996   0.0865   0.3554   0.0110  -0.0261  -0.1391   2.00    0.0
2018/11/05 00:12:30.000  -74.425532467  163.418484984    65.0071   6   9   0.1170   0.1015   0.4223   0.0169  -0.0328  -0.1669   2.00    0.0
2018/11/05 00:13:00.000  -74.425532299  163.418485329    64.9158   6   9   0.0997   0.0860   0.3587   0.0105  -0.0229  -0.1407   2.00    0.0
2018/11/05 00:13:30.000  -74.425532379  163.418486005    64.8612   6   9   0.0690   0.0687   0.2258  -0.0287   0.0573  -0.0652   2.00    0.0
2018/11/05 00:14:00.000  -74.425532434  163.418486397    64.8697   6   9   0.0569   0.0552   0.1815  -0.0232   0.0454  -0.0488   3.00    0.0
2018/11/05 00:14:30.000  -74.425532404  163.418486231    64.8324   6   9   0.0476   0.0444   0.1468  -0.0185   0.0351  -0.0340   4.00    0.0
2018/11/05 00:15:00.000  -74.425532345  163.418486708    64.7955   6   9   0.0437   0.0401   0.1364  -0.0160   0.0308  -0.0274   4.00    0.0
2018/11/05 00:15:30.000  -74.425532356  163.418486709    64.7654   6   9   0.0479   0.0467   0.1639  -0.0212   0.0497  -0.0366   2.00    0.0
2018/11/05 00:16:00.000  -74.425532612  163.418485531    64.7565   6   9   0.0571   0.0597   0.2209  -0.0271   0.0700  -0.0534   2.00    0.0
2018/11/05 00:16:30.000  -74.425532530  163.418484675    64.7727   6   9   0.0685   0.0749   0.2839  -0.0333   0.0914  -0.0690   2.00    0.0
2018/11/05 00:17:00.000  -74.425532335  163.418484375    64.7553   6   9   0.0808   0.0913   0.3537  -0.0400   0.1154  -0.0841   2.00    0.0
2018/11/05 00:17:30.000  -74.425532235  163.418483398    64.7264   6   9   0.0940   0.1106   0.4452  -0.0488   0.1490  -0.1001   3.00    0.0
2018/11/05 00:18:00.000  -74.425532320  163.418484729    64.7882   6   9   0.0805   0.0838   0.2880  -0.0372   0.0843  -0.0837   0.00    0.0
2018/11/05 00:18:30.000  -74.425532174  163.418485829    64.7798   6   9   0.0681   0.0694   0.2365  -0.0311   0.0689  -0.0677   0.00    0.0
2018/11/05 00:19:00.000  -74.425532258  163.418486494    64.8070   6   9   0.0569   0.0563   0.1904  -0.0259   0.0560  -0.0528   0.00    0.0
2018/11/05 00:19:30.000  -74.425532189  163.418486503    64.7850   6   9   0.0483   0.0458   0.1529  -0.0218   0.0458  -0.0397   1.00    0.0
2018/11/05 00:20:00.000  -74.425532288  163.418486339    64.7686   6  10   0.0444   0.0415   0.1326  -0.0207   0.0431  -0.0311   2.00    0.0
2018/11/05 00:20:30.000  -74.425532350  163.418486124    64.7285   6  10   0.0486   0.0482   0.1564  -0.0251   0.0559  -0.0409   3.00    0.0
2018/11/05 00:21:00.000  -74.425532266  163.418486074    64.7253   6  10   0.0566   0.0601   0.1952  -0.0312   0.0743  -0.0527   3.00    0.0
2018/11/05 00:21:30.000  -74.425532033  163.418485023    64.6961   6  10   0.0668   0.0739   0.2403  -0.0376   0.0939  -0.0647   3.00    0.0
2018/11/05 00:22:00.000  -74.425531887  163.418484581    64.6927   6  10   0.0779   0.0891   0.2908  -0.0448   0.1160  -0.0781   3.00    0.0
2018/11/05 00:22:30.000  -74.425531705  163.418483994    64.6498   6  10   0.0900   0.1075   0.3545  -0.0546   0.1465  -0.0971   3.00    0.0
2018/11/05 00:23:00.000  -74.425531904  163.418485277    64.6784   6  10   0.0805   0.0974   0.3280  -0.0530   0.1394  -0.0961   3.00    0.0
2018/11/05 00:23:30.000  -74.425531932  163.418485665    64.6647   6  10   0.0688   0.0812   0.2755  -0.0445   0.1156  -0.0806   3.00    0.0
2018/11/05 00:24:00.000  -74.425532072  163.418486022    64.7116   6  10   0.0582   0.0655   0.2242  -0.0363   0.0915  -0.0652   3.00    0.0
2018/11/05 00:24:30.000  -74.425532169  163.418486756    64.7324   6  10   0.0499   0.0520   0.1802  -0.0291   0.0693  -0.0511   4.00    0.0
2018/11/05 00:25:00.000  -74.425532287  163.418486144    64.7583   6  10   0.0461   0.0431   0.1499  -0.0239   0.0493  -0.0387   4.00    0.0
2018/11/05 00:25:30.000  -74.425532305  163.418485979    64.8430   6  10   0.0506   0.0496   0.1692  -0.0286   0.0574  -0.0433   4.00    0.0
2018/11/05 00:26:00.000  -74.425532029  163.418485015    64.8056   6  10   0.0605   0.0627   0.2007  -0.0376   0.0697  -0.0494   4.00    0.0
2018/11/05 00:26:30.000  -74.425531982  163.418484912    64.8256   6  10   0.0691   0.0735   0.2395  -0.0410   0.0830  -0.0562   2.00    0.0
2018/11/05 00:27:00.000  -74.425531988  163.418484669    64.8412   6  10   0.0766   0.0822   0.2797  -0.0401   0.0997  -0.0667   2.00    0.0
2018/11/05 00:27:30.000  -74.425531979  163.418484170    64.8682   6  10   0.0874   0.0947   0.3224  -0.0455   0.1159  -0.0773   2.00    0.0
2018/11/05 00:28:00.000  -74.425531941  163.418484589    64.8433   6  10   0.0764   0.0820   0.2864  -0.0393   0.1014  -0.0649   2.00    0.0
2018/11/05 00:28:30.000  -74.425531979  163.418486033    64.8649   6  10   0.0664   0.0695   0.2564  -0.0334   0.0875  -0.0504   2.00    0.0
2018/11/05 00:29:00.000  -74.425532319  163.418486746    64.8495   6  10   0.0561   0.0579   0.2073  -0.0297   0.0719  -0.0520   0.00    0.0
2018/11/05 00:29:30.000  -74.425532407  163.418486627    64.8373   6  10   0.0493   0.0490   0.1818  -0.0267   0.0609  -0.0461   0.00    0.0
2018/11/05 00:30:00.000  -74.425532384  163.418486471    64.7864   6  10   0.0471   0.0459   0.1730  -0.0265   0.0552  -0.0430   0.00    0.0
2018/11/05 00:30:30.000  -74.425532232  163.418484688    64.6622   6  10   0.0525   0.0541   0.1935  -0.0330   0.0594  -0.0442   2.00    0.0
2018/11/05 00:31:00.000  -74.425532225  163.418483945    64.6683   6  10   0.0628   0.0679   0.2284  -0.0424   0.0659  -0.0439   2.00    0.0
2018/11/05 00:31:30.000  -74.425532208  163.418483668    64.8186   6  10   0.0735   0.0810   0.2700  -0.0491   0.0806  -0.0508   2.00    0.0
2018/11/05 00:32:00.000  -74.425532094  163.418482854    64.9031   6  10   0.0838   0.0937   0.3205  -0.0535   0.0967  -0.0539   3.00    0.0
2018/11/05 00:32:30.000  -74.425531950  163.418481869    64.7920   6  10   0.0923   0.1089   0.3494  -0.0585   0.1169  -0.0821   0.00    0.0
2018/11/05 00:33:00.000  -74.425531912  163.418481810    64.7932   6  10   0.0847   0.1020   0.3064  -0.0595   0.0923  -0.0645   0.00    0.0
2018/11/05 00:33:30.000  -74.425532322  163.418484907    64.7421   6  10   0.0693   0.0749   0.2658  -0.0421   0.0875  -0.0592   0.00    0.0
2018/11/05 00:34:00.000  -74.425532413  163.418485025    64.7579   6  11   0.0569   0.0615   0.2251  -0.0329   0.0764  -0.0579   1.00    0.0
2018/11/05 00:34:30.000  -74.425532364  163.418485237    64.8142   6  11   0.0510   0.0545   0.2009  -0.0313   0.0624  -0.0496   0.00    0.0
2018/11/05 00:35:00.000  -74.425532333  163.418485421    64.8124   6  11   0.0475   0.0490   0.1812  -0.0284   0.0655  -0.0538   0.00    0.0
2018/11/05 00:35:30.000  -74.425531989  163.418483846    64.6676   6  11   0.0529   0.0615   0.1796  -0.0376   0.0772  -0.0665   0.00    0.0
2018/11/05 00:36:00.000  -74.425531904  163.418483257    64.7138   6  11   0.0717   0.0900   0.2759  -0.0618   0.1288  -0.1067   0.00    0.0
2018/11/05 00:36:30.000  -74.425531975  163.418482782    64.6673   6  11   0.0840   0.1074   0.3606  -0.0747   0.1715  -0.1399   0.00    0.0
2018/11/05 00:37:00.000  -74.425532399  163.418484642    64.8330   6  11   0.0837   0.0936   0.3177  -0.0588   0.1344  -0.1183   1.00    0.0
2018/11/05 00:37:30.000  -74.425532368  163.418484590    64.8267   6  11   0.0910   0.1035   0.3547  -0.0608   0.1473  -0.1262   1.00    0.0
2018/11/05 00:38:00.000  -74.425532455  163.418485329    64.8330   6  11   0.0801   0.0893   0.3020  -0.0530   0.1240  -0.1079   2.00    0.0
2018/11/05 00:38:30.000  -74.425532539  163.418484884    64.8366   6  11   0.0686   0.0743   0.2535  -0.0437   0.1020  -0.0915   3.00    0.0
2018/11/05 00:39:00.000  -74.425532667  163.418485073    64.8300   6  11   0.0576   0.0596   0.2108  -0.0339   0.0823  -0.0775   3.00    0.0
2018/11/05 00:39:30.000  -74.425532522  163.418485126    64.7893   6  11   0.0508   0.0501   0.1788  -0.0294   0.0684  -0.0688   2.00    0.0
2018/11/05 00:40:00.000  -74.425532330  163.418485271    64.7211   6  11   0.0483   0.0468   0.1666  -0.0286   0.0640  -0.0667   3.00    0.0
2018/11/05 00:40:30.000  -74.425532277  163.418484713    64.6573   6  11   0.0549   0.0578   0.2043  -0.0375   0.0851  -0.0805   5.00    0.0
2018/11/05 00:41:00.000  -74.425532176  163.418483978    64.6453   6  11   0.0635   0.0724   0.2536  -0.0457   0.1096  -0.0971   5.00    0.0
2018/11/05 00:41:30.000  -74.425532533  163.418485818    64.8911   6  11   0.0784   0.0775   0.2975  -0.0517   0.1179  -0.1195   5.00    0.0
2018/11/05 00:42:00.000  -74.425532662  163.418486009    64.9967   6  11   0.0891   0.0919   0.3463  -0.0611   0.1394  -0.1351   5.00    0.0
2018/11/05 00:42:30.000  -74.425532627  163.418486214    64.9969   6  11   0.0953   0.1018   0.3844  -0.0628   0.1543  -0.1441   5.00    0.0
2018/11/05 00:43:00.000  -74.425532777  163.418486909    65.0309   6  11   0.0844   0.0883   0.3380  -0.0552   0.1342  -0.1285   5.00    0.0
2018/11/05 00:43:30.000  -74.425532981  163.418487259    65.0650   6  11   0.0747   0.0759   0.2956  -0.0487   0.1158  -0.1153   5.00    0.0
2018/11/05 00:44:00.000  -74.425532962  163.418487662    65.0831   6  11   0.0664   0.0656   0.2583  -0.0434   0.0995  -0.1043   5.00    0.0
2018/11/05 00:44:30.000  -74.425532757  163.418486303    64.9178   6  11   0.0603   0.0528   0.2318  -0.0382   0.0873  -0.0969   4.00    0.0
2018/11/05 00:45:00.000  -74.425532458  163.418485158    64.6884   6  11   0.0562   0.0488   0.2142  -0.0361   0.0813  -0.0913   4.00    0.0
2018/11/05 00:45:30.000  -74.425532607  163.418485736    64.6850   6  11   0.0623   0.0579   0.2503  -0.0428   0.0990  -0.1043   4.00    0.0
2018/11/05 00:46:00.000  -74.425532376  163.418485015    64.5722   6  11   0.0765   0.0736   0.3220  -0.0557   0.1303  -0.1327   4.00    0.0
2018/11/05 00:46:30.000  -74.425532127  163.418483677    64.4633   6  11   0.0870   0.0886   0.3759  -0.0639   0.1556  -0.1535   4.00    0.0
2018/11/05 00:47:00.000  -74.425532424  163.418484595    64.6610   6  11   0.1175   0.1139   0.5156  -0.0930   0.2149  -0.2199   4.00    0.0
2018/11/05 00:47:30.000  -74.425532144  163.418483943    64.6205   6  11   0.1227   0.1236   0.5394  -0.0952   0.2247  -0.2239   4.00    0.0
2018/11/05 00:48:00.000  -74.425532393  163.418484794    64.7172   6  11   0.1131   0.1150   0.5036  -0.0894   0.2124  -0.2107   4.00    0.0
2018/11/05 00:48:30.000  -74.425532216  163.418483765    64.6495   6  11   0.0925   0.0765   0.3554  -0.0555   0.1296  -0.1554   5.00    0.0
2018/11/05 00:49:00.000  -74.425532343  163.418483983    64.6719   6  11   0.0780   0.0623   0.2928  -0.0453   0.1043  -0.1294   4.00    0.0
2018/11/05 00:49:30.000  -74.425532296  163.418484040    64.6379   6  11   0.0596   0.0503   0.2222  -0.0351   0.0805  -0.0943   4.00    0.0
2018/11/05 00:50:00.000  -74.425532241  163.418483946    64.5861   6  11   0.0506   0.0442   0.1830  -0.0276   0.0657  -0.0756   4.00    0.0
2018/11/05 00:50:30.000  -74.425532338  163.418483753    64.6038   6  11   0.0549   0.0492   0.2016  -0.0281   0.0696  -0.0824   4.00    0.0
2018/11/05 00:51:00.000  -74.425532468  163.418482986    64.6530   6  11   0.0669   0.0593   0.2523  -0.0343   0.0849  -0.1043   4.00    0.0
2018/11/05 00:51:30.000  -74.425532223  163.418482576    64.6253   6  11   0.0776   0.0706   0.2955  -0.0394   0.0991  -0.1201   4.00    0.0
2018/11/05 00:52:00.000  -74.425531933  163.418482770    64.5939   6  11   0.1028   0.0852   0.3990  -0.0546   0.1305  -0.1714   4.00    0.0
2018/11/05 00:52:30.000  -74.425531442  163.418481641    64.4452   6  11   0.1230   0.0982   0.4829  -0.0679   0.1583  -0.2099   3.00    0.0
2018/11/05 00:53:00.000  -74.425531642  163.418482235    64.5893   6  11   0.0922   0.0849   0.3591  -0.0491   0.1186  -0.1444   3.00    0.0
2018/11/05 00:53:30.000  -74.425531710  163.418483379    64.5364   6  11   0.0800   0.0694   0.3056  -0.0442   0.1077  -0.1271   3.00    0.0
2018/11/05 00:54:00.000  -74.425531922  163.418483251    64.5025   6  11   0.0609   0.0581   0.2271  -0.0336   0.0860  -0.0888   4.00    0.0
2018/11/05 00:54:30.000  -74.425531973  163.418483170    64.4467   6  11   0.0513   0.0478   0.1886  -0.0292   0.0718  -0.0739   4.00    0.0
2018/11/05 00:55:00.000  -74.425532139  163.418483960    64.5019   6  11   0.0435   0.0425   0.1496  -0.0234   0.0594  -0.0547   4.00    0.0
2018/11/05 00:55:30.000  -74.425532052  163.418483451    64.4169   6  11   0.0499   0.0480   0.1818  -0.0279   0.0697  -0.0696   4.00    0.0
2018/11/05 00:56:00.000  -74.425531953  163.418482947    64.3918   6  11   0.0585   0.0567   0.2156  -0.0311   0.0796  -0.0827   4.00    0.0
2018/11/05 00:56:30.000  -74.425532059  163.418483268    64.5301   6  11   0.0816   0.0727   0.3183  -0.0503   0.1180  -0.1338   5.00    0.0
2018/11/05 00:57:00.000  -74.425531956  163.418483268    64.5338   6  11   0.0912   0.0824   0.3501  -0.0527   0.1267  -0.1449   5.00    0.0
2018/11/05 00:57:30.000  -74.425531814  163.418482746    64.5003   6  11   0.1073   0.0977   0.4240  -0.0673   0.1582  -0.1765   6.00    0.0
2018/11/05 00:58:00.000  -74.425531841  163.418483363    64.4549   6  11   0.0918   0.0851   0.3586  -0.0563   0.1339  -0.1484   6.00    0.0
2018/11/05 00:58:30.000  -74.425532135  163.418483542    64.4942   6  11   0.0807   0.0757   0.3122  -0.0481   0.1162  -0.1307   6.00    0.0
2018/11/05 00:59:00.000  -74.425532334  163.418483693    64.4826   6  10   0.0668   0.0562   0.2498  -0.0376   0.0877  -0.1049   5.00    0.0
2018/11/05 00:59:30.000  -74.425532258  163.418484123    64.4973   6  10   0.0487   0.0442   0.1690  -0.0233   0.0589  -0.0640   5.00    0.0
2018/11/05 01:00:00.000  -74.425532303  163.418484374    64.5757   6  10   0.0396   0.0383   0.1228  -0.0144   0.0424  -0.0377   5.00    0.0
2018/11/05 01:00:30.000  -74.425532082  163.418484556    64.4523   6  10   0.0465   0.0431   0.1583  -0.0186   0.0504  -0.0566   5.00    0.0
2018/11/05 01:01:00.000  -74.425532090  163.418484731    64.4549   6  10   0.0602   0.0526   0.2195  -0.0268   0.0667  -0.0860   6.00    0.0
2018/11/05 01:01:30.000  -74.425531944  163.418484346    64.4797   6  10   0.0768   0.0641   0.2913  -0.0364   0.0867  -0.1187   5.00    0.0
2018/11/05 01:02:00.000  -74.425531795  163.418483964    64.4802   6  10   0.0947   0.0763   0.3724  -0.0465   0.1077  -0.1533   5.00    0.0
2018/11/05 01:02:30.000  -74.425531705  163.418483699    64.5003   6   9   0.1155   0.0888   0.4791  -0.0573   0.1320  -0.1978   6.00    0.0
2018/11/05 01:03:00.000  -74.425531876  163.418484318    64.5993   6   9   0.0971   0.0771   0.3968  -0.0430   0.1019  -0.1623   6.00    0.0
2018/11/05 01:03:30.000  -74.425531876  163.418483993    64.5236   6   9   0.0775   0.0623   0.3087  -0.0357   0.0847  -0.1230   5.00    0.0
2018/11/05 01:04:00.000  -74.425532093  163.418484059    64.5714   6   9   0.0596   0.0509   0.2246  -0.0255   0.0634  -0.0853   5.00    0.0
2018/11/05 01:04:30.000  -74.425532334  163.418484242    64.5978   6   9   0.0451   0.0417   0.1521  -0.0160   0.0452  -0.0512   5.00    0.0
2018/11/05 01:05:00.000  -74.425532280  163.418484386    64.5667   6   9   0.0377   0.0372   0.1094  -0.0089   0.0344  -0.0274   5.00    0.0
2018/11/05 01:05:30.000  -74.425532078  163.418483840    64.5380   6  10   0.0434   0.0428   0.1365  -0.0169   0.0461  -0.0423   5.00    0.0
2018/11/05 01:06:00.000  -74.425531926  163.418483115    64.4955   6  10   0.0519   0.0529   0.1710  -0.0248   0.0601  -0.0549   5.00    0.0
2018/11/05 01:06:30.000  -74.425531868  163.418482932    64.5253   6  10   0.0654   0.0674   0.2276  -0.0385   0.0861  -0.0804   5.00    0.0
2018/11/05 01:07:00.000  -74.425531811  163.418482461    64.5215   6  10   0.0747   0.0745   0.2647  -0.0406   0.0933  -0.0900   5.00    0.0
2018/11/05 01:07:30.000  -74.425531853  163.418482537    64.5236   6  10   0.0854   0.0847   0.3064  -0.0459   0.1056  -0.1030   5.00    0.0
2018/11/05 01:08:00.000  -74.425531975  163.418482613    64.5144   6  10   0.0730   0.0728   0.2564  -0.0371   0.0867  -0.0842   5.00    0.0
2018/11/05 01:08:30.000  -74.425531970  163.418482884    64.5000   6  10   0.0613   0.0624   0.2087  -0.0286   0.0692  -0.0666   5.00    0.0
2018/11/05 01:09:00.000  -74.425532094  163.418483716    64.5528   6  10   0.0507   0.0495   0.1639  -0.0207   0.0522  -0.0501   5.00    0.0
2018/11/05 01:09:30.000  -74.425532180  163.418483939    64.5810   6  10   0.0418   0.0411   0.1237  -0.0129   0.0380  -0.0335   5.00    0.0
2018/11/05 01:10:00.000  -74.425532290  163.418483934    64.5667   6  10   0.0365   0.0363   0.0964   0.0031   0.0271  -0.0155   5.00    0.0
2018/11/05 01:10:30.000  -74.425532237  163.418483953    64.6052   6  10   0.0414   0.0407   0.1208  -0.0093   0.0328  -0.0306   5.00    0.0
2018/11/05 01:11:00.000  -74.425532205  163.418484408    64.6428   6  10   0.0512   0.0483   0.1681  -0.0166   0.0445  -0.0527   5.00    0.0
2018/11/05 01:11:30.000  -74.425532080  163.418484246    64.6379   6  10   0.0624   0.0579   0.2175  -0.0227   0.0561  -0.0720   5.00    0.0
2018/11/05 01:12:00.000  -74.425531825  163.418483744    64.6083   6  10   0.0762   0.0684   0.2793  -0.0291   0.0689  -0.0980   5.00    0.0
2018/11/05 01:12:30.000  -74.425531923  163.418483203    64.5567   6  10   0.0894   0.0793   0.3377  -0.0415   0.0946  -0.1206   5.00    0.0
2018/11/05 01:13:00.000  -74.425531911  163.418482972    64.5108   6  10   0.0744   0.0680   0.2695  -0.0327   0.0758  -0.0917   5.00    0.0
2018/11/05 01:13:30.000  -74.425532132  163.418483520    64.6133   6  10   0.0615   0.0571   0.2124  -0.0241   0.0583  -0.0686   5.00    0.0
2018/11/05 01:14:00.000  -74.425532235  163.418483293    64.6497   6  10   0.0502   0.0473   0.1611  -0.0153   0.0419  -0.0479   5.00    0.0
2018/11/05 01:14:30.000  -74.425532263  163.418483631    64.6801   6  10   0.0410   0.0396   0.1170  -0.0030   0.0273  -0.0276   5.00    0.0
2018/11/05 01:15:00.000  -74.425532371  163.418483893    64.5987   6  10   0.0362   0.0361   0.0910   0.0095   0.0177  -0.0037   5.00    0.0
2018/11/05 01:15:30.000  -74.425532378  163.418483676    64.6137   6  10   0.0423   0.0400   0.1162   0.0094   0.0208  -0.0276   5.00    0.0
2018/11/05 01:16:00.000  -74.425532260  163.418483403    64.6128   6  10   0.0536   0.0477   0.1608   0.0019   0.0310  -0.0500   5.00    0.0
2018/11/05 01:16:30.000  -74.425532048  163.418483568    64.5318   6  10   0.0668   0.0570   0.2131  -0.0138   0.0439  -0.0732   5.00    0.0
2018/11/05 01:17:00.000  -74.425531797  163.418483731    64.3855   6  10   0.0815   0.0670   0.2706  -0.0221   0.0572  -0.0985   5.00    0.0
2018/11/05 01:17:30.000  -74.425531670  163.418483095    64.4717   6  10   0.0991   0.0776   0.3361  -0.0299   0.0693  -0.1287   5.00    0.0
2018/11/05 01:18:00.000  -74.425532487  163.418483437    64.7480   6  10   0.0822   0.0670   0.2787  -0.0311   0.0707  -0.1016   4.00    0.0
2018/11/05 01:18:30.000  -74.425532503  163.418483184    64.6705   6  10   0.0684   0.0581   0.2164  -0.0213   0.0575  -0.0703   4.00    0.0
2018/11/05 01:19:00.000  -74.425532692  163.418483757    64.6834   6  10   0.0575   0.0465   0.1610  -0.0128   0.0408  -0.0484   3.00    0.0
2018/11/05 01:19:30.000  -74.425532716  163.418484215    64.6631   6  10   0.0412   0.0385   0.1089  -0.0068   0.0258  -0.0245   3.00    0.0
2018/11/05 01:20:00.000  -74.425532630  163.418483979    64.6674   6  10   0.0362   0.0351   0.0843   0.0070   0.0178   0.0096   3.00    0.0
2018/11/05 01:20:30.000  -74.425532651  163.418483475    64.5901   6  10   0.0397   0.0383   0.1047   0.0017   0.0208  -0.0147   3.00    0.0
2018/11/05 01:21:00.000  -74.425532696  163.418483034    64.5883   6  10   0.0476   0.0453   0.1427  -0.0108   0.0294  -0.0333   4.00    0.0
2018/11/05 01:21:30.000  -74.425532597  163.418482660    64.6258   6  10   0.0576   0.0540   0.1875  -0.0175   0.0400  -0.0514   4.00    0.0
2018/11/05 01:22:00.000  -74.425532465  163.418483399    64.6567   6  10   0.0688   0.0635   0.2348  -0.0237   0.0511  -0.0694   3.00    0.0
2018/11/05 01:22:30.000  -74.425532325  163.418483305    64.6524   6  10   0.0805   0.0735   0.2832  -0.0298   0.0620  -0.0872   4.00    0.0
2018/11/05 01:23:00.000  -74.425532436  163.418483318    64.7063   6  10   0.0686   0.0631   0.2338  -0.0227   0.0482  -0.0690   5.00    0.0
2018/11/05 01:23:30.000  -74.425532470  163.418483084    64.6949   6  10   0.0573   0.0535   0.1858  -0.0157   0.0352  -0.0504   7.00    0.0
2018/11/05 01:24:00.000  -74.425532593  163.418483017    64.7031   6  10   0.0471   0.0448   0.1411  -0.0081   0.0233  -0.0315   7.00    0.0
2018/11/05 01:24:30.000  -74.425532646  163.418483478    64.7010   6  10   0.0392   0.0381   0.1048   0.0066   0.0125  -0.0084   7.00    0.0
2018/11/05 01:25:00.000  -74.425532580  163.418483855    64.6628   6  10   0.0356   0.0352   0.0908   0.0094  -0.0083   0.0182   7.00    0.0
2018/11/05 01:25:30.000  -74.425532500  163.418483703    64.6607   6  10   0.0398   0.0383   0.1313   0.0058   0.0124  -0.0201   0.00    0.0
2018/11/05 01:26:00.000  -74.425532565  163.418483576    64.6986   6  10   0.0472   0.0446   0.1748  -0.0068   0.0137  -0.0333   0.00    0.0
2018/11/05 01:26:30.000  -74.425532549  163.418483421    64.7404   6  11   0.0532   0.0523   0.2096  -0.0045  -0.0242  -0.0149   1.00    0.0
2018/11/05 01:27:00.000  -74.425532460  163.418483628    64.7075   6  11   0.0608   0.0607   0.2555   0.0039  -0.0343  -0.0192   0.00    0.0
2018/11/05 01:27:30.000  -74.425532435  163.418484231    64.6649   6  11   0.0694   0.0698   0.2870   0.0048  -0.0404  -0.0231   0.00    0.0
2018/11/05 01:28:00.000  -74.425532359  163.418484423    64.6256   6  11   0.0605   0.0608   0.2675   0.0043  -0.0433   0.0156   0.00    0.0
2018/11/05 01:28:30.000  -74.425532429  163.418483982    64.6749   6  11   0.0517   0.0516   0.1794   0.0091  -0.0206  -0.0229   0.00    0.0
2018/11/05 01:29:00.000  -74.425532610  163.418484169    64.7506   6  11   0.0442   0.0439   0.1373   0.0092  -0.0134  -0.0158   0.00    0.0
2018/11/05 01:29:30.000  -74.425532641  163.418483993    64.7747   6  11   0.0384   0.0380   0.1051   0.0095  -0.0088   0.0008   0.00    0.0
2018/11/05 01:30:00.000  -74.425532655  163.418484245    64.7449   6  11   0.0357   0.0354   0.0907   0.0098  -0.0108   0.0137   2.00    0.0
2018/11/05 01:30:30.000  -74.425532644  163.418484205    64.7485   6  12   0.0387   0.0378   0.1085   0.0081  -0.0218   0.0084   6.00    0.0
2018/11/05 01:31:00.000  -74.425532548  163.418484144    64.7592   6  12   0.0454   0.0434   0.1510  -0.0019  -0.0323  -0.0207   6.00    0.0
2018/11/05 01:31:30.000  -74.425532495  163.418484105    64.7448   6  12   0.0532   0.0507   0.2136  -0.0042  -0.0488  -0.0402   0.00    0.0
2018/11/05 01:32:00.000  -74.425532319  163.418484368    64.7477   6  12   0.0632   0.0589   0.2588  -0.0124  -0.0594  -0.0507   0.00    0.0
2018/11/05 01:32:30.000  -74.425532464  163.418485424    64.6827   6  12   0.0779   0.0670   0.2838  -0.0187  -0.0547  -0.0856   0.00    0.0
2018/11/05 01:33:00.000  -74.425532553  163.418485289    64.7039   6  12   0.0607   0.0579   0.2109  -0.0079  -0.0472  -0.0470   0.00    0.0
2018/11/05 01:33:30.000  -74.425532436  163.418484642    64.6929   6  12   0.0512   0.0498   0.1674   0.0050  -0.0377  -0.0319   0.00    0.0
2018/11/05 01:34:00.000  -74.425532525  163.418484876    64.7374   6  12   0.0435   0.0429   0.1302   0.0081  -0.0288  -0.0181   4.00    0.0
2018/11/05 01:34:30.000  -74.425532600  163.418484692    64.7448   6  12   0.0379   0.0379   0.1010   0.0093  -0.0218   0.0094   5.00    0.0
2018/11/05 01:35:00.000  -74.425532680  163.418484573    64.7059   6  12   0.0353   0.0360   0.0894   0.0097  -0.0206   0.0177   5.00    0.0
2018/11/05 01:35:30.000  -74.425532741  163.418485221    64.6530   6  12   0.0379   0.0391   0.1130   0.0099  -0.0300   0.0127   0.00    0.0
2018/11/05 01:36:00.000  -74.425532530  163.418484828    64.7619   6  12   0.0431   0.0435   0.1435   0.0079  -0.0370   0.0105   0.00    0.0
2018/11/05 01:36:30.000  -74.425532384  163.418484584    64.7518   6  12   0.0501   0.0504   0.1888   0.0042  -0.0494  -0.0055   0.00    0.0
2018/11/05 01:37:00.000  -74.425532273  163.418484789    64.8254   6  12   0.0580   0.0578   0.2139   0.0072  -0.0547  -0.0380   0.00    0.0
2018/11/05 01:37:30.000  -74.425532158  163.418485071    64.8273   6  12   0.0666   0.0660   0.2425   0.0011  -0.0624  -0.0463   0.00    0.0
2018/11/05 01:38:00.000  -74.425532110  163.418485051    64.8338   6  12   0.0580   0.0575   0.2013   0.0062  -0.0515  -0.0358   0.00    0.0
2018/11/05 01:38:30.000  -74.425532219  163.418484627    64.7796   6  12   0.0499   0.0496   0.1624   0.0084  -0.0408  -0.0253   3.00    0.0
2018/11/05 01:39:00.000  -74.425532393  163.418484331    64.7595   6  12   0.0429   0.0427   0.1264   0.0094  -0.0304  -0.0136   7.00    0.0
2018/11/05 01:39:30.000  -74.425532544  163.418484167    64.6789   6  12   0.0376   0.0377   0.0967   0.0100  -0.0209   0.0103   6.00    0.0
2018/11/05 01:40:00.000  -74.425532560  163.418484212    64.7059   6  12   0.0352   0.0355   0.0824   0.0103  -0.0157   0.0156   6.00    0.0
2018/11/05 01:40:30.000  -74.425532536  163.418484423    64.7154   6  12   0.0375   0.0377   0.0952   0.0099  -0.0205   0.0127   6.00    0.0
2018/11/05 01:41:00.000  -74.425532493  163.418484363    64.6538   6  12   0.0427   0.0425   0.1209   0.0093  -0.0285  -0.0092   6.00    0.0
2018/11/05 01:41:30.000  -74.425532483  163.418485212    64.6676   6  12   0.0497   0.0490   0.1527   0.0084  -0.0377  -0.0228   6.00    0.0
2018/11/05 01:42:00.000  -74.425532387  163.418485029    64.7369   6  12   0.0577   0.0567   0.1876   0.0071  -0.0476  -0.0340   6.00    0.0
2018/11/05 01:42:30.000  -74.425532308  163.418484994    64.7948   6  12   0.0664   0.0650   0.2240   0.0048  -0.0578  -0.0447   6.00    0.0
2018/11/05 01:43:00.000  -74.425532294  163.418484836    64.8145   6  12   0.0578   0.0567   0.1879   0.0076  -0.0482  -0.0347   7.00    0.0
2018/11/05 01:43:30.000  -74.425532433  163.418485098    64.7806   6  12   0.0498   0.0491   0.1532   0.0090  -0.0388  -0.0236   8.00    0.0
2018/11/05 01:44:00.000  -74.425532585  163.418484871    64.6833   6  12   0.0427   0.0426   0.1219   0.0098  -0.0300  -0.0106   8.00    0.0
2018/11/05 01:44:30.000  -74.425532554  163.418484907    64.6994   6  12   0.0375   0.0379   0.0975   0.0104  -0.0227   0.0121   8.00    0.0
2018/11/05 01:45:00.000  -74.425532514  163.418484744    64.6796   6  12   0.0351   0.0358   0.0873   0.0105  -0.0191   0.0164   8.00    0.0
2018/11/05 01:45:30.000  -74.425532415  163.418484916    64.6659   6  12   0.0377   0.0378   0.1018   0.0101  -0.0234   0.0126   8.00    0.0
2018/11/05 01:46:00.000  -74.425532470  163.418484906    64.6728   6  12   0.0433   0.0424   0.1273   0.0095  -0.0307  -0.0127   8.00    0.0
2018/11/05 01:46:30.000  -74.425532447  163.418484647    64.7177   6  12   0.0509   0.0489   0.1584   0.0082  -0.0395  -0.0269   8.00    0.0
2018/11/05 01:47:00.000  -74.425532207  163.418485579    64.6642   6  12   0.0604   0.0566   0.1927   0.0033  -0.0487  -0.0405   8.00    0.0
2018/11/05 01:47:30.000  -74.425532327  163.418485622    64.7232   6  12   0.0692   0.0649   0.2298  -0.0055  -0.0582  -0.0535   7.00    0.0
2018/11/05 01:48:00.000  -74.425532325  163.418485390    64.7125   6  12   0.0589   0.0565   0.1929   0.0069  -0.0491  -0.0390   7.00    0.0
2018/11/05 01:48:30.000  -74.425532396  163.418485313    64.6935   6  12   0.0503   0.0489   0.1595   0.0089  -0.0401  -0.0263   7.00    0.0
2018/11/05 01:49:00.000  -74.425532442  163.418485404    64.6326   6  12   0.0431   0.0425   0.1307   0.0097  -0.0321  -0.0109   7.00    0.0
2018/11/05 01:49:30.000  -74.425532545  163.418485138    64.6575   6  12   0.0381   0.0379   0.1107   0.0096  -0.0264   0.0172   7.00    0.0
2018/11/05 01:50:00.000  -74.425532565  163.418485159    64.6402   6  12   0.0352   0.0357   0.0990   0.0106  -0.0214   0.0160   0.00    0.0
2018/11/05 01:50:30.000  -74.425532457  163.418485334    64.6313   6  12   0.0377   0.0377   0.1137   0.0101  -0.0255   0.0161   0.00    0.0
2018/11/05 01:51:00.000  -74.425532279  163.418485748    64.6290   6  12   0.0435   0.0422   0.1444   0.0089  -0.0345   0.0138   0.00    0.0
2018/11/05 01:51:30.000  -74.425532304  163.418486481    64.6210   6  12   0.0516   0.0494   0.2116   0.0070  -0.0541  -0.0170   0.00    0.0
2018/11/05 01:52:00.000  -74.425532495  163.418486845    64.6661   6  12   0.0591   0.0568   0.2261   0.0072  -0.0588  -0.0390   0.00    0.0
2018/11/05 01:52:30.000  -74.425532420  163.418486517    64.6683   6  12   0.0670   0.0647   0.2464   0.0080  -0.0653  -0.0455   0.00    0.0
2018/11/05 01:53:00.000  -74.425532383  163.418486364    64.6440   6  12   0.0581   0.0564   0.2107   0.0100  -0.0552  -0.0349   2.00    0.0
2018/11/05 01:53:30.000  -74.425532481  163.418486727    64.6054   6  12   0.0498   0.0488   0.1783   0.0105  -0.0454  -0.0223   3.00    0.0
2018/11/05 01:54:00.000  -74.425532513  163.418486321    64.5871   6  12   0.0429   0.0424   0.1524   0.0104  -0.0373   0.0112   7.00    0.0
2018/11/05 01:54:30.000  -74.425532510  163.418485828    64.5976   6  12   0.0376   0.0378   0.1260   0.0109  -0.0294   0.0158   0.00    0.0
2018/11/05 01:55:00.000  -74.425532559  163.418485385    64.5732   6  12   0.0350   0.0355   0.1080   0.0109  -0.0231   0.0181   0.00    0.0
2018/11/05 01:55:30.000  -74.425532586  163.418485909    64.5649   6  12   0.0378   0.0374   0.1210   0.0105  -0.0268   0.0182   1.00    0.0
2018/11/05 01:56:00.000  -74.425532589  163.418486221    64.4870   6  12   0.0444   0.0420   0.1465   0.0087  -0.0340   0.0098   1.00    0.0
2018/11/05 01:56:30.000  -74.425532584  163.418486987    64.4852   6  12   0.0528   0.0485   0.1799   0.0040  -0.0441  -0.0087   4.00    0.0
2018/11/05 01:57:00.000  -74.425532486  163.418486923    64.5179   6  12   0.0603   0.0567   0.2377  -0.0016  -0.0620  -0.0241   0.00    0.0
2018/11/05 01:57:30.000  -74.425532352  163.418485844    64.6104   6  12   0.0686   0.0647   0.2670  -0.0041  -0.0705  -0.0274   0.00    0.0
2018/11/05 01:58:00.000  -74.425532365  163.418485597    64.6639   6  12   0.0599   0.0562   0.2163   0.0070  -0.0564  -0.0341   0.00    0.0
2018/11/05 01:58:30.000  -74.425532450  163.418486092    64.6262   6  12   0.0499   0.0485   0.1771   0.0103  -0.0446  -0.0220   0.00    0.0
2018/11/05 01:59:00.000  -74.425532481  163.418485719    64.5745   6  12   0.0423   0.0420   0.1479   0.0114  -0.0355  -0.0039   0.00    0.0
2018/11/05 01:59:30.000  -74.425532635  163.418485523    64.5855   6  12   0.0370   0.0374   0.1265   0.0115  -0.0284   0.0167   4.00    0.0
2018/11/05 02:00:00.000  -74.425532670  163.418485519    64.5264   6  12   0.0345   0.0353   0.1167   0.0113  -0.0249   0.0207   6.00    0.0
2018/11/05 02:00:30.000  -74.425532576  163.418485715    64.5989   6  11   0.0376   0.0375   0.1299   0.0115  -0.0293   0.0194   5.00    0.0
2018/11/05 02:01:00.000  -74.425532483  163.418485509    64.6182   6  11   0.0443   0.0430   0.1548   0.0117  -0.0382   0.0163   5.00    0.0
2018/11/05 02:01:30.000  -74.425532413  163.418486198    64.5657   6  11   0.0536   0.0514   0.1864   0.0098  -0.0505   0.0138   5.00    0.0
2018/11/05 02:02:00.000  -74.425532481  163.418486092    64.5193   6  10   0.0653   0.0672   0.2453  -0.0164  -0.0824   0.0301   5.00    0.0
2018/11/05 02:02:30.000  -74.425532396  163.418485934    64.4686   6  10   0.0768   0.0789   0.2932  -0.0150  -0.1041   0.0272   5.00    0.0
2018/11/05 02:03:00.000  -74.425532671  163.418484924    64.5889   6   9   0.0711   0.0747   0.3087   0.0251  -0.1137  -0.0644   5.00    0.0
2018/11/05 02:03:30.000  -74.425532621  163.418485326    64.5793   6   9   0.0589   0.0609   0.2548   0.0220  -0.0895  -0.0507   5.00    0.0
2018/11/05 02:04:00.000  -74.425532603  163.418485926    64.5253   6   9   0.0480   0.0492   0.2046   0.0184  -0.0671  -0.0358   5.00    0.0
2018/11/05 02:04:30.000  -74.425532677  163.418485965    64.5122   6   9   0.0395   0.0407   0.1618   0.0149  -0.0478  -0.0193   5.00    0.0
2018/11/05 02:05:00.000  -74.425532655  163.418485540    64.4628   6   9   0.0354   0.0370   0.1408   0.0130  -0.0388   0.0085   5.00    0.0
2018/11/05 02:05:30.000  -74.425532614  163.418484684    64.6161   6   9   0.0398   0.0411   0.1693   0.0145  -0.0519  -0.0166   6.00    0.0
2018/11/05 02:06:00.000  -74.425532637  163.418484897    64.7220   6   9   0.0486   0.0505   0.2234   0.0181  -0.0756  -0.0333   6.00    0.0
2018/11/05 02:06:30.000  -74.425532586  163.418485603    64.7232   6   9   0.0596   0.0630   0.2886   0.0227  -0.1037  -0.0476   6.00    0.0
2018/11/05 02:07:00.000  -74.425532657  163.418485896    64.7051   6   9   0.0720   0.0780   0.3661   0.0270  -0.1364  -0.0584   6.00    0.0
2018/11/05 02:07:30.000  -74.425532538  163.418486168    64.6669   6   9   0.0841   0.0949   0.4691   0.0384  -0.1757  -0.0906   0.00    0.0
2018/11/05 02:08:00.000  -74.425532521  163.418486648    64.5482   6   9   0.0713   0.0787   0.3791   0.0330  -0.1400  -0.0770   0.00    0.0
2018/11/05 02:08:30.000  -74.425532694  163.418485839    64.5816   6   9   0.0593   0.0646   0.3068   0.0277  -0.1103  -0.0632   0.00    0.0
2018/11/05 02:09:00.000  -74.425532790  163.418484980    64.6130   6   9   0.0485   0.0523   0.2430   0.0228  -0.0836  -0.0493   2.00    0.0
2018/11/05 02:09:30.000  -74.425532741  163.418484758    64.6259   6   9   0.0401   0.0429   0.1881   0.0185  -0.0607  -0.0353   6.00    0.0
2018/11/05 02:10:00.000  -74.425532581  163.418485548    64.5459   6   9   0.0361   0.0387   0.1566   0.0162  -0.0484  -0.0249   5.00    0.0
2018/11/05 02:10:30.000  -74.425532737  163.418485039    64.6965   6   9   0.0403   0.0426   0.1738   0.0175  -0.0566  -0.0321   5.00    0.0
2018/11/05 02:11:00.000  -74.425533095  163.418483433    64.8802   6   9   0.0491   0.0522   0.2187   0.0215  -0.0773  -0.0469   6.00    0.0
2018/11/05 02:11:30.000  -74.425533094  163.418484567    64.8053   6   9   0.0602   0.0655   0.2731   0.0263  -0.1026  -0.0618   6.00    0.0
2018/11/05 02:12:00.000  -74.425533114  163.418484554    64.7699   6   9   0.0726   0.0797   0.3300   0.0316  -0.1284  -0.0769   5.00    0.0
2018/11/05 02:12:30.000  -74.425532991  163.418484803    64.7392   6   9   0.0852   0.0942   0.3879   0.0391  -0.1545  -0.0921   5.00    0.0
2018/11/05 02:13:00.000  -74.425532943  163.418484191    64.8200   6   9   0.0727   0.0800   0.3309   0.0327  -0.1290  -0.0780   5.00    0.0
2018/11/05 02:13:30.000  -74.425532922  163.418484152    64.8422   6   9   0.0606   0.0659   0.2755   0.0274  -0.1042  -0.0636   5.00    0.0
2018/11/05 02:14:00.000  -74.425532788  163.418484441    64.7696   6   9   0.0498   0.0536   0.2240   0.0223  -0.0810  -0.0490   5.00    0.0
2018/11/05 02:14:30.000  -74.425532571  163.418485528    64.5664   6   9   0.0417   0.0444   0.1817   0.0178  -0.0620  -0.0345   5.00    0.0
2018/11/05 02:15:00.000  -74.425532890  163.418484711    64.8168   6   8   0.0421   0.0404   0.1833   0.0219  -0.0568  -0.0557   0.00    0.0
2018/11/05 02:15:30.000  -74.425532950  163.418484980    64.7881   6   8   0.0502   0.0458   0.2108   0.0267  -0.0698  -0.0707   0.00    0.0
2018/11/05 02:16:00.000  -74.425532430  163.418485933    64.5782   6   9   0.0672   0.0591   0.2889   0.0388  -0.1019  -0.1060   0.00    0.0
2018/11/05 02:16:30.000  -74.425532968  163.418483439    64.9460   6   9   0.0889   0.0772   0.4030   0.0547  -0.1466  -0.1535   1.00    0.0
2018/11/05 02:17:00.000  -74.425532986  163.418483934    64.9239   6   9   0.1069   0.0898   0.4888   0.0636  -0.1751  -0.1857   2.00    0.0
2018/11/05 02:17:30.000  -74.425533222  163.418483970    65.0081   6   9   0.0958   0.0965   0.4328   0.0460  -0.1651  -0.1289   2.00    0.0
2018/11/05 02:18:00.000  -74.425533255  163.418482951    65.0431   6   9   0.0833   0.0842   0.3708   0.0384  -0.1428  -0.1077   3.00    0.0
2018/11/05 02:18:30.000  -74.425533306  163.418483581    65.0221   6   9   0.0704   0.0715   0.3194   0.0355  -0.1216  -0.0980   3.00    0.0
2018/11/05 02:19:00.000  -74.425533299  163.418483702    65.0410   6   9   0.0596   0.0598   0.2777   0.0341  -0.1031  -0.0908   3.00    0.0
2018/11/05 02:19:30.000  -74.425533219  163.418484434    64.8987   6   9   0.0513   0.0514   0.2452   0.0321  -0.0896  -0.0830   3.00    0.0
2018/11/05 02:20:00.000  -74.425533243  163.418484113    64.9118   6   9   0.0432   0.0471   0.2165   0.0285  -0.0800  -0.0682   3.00    0.0
2018/11/05 02:20:30.000  -74.425533368  163.418483588    64.9691   6   9   0.0472   0.0523   0.2451   0.0320  -0.0927  -0.0763   3.00    0.0
2018/11/05 02:21:00.000  -74.425533440  163.418483006    65.0327   6   9   0.0541   0.0604   0.2787   0.0352  -0.1075  -0.0832   3.00    0.0
2018/11/05 02:21:30.000  -74.425533520  163.418482956    65.1092   6   9   0.0629   0.0707   0.3178   0.0386  -0.1246  -0.0902   3.00    0.0
2018/11/05 02:22:00.000  -74.425533587  163.418482759    65.2174   6   9   0.0732   0.0827   0.3629   0.0426  -0.1440  -0.0985   3.00    0.0
2018/11/05 02:22:30.000  -74.425533536  163.418482957    65.1735   6   9   0.0844   0.0957   0.4125   0.0472  -0.1652  -0.1081   3.00    0.0
2018/11/05 02:23:00.000  -74.425533638  163.418482174    65.2236   6   9   0.0738   0.0833   0.3673   0.0441  -0.1459  -0.1020   3.00    0.0
2018/11/05 02:23:30.000  -74.425533651  163.418482397    65.1813   6   9   0.0641   0.0718   0.3256   0.0410  -0.1279  -0.0959   4.00    0.0
2018/11/05 02:24:00.000  -74.425533476  163.418483722    64.9784   6   9   0.0556   0.0619   0.2890   0.0382  -0.1122  -0.0899   4.00    0.0
2018/11/05 02:24:30.000  -74.425533309  163.418483644    64.9309   6   9   0.0489   0.0544   0.2584   0.0354  -0.0995  -0.0834   4.00    0.0
2018/11/05 02:25:00.000  -74.425533318  163.418483982    64.9237   6   9   0.0448   0.0506   0.2362   0.0329  -0.0909  -0.0761   4.00    0.0
2018/11/05 02:25:30.000  -74.425533384  163.418483711    64.9093   6   9   0.0480   0.0540   0.2471   0.0340  -0.0961  -0.0781   4.00    0.0
2018/11/05 02:26:00.000  -74.425533620  163.418483488    64.9930   6   9   0.0554   0.0624   0.2783   0.0370  -0.1095  -0.0847   4.00    0.0
2018/11/05 02:26:30.000  -74.425533488  163.418483446    64.9583   6   9   0.0651   0.0739   0.3227   0.0412  -0.1288  -0.0938   4.00    0.0
2018/11/05 02:27:00.000  -74.425533552  163.418484322    64.9933   6   9   0.0765   0.0855   0.3762   0.0466  -0.1495  -0.1041   4.00    0.0
2018/11/05 02:27:30.000  -74.425533568  163.418483888    65.1371   6   9   0.0888   0.0989   0.4555   0.0520  -0.1758  -0.1125   0.00    0.0
2018/11/05 02:28:00.000  -74.425533594  163.418483446    65.1997   6   9   0.0774   0.0859   0.3807   0.0482  -0.1515  -0.1094   0.00    0.0
2018/11/05 02:28:30.000  -74.425533735  163.418482125    65.2597   6   9   0.0676   0.0740   0.3228   0.0432  -0.1295  -0.0997   0.00    0.0
2018/11/05 02:29:00.000  -74.425533579  163.418482074    65.2040   6   9   0.0595   0.0640   0.2741   0.0381  -0.1102  -0.0902   0.00    0.0
2018/11/05 02:29:30.000  -74.425533425  163.418484054    64.9428   6   9   0.0528   0.0550   0.2456   0.0362  -0.0960  -0.0864   1.00    0.0
2018/11/05 02:30:00.000  -74.425533272  163.418484358    64.8641   6   9   0.0446   0.0501   0.2066   0.0313  -0.0829  -0.0680   3.00    0.0
2018/11/05 02:30:30.000  -74.425533291  163.418484218    64.8693   6   9   0.0479   0.0542   0.2214   0.0329  -0.0904  -0.0709   4.00    0.0
2018/11/05 02:31:00.000  -74.425533450  163.418483695    64.9647   6   9   0.0554   0.0629   0.2594   0.0375  -0.1069  -0.0811   4.00    0.0
2018/11/05 02:31:30.000  -74.425533482  163.418483459    65.0240   6   9   0.0655   0.0734   0.3075   0.0439  -0.1265  -0.0953   4.00    0.0
2018/11/05 02:32:00.000  -74.425533841  163.418482184    65.0599   6   9   0.0770   0.0856   0.3605   0.0508  -0.1482  -0.1111   4.00    0.0
2018/11/05 02:32:30.000  -74.425534148  163.418480714    65.2619   6   9   0.0895   0.0986   0.4159   0.0581  -0.1708  -0.1278   4.00    0.0
2018/11/05 02:33:00.000  -74.425533959  163.418480936    65.2275   6   9   0.0778   0.0855   0.3604   0.0516  -0.1479  -0.1131   4.00    0.0
2018/11/05 02:33:30.000  -74.425533788  163.418482190    65.1414   6   9   0.0668   0.0731   0.3063   0.0453  -0.1256  -0.0980   5.00    0.0
2018/11/05 02:34:00.000  -74.425533887  163.418481753    65.1787   6   9   0.0571   0.0620   0.2552   0.0392  -0.1043  -0.0825   6.00    0.0
2018/11/05 02:34:30.000  -74.425533437  163.418483789    64.8701   6   9   0.0493   0.0531   0.2096   0.0334  -0.0857  -0.0684   1.00    0.0
2018/11/05 02:35:00.000  -74.425533152  163.418484881    64.7564   6   9   0.0449   0.0490   0.1875   0.0305  -0.0764  -0.0614   0.00    0.0
2018/11/05 02:35:30.000  -74.425533148  163.418484505    64.7997   6   9   0.0491   0.0544   0.2073   0.0337  -0.0864  -0.0656   0.00    0.0
2018/11/05 02:36:00.000  -74.425533500  163.418480725    65.3102   6   9   0.0649   0.0706   0.2878   0.0510  -0.1228  -0.1015   0.00    0.0
2018/11/05 02:36:30.000  -74.425533624  163.418480968    65.2161   6   9   0.0725   0.0793   0.3252   0.0530  -0.1354  -0.1090   0.00    0.0
2018/11/05 02:37:00.000  -74.425533483  163.418482248    65.1953   6   9   0.0822   0.0911   0.3760   0.0590  -0.1560  -0.1242   0.00    0.0
2018/11/05 02:37:30.000  -74.425533483  163.418482159    65.1748   6   9   0.0943   0.1014   0.4241   0.0648  -0.1735  -0.1404   0.00    0.0
2018/11/05 02:38:00.000  -74.425533605  163.418481169    65.2802   6   9   0.0824   0.0883   0.3718   0.0588  -0.1526  -0.1276   0.00    0.0
2018/11/05 02:38:30.000  -74.425533667  163.418481351    65.2190   6   9   0.0717   0.0766   0.3237   0.0535  -0.1335  -0.1160   0.00    0.0
2018/11/05 02:39:00.000  -74.425533564  163.418482213    65.1820   6   9   0.0632   0.0668   0.2819   0.0493  -0.1170  -0.1070   1.00    0.0
2018/11/05 02:39:30.000  -74.425533372  163.418483048    65.0446   6   9   0.0544   0.0597   0.2495   0.0456  -0.1044  -0.0982   2.00    0.0
2018/11/05 02:40:00.000  -74.425533311  163.418482357    65.0534   6   9   0.0500   0.0571   0.2311   0.0445  -0.0987  -0.0930   2.00    0.0
2018/11/05 02:40:30.000  -74.425533119  163.418482896    64.9433   6   9   0.0548   0.0657   0.2641   0.0498  -0.1162  -0.1031   4.00    0.0
2018/11/05 02:41:00.000  -74.425533479  163.418481071    65.1394   6   9   0.0616   0.0703   0.2848   0.0518  -0.1227  -0.1082   3.00    0.0
2018/11/05 02:41:30.000  -74.425533421  163.418480999    65.1325   6   9   0.0710   0.0783   0.3200   0.0557  -0.1357  -0.1182   4.00    0.0
2018/11/05 02:42:00.000  -74.425533499  163.418480884    65.1688   6   9   0.0826   0.0882   0.3607   0.0612  -0.1512  -0.1315   4.00    0.0
2018/11/05 02:42:30.000  -74.425533656  163.418480730    65.2117   6   9   0.0954   0.0992   0.4046   0.0677  -0.1681  -0.1468   4.00    0.0
2018/11/05 02:43:00.000  -74.425533833  163.418480598    65.2747   6   9   0.0825   0.0867   0.3534   0.0604  -0.1473  -0.1300   5.00    0.0
2018/11/05 02:43:30.000  -74.425534028  163.418479570    65.4044   6   9   0.0706   0.0755   0.3071   0.0539  -0.1285  -0.1151   5.00    0.0
2018/11/05 02:44:00.000  -74.425533776  163.418480610    65.2915   6   9   0.0602   0.0658   0.2658   0.0481  -0.1118  -0.1020   5.00    0.0
2018/11/05 02:44:30.000  -74.425533325  163.418481728    65.0678   6   9   0.0518   0.0580   0.2307   0.0429  -0.0971  -0.0905   6.00    0.0
2018/11/05 02:45:00.000  -74.425533076  163.418482428    64.9297   6   9   0.0446   0.0531   0.2051   0.0378  -0.0851  -0.0795   6.00    0.0
2018/11/05 02:45:30.000  -74.425533140  163.418482779    64.9589   6   9   0.0494   0.0566   0.2194   0.0390  -0.0903  -0.0844   6.00    0.0
2018/11/05 02:46:00.000  -74.425532801  163.418482868    64.8727   6   9   0.0596   0.0629   0.2507   0.0420  -0.0993  -0.0966   5.00    0.0
2018/11/05 02:46:30.000  -74.425533055  163.418481533    65.0373   6   9   0.0735   0.0713   0.2940   0.0469  -0.1111  -0.1149   5.00    0.0
2018/11/05 02:47:00.000  -74.425532951  163.418481867    64.9612   6   8   0.0991   0.0817   0.3894   0.0497  -0.1191  -0.1627   5.00    0.0
2018/11/05 02:47:30.000  -74.425532973  163.418482754    65.0128   6   8   0.1163   0.0929   0.4560   0.0557  -0.1326  -0.1914   5.00    0.0
2018/11/05 02:48:00.000  -74.425532956  163.418482774    64.9597   6   8   0.0950   0.0815   0.3786   0.0497  -0.1174  -0.1552   5.00    0.0
2018/11/05 02:48:30.000  -74.425532842  163.418483257    64.8804   6   8   0.0765   0.0708   0.3114   0.0440  -0.1032  -0.1250   6.00    0.0
2018/11/05 02:49:00.000  -74.425532828  163.418482708    64.8902   6   8   0.0604   0.0618   0.2536   0.0390  -0.0910  -0.0993   6.00    0.0
2018/11/05 02:49:30.000  -74.425532947  163.418481676    64.9836   6   8   0.0470   0.0550   0.2060   0.0348  -0.0803  -0.0779   6.00    0.0
2018/11/05 02:50:00.000  -74.425532942  163.418482359    64.9152   6   8   0.0388   0.0505   0.1722   0.0307  -0.0699  -0.0624   6.00    0.0
2018/11/05 02:50:30.000  -74.425532852  163.418483032    64.8869   6   8   0.0438   0.0540   0.1901   0.0321  -0.0754  -0.0684   6.00    0.0
2018/11/05 02:51:00.000  -74.425532590  163.418483984    64.7265   6   8   0.0549   0.0609   0.2288   0.0362  -0.0851  -0.0847   6.00    0.0
2018/11/05 02:51:30.000  -74.425532587  163.418483295    64.7898   6   8   0.0691   0.0698   0.2782   0.0418  -0.0967  -0.1064   6.00    0.0
2018/11/05 02:52:00.000  -74.425533119  163.418482195    64.9564   6   8   0.0847   0.0801   0.3329   0.0482  -0.1093  -0.1306   6.00    0.0
2018/11/05 02:52:30.000  -74.425533045  163.418482800    64.9209   6   8   0.1011   0.0912   0.3902   0.0549  -0.1223  -0.1561   6.00    0.0
2018/11/05 02:53:00.000  -74.425532899  163.418483573    64.8079   6   9   0.0850   0.0797   0.3163   0.0483  -0.1064  -0.1345   6.00    0.0
2018/11/05 02:53:30.000  -74.425532996  163.418483736    64.7709   6   9   0.0697   0.0690   0.2619   0.0416  -0.0928  -0.1101   6.00    0.0
2018/11/05 02:54:00.000  -74.425532954  163.418483436    64.7389   6   9   0.0554   0.0597   0.2145   0.0354  -0.0807  -0.0871   6.00    0.0
2018/11/05 02:54:30.000  -74.425532716  163.418483645    64.6607   6   9   0.0434   0.0520   0.1742   0.0295  -0.0688  -0.0666   6.00    0.0
2018/11/05 02:55:00.000  -74.425532764  163.418482973    64.7384   6   9   0.0360   0.0474   0.1457   0.0240  -0.0562  -0.0511   6.00    1.0
2018/11/05 02:55:30.000  -74.425532732  163.418481993    64.7942   6   9   0.0497   0.0540   0.2116   0.0407  -0.0815  -0.0862   5.00    0.0
2018/11/05 02:56:00.000  -74.425532751  163.418482812    64.7831   6   8   0.0605   0.0625   0.2483   0.0439  -0.0843  -0.0998   4.00    0.0
2018/11/05 02:56:30.000  -74.425533176  163.418482102    64.8815   6   8   0.0760   0.0747   0.3030   0.0513  -0.0949  -0.1235   4.00    0.0
2018/11/05 02:57:00.000  -74.425533149  163.418481777    64.9700   6   8   0.0941   0.0902   0.3655   0.0620  -0.1086  -0.1517   4.00    0.0
2018/11/05 02:57:30.000  -74.425533569  163.418480329    65.1349   6   8   0.1295   0.1280   0.5083   0.0995  -0.1887  -0.2251   4.00    0.0
2018/11/05 02:58:00.000  -74.425533098  163.418481956    64.9280   6   8   0.1051   0.1043   0.4222   0.0786  -0.1497  -0.1817   4.00    0.0
2018/11/05 02:58:30.000  -74.425532677  163.418483104    64.7309   6   8   0.0842   0.0868   0.3467   0.0639  -0.1201  -0.1444   4.00    0.0
2018/11/05 02:59:00.000  -74.425532514  163.418483184    64.6479   6   8   0.0679   0.0741   0.2976   0.0546  -0.1078  -0.1207   4.00    0.0
2018/11/05 02:59:30.000  -74.425533191  163.418479957    64.9840   6   8   0.0437   0.0454   0.1631   0.0311  -0.0541  -0.0679   0.00    0.0
2018/11/05 03:00:00.000  -74.425532942  163.418481086    64.9243   6   8   0.0347   0.0399   0.1253   0.0274  -0.0487  -0.0517   0.00    0.0
2018/11/05 03:00:30.000  -74.425532958  163.418481821    64.8851   6   8   0.0417   0.0441   0.1561   0.0293  -0.0508  -0.0636   0.00    0.0
2018/11/05 03:01:00.000  -74.425532826  163.418482387    64.8981   6   9   0.0532   0.0520   0.1966   0.0310  -0.0486  -0.0791   1.00    0.0
2018/11/05 03:01:30.000  -74.425532780  163.418483408    64.9172   6   9   0.0668   0.0625   0.2489   0.0338  -0.0466  -0.0992   3.00    0.0
2018/11/05 03:02:00.000  -74.425533210  163.418482573    65.0346   6   9   0.0829   0.0749   0.3151   0.0387  -0.0494  -0.1259   3.00    0.0
2018/11/05 03:02:30.000  -74.425533504  163.418482052    65.0453   6   9   0.0954   0.0847   0.3286   0.0341   0.0470  -0.1327   3.00    0.0
2018/11/05 03:03:00.000  -74.425533217  163.418481793    64.9759   6   9   0.0792   0.0723   0.2746   0.0302   0.0330  -0.1091   4.00    0.0
2018/11/05 03:03:30.000  -74.425532962  163.418482450    64.9408   6   9   0.0644   0.0607   0.2262   0.0280  -0.0090  -0.0893   4.00    0.0
2018/11/05 03:04:00.000  -74.425532690  163.418481661    64.8522   6   9   0.0510   0.0503   0.1811   0.0266  -0.0318  -0.0717   4.00    0.0
2018/11/05 03:04:30.000  -74.425532771  163.418481537    64.8882   6   9   0.0397   0.0421   0.1417   0.0258  -0.0406  -0.0571   4.00    0.0
2018/11/05 03:05:00.000  -74.425532916  163.418481090    64.8978   6   9   0.0335   0.0378   0.1183   0.0249  -0.0427  -0.0482   4.00    0.0
2018/11/05 03:05:30.000  -74.425532925  163.418482756    64.9353   6   9   0.0390   0.0415   0.1402   0.0244  -0.0376  -0.0552   4.00    0.0
2018/11/05 03:06:00.000  -74.425533093  163.418483986    65.0152   6   9   0.0498   0.0497   0.1785   0.0235  -0.0203  -0.0688   4.00    0.0
2018/11/05 03:06:30.000  -74.425533088  163.418482832    65.0575   6   9   0.0632   0.0605   0.2235   0.0220   0.0348  -0.0864   4.00    0.0
2018/11/05 03:07:00.000  -74.425533027  163.418482872    65.0419   6   9   0.0782   0.0731   0.2723   0.0183   0.0601  -0.1066   4.00    0.0
2018/11/05 03:07:30.000  -74.425533056  163.418482499    65.0546   6   9   0.0937   0.0854   0.3241   0.0152   0.0827  -0.1285   3.00    0.0
2018/11/05 03:08:00.000  -74.425533195  163.418481674    65.0485   6   9   0.0785   0.0724   0.2765   0.0185   0.0637  -0.1085   3.00    0.0
2018/11/05 03:08:30.000  -74.425533272  163.418481167    64.9976   6   9   0.0639   0.0601   0.2290   0.0204   0.0426  -0.0891   3.00    0.0
2018/11/05 03:09:00.000  -74.425533393  163.418481348    65.0857   6   9   0.0504   0.0490   0.1843   0.0218   0.0118  -0.0716   3.00    0.0
2018/11/05 03:09:30.000  -74.425533194  163.418480945    65.0233   6   9   0.0394   0.0402   0.1456   0.0228  -0.0307  -0.0572   3.00    0.0
2018/11/05 03:10:00.000  -74.425532804  163.418481394    64.8365   6   9   0.0330   0.0360   0.1152   0.0228  -0.0345  -0.0455   4.00    0.0
2018/11/05 03:10:30.000  -74.425532608  163.418482392    64.8007   6   9   0.0404   0.0420   0.1507   0.0245  -0.0330  -0.0570   4.00    0.0
2018/11/05 03:11:00.000  -74.425532447  163.418482811    64.7128   6   9   0.0540   0.0524   0.2012   0.0263  -0.0125  -0.0746   4.00    0.0
2018/11/05 03:11:30.000  -74.425532518  163.418483334    64.7227   6   9   0.0682   0.0646   0.2654   0.0258   0.0411  -0.0977   3.00    0.0
2018/11/05 03:12:00.000  -74.425532782  163.418484521    64.8081   6   9   0.0827   0.0798   0.3033   0.0254   0.0702  -0.1184   0.00    0.0
2018/11/05 03:12:30.000  -74.425532851  163.418485277    64.8410   6   9   0.0995   0.0976   0.3634   0.0297   0.0839  -0.1454   0.00    0.0
2018/11/05 03:13:00.000  -74.425532771  163.418483928    64.7704   6   9   0.0831   0.0830   0.2902   0.0281   0.0695  -0.1178   0.00    0.0
2018/11/05 03:13:30.000  -74.425532632  163.418483769    64.7489   6   9   0.0674   0.0712   0.2313   0.0286   0.0465  -0.0941   0.00    0.0
2018/11/05 03:14:00.000  -74.425532643  163.418483044    64.7635   6   9   0.0501   0.0478   0.1704   0.0143   0.0442  -0.0670   3.00    0.0
2018/11/05 03:14:30.000  -74.425532697  163.418483007    64.7585   6   9   0.0366   0.0362   0.1176   0.0134   0.0270  -0.0454   2.00    0.0
2018/11/05 03:15:00.000  -74.425532718  163.418481903    64.7900   6   9   0.0292   0.0305   0.0857   0.0130   0.0150  -0.0327   3.00    0.0
2018/11/05 03:15:30.000  -74.425532787  163.418482778    64.8309   6   9   0.0385   0.0361   0.1226   0.0148   0.0246  -0.0499   3.00    0.0
2018/11/05 03:16:00.000  -74.425532902  163.418482238    64.8395   6   9   0.0517   0.0469   0.1732   0.0142   0.0438  -0.0706   3.00    0.0
2018/11/05 03:16:30.000  -74.425532897  163.418481850    64.8105   6   9   0.0662   0.0596   0.2262   0.0091   0.0649  -0.0922   5.00    0.0
2018/11/05 03:17:00.000  -74.425532991  163.418482371    64.8404   6   9   0.0814   0.0733   0.2808  -0.0115   0.0866  -0.1149   5.00    0.0
2018/11/05 03:17:30.000  -74.425533233  163.418482602    64.9722   6   9   0.0973   0.0877   0.3366  -0.0209   0.1086  -0.1383   5.00    0.0
2018/11/05 03:18:00.000  -74.425533326  163.418481916    64.9634   6   9   0.0820   0.0738   0.2831  -0.0119   0.0872  -0.1165   5.00    0.0
2018/11/05 03:18:30.000  -74.425533298  163.418480638    64.8985   6   9   0.0681   0.0606   0.2341   0.0116   0.0637  -0.0972   5.00    0.0
2018/11/05 03:19:00.000  -74.425533072  163.418480972    64.8076   6  10   0.0535   0.0414   0.1436   0.0222   0.0104  -0.0652   5.00    0.0
2018/11/05 03:19:30.000  -74.425532802  163.418481612    64.7536   6  10   0.0407   0.0336   0.1064   0.0175   0.0103  -0.0483   4.00    0.0
2018/11/05 03:20:00.000  -74.425532639  163.418481649    64.7277   6  10   0.0279   0.0290   0.0773   0.0089   0.0199  -0.0285   4.00    0.0
2018/11/05 03:20:30.000  -74.425532482  163.418482104    64.7036   6  10   0.0347   0.0323   0.0989   0.0103   0.0227  -0.0387   4.00    0.0
2018/11/05 03:21:00.000  -74.425532555  163.418482304    64.7518   6  10   0.0466   0.0387   0.1325   0.0140   0.0249  -0.0540   4.00    0.0
2018/11/05 03:21:30.000  -74.425532387  163.418482553    64.7612   6  10   0.0604   0.0466   0.1694   0.0181   0.0276  -0.0711   4.00    0.0
2018/11/05 03:22:00.000  -74.425532642  163.418482982    64.8457   6  10   0.0750   0.0553   0.2081   0.0222   0.0312  -0.0893   4.00    0.0
2018/11/05 03:22:30.000  -74.425532635  163.418483641    64.8163   6  10   0.0902   0.0646   0.2478   0.0261   0.0357  -0.1082   4.00    0.0
2018/11/05 03:23:00.000  -74.425532746  163.418482860    64.8153   6  10   0.0750   0.0555   0.2082   0.0213   0.0338  -0.0892   4.00    0.0
2018/11/05 03:23:30.000  -74.425533000  163.418481838    64.8959   6  10   0.0603   0.0467   0.1693   0.0167   0.0312  -0.0709   4.00    0.0
2018/11/05 03:24:00.000  -74.425533002  163.418481653    64.8644   6  10   0.0465   0.0388   0.1319   0.0122   0.0284  -0.0537   3.00    0.0
2018/11/05 03:24:30.000  -74.425532671  163.418481956    64.8121   6  10   0.0346   0.0325   0.0984   0.0080   0.0257  -0.0386   5.00    0.0
2018/11/05 03:25:00.000  -74.425532612  163.418481690    64.7460   6  10   0.0283   0.0293   0.0791   0.0059   0.0236  -0.0298   5.00    0.0
2018/11/05 03:25:30.000  -74.425532479  163.418482851    64.7338   6  10   0.0346   0.0330   0.0997   0.0062   0.0288  -0.0386   6.00    0.0
2018/11/05 03:26:00.000  -74.425532461  163.418483137    64.6899   6  10   0.0461   0.0396   0.1320   0.0097   0.0340  -0.0529   6.00    0.0
2018/11/05 03:26:30.000  -74.425532830  163.418483008    64.7547   6  10   0.0597   0.0476   0.1681   0.0134   0.0392  -0.0697   6.00    0.0
2018/11/05 03:27:00.000  -74.425533013  163.418483096    64.7527   6  10   0.0743   0.0563   0.2064   0.0169   0.0451  -0.0878   6.00    0.0
2018/11/05 03:27:30.000  -74.425533067  163.418483421    64.7450   6  10   0.0894   0.0657   0.2459   0.0202   0.0518  -0.1066   7.00    0.0
2018/11/05 03:28:00.000  -74.425533103  163.418482907    64.7858   6  10   0.0743   0.0565   0.2059   0.0160   0.0467  -0.0877   7.00    0.0
2018/11/05 03:28:30.000  -74.425533124  163.418482984    64.8307   6  10   0.0596   0.0481   0.1677   0.0117   0.0421  -0.0695   7.00    0.0
2018/11/05 03:29:00.000  -74.425533073  163.418482637    64.8229   6  10   0.0459   0.0407   0.1324   0.0067   0.0383  -0.0528   7.00    0.0
