% program   : RTKLIB ver.2.4.3
% inp file  : _by_type/_obs/blake/20181107.18o
% inp file  : _by_type/_sp3+clk/igs20263.clk
% inp file  : _by_type/_sp3+clk/igs20263.sp3
% inp file  : _by_type/_nav/blake/20181107.18n
% obs start : 2018/11/07 00:00:00.0 GPST (week2026 259200.0s)
% obs end   : 2018/11/07 23:59:45.0 GPST (week2026 345585.0s)
% pos mode  : ppp-kinematic
% solution  : combined
% elev mask : 15.0 deg
% dynamics  : off
% tidecorr  : on
% tropo opt : est ztd+grad
% ephemeris : precise
% navi sys  : gps glonass
% antenna1  :                       ( 0.0000  0.0000  0.0000)
%
% (lat/lon/height=WGS84/ellipsoidal,Q=1:fix,2:float,3:sbas,4:dgps,5:single,6:ppp,ns=# of satellites)
%  GPST                  latitude(deg) longitude(deg)  height(m)   Q  ns   sdn(m)   sde(m)   sdu(m)  sdne(m)  sdeu(m)  sdun(m) age(s)  ratio
2018/11/07 00:00:00.000  -74.407200071  163.437667105    79.9452   6   9   0.0278   0.0257   0.0788   0.0090  -0.0155  -0.0300   0.00    0.0
2018/11/07 00:00:15.000  -74.407200145  163.437667101    79.9570   6   9   0.0327   0.0291   0.0964   0.0118  -0.0198  -0.0397   0.00    0.0
2018/11/07 00:00:30.000  -74.407200227  163.437667572    79.9498   6   9   0.0410   0.0351   0.1250   0.0150  -0.0244  -0.0538   0.00    0.0
2018/11/07 00:00:45.000  -74.407200156  163.437667643    79.9248   6   9   0.0511   0.0427   0.1600   0.0183  -0.0299  -0.0702   0.00    0.0
2018/11/07 00:01:00.000  -74.407200219  163.437667212    79.9444   6   9   0.0630   0.0513   0.2023   0.0229  -0.0382  -0.0901   0.00    0.0
2018/11/07 00:01:15.000  -74.407200318  163.437666503    79.9708   6   9   0.0795   0.0613   0.2653   0.0321  -0.0568  -0.1212   0.00    0.0
2018/11/07 00:01:30.000  -74.407200425  163.437666366    80.0214   6   9   0.0652   0.0650   0.2036  -0.0209   0.0472  -0.0688   1.00    0.0
2018/11/07 00:01:45.000  -74.407200432  163.437666344    80.0393   6   9   0.0761   0.0739   0.2318  -0.0212   0.0541  -0.0795   1.00    0.0
2018/11/07 00:02:00.000  -74.407200448  163.437666859    80.0400   6   9   0.0849   0.0824   0.2599  -0.0244   0.0616  -0.0889   2.00    0.0
2018/11/07 00:02:15.000  -74.407200538  163.437666901    80.0713   6   9   0.0882   0.0899   0.2871  -0.0339   0.0708  -0.0948   2.00    0.0
2018/11/07 00:02:30.000  -74.407200586  163.437666089    80.0499   6   9   0.0964   0.0981   0.3147  -0.0371   0.0781  -0.1038   2.00    0.0
2018/11/07 00:02:45.000  -74.407200458  163.437666337    79.9952   6   9   0.0891   0.0895   0.2875  -0.0321   0.0708  -0.0955   3.00    0.0
2018/11/07 00:03:00.000  -74.407200456  163.437666295    79.9689   6   9   0.0843   0.0816   0.2615  -0.0245   0.0626  -0.0895   4.00    0.0
2018/11/07 00:03:15.000  -74.407200484  163.437666465    79.9708   6   9   0.0696   0.0721   0.2333  -0.0284   0.0583  -0.0760   3.00    0.0
2018/11/07 00:03:30.000  -74.407200483  163.437666737    79.9613   6   9   0.0616   0.0637   0.2063  -0.0247   0.0511  -0.0673   3.00    0.0
2018/11/07 00:03:45.000  -74.407200524  163.437667161    79.9579   6   9   0.0537   0.0554   0.1794  -0.0210   0.0438  -0.0587   4.00    0.0
2018/11/07 00:04:00.000  -74.407200407  163.437666556    79.9573   6   9   0.0461   0.0473   0.1529  -0.0174   0.0365  -0.0502   4.00    0.0
2018/11/07 00:04:15.000  -74.407200350  163.437666396    79.9533   1   9   0.0368   0.0384   0.1283  -0.0062   0.0309  -0.0434   4.00    1.0
2018/11/07 00:04:30.000  -74.407200375  163.437666503    79.9971   1   9   0.0298   0.0311   0.1042   0.0069   0.0243  -0.0358   4.00    1.0
2018/11/07 00:04:45.000  -74.407200377  163.437666667    80.0236   1   9   0.0241   0.0252   0.0846   0.0097   0.0196  -0.0294   4.00    1.0
2018/11/07 00:05:00.000  -74.407200390  163.437666876    80.0381   1   9   0.0210   0.0224   0.0741   0.0102   0.0183  -0.0260   4.00    1.0
2018/11/07 00:05:15.000  -74.407200403  163.437666877    80.0365   1   9   0.0243   0.0258   0.0877   0.0092   0.0222  -0.0305   4.00    1.0
2018/11/07 00:05:30.000  -74.407200309  163.437666954    80.0026   1   9   0.0301   0.0322   0.1107   0.0034   0.0297  -0.0380   4.00    1.0
2018/11/07 00:05:45.000  -74.407200286  163.437666774    79.9939   1   9   0.0373   0.0401   0.1379  -0.0101   0.0387  -0.0467   4.00    1.0
2018/11/07 00:06:00.000  -74.407200172  163.437666132    79.9383   6   9   0.0464   0.0491   0.1630  -0.0201   0.0464  -0.0539   4.00    0.0
2018/11/07 00:06:15.000  -74.407200143  163.437665777    79.9098   6   9   0.0538   0.0573   0.1913  -0.0240   0.0554  -0.0626   4.00    0.0
2018/11/07 00:06:30.000  -74.407200192  163.437665017    79.8943   6   9   0.0613   0.0655   0.2198  -0.0278   0.0644  -0.0714   4.00    0.0
2018/11/07 00:06:45.000  -74.407200150  163.437664491    79.8567   6   9   0.0687   0.0737   0.2481  -0.0316   0.0733  -0.0799   4.00    0.0
2018/11/07 00:07:00.000  -74.407200193  163.437664077    79.8536   6   9   0.0761   0.0817   0.2762  -0.0352   0.0821  -0.0884   4.00    0.0
2018/11/07 00:07:15.000  -74.407200257  163.437663964    79.8356   6   9   0.0833   0.0897   0.3041  -0.0388   0.0910  -0.0967   4.00    0.0
2018/11/07 00:07:30.000  -74.407200178  163.437663679    79.8187   6   9   0.0904   0.0975   0.3320  -0.0424   0.1002  -0.1050   4.00    0.0
2018/11/07 00:07:45.000  -74.407200172  163.437663587    79.8328   6   9   0.0838   0.0924   0.3165  -0.0420   0.1015  -0.1012   4.00    0.0
2018/11/07 00:08:00.000  -74.407200080  163.437662909    79.7661   6   9   0.0778   0.0906   0.3142  -0.0442   0.1126  -0.1021   4.00    0.0
2018/11/07 00:08:15.000  -74.407200063  163.437663670    79.8097   6   9   0.0707   0.0828   0.2894  -0.0413   0.1054  -0.0952   4.00    0.0
2018/11/07 00:08:30.000  -74.407200252  163.437664229    79.8846   6   9   0.0607   0.0630   0.2153  -0.0264   0.0581  -0.0696   4.00    0.0
2018/11/07 00:08:45.000  -74.407200354  163.437664430    79.9192   6   9   0.0533   0.0550   0.1879  -0.0227   0.0499  -0.0612   4.00    0.0
2018/11/07 00:09:00.000  -74.407200387  163.437664946    79.9656   6   9   0.0460   0.0471   0.1606  -0.0190   0.0417  -0.0528   4.00    0.0
2018/11/07 00:09:15.000  -74.407200338  163.437665511    79.9801   6   9   0.0392   0.0396   0.1339  -0.0154   0.0334  -0.0445   4.00    0.0
2018/11/07 00:09:30.000  -74.407200432  163.437666000    80.0035   6   9   0.0330   0.0327   0.1089  -0.0119   0.0253  -0.0367   4.00    0.0
2018/11/07 00:09:45.000  -74.407200403  163.437666320    79.9820   6   9   0.0282   0.0273   0.0879  -0.0092   0.0183  -0.0299   4.00    0.0
2018/11/07 00:10:00.000  -74.407200476  163.437666875    79.9826   1   9   0.0232   0.0208   0.0772   0.0100   0.0118  -0.0254   3.00    1.0
2018/11/07 00:10:15.000  -74.407200513  163.437666940    79.9932   1   9   0.0263   0.0249   0.0912   0.0084   0.0157  -0.0310   3.00    1.0
2018/11/07 00:10:30.000  -74.407200370  163.437666640    79.9671   1   9   0.0325   0.0317   0.1157  -0.0040   0.0241  -0.0401   3.00    1.0
2018/11/07 00:10:45.000  -74.407200306  163.437665954    79.9423   6   9   0.0403   0.0410   0.1391  -0.0168   0.0334  -0.0477   3.00    0.0
2018/11/07 00:11:00.000  -74.407200380  163.437666074    79.9443   6   9   0.0472   0.0488   0.1663  -0.0208   0.0421  -0.0559   3.00    0.0
2018/11/07 00:11:15.000  -74.407200359  163.437665577    79.9229   6   9   0.0543   0.0569   0.1936  -0.0249   0.0508  -0.0639   3.00    0.0
2018/11/07 00:11:30.000  -74.407200277  163.437665085    79.9034   6   9   0.0616   0.0651   0.2205  -0.0293   0.0594  -0.0716   3.00    0.0
2018/11/07 00:11:45.000  -74.407200225  163.437664075    79.8415   6  10   0.0673   0.0718   0.2199  -0.0381   0.0809  -0.0674   3.00    0.0
2018/11/07 00:12:00.000  -74.407200017  163.437662828    79.7891   6  10   0.0764   0.0817   0.2450  -0.0462   0.0929  -0.0770   3.00    0.0
2018/11/07 00:12:15.000  -74.407200157  163.437663152    79.7927   6  10   0.0777   0.0832   0.2654  -0.0397   0.0950  -0.0755   2.00    0.0
2018/11/07 00:12:30.000  -74.407200053  163.437662468    79.7337   6  10   0.0837   0.0897   0.2877  -0.0424   0.1027  -0.0805   2.00    0.0
2018/11/07 00:12:45.000  -74.407199958  163.437662258    79.6963   6  10   0.0774   0.0824   0.2658  -0.0383   0.0937  -0.0748   2.00    0.0
2018/11/07 00:13:00.000  -74.407200156  163.437662857    79.7721   6  10   0.0712   0.0753   0.2444  -0.0347   0.0853  -0.0702   2.00    0.0
2018/11/07 00:13:15.000  -74.407200263  163.437663362    79.8174   6  10   0.0652   0.0682   0.2234  -0.0309   0.0765  -0.0664   2.00    0.0
2018/11/07 00:13:30.000  -74.407200273  163.437663883    79.8127   6  10   0.0603   0.0610   0.2056  -0.0264   0.0665  -0.0660   3.00    0.0
2018/11/07 00:13:45.000  -74.407200422  163.437664286    79.8878   6  10   0.0500   0.0534   0.1703  -0.0249   0.0604  -0.0484   4.00    0.0
2018/11/07 00:14:00.000  -74.407200373  163.437664497    79.8951   6  10   0.0433   0.0460   0.1459  -0.0212   0.0511  -0.0420   4.00    0.0
2018/11/07 00:14:15.000  -74.407200641  163.437665804    79.9853   1  10   0.0360   0.0376   0.1243  -0.0147   0.0449  -0.0360   4.00    2.0
2018/11/07 00:14:30.000  -74.407200631  163.437666060    79.9700   1  10   0.0291   0.0298   0.0989  -0.0084   0.0345  -0.0279   4.00    2.0
2018/11/07 00:14:45.000  -74.407200578  163.437666203    79.9834   1  10   0.0237   0.0234   0.0781   0.0039   0.0259  -0.0210   4.00    2.0
2018/11/07 00:15:00.000  -74.407200568  163.437666425    80.0221   1  10   0.0210   0.0202   0.0670   0.0067   0.0219  -0.0172   4.00    2.0
2018/11/07 00:15:15.000  -74.407200398  163.437666254    79.9647   1  10   0.0238   0.0236   0.0774   0.0020   0.0257  -0.0207   4.00    2.0
2018/11/07 00:15:30.000  -74.407200398  163.437666352    79.9786   1  10   0.0295   0.0302   0.0993  -0.0102   0.0352  -0.0284   4.00    2.0
2018/11/07 00:15:45.000  -74.407200406  163.437665890    79.9744   1  10   0.0366   0.0384   0.1262  -0.0166   0.0465  -0.0373   4.00    2.0
2018/11/07 00:16:00.000  -74.407200116  163.437664002    79.8639   6  10   0.0428   0.0462   0.1444  -0.0214   0.0510  -0.0398   4.00    0.0
2018/11/07 00:16:15.000  -74.407200043  163.437663263    79.8164   6  10   0.0490   0.0533   0.1683  -0.0247   0.0601  -0.0449   4.00    0.0
2018/11/07 00:16:30.000  -74.407200095  163.437662857    79.8249   6  10   0.0552   0.0603   0.1921  -0.0279   0.0690  -0.0500   4.00    0.0
2018/11/07 00:16:45.000  -74.407200125  163.437662920    79.8778   6  10   0.0614   0.0673   0.2158  -0.0310   0.0777  -0.0552   4.00    0.0
2018/11/07 00:17:00.000  -74.407200151  163.437662213    79.8491   6  10   0.0676   0.0742   0.2393  -0.0342   0.0865  -0.0606   4.00    0.0
2018/11/07 00:17:15.000  -74.407200077  163.437662019    79.8344   6  10   0.0737   0.0810   0.2629  -0.0375   0.0953  -0.0664   4.00    0.0
2018/11/07 00:17:30.000  -74.407200034  163.437661969    79.8417   6  10   0.0798   0.0877   0.2864  -0.0409   0.1042  -0.0725   4.00    0.0
2018/11/07 00:17:45.000  -74.407200062  163.437662105    79.8451   6  10   0.0738   0.0813   0.2653  -0.0380   0.0965  -0.0675   4.00    0.0
2018/11/07 00:18:00.000  -74.407200046  163.437662320    79.8573   6  10   0.0678   0.0746   0.2428  -0.0351   0.0883  -0.0623   4.00    0.0
2018/11/07 00:18:15.000  -74.407200138  163.437663450    79.9043   6  10   0.0619   0.0680   0.2200  -0.0325   0.0801  -0.0573   4.00    0.0
2018/11/07 00:18:30.000  -74.407200199  163.437664006    79.9453   6  10   0.0563   0.0617   0.1969  -0.0306   0.0720  -0.0527   4.00    0.0
2018/11/07 00:18:45.000  -74.407200221  163.437664373    79.9392   6  10   0.0520   0.0565   0.1737  -0.0308   0.0647  -0.0493   4.00    0.0
2018/11/07 00:19:00.000  -74.407200356  163.437665284    79.9709   6  10   0.0420   0.0458   0.1493  -0.0205   0.0532  -0.0407   3.00    0.0
2018/11/07 00:19:15.000  -74.407200534  163.437666680    80.0251   1  10   0.0343   0.0378   0.1319  -0.0178   0.0485  -0.0407   4.00    3.0
2018/11/07 00:19:30.000  -74.407200540  163.437666649    80.0199   1  10   0.0268   0.0294   0.1035  -0.0125   0.0367  -0.0321   4.00    3.0
2018/11/07 00:19:45.000  -74.407200619  163.437666594    80.0439   1  10   0.0208   0.0226   0.0798  -0.0071   0.0267  -0.0250   4.00    3.0
2018/11/07 00:20:00.000  -74.407200612  163.437666339    80.0187   1  10   0.0174   0.0188   0.0669  -0.0040   0.0212  -0.0210   4.00    3.0
2018/11/07 00:20:15.000  -74.407200531  163.437666030    79.9594   1  10   0.0207   0.0226   0.0800  -0.0074   0.0269  -0.0250   4.00    3.0
2018/11/07 00:20:30.000  -74.407200542  163.437666184    79.9890   1  10   0.0269   0.0296   0.1044  -0.0127   0.0373  -0.0324   4.00    3.0
2018/11/07 00:20:45.000  -74.407200566  163.437666502    80.0030   1  10   0.0344   0.0380   0.1341  -0.0182   0.0496  -0.0414   4.00    3.0
2018/11/07 00:21:00.000  -74.407200428  163.437665178    79.9250   6  10   0.0409   0.0452   0.1462  -0.0192   0.0520  -0.0372   3.00    0.0
2018/11/07 00:21:15.000  -74.407200451  163.437664953    79.9200   6  10   0.0469   0.0522   0.1701  -0.0224   0.0612  -0.0422   3.00    0.0
2018/11/07 00:21:30.000  -74.407200373  163.437664505    79.9044   6  10   0.0530   0.0592   0.1944  -0.0257   0.0704  -0.0476   3.00    0.0
2018/11/07 00:21:45.000  -74.407200238  163.437663728    79.8832   6  10   0.0592   0.0661   0.2189  -0.0291   0.0798  -0.0536   3.00    0.0
2018/11/07 00:22:00.000  -74.407200244  163.437663485    79.8915   6  10   0.0653   0.0730   0.2436  -0.0327   0.0893  -0.0600   3.00    0.0
2018/11/07 00:22:15.000  -74.407200129  163.437663097    79.8773   6  10   0.0715   0.0798   0.2684  -0.0364   0.0990  -0.0670   3.00    0.0
2018/11/07 00:22:30.000  -74.407200007  163.437662522    79.8493   6  10   0.0776   0.0866   0.2934  -0.0402   0.1088  -0.0744   4.00    0.0
2018/11/07 00:22:45.000  -74.407200088  163.437663299    79.8305   6  10   0.0714   0.0797   0.2697  -0.0365   0.0995  -0.0676   3.00    0.0
2018/11/07 00:23:00.000  -74.407200072  163.437662495    79.7314   6  10   0.0652   0.0728   0.2458  -0.0329   0.0902  -0.0611   3.00    0.0
2018/11/07 00:23:15.000  -74.407200097  163.437662482    79.7138   6  10   0.0590   0.0659   0.2217  -0.0294   0.0810  -0.0549   3.00    0.0
2018/11/07 00:23:30.000  -74.407200163  163.437663041    79.7553   6  10   0.0528   0.0590   0.1975  -0.0259   0.0718  -0.0489   3.00    0.0
2018/11/07 00:23:45.000  -74.407200325  163.437663777    79.8359   6  10   0.0467   0.0520   0.1733  -0.0226   0.0626  -0.0433   3.00    0.0
2018/11/07 00:24:00.000  -74.407200429  163.437664072    79.8464   6  10   0.0407   0.0451   0.1491  -0.0193   0.0534  -0.0380   3.00    0.0
2018/11/07 00:24:15.000  -74.407200607  163.437665939    79.9607   1  10   0.0346   0.0384   0.1390  -0.0190   0.0521  -0.0434   3.00    3.0
2018/11/07 00:24:30.000  -74.407200565  163.437665993    79.9539   1  10   0.0271   0.0300   0.1084  -0.0136   0.0395  -0.0340   3.00    3.0
2018/11/07 00:24:45.000  -74.407200549  163.437665991    79.9634   1  10   0.0208   0.0230   0.0830  -0.0086   0.0289  -0.0262   3.00    3.0
2018/11/07 00:25:00.000  -74.407200580  163.437666319    79.9857   1  10   0.0176   0.0195   0.0694  -0.0055   0.0232  -0.0220   3.00    3.0
2018/11/07 00:25:15.000  -74.407200581  163.437666088    79.9197   1  10   0.0210   0.0232   0.0832  -0.0087   0.0290  -0.0262   3.00    3.0
2018/11/07 00:25:30.000  -74.407200565  163.437665867    79.8898   1  10   0.0272   0.0302   0.1092  -0.0138   0.0400  -0.0343   3.00    3.0
2018/11/07 00:25:45.000  -74.407200232  163.437663977    79.7644   6  10   0.0344   0.0381   0.1229  -0.0155   0.0434  -0.0309   3.00    0.0
2018/11/07 00:26:00.000  -74.407200081  163.437663027    79.6820   6  11   0.0387   0.0447   0.1402  -0.0184   0.0528  -0.0414   3.00    0.0
2018/11/07 00:26:15.000  -74.407200032  163.437662916    79.6421   6  11   0.0443   0.0515   0.1631  -0.0217   0.0623  -0.0483   3.00    0.0
2018/11/07 00:26:30.000  -74.407200013  163.437662569    79.6691   6  11   0.0501   0.0584   0.1868  -0.0252   0.0721  -0.0558   3.00    0.0
2018/11/07 00:26:45.000  -74.407200056  163.437662365    79.7145   6  11   0.0561   0.0653   0.2111  -0.0289   0.0820  -0.0637   3.00    0.0
2018/11/07 00:27:00.000  -74.407200041  163.437662198    79.7386   6  11   0.0620   0.0721   0.2357  -0.0328   0.0922  -0.0720   3.00    0.0
2018/11/07 00:27:15.000  -74.407200151  163.437661911    79.7657   6  11   0.0680   0.0790   0.2606  -0.0367   0.1025  -0.0806   3.00    0.0
2018/11/07 00:27:30.000  -74.407200242  163.437661639    79.8039   6  11   0.0740   0.0858   0.2857  -0.0407   0.1129  -0.0895   3.00    0.0
2018/11/07 00:27:45.000  -74.407200289  163.437662012    79.8345   6  11   0.0681   0.0792   0.2616  -0.0368   0.1028  -0.0805   3.00    0.0
2018/11/07 00:28:00.000  -74.407200243  163.437661325    79.7849   6  11   0.0621   0.0723   0.2375  -0.0329   0.0928  -0.0721   3.00    0.0
2018/11/07 00:28:15.000  -74.407200280  163.437661305    79.7570   6  11   0.0561   0.0654   0.2134  -0.0290   0.0828  -0.0640   3.00    0.0
2018/11/07 00:28:30.000  -74.407200238  163.437661759    79.7564   6  11   0.0501   0.0585   0.1894  -0.0253   0.0729  -0.0561   3.00    0.0
2018/11/07 00:28:45.000  -74.407200175  163.437662237    79.7204   6  11   0.0443   0.0516   0.1657  -0.0218   0.0631  -0.0486   3.00    0.0
2018/11/07 00:29:00.000  -74.407200247  163.437662094    79.6853   6  11   0.0386   0.0448   0.1425  -0.0184   0.0536  -0.0415   3.00    0.0
2018/11/07 00:29:15.000  -74.407200519  163.437664324    79.7800   1  11   0.0342   0.0393   0.1393  -0.0199   0.0546  -0.0484   3.00    3.0
2018/11/07 00:29:30.000  -74.407200526  163.437664692    79.8135   1  11   0.0270   0.0308   0.1092  -0.0145   0.0415  -0.0374   3.00    3.0
2018/11/07 00:29:45.000  -74.407200585  163.437665430    79.8745   1  11   0.0212   0.0237   0.0846  -0.0097   0.0305  -0.0285   3.00    3.0
2018/11/07 00:30:00.000  -74.407200669  163.437666236    79.9551   1  11   0.0181   0.0202   0.0719  -0.0073   0.0246  -0.0240   3.00    3.0
2018/11/07 00:30:15.000  -74.407200639  163.437666291    79.9431   1  11   0.0213   0.0241   0.0849  -0.0103   0.0303  -0.0283   3.00    3.0
2018/11/07 00:30:30.000  -74.407200566  163.437666516    79.9599   1  11   0.0274   0.0313   0.1104  -0.0152   0.0412  -0.0373   3.00    3.0
2018/11/07 00:30:45.000  -74.407200352  163.437664621    79.8999   6  11   0.0331   0.0382   0.1191  -0.0155   0.0426  -0.0329   4.00    0.0
2018/11/07 00:31:00.000  -74.407200283  163.437663725    79.8520   6  11   0.0385   0.0448   0.1418  -0.0188   0.0516  -0.0392   4.00    0.0
2018/11/07 00:31:15.000  -74.407200348  163.437663393    79.8805   6  11   0.0443   0.0517   0.1662  -0.0227   0.0608  -0.0461   4.00    0.0
2018/11/07 00:31:30.000  -74.407200452  163.437663084    79.8917   6  11   0.0506   0.0591   0.1923  -0.0274   0.0695  -0.0525   4.00    0.0
2018/11/07 00:31:45.000  -74.407200466  163.437662246    79.8605   6  11   0.0566   0.0662   0.2182  -0.0316   0.0791  -0.0604   4.00    0.0
2018/11/07 00:32:00.000  -74.407200572  163.437661761    79.9002   6  11   0.0619   0.0722   0.2418  -0.0342   0.0913  -0.0711   4.00    0.0
2018/11/07 00:32:15.000  -74.407200418  163.437660878    79.8524   6  11   0.0680   0.0792   0.2680  -0.0384   0.1014  -0.0796   4.00    0.0
2018/11/07 00:32:30.000  -74.407200264  163.437660745    79.8849   6  11   0.0745   0.0866   0.2958  -0.0435   0.1104  -0.0870   1.00    0.0
2018/11/07 00:32:45.000  -74.407200359  163.437661226    79.8631   6  11   0.0685   0.0798   0.2711  -0.0396   0.0992  -0.0777   0.00    0.0
2018/11/07 00:33:00.000  -74.407200525  163.437662481    79.8965   6  11   0.0612   0.0713   0.2410  -0.0327   0.0929  -0.0731   0.00    0.0
2018/11/07 00:33:15.000  -74.407200514  163.437662778    79.9169   6  11   0.0552   0.0642   0.2157  -0.0286   0.0828  -0.0646   0.00    0.0
2018/11/07 00:33:30.000  -74.407200561  163.437663378    79.9552   6  11   0.0493   0.0573   0.1909  -0.0246   0.0727  -0.0564   1.00    0.0
2018/11/07 00:33:45.000  -74.407200496  163.437663590    79.9523   6  11   0.0434   0.0505   0.1665  -0.0209   0.0627  -0.0485   2.00    0.0
2018/11/07 00:34:00.000  -74.407200435  163.437663841    79.9491   6  11   0.0378   0.0438   0.1429  -0.0173   0.0531  -0.0413   4.00    0.0
2018/11/07 00:34:15.000  -74.407200439  163.437664025    79.9397   6  11   0.0326   0.0374   0.1207  -0.0141   0.0439  -0.0348   5.00    0.0
2018/11/07 00:34:30.000  -74.407200534  163.437664205    79.8855   6  11   0.0280   0.0315   0.1011  -0.0113   0.0356  -0.0294   6.00    0.0
2018/11/07 00:34:45.000  -74.407200556  163.437664931    79.8756   6  11   0.0245   0.0269   0.0860  -0.0093   0.0290  -0.0257   6.00    0.0
2018/11/07 00:35:00.000  -74.407200542  163.437664752    79.8793   6  11   0.0228   0.0248   0.0789  -0.0084   0.0261  -0.0242   6.00    0.0
2018/11/07 00:35:15.000  -74.407200478  163.437664620    79.8900   6  11   0.0247   0.0272   0.0873  -0.0097   0.0296  -0.0266   6.00    0.0
2018/11/07 00:35:30.000  -74.407200351  163.437663777    79.8482   6  11   0.0282   0.0320   0.1030  -0.0118   0.0363  -0.0309   6.00    0.0
2018/11/07 00:35:45.000  -74.407200440  163.437663185    79.8565   6  11   0.0328   0.0378   0.1226  -0.0147   0.0445  -0.0364   6.00    0.0
2018/11/07 00:36:00.000  -74.407200424  163.437662527    79.8429   6  11   0.0380   0.0441   0.1446  -0.0179   0.0536  -0.0428   6.00    0.0
2018/11/07 00:36:15.000  -74.407200413  163.437662197    79.8402   6  11   0.0435   0.0507   0.1680  -0.0213   0.0632  -0.0500   6.00    0.0
2018/11/07 00:36:30.000  -74.407200339  163.437662234    79.8097   6  11   0.0492   0.0573   0.1921  -0.0249   0.0731  -0.0577   6.00    0.0
2018/11/07 00:36:45.000  -74.407200374  163.437662051    79.8243   6  11   0.0549   0.0639   0.2167  -0.0287   0.0831  -0.0659   6.00    0.0
2018/11/07 00:37:00.000  -74.407200366  163.437661913    79.8146   6  11   0.0607   0.0706   0.2416  -0.0325   0.0933  -0.0743   6.00    0.0
2018/11/07 00:37:15.000  -74.407200327  163.437661423    79.8009   6  11   0.0665   0.0772   0.2665  -0.0364   0.1035  -0.0830   6.00    0.0
2018/11/07 00:37:30.000  -74.407200266  163.437661522    79.7521   6  11   0.0723   0.0839   0.2915  -0.0403   0.1137  -0.0918   6.00    0.0
2018/11/07 00:37:45.000  -74.407200319  163.437662081    79.7946   6  11   0.0664   0.0772   0.2660  -0.0361   0.1031  -0.0828   5.00    0.0
2018/11/07 00:38:00.000  -74.407200374  163.437661692    79.7639   6  11   0.0605   0.0706   0.2410  -0.0322   0.0928  -0.0741   5.00    0.0
2018/11/07 00:38:15.000  -74.407200453  163.437661663    79.7616   6  11   0.0547   0.0642   0.2163  -0.0285   0.0825  -0.0657   5.00    0.0
2018/11/07 00:38:30.000  -74.407200475  163.437661868    79.7603   6  11   0.0490   0.0582   0.1920  -0.0250   0.0724  -0.0577   5.00    0.0
2018/11/07 00:38:45.000  -74.407200415  163.437661874    79.7567   6  11   0.0435   0.0537   0.1684  -0.0221   0.0624  -0.0503   6.00    0.0
2018/11/07 00:39:00.000  -74.407200524  163.437662918    79.7888   6  11   0.0382   0.0473   0.1461  -0.0190   0.0537  -0.0440   5.00    0.0
2018/11/07 00:39:15.000  -74.407200520  163.437663095    79.7778   6  11   0.0332   0.0373   0.1254  -0.0147   0.0453  -0.0385   5.00    0.0
2018/11/07 00:39:30.000  -74.407200540  163.437663569    79.7988   6  11   0.0290   0.0316   0.1077  -0.0122   0.0376  -0.0344   5.00    0.0
2018/11/07 00:39:45.000  -74.407200549  163.437663881    79.8206   6  11   0.0262   0.0273   0.0958  -0.0106   0.0319  -0.0326   5.00    0.0
2018/11/07 00:40:00.000  -74.407200605  163.437664506    79.8738   6  11   0.0238   0.0256   0.0884  -0.0110   0.0306  -0.0297   4.00    0.0
2018/11/07 00:40:15.000  -74.407200500  163.437663891    79.8430   6  11   0.0253   0.0279   0.0944  -0.0112   0.0330  -0.0306   4.00    0.0
2018/11/07 00:40:30.000  -74.407200350  163.437664129    79.8122   6  11   0.0285   0.0324   0.1082  -0.0129   0.0387  -0.0339   5.00    0.0
2018/11/07 00:40:45.000  -74.407200355  163.437663957    79.8087   6  11   0.0328   0.0380   0.1260  -0.0152   0.0460  -0.0384   5.00    0.0
2018/11/07 00:41:00.000  -74.407200439  163.437664088    79.8593   6  11   0.0377   0.0441   0.1464  -0.0180   0.0542  -0.0440   5.00    0.0
2018/11/07 00:41:15.000  -74.407200442  163.437663761    79.8489   6  11   0.0429   0.0505   0.1681  -0.0211   0.0630  -0.0503   5.00    0.0
2018/11/07 00:41:30.000  -74.407200550  163.437663691    79.9003   6  11   0.0484   0.0570   0.1907  -0.0245   0.0722  -0.0573   5.00    0.0
2018/11/07 00:41:45.000  -74.407200689  163.437663871    79.9507   6  11   0.0539   0.0636   0.2137  -0.0280   0.0815  -0.0648   5.00    0.0
2018/11/07 00:42:00.000  -74.407200776  163.437663485    79.9580   6  11   0.0595   0.0703   0.2370  -0.0316   0.0910  -0.0726   5.00    0.0
2018/11/07 00:42:15.000  -74.407200796  163.437663307    79.9771   6  11   0.0651   0.0772   0.2604  -0.0353   0.1005  -0.0806   5.00    0.0
2018/11/07 00:42:30.000  -74.407200808  163.437663457    79.9947   6  11   0.0707   0.0844   0.2839  -0.0392   0.1101  -0.0887   5.00    0.0
2018/11/07 00:42:45.000  -74.407200748  163.437663180    79.9734   6  11   0.0651   0.0806   0.2601  -0.0369   0.1006  -0.0805   5.00    0.0
2018/11/07 00:43:00.000  -74.407200674  163.437663675    79.9553   6  11   0.0594   0.0731   0.2363  -0.0331   0.0919  -0.0725   4.00    0.0
2018/11/07 00:43:15.000  -74.407200574  163.437662888    79.8940   6  11   0.0538   0.0679   0.2125  -0.0299   0.0818  -0.0644   4.00    0.0
2018/11/07 00:43:30.000  -74.407200557  163.437664010    79.8870   6  11   0.0480   0.0563   0.1895  -0.0241   0.0722  -0.0569   4.00    0.0
2018/11/07 00:43:45.000  -74.407200562  163.437664263    79.8916   6  11   0.0426   0.0493   0.1670  -0.0204   0.0626  -0.0499   4.00    0.0
2018/11/07 00:44:00.000  -74.407200525  163.437664214    79.8324   6  11   0.0374   0.0428   0.1456  -0.0172   0.0537  -0.0437   4.00    0.0
2018/11/07 00:44:15.000  -74.407200592  163.437663727    79.8137   6  11   0.0325   0.0367   0.1260  -0.0144   0.0455  -0.0384   4.00    0.0
2018/11/07 00:44:30.000  -74.407200640  163.437663926    79.8377   6  11   0.0283   0.0313   0.1088  -0.0121   0.0384  -0.0341   5.00    0.0
2018/11/07 00:44:45.000  -74.407200595  163.437663815    79.8165   6  11   0.0251   0.0270   0.0955  -0.0104   0.0328  -0.0308   5.00    0.0
2018/11/07 00:45:00.000  -74.407200610  163.437663989    79.8401   6  11   0.0234   0.0247   0.0885  -0.0095   0.0298  -0.0291   5.00    0.0
2018/11/07 00:45:15.000  -74.407200644  163.437664090    79.8592   6  11   0.0258   0.0269   0.0977  -0.0105   0.0326  -0.0331   5.00    0.0
2018/11/07 00:45:30.000  -74.407200732  163.437664057    79.8713   6  11   0.0343   0.0322   0.1332  -0.0172   0.0454  -0.0516   4.00    0.0
2018/11/07 00:45:45.000  -74.407200813  163.437663665    79.9015   6  11   0.0358   0.0375   0.1412  -0.0185   0.0512  -0.0496   4.00    0.0
2018/11/07 00:46:00.000  -74.407200829  163.437663733    79.9310   6  11   0.0393   0.0428   0.1539  -0.0195   0.0564  -0.0509   4.00    0.0
2018/11/07 00:46:15.000  -74.407200715  163.437663217    79.8957   6  11   0.0437   0.0485   0.1709  -0.0214   0.0632  -0.0547   4.00    0.0
2018/11/07 00:46:30.000  -74.407200636  163.437662659    79.8817   6  11   0.0486   0.0545   0.1899  -0.0239   0.0708  -0.0597   4.00    0.0
2018/11/07 00:46:45.000  -74.407200527  163.437662303    79.8405   6  11   0.0536   0.0606   0.2099  -0.0267   0.0789  -0.0656   4.00    0.0
2018/11/07 00:47:00.000  -74.407200518  163.437662388    79.8278   6  11   0.0588   0.0667   0.2305  -0.0296   0.0871  -0.0720   4.00    0.0
2018/11/07 00:47:15.000  -74.407200594  163.437662599    79.8830   6  11   0.0641   0.0729   0.2514  -0.0327   0.0955  -0.0788   4.00    0.0
2018/11/07 00:47:30.000  -74.407200721  163.437663151    79.9577   6  11   0.0695   0.0791   0.2726  -0.0358   0.1039  -0.0858   4.00    0.0
2018/11/07 00:47:45.000  -74.407200649  163.437662576    79.8974   6  11   0.0640   0.0726   0.2501  -0.0325   0.0948  -0.0784   4.00    0.0
2018/11/07 00:48:00.000  -74.407200757  163.437663099    79.9366   6  11   0.0584   0.0662   0.2275  -0.0290   0.0856  -0.0708   4.00    0.0
2018/11/07 00:48:15.000  -74.407200640  163.437662835    79.8420   6  11   0.0530   0.0598   0.2055  -0.0257   0.0766  -0.0635   4.00    0.0
2018/11/07 00:48:30.000  -74.407200601  163.437662684    79.7933   6  11   0.0476   0.0536   0.1840  -0.0225   0.0679  -0.0566   4.00    0.0
2018/11/07 00:48:45.000  -74.407200540  163.437662795    79.7671   6  11   0.0424   0.0475   0.1632  -0.0195   0.0594  -0.0502   4.00    0.0
2018/11/07 00:49:00.000  -74.407200562  163.437663094    79.7860   6  11   0.0373   0.0415   0.1435  -0.0167   0.0514  -0.0445   4.00    0.0
2018/11/07 00:49:15.000  -74.407200580  163.437663254    79.7792   6  11   0.0326   0.0358   0.1250  -0.0142   0.0438  -0.0394   4.00    0.0
2018/11/07 00:49:30.000  -74.407200635  163.437663714    79.8072   6  11   0.0284   0.0307   0.1085  -0.0120   0.0371  -0.0348   4.00    0.0
2018/11/07 00:49:45.000  -74.407200913  163.437664985    79.9117   1  11   0.0322   0.0313   0.1318  -0.0211   0.0467  -0.0590   3.00    1.0
2018/11/07 00:50:00.000  -74.407201023  163.437665184    79.9548   1  11   0.0310   0.0293   0.1271  -0.0208   0.0448  -0.0584   3.00    1.0
2018/11/07 00:50:15.000  -74.407200766  163.437663612    79.8413   6  11   0.0255   0.0274   0.0960  -0.0108   0.0319  -0.0324   4.00    0.0
2018/11/07 00:50:30.000  -74.407200766  163.437662765    79.7981   6  11   0.0303   0.0320   0.1140  -0.0131   0.0381  -0.0400   4.00    0.0
2018/11/07 00:50:45.000  -74.407200802  163.437662123    79.7833   6  10   0.0441   0.0399   0.1732  -0.0243   0.0594  -0.0716   4.00    0.0
2018/11/07 00:51:00.000  -74.407200712  163.437661979    79.7574   6  10   0.0538   0.0470   0.2116  -0.0303   0.0729  -0.0897   5.00    0.0
2018/11/07 00:51:15.000  -74.407200825  163.437662112    79.8157   6  10   0.0644   0.0548   0.2525  -0.0362   0.0867  -0.1092   5.00    1.0
2018/11/07 00:51:30.000  -74.407200730  163.437662449    79.8050   6  10   0.0753   0.0608   0.2973  -0.0451   0.1036  -0.1303   5.00    0.0
2018/11/07 00:51:45.000  -74.407200710  163.437662796    79.8355   6  10   0.0862   0.0692   0.3419  -0.0536   0.1214  -0.1512   5.00    0.0
2018/11/07 00:52:00.000  -74.407200493  163.437662329    79.7648   6  10   0.0996   0.0797   0.3982  -0.0648   0.1448  -0.1780   5.00    0.0
2018/11/07 00:52:15.000  -74.407200780  163.437663459    79.9550   6  10   0.1111   0.0848   0.4396  -0.0705   0.1560  -0.1987   5.00    0.0
2018/11/07 00:52:30.000  -74.407200491  163.437662682    79.8396   6  10   0.1163   0.0885   0.4549  -0.0710   0.1581  -0.2048   5.00    0.0
2018/11/07 00:52:45.000  -74.407200547  163.437663151    79.8931   6  10   0.1043   0.0797   0.4059  -0.0622   0.1393  -0.1816   5.00    0.0
2018/11/07 00:53:00.000  -74.407200767  163.437663689    80.0114   6  10   0.0931   0.0716   0.3609  -0.0543   0.1225  -0.1604   5.00    0.0
2018/11/07 00:53:15.000  -74.407200853  163.437663829    80.0665   6  10   0.0824   0.0640   0.3187  -0.0471   0.1069  -0.1403   5.00    0.0
2018/11/07 00:53:30.000  -74.407201108  163.437664402    80.1837   6  10   0.0720   0.0566   0.2788  -0.0402   0.0920  -0.1212   5.00    0.0
2018/11/07 00:53:45.000  -74.407201136  163.437664568    80.2069   6  10   0.0620   0.0495   0.2416  -0.0336   0.0778  -0.1028   4.00    0.0
2018/11/07 00:54:00.000  -74.407201082  163.437664526    80.1922   6  10   0.0523   0.0427   0.2098  -0.0273   0.0638  -0.0857   4.00    0.0
2018/11/07 00:54:15.000  -74.407201107  163.437664491    80.1299   6   9   0.0437   0.0362   0.1767  -0.0216   0.0516  -0.0706   5.00    0.0
2018/11/07 00:54:30.000  -74.407200974  163.437664020    80.0107   6   9   0.0349   0.0304   0.1374  -0.0161   0.0400  -0.0532   5.00    0.0
2018/11/07 00:54:45.000  -74.407200868  163.437663902    79.9488   6   9   0.0278   0.0259   0.1044  -0.0115   0.0306  -0.0383   5.00    0.0
2018/11/07 00:55:00.000  -74.407200863  163.437664152    79.9077   6   9   0.0241   0.0236   0.0860  -0.0089   0.0254  -0.0296   5.00    0.0
2018/11/07 00:55:15.000  -74.407201052  163.437664919    79.8872   1   9   0.0344   0.0306   0.1377  -0.0213   0.0492  -0.0556   4.00    1.0
2018/11/07 00:55:30.000  -74.407200796  163.437663794    79.8368   6   9   0.0348   0.0312   0.1347  -0.0169   0.0407  -0.0525   6.00    0.0
2018/11/07 00:55:45.000  -74.407200807  163.437664077    79.9323   6   9   0.0438   0.0375   0.1748  -0.0230   0.0532  -0.0705   5.00    0.0
2018/11/07 00:56:00.000  -74.407200639  163.437664229    79.9316   6   9   0.0546   0.0453   0.2222  -0.0310   0.0697  -0.0921   5.00    0.0
2018/11/07 00:56:15.000  -74.407200685  163.437664474    80.0024   6   9   0.0721   0.0571   0.3014  -0.0460   0.1006  -0.1302   6.00    0.0
2018/11/07 00:56:30.000  -74.407200713  163.437664101    80.0092   6   9   0.0744   0.0561   0.3121  -0.0405   0.0915  -0.1310   6.00    0.0
2018/11/07 00:56:45.000  -74.407200796  163.437663836    80.0035   6   9   0.0816   0.0610   0.3429  -0.0427   0.0969  -0.1431   6.00    0.0
2018/11/07 00:57:00.000  -74.407200588  163.437663491    79.9078   6  10   0.0706   0.0659   0.2742  -0.0401   0.0923  -0.1019   6.00    0.0
2018/11/07 00:57:15.000  -74.407200669  163.437663644    79.9416   6  10   0.0754   0.0717   0.2889  -0.0430   0.0989  -0.1053   6.00    0.0
2018/11/07 00:57:30.000  -74.407200714  163.437663279    79.9431   6  10   0.0808   0.0776   0.3077  -0.0462   0.1062  -0.1108   6.00    0.0
2018/11/07 00:57:45.000  -74.407200710  163.437663133    79.9272   6  10   0.0737   0.0710   0.2792  -0.0414   0.0958  -0.0995   6.00    0.0
2018/11/07 00:58:00.000  -74.407200724  163.437663411    79.9268   6  10   0.0668   0.0645   0.2513  -0.0369   0.0858  -0.0887   6.00    0.0
2018/11/07 00:58:15.000  -74.407200678  163.437663270    79.8907   6  10   0.0599   0.0581   0.2240  -0.0324   0.0758  -0.0782   6.00    0.0
2018/11/07 00:58:30.000  -74.407200693  163.437663416    79.8862   6  10   0.0532   0.0518   0.1972  -0.0280   0.0660  -0.0679   6.00    0.0
2018/11/07 00:58:45.000  -74.407200750  163.437663674    79.9417   6  10   0.0466   0.0456   0.1709  -0.0236   0.0564  -0.0578   6.00    0.0
2018/11/07 00:59:00.000  -74.407200782  163.437663785    79.9411   6  10   0.0402   0.0396   0.1453  -0.0192   0.0469  -0.0481   6.00    0.0
2018/11/07 00:59:15.000  -74.407200744  163.437663482    79.9061   6  10   0.0340   0.0338   0.1208  -0.0149   0.0378  -0.0388   5.00    0.0
2018/11/07 00:59:30.000  -74.407200923  163.437664520    79.8635   1  10   0.0321   0.0325   0.1175  -0.0172   0.0420  -0.0386   5.00    1.0
2018/11/07 00:59:45.000  -74.407200950  163.437664661    79.8907   1  10   0.0262   0.0271   0.0926  -0.0134   0.0342  -0.0286   5.00    1.0
2018/11/07 01:00:00.000  -74.407200942  163.437664434    79.8754   1  10   0.0235   0.0246   0.0785  -0.0117   0.0302  -0.0227   5.00    1.0
2018/11/07 01:00:15.000  -74.407200820  163.437664406    79.8022   1  10   0.0267   0.0275   0.0931  -0.0142   0.0348  -0.0297   5.00    1.0
2018/11/07 01:00:30.000  -74.407200855  163.437664868    79.7988   1  10   0.0327   0.0331   0.1190  -0.0183   0.0433  -0.0402   5.00    1.0
2018/11/07 01:00:45.000  -74.407200605  163.437663685    79.8244   6  10   0.0329   0.0336   0.1122  -0.0139   0.0349  -0.0339   4.00    0.0
2018/11/07 01:01:00.000  -74.407200512  163.437663725    79.8535   6  10   0.0386   0.0390   0.1345  -0.0177   0.0429  -0.0419   4.00    0.0
2018/11/07 01:01:15.000  -74.407200396  163.437663342    79.8250   6  10   0.0446   0.0447   0.1582  -0.0216   0.0512  -0.0505   4.00    0.0
2018/11/07 01:01:30.000  -74.407200285  163.437662842    79.7843   6  10   0.0508   0.0505   0.1826  -0.0255   0.0596  -0.0594   5.00    0.0
2018/11/07 01:01:45.000  -74.407200241  163.437662506    79.8149   6  10   0.0571   0.0563   0.2076  -0.0294   0.0680  -0.0685   5.00    0.0
2018/11/07 01:02:00.000  -74.407200270  163.437662927    79.8624   6  10   0.0635   0.0622   0.2329  -0.0333   0.0765  -0.0777   5.00    0.0
2018/11/07 01:02:15.000  -74.407200213  163.437663000    79.9020   6  10   0.0699   0.0681   0.2586  -0.0372   0.0849  -0.0870   5.00    0.0
2018/11/07 01:02:30.000  -74.407200330  163.437663410    79.9455   6  10   0.0764   0.0741   0.2843  -0.0410   0.0932  -0.0964   5.00    0.0
2018/11/07 01:02:45.000  -74.407200370  163.437663635    79.9435   6  10   0.0700   0.0681   0.2592  -0.0372   0.0846  -0.0872   5.00    0.0
2018/11/07 01:03:00.000  -74.407200378  163.437663473    79.9329   6  10   0.0637   0.0623   0.2340  -0.0335   0.0761  -0.0783   5.00    0.0
2018/11/07 01:03:15.000  -74.407200452  163.437663412    79.9330   6  10   0.0576   0.0569   0.2095  -0.0304   0.0684  -0.0699   5.00    0.0
2018/11/07 01:03:30.000  -74.407200467  163.437663373    79.9151   6  10   0.0522   0.0525   0.1865  -0.0287   0.0626  -0.0630   5.00    0.0
2018/11/07 01:03:45.000  -74.407200669  163.437663593    79.9177   6  10   0.0452   0.0446   0.1612  -0.0223   0.0513  -0.0527   6.00    0.0
2018/11/07 01:04:00.000  -74.407200731  163.437663437    79.8948   6  10   0.0385   0.0382   0.1345  -0.0169   0.0406  -0.0418   6.00    0.0
2018/11/07 01:04:15.000  -74.407200762  163.437663099    79.8553   6  10   0.0325   0.0326   0.1103  -0.0125   0.0316  -0.0324   6.00    0.0
2018/11/07 01:04:30.000  -74.407201034  163.437664052    79.8209   1  10   0.0315   0.0309   0.1130  -0.0149   0.0368  -0.0355   5.00    1.0
2018/11/07 01:04:45.000  -74.407201032  163.437664019    79.8472   1  10   0.0256   0.0257   0.0865  -0.0109   0.0291  -0.0245   5.00    1.0
2018/11/07 01:05:00.000  -74.407201043  163.437664353    79.8804   1  10   0.0227   0.0230   0.0711  -0.0087   0.0251  -0.0172   5.00    1.0
2018/11/07 01:05:15.000  -74.407201044  163.437664432    79.8562   1  10   0.0255   0.0259   0.0861  -0.0106   0.0290  -0.0241   5.00    1.0
2018/11/07 01:05:30.000  -74.407201071  163.437664347    79.8430   1  10   0.0314   0.0312   0.1126  -0.0144   0.0367  -0.0349   5.00    1.0
2018/11/07 01:05:45.000  -74.407200781  163.437663377    79.8675   6  10   0.0319   0.0323   0.1076  -0.0108   0.0297  -0.0301   6.00    0.0
2018/11/07 01:06:00.000  -74.407200637  163.437663174    79.8461   6  10   0.0376   0.0376   0.1308  -0.0146   0.0374  -0.0386   6.00    0.0
2018/11/07 01:06:15.000  -74.407200653  163.437663368    79.8721   6  10   0.0436   0.0430   0.1552  -0.0182   0.0452  -0.0475   7.00    0.0
2018/11/07 01:06:30.000  -74.407200530  163.437663048    79.8574   6  10   0.0498   0.0487   0.1804  -0.0219   0.0533  -0.0566   7.00    0.0
2018/11/07 01:06:45.000  -74.407200558  163.437663427    79.9062   6  10   0.0561   0.0546   0.2062  -0.0254   0.0616  -0.0658   6.00    0.0
2018/11/07 01:07:00.000  -74.407200462  163.437663762    79.9253   6  10   0.0625   0.0612   0.2332  -0.0287   0.0711  -0.0747   6.00    0.0
2018/11/07 01:07:15.000  -74.407200571  163.437664256    79.9650   6  10   0.0689   0.0685   0.2627  -0.0323   0.0826  -0.0840   5.00    0.0
2018/11/07 01:07:30.000  -74.407200588  163.437664414    79.9347   6  10   0.0753   0.0719   0.2852  -0.0366   0.0853  -0.0941   5.00    0.0
2018/11/07 01:07:45.000  -74.407200625  163.437664542    79.9398   6  10   0.0689   0.0653   0.2575  -0.0329   0.0753  -0.0847   5.00    0.0
2018/11/07 01:08:00.000  -74.407200682  163.437664668    79.9668   6  10   0.0624   0.0592   0.2310  -0.0291   0.0664  -0.0753   5.00    0.0
2018/11/07 01:08:15.000  -74.407200703  163.437664565    79.9055   6  10   0.0560   0.0533   0.2050  -0.0253   0.0579  -0.0659   5.00    0.0
2018/11/07 01:08:30.000  -74.407200810  163.437664582    79.8830   6  10   0.0497   0.0475   0.1793  -0.0215   0.0496  -0.0565   5.00    1.0
2018/11/07 01:08:45.000  -74.407200853  163.437664316    79.8418   6  10   0.0435   0.0419   0.1540  -0.0178   0.0415  -0.0472   6.00    1.0
2018/11/07 01:09:00.000  -74.407200812  163.437664332    79.8164   6  10   0.0374   0.0365   0.1294  -0.0141   0.0337  -0.0381   6.00    1.0
2018/11/07 01:09:15.000  -74.407200834  163.437664402    79.7929   6  10   0.0317   0.0313   0.1058  -0.0104   0.0261  -0.0293   6.00    1.0
2018/11/07 01:09:30.000  -74.407200830  163.437664119    79.7775   1  10   0.0259   0.0224   0.0810  -0.0104   0.0247  -0.0179   6.00    1.0
2018/11/07 01:09:45.000  -74.407200899  163.437663937    79.8156   1  10   0.0216   0.0190   0.0621  -0.0078   0.0201  -0.0072   6.00    1.0
2018/11/07 01:10:00.000  -74.407200880  163.437663620    79.8791   1  10   0.0194   0.0173   0.0514  -0.0065   0.0175   0.0083   6.00    1.0
2018/11/07 01:10:15.000  -74.407201031  163.437664361    79.9342   1  10   0.0254   0.0251   0.0814  -0.0098   0.0254  -0.0220   6.00    1.0
2018/11/07 01:10:30.000  -74.407201070  163.437664466    79.9517   1  10   0.0312   0.0303   0.1081  -0.0134   0.0321  -0.0331   6.00    1.0
2018/11/07 01:10:45.000  -74.407201081  163.437664312    79.9010   1  10   0.0386   0.0371   0.1397  -0.0177   0.0404  -0.0451   6.00    1.0
2018/11/07 01:11:00.000  -74.407200568  163.437663400    79.8867   6  10   0.0371   0.0368   0.1276  -0.0134   0.0319  -0.0373   5.00    0.0
2018/11/07 01:11:15.000  -74.407200545  163.437663704    79.9073   6  10   0.0431   0.0428   0.1521  -0.0170   0.0395  -0.0464   5.00    0.0
2018/11/07 01:11:30.000  -74.407200479  163.437663539    79.9173   6  10   0.0493   0.0492   0.1778  -0.0211   0.0482  -0.0560   4.00    0.0
2018/11/07 01:11:45.000  -74.407200335  163.437662806    79.8638   6  10   0.0555   0.0541   0.2027  -0.0243   0.0542  -0.0650   4.00    0.0
2018/11/07 01:12:00.000  -74.407200390  163.437662320    79.8661   6  10   0.0618   0.0602   0.2280  -0.0276   0.0612  -0.0741   4.00    0.0
2018/11/07 01:12:15.000  -74.407200346  163.437662242    79.8248   6  10   0.0682   0.0651   0.2534  -0.0309   0.0672  -0.0833   4.00    0.0
2018/11/07 01:12:30.000  -74.407200358  163.437661963    79.7926   6  10   0.0746   0.0702   0.2784  -0.0337   0.0725  -0.0920   4.00    0.0
2018/11/07 01:12:45.000  -74.407200368  163.437661833    79.7671   6  10   0.0682   0.0656   0.2534  -0.0305   0.0664  -0.0830   4.00    0.0
2018/11/07 01:13:00.000  -74.407200399  163.437661791    79.7693   6  10   0.0618   0.0578   0.2270  -0.0265   0.0569  -0.0736   4.00    0.0
2018/11/07 01:13:15.000  -74.407200436  163.437661951    79.7662   6  10   0.0554   0.0516   0.2009  -0.0226   0.0486  -0.0640   4.00    0.0
2018/11/07 01:13:30.000  -74.407200413  163.437662256    79.7921   6  10   0.0491   0.0459   0.1754  -0.0190   0.0411  -0.0546   4.00    0.0
2018/11/07 01:13:45.000  -74.407200484  163.437662273    79.8190   6  10   0.0429   0.0405   0.1504  -0.0155   0.0340  -0.0454   4.00    0.0
2018/11/07 01:14:00.000  -74.407200585  163.437662559    79.8081   6  10   0.0369   0.0352   0.1260  -0.0120   0.0271  -0.0363   4.00    0.0
2018/11/07 01:14:15.000  -74.407201086  163.437663920    79.7882   1  10   0.0383   0.0351   0.1367  -0.0158   0.0345  -0.0433   6.00    1.0
2018/11/07 01:14:30.000  -74.407201045  163.437663872    79.7975   1  10   0.0310   0.0288   0.1049  -0.0117   0.0273  -0.0311   6.00    1.0
2018/11/07 01:14:45.000  -74.407201088  163.437664072    79.8293   1  10   0.0252   0.0240   0.0780  -0.0082   0.0217  -0.0196   6.00    1.0
2018/11/07 01:15:00.000  -74.407201097  163.437663960    79.8373   1  10   0.0222   0.0217   0.0627  -0.0061   0.0189  -0.0114   6.00    1.0
2018/11/07 01:15:15.000  -74.407201065  163.437663786    79.8597   1  10   0.0251   0.0240   0.0775  -0.0080   0.0214  -0.0193   6.00    1.0
2018/11/07 01:15:30.000  -74.407201060  163.437663965    79.9066   1  10   0.0308   0.0287   0.1038  -0.0114   0.0262  -0.0305   6.00    1.0
2018/11/07 01:15:45.000  -74.407201062  163.437664154    79.8868   1  10   0.0381   0.0348   0.1348  -0.0151   0.0324  -0.0423   6.00    1.0
2018/11/07 01:16:00.000  -74.407200585  163.437663356    79.8692   6  10   0.0365   0.0347   0.1239  -0.0109   0.0236  -0.0351   5.00    0.0
2018/11/07 01:16:15.000  -74.407200489  163.437663338    79.8525   6  10   0.0424   0.0396   0.1475  -0.0139   0.0290  -0.0438   5.00    0.0
2018/11/07 01:16:30.000  -74.407200437  163.437663423    79.8529   6  10   0.0484   0.0447   0.1715  -0.0169   0.0343  -0.0526   5.00    0.0
2018/11/07 01:16:45.000  -74.407200443  163.437663147    79.8807   6  10   0.0546   0.0499   0.1958  -0.0197   0.0394  -0.0613   5.00    0.0
2018/11/07 01:17:00.000  -74.407200442  163.437662731    79.8138   6  10   0.0608   0.0551   0.2202  -0.0226   0.0443  -0.0700   5.00    0.0
2018/11/07 01:17:15.000  -74.407200451  163.437662254    79.7887   6  10   0.0671   0.0604   0.2447  -0.0253   0.0490  -0.0787   5.00    0.0
2018/11/07 01:17:30.000  -74.407200501  163.437662373    79.8454   6  10   0.0734   0.0657   0.2692  -0.0281   0.0535  -0.0872   5.00    0.0
2018/11/07 01:17:45.000  -74.407200580  163.437662580    79.8612   6  10   0.0669   0.0603   0.2440  -0.0249   0.0475  -0.0782   5.00    0.0
2018/11/07 01:18:00.000  -74.407200744  163.437662928    79.8997   6  11   0.0532   0.0532   0.1890  -0.0089   0.0148  -0.0400   5.00    0.0
2018/11/07 01:18:15.000  -74.407200713  163.437662738    79.9060   6  11   0.0471   0.0480   0.1637  -0.0026  -0.0060  -0.0287   5.00    0.0
2018/11/07 01:18:30.000  -74.407200681  163.437662887    79.9031   6  11   0.0417   0.0430   0.1423   0.0048  -0.0108  -0.0211   5.00    0.0
2018/11/07 01:18:45.000  -74.407200679  163.437662905    79.8837   6  11   0.0367   0.0382   0.1225   0.0061  -0.0118  -0.0148   5.00    0.0
2018/11/07 01:19:00.000  -74.407201096  163.437663807    79.8109   1  11   0.0383   0.0396   0.1330  -0.0030  -0.0014  -0.0175   6.00    1.0
2018/11/07 01:19:15.000  -74.407201040  163.437664123    79.8369   1  11   0.0322   0.0332   0.1085  -0.0019   0.0085  -0.0128   6.00    1.0
2018/11/07 01:19:30.000  -74.407201009  163.437664307    79.8541   1  11   0.0268   0.0276   0.0857   0.0006   0.0113  -0.0070   6.00    1.0
2018/11/07 01:19:45.000  -74.407201027  163.437664115    79.8431   1  11   0.0228   0.0233   0.0667   0.0012   0.0127   0.0062   6.00    1.0
2018/11/07 01:20:00.000  -74.407200822  163.437663487    79.8268   6  11   0.0188   0.0203   0.0502   0.0065  -0.0093   0.0110   5.00    0.0
2018/11/07 01:20:15.000  -74.407200804  163.437663138    79.8285   6  11   0.0202   0.0219   0.0565   0.0066  -0.0101   0.0108   5.00    0.0
2018/11/07 01:20:30.000  -74.407200786  163.437663483    79.8506   6  11   0.0232   0.0250   0.0685   0.0069  -0.0117   0.0106   5.00    0.0
2018/11/07 01:20:45.000  -74.407200753  163.437663622    79.8931   6  11   0.0270   0.0289   0.0835   0.0073  -0.0137   0.0100   5.00    0.0
2018/11/07 01:21:00.000  -74.407200775  163.437663666    79.9236   6  11   0.0313   0.0332   0.1003   0.0077  -0.0160   0.0077   5.00    0.0
2018/11/07 01:21:15.000  -74.407200754  163.437663480    79.9172   6  11   0.0357   0.0378   0.1180   0.0081  -0.0185  -0.0032   6.00    0.0
2018/11/07 01:21:30.000  -74.407200759  163.437663484    79.9042   6  11   0.0404   0.0425   0.1365   0.0085  -0.0212  -0.0107   6.00    0.0
2018/11/07 01:21:45.000  -74.407200795  163.437663354    79.8967   6  11   0.0452   0.0473   0.1554   0.0089  -0.0241  -0.0159   6.00    0.0
2018/11/07 01:22:00.000  -74.407200929  163.437663203    79.9252   6  11   0.0500   0.0522   0.1745   0.0091  -0.0272  -0.0206   6.00    0.0
2018/11/07 01:22:15.000  -74.407200893  163.437663193    79.9591   6  12   0.0539   0.0551   0.1874  -0.0085  -0.0411  -0.0340   6.00    0.0
2018/11/07 01:22:30.000  -74.407200835  163.437662991    79.9054   6  12   0.0587   0.0596   0.2042  -0.0111  -0.0475  -0.0401   6.00    0.0
2018/11/07 01:22:45.000  -74.407200833  163.437662691    79.8531   6  12   0.0539   0.0547   0.1859  -0.0099  -0.0440  -0.0359   6.00    0.0
2018/11/07 01:23:00.000  -74.407200753  163.437662789    79.8146   6  12   0.0490   0.0500   0.1676  -0.0083  -0.0401  -0.0314   6.00    0.0
2018/11/07 01:23:15.000  -74.407200734  163.437663074    79.8094   6  12   0.0443   0.0453   0.1495  -0.0066  -0.0362  -0.0266   6.00    0.0
2018/11/07 01:23:30.000  -74.407200793  163.437663165    79.8323   6  12   0.0396   0.0407   0.1317  -0.0047  -0.0321  -0.0217   6.00    0.0
2018/11/07 01:23:45.000  -74.407200799  163.437663497    79.8433   6  12   0.0350   0.0362   0.1141  -0.0023  -0.0281  -0.0165   6.00    0.0
2018/11/07 01:24:00.000  -74.407200820  163.437663681    79.8452   6  12   0.0306   0.0319   0.0970   0.0027  -0.0242  -0.0108   6.00    0.0
2018/11/07 01:24:15.000  -74.407200797  163.437663496    79.8224   6  12   0.0264   0.0279   0.0808   0.0042  -0.0204  -0.0017   6.00    0.0
2018/11/07 01:24:30.000  -74.407200846  163.437663622    79.8193   6  12   0.0227   0.0243   0.0661   0.0050  -0.0169   0.0084   6.00    0.0
2018/11/07 01:24:45.000  -74.407200899  163.437663465    79.8390   6  12   0.0199   0.0215   0.0543   0.0056  -0.0142   0.0107   6.00    0.0
2018/11/07 01:25:00.000  -74.407200889  163.437663425    79.8358   6  12   0.0185   0.0202   0.0481   0.0059  -0.0129   0.0114   6.00    0.0
2018/11/07 01:25:15.000  -74.407200867  163.437663377    79.8421   6  12   0.0198   0.0215   0.0541   0.0057  -0.0144   0.0109   6.00    0.0
2018/11/07 01:25:30.000  -74.407200994  163.437663437    79.8303   6  12   0.0226   0.0242   0.0658   0.0052  -0.0174   0.0087   6.00    0.0
2018/11/07 01:25:45.000  -74.407200970  163.437663719    79.8506   6  12   0.0262   0.0277   0.0806   0.0046  -0.0211  -0.0016   6.00    0.0
2018/11/07 01:26:00.000  -74.407200907  163.437663470    79.8605   6  12   0.0304   0.0317   0.0971   0.0038  -0.0252  -0.0113   6.00    0.0
2018/11/07 01:26:15.000  -74.407200869  163.437663239    79.8586   6  12   0.0348   0.0359   0.1146   0.0021  -0.0296  -0.0174   6.00    0.0
2018/11/07 01:26:30.000  -74.407200808  163.437663532    79.8403   6  12   0.0393   0.0403   0.1327  -0.0030  -0.0341  -0.0231   6.00    0.0
2018/11/07 01:26:45.000  -74.407200739  163.437663807    79.8754   6  12   0.0440   0.0448   0.1513  -0.0051  -0.0388  -0.0285   6.00    0.0
2018/11/07 01:27:00.000  -74.407200682  163.437663529    79.8908   6  12   0.0488   0.0494   0.1702  -0.0068  -0.0437  -0.0338   7.00    0.0
2018/11/07 01:27:15.000  -74.407200672  163.437663411    79.9228   6  12   0.0537   0.0541   0.1892  -0.0084  -0.0486  -0.0391   7.00    0.0
2018/11/07 01:27:30.000  -74.407200640  163.437663751    79.9059   6  12   0.0586   0.0589   0.2084  -0.0099  -0.0535  -0.0443   7.00    0.0
2018/11/07 01:27:45.000  -74.407200660  163.437663833    79.9079   6  12   0.0538   0.0541   0.1904  -0.0086  -0.0487  -0.0395   7.00    0.0
2018/11/07 01:28:00.000  -74.407200598  163.437663834    79.9341   6  12   0.0490   0.0494   0.1717  -0.0068  -0.0441  -0.0344   7.00    0.0
2018/11/07 01:28:15.000  -74.407200621  163.437663454    79.8737   6  12   0.0442   0.0448   0.1530  -0.0049  -0.0395  -0.0292   7.00    0.0
2018/11/07 01:28:30.000  -74.407200623  163.437663220    79.8595   6  12   0.0395   0.0402   0.1345  -0.0024  -0.0349  -0.0238   7.00    0.0
2018/11/07 01:28:45.000  -74.407200582  163.437663777    79.8585   6  12   0.0349   0.0358   0.1163   0.0028  -0.0305  -0.0182   7.00    0.0
2018/11/07 01:29:00.000  -74.407200612  163.437663799    79.8425   6  12   0.0304   0.0316   0.0985   0.0042  -0.0262  -0.0121   8.00    0.0
2018/11/07 01:29:15.000  -74.407200724  163.437663254    79.8185   6  12   0.0263   0.0277   0.0816   0.0049  -0.0221  -0.0032   8.00    0.0
2018/11/07 01:29:30.000  -74.407200753  163.437663328    79.8074   6  12   0.0226   0.0242   0.0663   0.0054  -0.0185   0.0088   7.00    0.0
2018/11/07 01:29:45.000  -74.407200818  163.437663466    79.8280   6  12   0.0196   0.0217   0.0541   0.0058  -0.0158   0.0110   7.00    0.0
2018/11/07 01:30:00.000  -74.407200776  163.437663663    79.8219   6  12   0.0183   0.0204   0.0477   0.0062  -0.0144   0.0118   7.00    0.0
2018/11/07 01:30:15.000  -74.407201060  163.437663719    79.7852   1  12   0.0225   0.0232   0.0646   0.0007  -0.0118   0.0055   7.00    1.0
2018/11/07 01:30:30.000  -74.407201090  163.437663745    79.7949   1  12   0.0266   0.0273   0.0839  -0.0029  -0.0182  -0.0112   7.00    1.0
2018/11/07 01:30:45.000  -74.407201044  163.437663627    79.8051   1  12   0.0318   0.0323   0.1073  -0.0048  -0.0252  -0.0195   7.00    1.0
2018/11/07 01:31:00.000  -74.407200962  163.437663427    79.7821   1  12   0.0378   0.0382   0.1326  -0.0066  -0.0324  -0.0270   7.00    1.0
2018/11/07 01:31:15.000  -74.407200429  163.437663375    79.7873   6  12   0.0347   0.0355   0.1167   0.0041  -0.0313  -0.0188   8.00    0.0
2018/11/07 01:31:30.000  -74.407200390  163.437663426    79.8382   6  12   0.0392   0.0399   0.1353   0.0028  -0.0360  -0.0246   8.00    0.0
2018/11/07 01:31:45.000  -74.407200352  163.437663441    79.8681   6  12   0.0440   0.0444   0.1543  -0.0020  -0.0410  -0.0302   8.00    0.0
2018/11/07 01:32:00.000  -74.407200308  163.437663466    79.8574   6  12   0.0488   0.0490   0.1735  -0.0043  -0.0460  -0.0356   8.00    0.0
2018/11/07 01:32:15.000  -74.407200236  163.437663258    79.8211   6  12   0.0537   0.0537   0.1928  -0.0060  -0.0511  -0.0410   8.00    0.0
2018/11/07 01:32:30.000  -74.407200273  163.437663740    79.8172   6  12   0.0586   0.0585   0.2122  -0.0074  -0.0563  -0.0462   8.00    0.0
2018/11/07 01:32:45.000  -74.407200241  163.437663816    79.8139   6  12   0.0536   0.0538   0.1924  -0.0055  -0.0515  -0.0410   8.00    0.0
2018/11/07 01:33:00.000  -74.407200252  163.437663648    79.8244   6  12   0.0487   0.0491   0.1732  -0.0033  -0.0466  -0.0357   8.00    0.0
2018/11/07 01:33:15.000  -74.407200336  163.437663146    79.7620   6  12   0.0439   0.0444   0.1541   0.0022  -0.0417  -0.0303   8.00    0.0
2018/11/07 01:33:30.000  -74.407200430  163.437663002    79.7733   6  12   0.0392   0.0399   0.1352   0.0040  -0.0369  -0.0248   8.00    0.0
2018/11/07 01:33:45.000  -74.407200461  163.437663056    79.7641   6  12   0.0346   0.0355   0.1166   0.0050  -0.0322  -0.0191   8.00    0.0
2018/11/07 01:34:00.000  -74.407200495  163.437662721    79.7640   6  12   0.0302   0.0314   0.0986   0.0055  -0.0277  -0.0128   8.00    0.0
2018/11/07 01:34:15.000  -74.407200657  163.437663084    79.7775   6  12   0.0260   0.0275   0.0815   0.0058  -0.0236  -0.0043   8.00    0.0
2018/11/07 01:34:30.000  -74.407200704  163.437662976    79.8034   6  12   0.0223   0.0241   0.0660   0.0060  -0.0199   0.0087   8.00    0.0
2018/11/07 01:34:45.000  -74.407201106  163.437663227    79.7930   1  12   0.0227   0.0239   0.0643   0.0026  -0.0146   0.0064   8.00    1.0
2018/11/07 01:35:00.000  -74.407201104  163.437663302    79.8108   1  12   0.0208   0.0221   0.0543   0.0043  -0.0115   0.0099   8.00    1.0
2018/11/07 01:35:15.000  -74.407201146  163.437663291    79.8169   1  12   0.0227   0.0240   0.0644   0.0038  -0.0150   0.0063   8.00    1.0
2018/11/07 01:35:30.000  -74.407201193  163.437662713    79.8029   1  12   0.0260   0.0230   0.0829  -0.0090  -0.0243  -0.0131   8.00    2.0
2018/11/07 01:35:45.000  -74.407201167  163.437662691    79.8022   1  12   0.0313   0.0288   0.1064  -0.0097  -0.0302  -0.0207   8.00    2.0
2018/11/07 01:36:00.000  -74.407201148  163.437662657    79.8031   1  12   0.0378   0.0386   0.1321  -0.0043  -0.0348  -0.0269   8.00    1.0
2018/11/07 01:36:15.000  -74.407200579  163.437662649    79.8337   6  12   0.0344   0.0352   0.1164   0.0056  -0.0328  -0.0194   8.00    0.0
2018/11/07 01:36:30.000  -74.407200530  163.437662434    79.8364   6  12   0.0390   0.0395   0.1350   0.0051  -0.0376  -0.0251   8.00    0.0
2018/11/07 01:36:45.000  -74.407200569  163.437662550    79.8264   6  12   0.0437   0.0440   0.1538   0.0043  -0.0426  -0.0307   8.00    0.0
2018/11/07 01:37:00.000  -74.407200558  163.437662803    79.8178   6  12   0.0485   0.0486   0.1728   0.0031  -0.0477  -0.0361   8.00    0.0
2018/11/07 01:37:15.000  -74.407200602  163.437662690    79.8342   6  12   0.0534   0.0533   0.1919  -0.0011  -0.0530  -0.0414   8.00    0.0
2018/11/07 01:37:30.000  -74.407200648  163.437662873    79.8088   6  12   0.0584   0.0581   0.2111  -0.0036  -0.0582  -0.0466   8.00    0.0
2018/11/07 01:37:45.000  -74.407200653  163.437662591    79.8143   6  12   0.0534   0.0533   0.1917   0.0020  -0.0529  -0.0413   8.00    0.0
2018/11/07 01:38:00.000  -74.407200656  163.437662542    79.7911   6  12   0.0485   0.0486   0.1725   0.0040  -0.0478  -0.0359   8.00    0.0
2018/11/07 01:38:15.000  -74.407200628  163.437662269    79.8078   6  12   0.0436   0.0439   0.1534   0.0051  -0.0428  -0.0305   8.00    0.0
2018/11/07 01:38:30.000  -74.407200662  163.437662088    79.8182   6  12   0.0389   0.0394   0.1346   0.0057  -0.0379  -0.0250   8.00    0.0
2018/11/07 01:38:45.000  -74.407200747  163.437662463    79.8133   6  12   0.0343   0.0351   0.1162   0.0061  -0.0332  -0.0192   8.00    0.0
2018/11/07 01:39:00.000  -74.407201301  163.437661809    79.8148   1  12   0.0376   0.0362   0.1301   0.0076  -0.0316  -0.0282   8.00    2.0
2018/11/07 01:39:15.000  -74.407201223  163.437662005    79.8108   1  12   0.0315   0.0300   0.1048   0.0083  -0.0235  -0.0211   8.00    2.0
2018/11/07 01:39:30.000  -74.407201107  163.437662335    79.7946   1  12   0.0261   0.0245   0.0814   0.0090  -0.0151  -0.0141   8.00    2.0
2018/11/07 01:39:45.000  -74.407201064  163.437662704    79.8095   1  12   0.0223   0.0204   0.0620   0.0092  -0.0039  -0.0070   8.00    2.0
2018/11/07 01:40:00.000  -74.407201067  163.437663102    79.8371   1  12   0.0213   0.0186   0.0530   0.0079   0.0111  -0.0086   8.00    1.0
2018/11/07 01:40:15.000  -74.407201101  163.437662981    79.8418   1  12   0.0232   0.0208   0.0633   0.0079   0.0057  -0.0112   8.00    1.0
2018/11/07 01:40:30.000  -74.407201106  163.437662828    79.8444   1  12   0.0270   0.0251   0.0824   0.0074  -0.0136  -0.0167   8.00    1.0
2018/11/07 01:40:45.000  -74.407201082  163.437662493    79.8399   1  12   0.0322   0.0305   0.1053   0.0070  -0.0228  -0.0230   8.00    1.0
2018/11/07 01:41:00.000  -74.407201037  163.437662880    79.8343   1  12   0.0382   0.0366   0.1301   0.0063  -0.0311  -0.0295   8.00    1.0
2018/11/07 01:41:15.000  -74.407200379  163.437663495    79.8212   6  12   0.0341   0.0347   0.1155   0.0064  -0.0336  -0.0193   7.00    0.0
2018/11/07 01:41:30.000  -74.407200326  163.437663738    79.8111   6  12   0.0387   0.0390   0.1334   0.0062  -0.0384  -0.0250   7.00    0.0
2018/11/07 01:41:45.000  -74.407200263  163.437663936    79.8278   6  12   0.0434   0.0435   0.1516   0.0059  -0.0433  -0.0303   7.00    0.0
2018/11/07 01:42:00.000  -74.407200224  163.437664015    79.8101   6  12   0.0483   0.0481   0.1700   0.0054  -0.0484  -0.0356   7.00    0.0
2018/11/07 01:42:15.000  -74.407200255  163.437663795    79.8142   6  12   0.0532   0.0528   0.1884   0.0049  -0.0535  -0.0407   7.00    0.0
2018/11/07 01:42:30.000  -74.407200301  163.437663942    79.8243   6  12   0.0581   0.0576   0.2069   0.0042  -0.0587  -0.0458   7.00    0.0
2018/11/07 01:42:45.000  -74.407200366  163.437663806    79.8162   6  12   0.0532   0.0528   0.1877   0.0052  -0.0536  -0.0403   7.00    0.0
2018/11/07 01:43:00.000  -74.407200365  163.437663701    79.8120   6  12   0.0483   0.0481   0.1688   0.0058  -0.0485  -0.0351   7.00    0.0
2018/11/07 01:43:15.000  -74.407200476  163.437664203    79.8331   6  12   0.0434   0.0435   0.1503   0.0062  -0.0435  -0.0298   7.00    0.0
2018/11/07 01:43:30.000  -74.407200476  163.437664228    79.8165   6  12   0.0387   0.0390   0.1321   0.0065  -0.0387  -0.0243   7.00    0.0
2018/11/07 01:43:45.000  -74.407200530  163.437663748    79.8460   6  12   0.0341   0.0347   0.1143   0.0067  -0.0340  -0.0187   7.00    0.0
2018/11/07 01:44:00.000  -74.407201021  163.437662762    79.8740   1  12   0.0383   0.0367   0.1283   0.0071  -0.0317  -0.0290   8.00    1.0
2018/11/07 01:44:15.000  -74.407201141  163.437663127    79.8681   1  12   0.0324   0.0307   0.1041   0.0076  -0.0236  -0.0227   8.00    1.0
2018/11/07 01:44:30.000  -74.407201173  163.437663161    79.8796   1  12   0.0272   0.0254   0.0822   0.0080  -0.0151  -0.0168   8.00    1.0
