% program   : RTKLIB ver.2.4.3
% inp file  : _by_type/_obs/shirase/20181113.18o
% inp file  : _by_type/_sp3+clk/igs20272.clk
% inp file  : _by_type/_sp3+clk/igs20272.sp3
% inp file  : _by_type/_nav/shirase/20181113.18n
% obs start : 2018/11/13 00:00:00.0 GPST (week2027 172800.0s)
% obs end   : 2018/11/13 23:59:45.0 GPST (week2027 259185.0s)
% pos mode  : ppp-kinematic
% solution  : combined
% elev mask : 15.0 deg
% dynamics  : off
% tidecorr  : on
% tropo opt : est ztd+grad
% ephemeris : precise
% navi sys  : gps glonass
% antenna1  :                       ( 0.0000  0.0000  0.0000)
%
% (lat/lon/height=WGS84/ellipsoidal,Q=1:fix,2:float,3:sbas,4:dgps,5:single,6:ppp,ns=# of satellites)
%  GPST                  latitude(deg) longitude(deg)  height(m)   Q  ns   sdn(m)   sde(m)   sdu(m)  sdne(m)  sdeu(m)  sdun(m) age(s)  ratio
2018/11/13 00:00:00.000  -74.525929436  163.457851946    26.3993   1  10   0.0225   0.0196   0.0677  -0.0125   0.0218  -0.0199   4.00    1.0
2018/11/13 00:00:15.000  -74.525929373  163.457851355    26.3189   1  10   0.0254   0.0238   0.0841  -0.0150   0.0297  -0.0253   4.00    1.0
2018/11/13 00:00:30.000  -74.525929412  163.457851577    26.3017   1  10   0.0310   0.0309   0.1114  -0.0189   0.0415  -0.0340   4.00    1.0
2018/11/13 00:00:45.000  -74.525929437  163.457851005    26.2554   6  10   0.0379   0.0397   0.1433  -0.0232   0.0547  -0.0439   0.00    0.0
2018/11/13 00:01:00.000  -74.525929416  163.457850999    26.2576   6  11   0.0444   0.0487   0.1699  -0.0282   0.0686  -0.0590   0.00    0.0
2018/11/13 00:01:15.000  -74.525929391  163.457850866    26.2442   6  11   0.0521   0.0581   0.2030  -0.0333   0.0826  -0.0710   0.00    0.0
2018/11/13 00:01:30.000  -74.525929341  163.457850593    26.2040   6  11   0.0600   0.0675   0.2364  -0.0384   0.0965  -0.0830   0.00    0.0
2018/11/13 00:01:45.000  -74.525929411  163.457850920    26.2540   6  11   0.0680   0.0768   0.2696  -0.0435   0.1102  -0.0948   1.00    0.0
2018/11/13 00:02:00.000  -74.525929450  163.457850664    26.2298   6  11   0.0759   0.0860   0.3024  -0.0484   0.1236  -0.1064   1.00    0.0
2018/11/13 00:02:15.000  -74.525929318  163.457850111    26.1555   6  11   0.0837   0.0949   0.3345  -0.0532   0.1365  -0.1176   1.00    0.0
2018/11/13 00:02:30.000  -74.525929210  163.457849789    26.1526   6  11   0.0913   0.1035   0.3656  -0.0577   0.1488  -0.1285   1.00    0.0
2018/11/13 00:02:45.000  -74.525929304  163.457850286    26.2326   6  11   0.0832   0.0946   0.3341  -0.0529   0.1364  -0.1172   3.00    0.0
2018/11/13 00:03:00.000  -74.525929481  163.457850275    26.2533   6  11   0.0752   0.0854   0.3019  -0.0479   0.1232  -0.1057   4.00    0.0
2018/11/13 00:03:15.000  -74.525929645  163.457850692    26.3023   6  11   0.0672   0.0762   0.2695  -0.0429   0.1099  -0.0942   4.00    0.0
2018/11/13 00:03:30.000  -74.525929602  163.457850698    26.2811   6  11   0.0594   0.0669   0.2370  -0.0379   0.0965  -0.0826   5.00    0.0
2018/11/13 00:03:45.000  -74.525929573  163.457850755    26.2714   6  11   0.0516   0.0577   0.2044  -0.0329   0.0830  -0.0711   4.00    0.0
2018/11/13 00:04:00.000  -74.525929587  163.457851610    26.3368   6  11   0.0440   0.0486   0.1722  -0.0280   0.0696  -0.0596   4.00    0.0
2018/11/13 00:04:15.000  -74.525929510  163.457851253    26.3123   6  11   0.0369   0.0398   0.1407  -0.0233   0.0563  -0.0484   5.00    0.0
2018/11/13 00:04:30.000  -74.525929533  163.457851798    26.3441   1  11   0.0308   0.0315   0.1126  -0.0196   0.0443  -0.0386   5.00    1.0
2018/11/13 00:04:45.000  -74.525929520  163.457851773    26.3568   1  11   0.0256   0.0244   0.0865  -0.0157   0.0326  -0.0291   5.00    1.0
2018/11/13 00:05:00.000  -74.525929486  163.457851878    26.3713   1  11   0.0227   0.0202   0.0705  -0.0134   0.0248  -0.0229   5.00    1.0
2018/11/13 00:05:15.000  -74.525929508  163.457851877    26.4010   1  11   0.0257   0.0245   0.0872  -0.0160   0.0329  -0.0296   5.00    1.0
2018/11/13 00:05:30.000  -74.525929506  163.457852041    26.3992   1  11   0.0310   0.0317   0.1140  -0.0199   0.0450  -0.0394   5.00    1.0
2018/11/13 00:05:45.000  -74.525929404  163.457851302    26.3041   6  11   0.0367   0.0393   0.1394  -0.0228   0.0554  -0.0477   5.00    0.0
2018/11/13 00:06:00.000  -74.525929351  163.457851043    26.2798   6  11   0.0433   0.0476   0.1685  -0.0268   0.0673  -0.0574   5.00    0.0
2018/11/13 00:06:15.000  -74.525929379  163.457851254    26.2833   6  11   0.0501   0.0559   0.1973  -0.0307   0.0788  -0.0668   5.00    0.0
2018/11/13 00:06:30.000  -74.525929437  163.457851099    26.2928   6  11   0.0570   0.0641   0.2254  -0.0344   0.0898  -0.0757   5.00    0.0
2018/11/13 00:06:45.000  -74.525929406  163.457850669    26.2645   6  11   0.0638   0.0722   0.2529  -0.0379   0.1004  -0.0844   5.00    0.0
2018/11/13 00:07:00.000  -74.525929376  163.457850624    26.2630   6  11   0.0704   0.0800   0.2797  -0.0414   0.1107  -0.0927   5.00    0.0
2018/11/13 00:07:15.000  -74.525929271  163.457850468    26.2299   6  11   0.0770   0.0876   0.3060  -0.0447   0.1207  -0.1008   5.00    0.0
2018/11/13 00:07:30.000  -74.525929246  163.457850214    26.2037   6  11   0.0834   0.0950   0.3319  -0.0480   0.1305  -0.1089   5.00    0.0
2018/11/13 00:07:45.000  -74.525929240  163.457849992    26.1853   6  11   0.0765   0.0871   0.3048  -0.0443   0.1197  -0.1002   5.00    0.0
2018/11/13 00:08:00.000  -74.525929388  163.457850151    26.2106   6  11   0.0698   0.0793   0.2784  -0.0407   0.1094  -0.0919   4.00    0.0
2018/11/13 00:08:15.000  -74.525929437  163.457850351    26.2471   6  11   0.0630   0.0713   0.2515  -0.0371   0.0989  -0.0833   5.00    0.0
2018/11/13 00:08:30.000  -74.525929429  163.457850492    26.2418   6  11   0.0562   0.0633   0.2240  -0.0335   0.0882  -0.0746   4.00    0.0
2018/11/13 00:08:45.000  -74.525929466  163.457851180    26.3097   6  11   0.0494   0.0551   0.1959  -0.0298   0.0772  -0.0657   4.00    0.0
2018/11/13 00:09:00.000  -74.525929483  163.457851337    26.3361   6  11   0.0427   0.0469   0.1674  -0.0260   0.0658  -0.0565   4.00    0.0
2018/11/13 00:09:15.000  -74.525929573  163.457851456    26.3961   6  11   0.0362   0.0387   0.1389  -0.0222   0.0542  -0.0473   4.00    0.0
2018/11/13 00:09:30.000  -74.525929749  163.457852541    26.4974   1  11   0.0313   0.0318   0.1166  -0.0201   0.0456  -0.0411   5.00    1.0
2018/11/13 00:09:45.000  -74.525929690  163.457852352    26.4645   1  11   0.0262   0.0247   0.0911  -0.0164   0.0343  -0.0321   5.00    1.0
2018/11/13 00:10:00.000  -74.525929516  163.457851880    26.3676   1  11   0.0182   0.0202   0.0755  -0.0111   0.0278  -0.0286   5.00    2.0
2018/11/13 00:10:15.000  -74.525929559  163.457851882    26.3563   1  11   0.0226   0.0245   0.0942  -0.0146   0.0359  -0.0364   4.00    2.0
2018/11/13 00:10:30.000  -74.525929584  163.457851731    26.3536   1  11   0.0297   0.0319   0.1242  -0.0196   0.0483  -0.0479   4.00    2.0
2018/11/13 00:10:45.000  -74.525929540  163.457850938    26.2859   6  11   0.0376   0.0381   0.1409  -0.0220   0.0533  -0.0502   4.00    0.0
2018/11/13 00:11:00.000  -74.525929577  163.457850851    26.2948   6  11   0.0440   0.0456   0.1670  -0.0252   0.0632  -0.0587   4.00    0.0
2018/11/13 00:11:15.000  -74.525929636  163.457850341    26.2789   6  11   0.0505   0.0532   0.1929  -0.0282   0.0730  -0.0669   4.00    0.0
2018/11/13 00:11:30.000  -74.525929595  163.457850252    26.2677   6  11   0.0571   0.0608   0.2187  -0.0313   0.0826  -0.0751   4.00    0.0
2018/11/13 00:11:45.000  -74.525929513  163.457850126    26.2401   6  11   0.0637   0.0682   0.2446  -0.0345   0.0923  -0.0835   4.00    0.0
2018/11/13 00:12:00.000  -74.525929507  163.457849933    26.2326   6  11   0.0704   0.0755   0.2708  -0.0378   0.1020  -0.0922   4.00    0.0
2018/11/13 00:12:15.000  -74.525929395  163.457849499    26.2080   6  11   0.0772   0.0827   0.2975  -0.0413   0.1120  -0.1014   4.00    0.0
2018/11/13 00:12:30.000  -74.525929444  163.457849116    26.1653   6  11   0.0840   0.0899   0.3248  -0.0451   0.1221  -0.1112   4.00    0.0
2018/11/13 00:12:45.000  -74.525929339  163.457848461    26.0828   6  11   0.0803   0.0827   0.3071  -0.0427   0.1135  -0.1096   4.00    0.0
2018/11/13 00:13:00.000  -74.525929339  163.457848341    26.0597   6  11   0.0795   0.0758   0.2992  -0.0421   0.1073  -0.1151   4.00    0.0
2018/11/13 00:13:15.000  -74.525929550  163.457848795    26.1474   6  11   0.0794   0.0711   0.3063  -0.0462   0.1107  -0.1255   3.00    0.0
2018/11/13 00:13:30.000  -74.525929833  163.457849330    26.2767   6  11   0.0598   0.0617   0.2345  -0.0347   0.0885  -0.0850   3.00    0.0
2018/11/13 00:13:45.000  -74.525929813  163.457849157    26.2849   6  11   0.0541   0.0536   0.2086  -0.0308   0.0771  -0.0779   3.00    0.0
2018/11/13 00:14:00.000  -74.525929922  163.457850290    26.3729   6  11   0.0518   0.0462   0.1968  -0.0296   0.0701  -0.0795   3.00    0.0
2018/11/13 00:14:15.000  -74.525929814  163.457850925    26.3627   6  11   0.0358   0.0376   0.1357  -0.0209   0.0517  -0.0460   3.00    0.0
2018/11/13 00:14:30.000  -74.525929777  163.457851218    26.3892   6  11   0.0303   0.0303   0.1101  -0.0175   0.0411  -0.0378   3.00    0.0
2018/11/13 00:14:45.000  -74.525929737  163.457851453    26.3967   6  11   0.0259   0.0241   0.0891  -0.0148   0.0321  -0.0312   3.00    0.0
2018/11/13 00:15:00.000  -74.525929584  163.457851437    26.3645   6  11   0.0236   0.0206   0.0766  -0.0130   0.0262  -0.0268   3.00    0.0
2018/11/13 00:15:15.000  -74.525929559  163.457851299    26.3642   6  11   0.0271   0.0240   0.0941  -0.0152   0.0327  -0.0349   3.00    0.0
2018/11/13 00:15:30.000  -74.525929688  163.457851336    26.3754   6  11   0.0343   0.0300   0.1248  -0.0190   0.0431  -0.0490   3.00    0.0
2018/11/13 00:15:45.000  -74.525929761  163.457851143    26.3756   6  11   0.0396   0.0374   0.1484  -0.0226   0.0537  -0.0562   3.00    0.0
2018/11/13 00:16:00.000  -74.525929961  163.457851326    26.4326   6  11   0.0468   0.0444   0.1754  -0.0255   0.0626  -0.0666   3.00    0.0
2018/11/13 00:16:15.000  -74.525929805  163.457850948    26.3765   6  11   0.0566   0.0518   0.2109  -0.0299   0.0736  -0.0828   3.00    0.0
2018/11/13 00:16:30.000  -74.525929971  163.457850949    26.4408   6  11   0.0544   0.0597   0.2129  -0.0309   0.0817  -0.0706   3.00    0.0
2018/11/13 00:16:45.000  -74.525929909  163.457850354    26.4033   6  11   0.0595   0.0661   0.2309  -0.0323   0.0880  -0.0741   3.00    0.0
2018/11/13 00:17:00.000  -74.525929931  163.457850018    26.3677   6  11   0.0650   0.0727   0.2518  -0.0346   0.0958  -0.0794   3.00    0.0
2018/11/13 00:17:15.000  -74.525929913  163.457850212    26.3835   6  11   0.0706   0.0794   0.2739  -0.0372   0.1042  -0.0857   3.00    0.0
2018/11/13 00:17:30.000  -74.525929852  163.457849935    26.3507   6  11   0.0763   0.0860   0.2965  -0.0401   0.1129  -0.0925   3.00    0.0
2018/11/13 00:17:45.000  -74.525929843  163.457850183    26.3593   6  11   0.0701   0.0790   0.2715  -0.0365   0.1031  -0.0839   3.00    0.0
2018/11/13 00:18:00.000  -74.525929714  163.457850031    26.2734   6  11   0.0639   0.0719   0.2461  -0.0330   0.0931  -0.0756   3.00    0.0
2018/11/13 00:18:15.000  -74.525929750  163.457850239    26.2726   6  11   0.0577   0.0647   0.2208  -0.0296   0.0833  -0.0675   3.00    0.0
2018/11/13 00:18:30.000  -74.525929775  163.457850277    26.2539   6  11   0.0515   0.0575   0.1958  -0.0264   0.0736  -0.0597   3.00    0.0
2018/11/13 00:18:45.000  -74.525929692  163.457850152    26.2081   6  11   0.0454   0.0502   0.1712  -0.0233   0.0641  -0.0522   3.00    0.0
2018/11/13 00:19:00.000  -74.525929799  163.457851134    26.3004   6  11   0.0395   0.0429   0.1471  -0.0205   0.0549  -0.0452   3.00    0.0
2018/11/13 00:19:15.000  -74.525929803  163.457851482    26.3560   6  11   0.0339   0.0357   0.1239  -0.0179   0.0459  -0.0386   3.00    0.0
2018/11/13 00:19:30.000  -74.525930008  163.457852528    26.4758   1  11   0.0303   0.0314   0.1132  -0.0186   0.0438  -0.0378   4.00    1.0
2018/11/13 00:19:45.000  -74.525929745  163.457851517    26.3867   6  11   0.0247   0.0233   0.0837  -0.0135   0.0298  -0.0270   4.00    0.0
2018/11/13 00:20:00.000  -74.525929682  163.457851240    26.3748   6  11   0.0224   0.0202   0.0719  -0.0119   0.0247  -0.0226   4.00    0.0
2018/11/13 00:20:15.000  -74.525929653  163.457851365    26.3963   6  11   0.0246   0.0231   0.0824  -0.0129   0.0289  -0.0262   4.00    0.0
2018/11/13 00:20:30.000  -74.525929643  163.457851674    26.4164   6  11   0.0284   0.0284   0.0986  -0.0146   0.0352  -0.0306   4.00    0.0
2018/11/13 00:20:45.000  -74.525929573  163.457851171    26.3813   6  11   0.0332   0.0347   0.1174  -0.0163   0.0423  -0.0353   4.00    0.0
2018/11/13 00:21:00.000  -74.525929552  163.457851095    26.3795   6  11   0.0385   0.0414   0.1376  -0.0182   0.0499  -0.0403   4.00    0.0
2018/11/13 00:21:15.000  -74.525929510  163.457850680    26.3717   6  11   0.0440   0.0483   0.1588  -0.0205   0.0579  -0.0459   4.00    0.0
2018/11/13 00:21:30.000  -74.525929437  163.457850275    26.3342   6  11   0.0497   0.0551   0.1806  -0.0230   0.0662  -0.0519   4.00    0.0
2018/11/13 00:21:45.000  -74.525929381  163.457850170    26.3447   6  11   0.0554   0.0618   0.2028  -0.0256   0.0747  -0.0583   4.00    0.0
2018/11/13 00:22:00.000  -74.525929335  163.457850030    26.3193   6  11   0.0611   0.0685   0.2250  -0.0285   0.0833  -0.0651   4.00    0.0
2018/11/13 00:22:15.000  -74.525929306  163.457849716    26.2810   6  11   0.0667   0.0750   0.2474  -0.0315   0.0919  -0.0720   4.00    0.0
2018/11/13 00:22:30.000  -74.525929343  163.457849845    26.2961   6  11   0.0723   0.0815   0.2697  -0.0345   0.1006  -0.0791   4.00    0.0
2018/11/13 00:22:45.000  -74.525929370  163.457850452    26.3675   6  11   0.0664   0.0748   0.2459  -0.0312   0.0911  -0.0714   4.00    0.0
2018/11/13 00:23:00.000  -74.525929608  163.457850021    26.3636   6  11   0.0606   0.0680   0.2225  -0.0279   0.0817  -0.0639   4.00    0.0
2018/11/13 00:23:15.000  -74.525929599  163.457849557    26.3124   6  11   0.0548   0.0612   0.1995  -0.0249   0.0727  -0.0568   4.00    0.0
2018/11/13 00:23:30.000  -74.525929665  163.457849577    26.3039   6  11   0.0491   0.0544   0.1771  -0.0220   0.0638  -0.0502   4.00    0.0
2018/11/13 00:23:45.000  -74.525929769  163.457850181    26.3391   6  11   0.0434   0.0475   0.1553  -0.0194   0.0554  -0.0442   4.00    0.0
2018/11/13 00:24:00.000  -74.525929780  163.457850468    26.3392   6  11   0.0380   0.0407   0.1344  -0.0172   0.0473  -0.0387   4.00    0.0
2018/11/13 00:24:15.000  -74.525929704  163.457850691    26.3317   6  11   0.0328   0.0340   0.1148  -0.0152   0.0397  -0.0340   5.00    0.0
2018/11/13 00:24:30.000  -74.525929689  163.457850940    26.3443   6  11   0.0282   0.0277   0.0972  -0.0135   0.0328  -0.0298   5.00    0.0
2018/11/13 00:24:45.000  -74.525929689  163.457851068    26.3402   6  11   0.0243   0.0224   0.0822  -0.0120   0.0268  -0.0258   5.00    0.0
2018/11/13 00:25:00.000  -74.525929682  163.457851011    26.3366   6  11   0.0225   0.0194   0.0726  -0.0108   0.0227  -0.0225   5.00    0.0
2018/11/13 00:25:15.000  -74.525930090  163.457852075    26.5216   1  11   0.0305   0.0230   0.1098  -0.0184   0.0343  -0.0460   3.00    1.0
2018/11/13 00:25:30.000  -74.525929585  163.457850537    26.2566   6  11   0.0311   0.0274   0.1082  -0.0139   0.0327  -0.0391   5.00    0.0
2018/11/13 00:25:45.000  -74.525929723  163.457851159    26.3452   6  10   0.0430   0.0353   0.1606  -0.0224   0.0515  -0.0655   4.00    0.0
2018/11/13 00:26:00.000  -74.525929673  163.457851301    26.3483   6  10   0.0523   0.0426   0.1971  -0.0275   0.0637  -0.0820   4.00    0.0
2018/11/13 00:26:15.000  -74.525929532  163.457850845    26.2899   6  10   0.0619   0.0498   0.2346  -0.0330   0.0763  -0.0990   4.00    0.0
2018/11/13 00:26:30.000  -74.525929376  163.457850188    26.2036   6  10   0.0717   0.0570   0.2725  -0.0385   0.0890  -0.1162   4.00    0.0
2018/11/13 00:26:45.000  -74.525929450  163.457850319    26.2395   6  10   0.0814   0.0641   0.3105  -0.0442   0.1017  -0.1335   4.00    0.0
2018/11/13 00:27:00.000  -74.525929339  163.457849520    26.1852   6  10   0.0912   0.0711   0.3486  -0.0498   0.1144  -0.1508   4.00    0.0
2018/11/13 00:27:15.000  -74.525929310  163.457849584    26.2142   6  10   0.1009   0.0780   0.3864  -0.0555   0.1269  -0.1682   4.00    0.0
2018/11/13 00:27:30.000  -74.525929201  163.457849605    26.1779   6  10   0.1105   0.0848   0.4240  -0.0611   0.1394  -0.1854   4.00    0.0
2018/11/13 00:27:45.000  -74.525929269  163.457850118    26.1857   6  10   0.1007   0.0776   0.3854  -0.0551   0.1258  -0.1676   4.00    0.0
2018/11/13 00:28:00.000  -74.525929321  163.457850370    26.2035   6  10   0.0907   0.0703   0.3458  -0.0489   0.1121  -0.1496   4.00    0.0
2018/11/13 00:28:15.000  -74.525929481  163.457850912    26.2800   6  10   0.0808   0.0631   0.3065  -0.0428   0.0986  -0.1316   4.00    0.0
2018/11/13 00:28:30.000  -74.525929443  163.457850861    26.2247   6  10   0.0709   0.0558   0.2678  -0.0369   0.0852  -0.1140   4.00    0.0
2018/11/13 00:28:45.000  -74.525929488  163.457851126    26.2423   6  10   0.0611   0.0486   0.2298  -0.0312   0.0722  -0.0966   4.00    0.0
2018/11/13 00:29:00.000  -74.525929589  163.457851191    26.2701   6  10   0.0515   0.0413   0.1929  -0.0257   0.0595  -0.0796   4.00    0.0
2018/11/13 00:29:15.000  -74.525929738  163.457851155    26.3182   6  10   0.0422   0.0342   0.1576  -0.0206   0.0474  -0.0632   4.00    0.0
2018/11/13 00:29:30.000  -74.525929655  163.457850686    26.2451   6  10   0.0336   0.0276   0.1249  -0.0161   0.0360  -0.0477   4.00    0.0
2018/11/13 00:29:45.000  -74.525930047  163.457851587    26.4358   1  10   0.0325   0.0223   0.1278  -0.0183   0.0340  -0.0526   2.00    1.0
2018/11/13 00:30:00.000  -74.525929959  163.457851713    26.4211   1   9   0.0271   0.0181   0.0967  -0.0149   0.0242  -0.0394   2.00    1.0
2018/11/13 00:30:15.000  -74.525929873  163.457851120    26.4004   1   9   0.0324   0.0221   0.1258  -0.0181   0.0333  -0.0517   2.00    1.0
2018/11/13 00:30:30.000  -74.525929538  163.457849948    26.2591   6   9   0.0337   0.0273   0.1305  -0.0158   0.0345  -0.0484   3.00    0.0
2018/11/13 00:30:45.000  -74.525929661  163.457850138    26.3867   6   9   0.0424   0.0338   0.1693  -0.0201   0.0447  -0.0651   4.00    0.0
2018/11/13 00:31:00.000  -74.525929557  163.457849951    26.3645   6   9   0.0517   0.0405   0.2103  -0.0247   0.0556  -0.0825   4.00    0.0
2018/11/13 00:31:15.000  -74.525929594  163.457849721    26.3643   6   9   0.0612   0.0473   0.2523  -0.0295   0.0667  -0.1002   4.00    0.0
2018/11/13 00:31:30.000  -74.525929538  163.457849530    26.3139   6   9   0.0708   0.0539   0.2947  -0.0343   0.0779  -0.1181   4.00    0.0
2018/11/13 00:31:45.000  -74.525929676  163.457849537    26.3897   6   9   0.0804   0.0604   0.3372  -0.0392   0.0890  -0.1361   4.00    0.0
2018/11/13 00:32:00.000  -74.525929510  163.457849183    26.2829   6   9   0.0900   0.0669   0.3796  -0.0441   0.1001  -0.1541   4.00    0.0
2018/11/13 00:32:15.000  -74.525929649  163.457848984    26.3881   6   9   0.0995   0.0733   0.4219  -0.0489   0.1110  -0.1720   4.00    0.0
2018/11/13 00:32:30.000  -74.525929663  163.457849245    26.3901   6   9   0.1089   0.0796   0.4640  -0.0536   0.1217  -0.1897   4.00    0.0
2018/11/13 00:32:45.000  -74.525929521  163.457849290    26.2879   6  10   0.0789   0.0726   0.3040  -0.0436   0.0996  -0.1090   4.00    0.0
2018/11/13 00:33:00.000  -74.525929533  163.457849634    26.2917   6  10   0.0699   0.0657   0.2632  -0.0379   0.0866  -0.0912   4.00    0.0
2018/11/13 00:33:15.000  -74.525929603  163.457849914    26.2946   6  10   0.0622   0.0589   0.2302  -0.0330   0.0754  -0.0777   4.00    0.0
2018/11/13 00:33:30.000  -74.525929611  163.457850106    26.2885   6  10   0.0549   0.0522   0.2005  -0.0285   0.0650  -0.0661   4.00    0.0
2018/11/13 00:33:45.000  -74.525929599  163.457850464    26.3252   6  10   0.0479   0.0455   0.1725  -0.0243   0.0550  -0.0556   4.00    0.0
2018/11/13 00:34:00.000  -74.525929664  163.457850396    26.3087   6  10   0.0411   0.0388   0.1458  -0.0203   0.0455  -0.0459   4.00    0.0
2018/11/13 00:34:15.000  -74.525929761  163.457850720    26.3214   6  10   0.0346   0.0323   0.1205  -0.0165   0.0365  -0.0368   4.00    0.0
2018/11/13 00:34:30.000  -74.525930022  163.457851847    26.4246   1  10   0.0334   0.0276   0.1197  -0.0189   0.0359  -0.0443   2.00    1.0
2018/11/13 00:34:45.000  -74.525929965  163.457851870    26.4079   1  10   0.0274   0.0210   0.0932  -0.0150   0.0251  -0.0349   2.00    1.0
2018/11/13 00:35:00.000  -74.525929956  163.457851474    26.3594   1  10   0.0242   0.0172   0.0767  -0.0127   0.0182  -0.0290   2.00    1.0
2018/11/13 00:35:15.000  -74.525929935  163.457851512    26.3353   1  10   0.0278   0.0209   0.0959  -0.0149   0.0248  -0.0364   2.00    1.0
2018/11/13 00:35:30.000  -74.525929871  163.457851664    26.3173   1  10   0.0342   0.0274   0.1256  -0.0187   0.0355  -0.0473   2.00    1.0
2018/11/13 00:35:45.000  -74.525929517  163.457850747    26.1962   6  10   0.0340   0.0316   0.1159  -0.0147   0.0323  -0.0347   4.00    0.0
2018/11/13 00:36:00.000  -74.525929420  163.457850613    26.2127   6  10   0.0402   0.0378   0.1391  -0.0180   0.0401  -0.0426   4.00    0.0
2018/11/13 00:36:15.000  -74.525929404  163.457850787    26.2728   6  10   0.0465   0.0440   0.1632  -0.0215   0.0484  -0.0509   4.00    0.0
2018/11/13 00:36:30.000  -74.525929466  163.457850794    26.3182   6  10   0.0528   0.0502   0.1878  -0.0252   0.0569  -0.0595   4.00    0.0
2018/11/13 00:36:45.000  -74.525929617  163.457850610    26.3153   6  10   0.0592   0.0564   0.2129  -0.0289   0.0655  -0.0683   4.00    0.0
2018/11/13 00:37:00.000  -74.525929596  163.457850564    26.2925   6  10   0.0656   0.0625   0.2382  -0.0327   0.0741  -0.0774   4.00    0.0
2018/11/13 00:37:15.000  -74.525929647  163.457850167    26.2465   6  10   0.0720   0.0685   0.2637  -0.0365   0.0827  -0.0865   4.00    0.0
2018/11/13 00:37:30.000  -74.525929628  163.457850120    26.2468   6  10   0.0784   0.0746   0.2894  -0.0403   0.0912  -0.0957   5.00    0.0
2018/11/13 00:37:45.000  -74.525929575  163.457850441    26.2754   6  10   0.0719   0.0683   0.2642  -0.0361   0.0818  -0.0866   5.00    0.0
2018/11/13 00:38:00.000  -74.525929651  163.457851050    26.3149   6  10   0.0655   0.0621   0.2391  -0.0321   0.0725  -0.0778   5.00    0.0
2018/11/13 00:38:15.000  -74.525929666  163.457851170    26.3433   6  10   0.0592   0.0558   0.2143  -0.0281   0.0633  -0.0691   5.00    0.0
2018/11/13 00:38:30.000  -74.525929734  163.457851283    26.3607   6  10   0.0529   0.0496   0.1900  -0.0241   0.0540  -0.0608   5.00    0.0
2018/11/13 00:38:45.000  -74.525929737  163.457850955    26.3697   6  10   0.0468   0.0433   0.1665  -0.0201   0.0447  -0.0531   5.00    0.0
2018/11/13 00:39:00.000  -74.525929723  163.457851181    26.3601   6  10   0.0409   0.0372   0.1446  -0.0160   0.0352  -0.0464   5.00    0.0
2018/11/13 00:39:15.000  -74.525929719  163.457851414    26.3084   6  10   0.0356   0.0312   0.1263  -0.0113   0.0245  -0.0420   5.00    0.0
2018/11/13 00:39:30.000  -74.525929790  163.457851334    26.2891   6  10   0.0311   0.0255   0.1137  -0.0105   0.0223  -0.0397   4.00    0.0
2018/11/13 00:39:45.000  -74.525930044  163.457851531    26.3831   1  10   0.0263   0.0201   0.0869  -0.0135   0.0207  -0.0306   2.00    1.0
2018/11/13 00:40:00.000  -74.525930004  163.457851132    26.3566   1  10   0.0233   0.0166   0.0700  -0.0116   0.0138  -0.0245   2.00    1.0
2018/11/13 00:40:15.000  -74.525930072  163.457851204    26.4440   1  10   0.0262   0.0199   0.0869  -0.0134   0.0201  -0.0307   2.00    1.0
2018/11/13 00:40:30.000  -74.525930042  163.457851135    26.4534   1  10   0.0322   0.0262   0.1144  -0.0168   0.0300  -0.0403   2.00    1.0
2018/11/13 00:40:45.000  -74.525929751  163.457849839    26.2814   6  10   0.0328   0.0304   0.1099  -0.0134   0.0288  -0.0309   4.00    0.0
2018/11/13 00:41:00.000  -74.525929745  163.457849859    26.2648   6  10   0.0388   0.0363   0.1333  -0.0165   0.0360  -0.0391   4.00    0.0
2018/11/13 00:41:15.000  -74.525929736  163.457849549    26.2427   6  10   0.0449   0.0422   0.1577  -0.0197   0.0435  -0.0478   4.00    0.0
2018/11/13 00:41:30.000  -74.525929695  163.457849906    26.2712   6  10   0.0512   0.0480   0.1827  -0.0230   0.0512  -0.0568   4.00    0.0
2018/11/13 00:41:45.000  -74.525929701  163.457849992    26.2795   6  10   0.0576   0.0539   0.2081  -0.0264   0.0589  -0.0659   4.00    0.0
2018/11/13 00:42:00.000  -74.525929693  163.457850281    26.2875   6  10   0.0639   0.0597   0.2337  -0.0299   0.0665  -0.0750   4.00    0.0
2018/11/13 00:42:15.000  -74.525929746  163.457850716    26.3029   6  10   0.0703   0.0655   0.2594  -0.0333   0.0741  -0.0842   4.00    0.0
2018/11/13 00:42:30.000  -74.525929718  163.457851053    26.3042   6  10   0.0767   0.0712   0.2853  -0.0368   0.0815  -0.0935   4.00    0.0
2018/11/13 00:42:45.000  -74.525929747  163.457851049    26.2948   6  10   0.0703   0.0652   0.2604  -0.0330   0.0730  -0.0842   4.00    0.0
2018/11/13 00:43:00.000  -74.525929756  163.457850801    26.3216   6  10   0.0638   0.0592   0.2344  -0.0292   0.0646  -0.0749   4.00    0.0
2018/11/13 00:43:15.000  -74.525929803  163.457850905    26.4079   6  10   0.0574   0.0533   0.2085  -0.0255   0.0563  -0.0655   4.00    0.0
2018/11/13 00:43:30.000  -74.525929795  163.457850783    26.4792   6  10   0.0510   0.0474   0.1829  -0.0220   0.0482  -0.0563   4.00    0.0
2018/11/13 00:43:45.000  -74.525929877  163.457850922    26.4371   6  10   0.0447   0.0414   0.1575  -0.0185   0.0402  -0.0472   4.00    0.0
2018/11/13 00:44:00.000  -74.525929942  163.457851039    26.3771   6  10   0.0385   0.0356   0.1327  -0.0152   0.0325  -0.0383   5.00    0.0
2018/11/13 00:44:15.000  -74.525929982  163.457851008    26.3459   6  10   0.0325   0.0298   0.1088  -0.0122   0.0252  -0.0296   5.00    0.0
2018/11/13 00:44:30.000  -74.525930163  163.457851588    26.3947   1  10   0.0320   0.0255   0.1140  -0.0155   0.0257  -0.0392   2.00    1.0
2018/11/13 00:44:45.000  -74.525930079  163.457851295    26.3824   1  10   0.0261   0.0194   0.0864  -0.0120   0.0158  -0.0295   2.00    1.0
2018/11/13 00:45:00.000  -74.525929974  163.457850905    26.3233   1  10   0.0232   0.0160   0.0693  -0.0103   0.0084  -0.0239   2.00    1.0
2018/11/13 00:45:15.000  -74.525930057  163.457850968    26.3507   1  10   0.0265   0.0192   0.0890  -0.0117   0.0141  -0.0313   2.00    1.0
2018/11/13 00:45:30.000  -74.525929900  163.457850468    26.2384   6  10   0.0271   0.0242   0.0873  -0.0081   0.0160  -0.0231   5.00    0.0
2018/11/13 00:45:45.000  -74.525929897  163.457850274    26.2893   6  10   0.0328   0.0295   0.1105  -0.0102   0.0214  -0.0321   5.00    0.0
2018/11/13 00:46:00.000  -74.525929840  163.457850167    26.3145   6  10   0.0389   0.0351   0.1352  -0.0128   0.0275  -0.0414   5.00    0.0
2018/11/13 00:46:15.000  -74.525929852  163.457850179    26.3965   6  10   0.0452   0.0407   0.1610  -0.0155   0.0337  -0.0511   5.00    0.0
2018/11/13 00:46:30.000  -74.525929840  163.457849937    26.4080   6  10   0.0518   0.0463   0.1877  -0.0182   0.0398  -0.0612   5.00    0.0
2018/11/13 00:46:45.000  -74.525929774  163.457849841    26.3769   6  10   0.0585   0.0519   0.2155  -0.0208   0.0455  -0.0719   5.00    0.0
2018/11/13 00:47:00.000  -74.525929603  163.457849622    26.2508   6  10   0.0657   0.0576   0.2454  -0.0231   0.0503  -0.0838   5.00    0.0
2018/11/13 00:47:15.000  -74.525929535  163.457849769    26.2337   6  10   0.0741   0.0635   0.2813  -0.0241   0.0522  -0.0997   5.00    0.0
2018/11/13 00:47:30.000  -74.525929554  163.457849721    26.2294   6  10   0.0797   0.0682   0.3083  -0.0311   0.0660  -0.1076   4.00    0.0
2018/11/13 00:47:45.000  -74.525929597  163.457849791    26.2237   6  10   0.0715   0.0625   0.2704  -0.0283   0.0601  -0.0915   4.00    0.0
2018/11/13 00:48:00.000  -74.525929630  163.457849736    26.1703   6  10   0.0643   0.0568   0.2394  -0.0251   0.0534  -0.0792   4.00    0.0
2018/11/13 00:48:15.000  -74.525929621  163.457849469    26.1805   6  10   0.0574   0.0511   0.2108  -0.0220   0.0466  -0.0682   4.00    0.0
2018/11/13 00:48:30.000  -74.525929641  163.457849452    26.1151   6  10   0.0508   0.0455   0.1833  -0.0189   0.0399  -0.0578   4.00    0.0
2018/11/13 00:48:45.000  -74.525929626  163.457849190    26.0783   6  10   0.0444   0.0399   0.1567  -0.0159   0.0332  -0.0479   4.00    0.0
2018/11/13 00:49:00.000  -74.525929658  163.457849594    26.0893   6  10   0.0381   0.0343   0.1309  -0.0130   0.0268  -0.0382   4.00    0.0
2018/11/13 00:49:15.000  -74.525929961  163.457850394    26.2413   1  10   0.0381   0.0309   0.1380  -0.0165   0.0316  -0.0469   3.00    2.0
2018/11/13 00:49:30.000  -74.525929940  163.457850252    26.2468   1  10   0.0307   0.0234   0.1052  -0.0126   0.0232  -0.0358   3.00    2.0
2018/11/13 00:49:45.000  -74.525929933  163.457850029    26.2671   1  10   0.0249   0.0198   0.0808  -0.0080   0.0227  -0.0251   3.00    1.0
2018/11/13 00:50:00.000  -74.525929958  163.457850199    26.2772   1  10   0.0219   0.0167   0.0644  -0.0061   0.0201  -0.0191   3.00    1.0
2018/11/13 00:50:15.000  -74.525929973  163.457850104    26.2693   1  10   0.0248   0.0198   0.0802  -0.0078   0.0223  -0.0248   3.00    1.0
2018/11/13 00:50:30.000  -74.525929962  163.457850353    26.2852   1  10   0.0307   0.0253   0.1070  -0.0111   0.0270  -0.0343   3.00    1.0
2018/11/13 00:50:45.000  -74.525929948  163.457850379    26.2737   1  10   0.0380   0.0321   0.1384  -0.0149   0.0331  -0.0452   3.00    1.0
2018/11/13 00:51:00.000  -74.525929624  163.457850192    26.1872   6  10   0.0372   0.0336   0.1251  -0.0117   0.0241  -0.0351   5.00    0.0
2018/11/13 00:51:15.000  -74.525929590  163.457850411    26.2337   6  10   0.0431   0.0389   0.1491  -0.0142   0.0293  -0.0438   5.00    0.0
2018/11/13 00:51:30.000  -74.525929581  163.457850616    26.2456   6  10   0.0492   0.0442   0.1734  -0.0168   0.0345  -0.0525   5.00    0.0
2018/11/13 00:51:45.000  -74.525929521  163.457850708    26.2503   6  10   0.0554   0.0496   0.1980  -0.0195   0.0396  -0.0612   5.00    0.0
2018/11/13 00:52:00.000  -74.525929503  163.457850519    26.2626   6  10   0.0616   0.0549   0.2226  -0.0222   0.0446  -0.0699   5.00    0.0
2018/11/13 00:52:15.000  -74.525929503  163.457850389    26.2377   6  10   0.0678   0.0603   0.2473  -0.0249   0.0494  -0.0785   5.00    0.0
2018/11/13 00:52:30.000  -74.525929434  163.457849693    26.1826   6  10   0.0741   0.0657   0.2719  -0.0276   0.0540  -0.0870   5.00    0.0
2018/11/13 00:52:45.000  -74.525929493  163.457849176    26.1890   6  10   0.0679   0.0603   0.2472  -0.0248   0.0485  -0.0784   5.00    0.0
2018/11/13 00:53:00.000  -74.525929525  163.457849291    26.2344   6  10   0.0616   0.0548   0.2219  -0.0218   0.0424  -0.0694   5.00    0.0
2018/11/13 00:53:15.000  -74.525929544  163.457849371    26.2268   6  10   0.0553   0.0494   0.1967  -0.0188   0.0365  -0.0605   5.00    0.0
2018/11/13 00:53:30.000  -74.525929515  163.457849119    26.1957   6  10   0.0491   0.0440   0.1717  -0.0159   0.0308  -0.0516   5.00    0.0
2018/11/13 00:53:45.000  -74.525929587  163.457849354    26.1861   6  11   0.0383   0.0377   0.1292  -0.0034   0.0069  -0.0214   5.00    0.0
2018/11/13 00:54:00.000  -74.525929848  163.457849468    26.1993   1  11   0.0383   0.0375   0.1355  -0.0044   0.0091  -0.0214   4.00    1.0
2018/11/13 00:54:15.000  -74.525929898  163.457849562    26.2073   1  11   0.0321   0.0306   0.1108  -0.0034   0.0122  -0.0183   4.00    1.0
2018/11/13 00:54:30.000  -74.525929903  163.457849673    26.2050   1  11   0.0265   0.0242   0.0877  -0.0016   0.0142  -0.0152   4.00    1.0
2018/11/13 00:54:45.000  -74.525929926  163.457849760    26.2096   1  11   0.0222   0.0192   0.0681   0.0019   0.0153  -0.0123   4.00    1.0
2018/11/13 00:55:00.000  -74.525929914  163.457849970    26.2264   1  11   0.0201   0.0161   0.0559   0.0032   0.0155  -0.0102   4.00    1.0
2018/11/13 00:55:15.000  -74.525929866  163.457849976    26.2276   1  11   0.0222   0.0192   0.0678   0.0027   0.0148  -0.0119   4.00    1.0
2018/11/13 00:55:30.000  -74.525929826  163.457850416    26.2430   1  11   0.0263   0.0222   0.0848  -0.0054  -0.0057  -0.0169   4.00    2.0
2018/11/13 00:55:45.000  -74.525929849  163.457850120    26.2478   1  11   0.0318   0.0289   0.1087  -0.0057  -0.0107  -0.0198   4.00    2.0
2018/11/13 00:56:00.000  -74.525929841  163.457849964    26.2357   1  11   0.0381   0.0361   0.1343  -0.0061  -0.0154  -0.0232   4.00    2.0
2018/11/13 00:56:15.000  -74.525929555  163.457849704    26.1593   6  11   0.0366   0.0368   0.1184   0.0073  -0.0167   0.0055   5.00    0.0
2018/11/13 00:56:30.000  -74.525929439  163.457849757    26.1422   6  11   0.0413   0.0417   0.1371   0.0082  -0.0197  -0.0080   5.00    0.0
2018/11/13 00:56:45.000  -74.525929451  163.457849940    26.1358   6  11   0.0461   0.0467   0.1562   0.0088  -0.0227  -0.0137   5.00    0.0
2018/11/13 00:57:00.000  -74.525929631  163.457850221    26.1412   6  12   0.0499   0.0498   0.1693  -0.0079  -0.0365  -0.0288   5.00    0.0
2018/11/13 00:57:15.000  -74.525929655  163.457850506    26.1687   6  12   0.0546   0.0544   0.1860  -0.0099  -0.0426  -0.0346   5.00    0.0
2018/11/13 00:57:30.000  -74.525929676  163.457850512    26.2148   6  12   0.0595   0.0591   0.2039  -0.0116  -0.0479  -0.0399   5.00    0.0
2018/11/13 00:57:45.000  -74.525929637  163.457850505    26.2646   6  12   0.0545   0.0542   0.1855  -0.0099  -0.0439  -0.0351   6.00    0.0
2018/11/13 00:58:00.000  -74.525929586  163.457850547    26.3102   6  12   0.0496   0.0493   0.1674  -0.0083  -0.0398  -0.0305   6.00    0.0
2018/11/13 00:58:15.000  -74.525929638  163.457850226    26.2814   6  12   0.0448   0.0445   0.1493  -0.0068  -0.0356  -0.0258   6.00    0.0
2018/11/13 00:58:30.000  -74.525929705  163.457850268    26.2915   6  12   0.0401   0.0398   0.1313  -0.0054  -0.0314  -0.0209   6.00    0.0
2018/11/13 00:58:45.000  -74.525929741  163.457850225    26.2550   6  12   0.0355   0.0350   0.1136  -0.0042  -0.0272  -0.0157   6.00    0.0
2018/11/13 00:59:00.000  -74.525930079  163.457850053    26.2431   1  12   0.0373   0.0354   0.1298  -0.0084  -0.0264  -0.0285   4.00    1.0
2018/11/13 00:59:15.000  -74.525929788  163.457849935    26.1730   1  12   0.0259   0.0243   0.0778  -0.0034  -0.0189  -0.0082   6.00    1.0
2018/11/13 00:59:30.000  -74.525929831  163.457850148    26.1600   1  12   0.0219   0.0194   0.0618  -0.0030  -0.0145  -0.0026   6.00    1.0
2018/11/13 00:59:45.000  -74.525929758  163.457850216    26.1574   1  12   0.0186   0.0147   0.0479  -0.0026  -0.0102   0.0042   6.00    1.0
2018/11/13 01:00:00.000  -74.525929926  163.457850133    26.2105   1  12   0.0197   0.0127   0.0490  -0.0042  -0.0066  -0.0121   4.00    2.0
2018/11/13 01:00:15.000  -74.525929610  163.457849900    26.1427   1  12   0.0186   0.0148   0.0478  -0.0022  -0.0103   0.0049   6.00    1.0
2018/11/13 01:00:30.000  -74.525929557  163.457849782    26.1590   1  12   0.0217   0.0192   0.0615  -0.0023  -0.0146  -0.0022   6.00    1.0
2018/11/13 01:00:45.000  -74.525929489  163.457849760    26.1753   1  12   0.0257   0.0240   0.0777  -0.0022  -0.0192  -0.0084   6.00    1.0
2018/11/13 01:01:00.000  -74.525929796  163.457849883    26.1961   1  12   0.0371   0.0341   0.1298  -0.0093  -0.0306  -0.0297   5.00    2.0
2018/11/13 01:01:15.000  -74.525929388  163.457849282    26.1432   6  12   0.0352   0.0345   0.1141  -0.0024  -0.0283  -0.0168   6.00    1.0
2018/11/13 01:01:30.000  -74.525929311  163.457849079    26.1515   6  12   0.0398   0.0391   0.1325  -0.0037  -0.0331  -0.0224   6.00    1.0
2018/11/13 01:01:45.000  -74.525929264  163.457849082    26.1805   6  12   0.0445   0.0438   0.1513  -0.0051  -0.0380  -0.0278   6.00    1.0
2018/11/13 01:02:00.000  -74.525929235  163.457849125    26.1727   6  12   0.0493   0.0486   0.1703  -0.0066  -0.0429  -0.0331   6.00    1.0
2018/11/13 01:02:15.000  -74.525929231  163.457849012    26.1174   6  12   0.0541   0.0534   0.1895  -0.0081  -0.0479  -0.0383   6.00    1.0
2018/11/13 01:02:30.000  -74.525929221  163.457848984    26.1335   6  12   0.0590   0.0583   0.2088  -0.0095  -0.0530  -0.0435   6.00    1.0
2018/11/13 01:02:45.000  -74.525929378  163.457849207    26.1209   6  12   0.0542   0.0534   0.1897  -0.0078  -0.0483  -0.0387   7.00    1.0
2018/11/13 01:03:00.000  -74.525929510  163.457849307    26.1608   6  12   0.0494   0.0485   0.1709  -0.0060  -0.0435  -0.0336   7.00    1.0
2018/11/13 01:03:15.000  -74.525929521  163.457849189    26.1890   6  12   0.0446   0.0438   0.1521  -0.0042  -0.0388  -0.0285   7.00    1.0
2018/11/13 01:03:30.000  -74.525929509  163.457849358    26.1694   6  12   0.0398   0.0390   0.1334  -0.0022  -0.0341  -0.0232   7.00    1.0
2018/11/13 01:03:45.000  -74.525929542  163.457849466    26.1925   6  12   0.0352   0.0344   0.1149   0.0016  -0.0294  -0.0176   7.00    0.0
2018/11/13 01:04:00.000  -74.525929928  163.457849681    26.2196   1  12   0.0374   0.0353   0.1318  -0.0065  -0.0299  -0.0293   5.00    1.0
2018/11/13 01:04:15.000  -74.525929948  163.457850191    26.2218   1  12   0.0313   0.0289   0.1065  -0.0038  -0.0222  -0.0230   5.00    1.0
2018/11/13 01:04:30.000  -74.525929956  163.457850087    26.2096   1  12   0.0259   0.0230   0.0829   0.0019  -0.0141  -0.0169   5.00    1.0
2018/11/13 01:04:45.000  -74.525929933  163.457849786    26.1965   1  12   0.0218   0.0183   0.0630   0.0040  -0.0019  -0.0115   5.00    1.0
2018/11/13 01:05:00.000  -74.525929983  163.457849625    26.1732   1  12   0.0199   0.0156   0.0513   0.0047   0.0090  -0.0080   5.00    1.0
2018/11/13 01:05:15.000  -74.525930147  163.457850130    26.1634   1  12   0.0206   0.0181   0.0627   0.0060  -0.0012  -0.0121   5.00    2.0
2018/11/13 01:05:30.000  -74.525930141  163.457850178    26.1259   1  12   0.0249   0.0228   0.0827   0.0050  -0.0144  -0.0173   5.00    2.0
2018/11/13 01:05:45.000  -74.525930061  163.457849845    26.1267   1  12   0.0304   0.0288   0.1066   0.0032  -0.0229  -0.0233   5.00    2.0
2018/11/13 01:06:00.000  -74.525930095  163.457849739    26.1131   1  12   0.0366   0.0352   0.1323  -0.0036  -0.0309  -0.0297   5.00    2.0
2018/11/13 01:06:15.000  -74.525929517  163.457849484    26.0986   6  12   0.0350   0.0339   0.1154   0.0035  -0.0300  -0.0183   7.00    0.0
2018/11/13 01:06:30.000  -74.525929496  163.457849637    26.1143   6  12   0.0396   0.0385   0.1343   0.0029  -0.0351  -0.0241   7.00    0.0
2018/11/13 01:06:45.000  -74.525929468  163.457849351    26.1459   6  12   0.0443   0.0432   0.1535   0.0008  -0.0402  -0.0296   7.00    0.0
2018/11/13 01:07:00.000  -74.525929422  163.457849579    26.2070   6  12   0.0491   0.0480   0.1729  -0.0033  -0.0454  -0.0350   7.00    0.0
2018/11/13 01:07:15.000  -74.525929315  163.457849386    26.2546   6  12   0.0540   0.0528   0.1924  -0.0051  -0.0506  -0.0403   7.00    0.0
2018/11/13 01:07:30.000  -74.525929295  163.457849509    26.2684   6  12   0.0589   0.0577   0.2119  -0.0066  -0.0559  -0.0455   7.00    0.0
2018/11/13 01:07:45.000  -74.525929304  163.457849504    26.2533   6  12   0.0540   0.0529   0.1929  -0.0037  -0.0507  -0.0404   7.00    0.0
2018/11/13 01:08:00.000  -74.525929342  163.457849749    26.2356   6  12   0.0491   0.0480   0.1735   0.0016  -0.0457  -0.0352   7.00    0.0
2018/11/13 01:08:15.000  -74.525929374  163.457849570    26.2220   6  12   0.0443   0.0433   0.1542   0.0038  -0.0406  -0.0299   7.00    0.0
2018/11/13 01:08:30.000  -74.525929427  163.457849581    26.1438   6  12   0.0395   0.0385   0.1350   0.0046  -0.0356  -0.0245   7.00    0.0
2018/11/13 01:08:45.000  -74.525929494  163.457849814    26.0855   6  12   0.0349   0.0339   0.1161   0.0050  -0.0307  -0.0188   7.00    0.0
2018/11/13 01:09:00.000  -74.525930042  163.457849811    26.1101   1  12   0.0366   0.0354   0.1332   0.0030  -0.0320  -0.0300   6.00    2.0
2018/11/13 01:09:15.000  -74.525929999  163.457850214    26.1090   1  12   0.0301   0.0275   0.1062  -0.0025  -0.0270  -0.0247   6.00    3.0
2018/11/13 01:09:30.000  -74.525929702  163.457850278    26.0375   1  12   0.0207   0.0189   0.0614   0.0048  -0.0165  -0.0052   8.00    1.0
2018/11/13 01:09:45.000  -74.525929750  163.457849985    26.0643   1  12   0.0173   0.0146   0.0469   0.0044  -0.0123   0.0033   8.00    1.0
2018/11/13 01:10:00.000  -74.525930095  163.457849811    26.1350   1  12   0.0181   0.0127   0.0483   0.0043  -0.0098  -0.0115   6.00    3.0
2018/11/13 01:10:15.000  -74.525930147  163.457849971    26.1275   1  12   0.0200   0.0162   0.0608   0.0044  -0.0140  -0.0139   6.00    3.0
2018/11/13 01:10:30.000  -74.525930145  163.457849878    26.1235   1  12   0.0245   0.0212   0.0817   0.0032  -0.0204  -0.0187   6.00    3.0
2018/11/13 01:10:45.000  -74.525930131  163.457849742    26.1342   1  12   0.0301   0.0275   0.1061   0.0003  -0.0274  -0.0245   6.00    3.0
2018/11/13 01:11:00.000  -74.525930198  163.457849485    26.1100   1  12   0.0365   0.0342   0.1321  -0.0035  -0.0347  -0.0308   6.00    3.0
2018/11/13 01:11:15.000  -74.525929700  163.457849676    26.0653   6  12   0.0347   0.0335   0.1158   0.0055  -0.0311  -0.0192   7.00    0.0
2018/11/13 01:11:30.000  -74.525929741  163.457849356    26.0573   6  12   0.0393   0.0381   0.1347   0.0055  -0.0363  -0.0249   7.00    0.0
2018/11/13 01:11:45.000  -74.525929746  163.457849028    26.0688   6  12   0.0440   0.0428   0.1538   0.0052  -0.0415  -0.0304   7.00    0.0
2018/11/13 01:12:00.000  -74.525929679  163.457848855    26.0292   6  12   0.0488   0.0476   0.1731   0.0046  -0.0468  -0.0358   7.00    0.0
2018/11/13 01:12:15.000  -74.525929642  163.457848962    26.0189   6  12   0.0537   0.0524   0.1924   0.0035  -0.0521  -0.0410   7.00    0.0
2018/11/13 01:12:30.000  -74.525929659  163.457849607    26.0271   6  12   0.0587   0.0573   0.2118   0.0016  -0.0575  -0.0462   7.00    0.0
2018/11/13 01:12:45.000  -74.525929692  163.457849752    26.0398   6  12   0.0538   0.0524   0.1922   0.0038  -0.0525  -0.0410   7.00    0.0
2018/11/13 01:13:00.000  -74.525929659  163.457850059    26.0362   6  12   0.0489   0.0476   0.1727   0.0049  -0.0472  -0.0357   7.00    0.0
2018/11/13 01:13:15.000  -74.525929669  163.457850203    26.0407   6  12   0.0440   0.0428   0.1533   0.0056  -0.0420  -0.0304   7.00    0.0
2018/11/13 01:13:30.000  -74.525929708  163.457850261    26.0364   6  12   0.0393   0.0380   0.1342   0.0059  -0.0369  -0.0248   7.00    0.0
2018/11/13 01:13:45.000  -74.525929750  163.457850439    26.0282   6  12   0.0347   0.0334   0.1153   0.0060  -0.0318  -0.0191   8.00    0.0
2018/11/13 01:14:00.000  -74.525930220  163.457850141    26.1025   1  12   0.0366   0.0343   0.1313   0.0003  -0.0358  -0.0308   7.00    3.0
2018/11/13 01:14:15.000  -74.525930256  163.457849734    26.1139   1  12   0.0302   0.0276   0.1055   0.0034  -0.0287  -0.0245   7.00    3.0
2018/11/13 01:14:30.000  -74.525930201  163.457849679    26.1153   1  12   0.0246   0.0214   0.0814   0.0045  -0.0219  -0.0186   7.00    3.0
2018/11/13 01:14:45.000  -74.525930147  163.457849829    26.1016   1  12   0.0202   0.0163   0.0610   0.0050  -0.0157  -0.0139   7.00    3.0
2018/11/13 01:15:00.000  -74.525930062  163.457849706    26.1300   1  12   0.0182   0.0163   0.0510   0.0076   0.0026  -0.0094   7.00    2.0
2018/11/13 01:15:15.000  -74.525930006  163.457849679    26.1362   1  12   0.0204   0.0188   0.0627   0.0076  -0.0108  -0.0120   7.00    2.0
2018/11/13 01:15:30.000  -74.525929935  163.457849818    26.1418   1  12   0.0249   0.0234   0.0827   0.0073  -0.0189  -0.0172   7.00    2.0
2018/11/13 01:15:45.000  -74.525929900  163.457849790    26.1432   1  12   0.0305   0.0292   0.1061   0.0068  -0.0266  -0.0233   7.00    2.0
2018/11/13 01:16:00.000  -74.525929909  163.457849764    26.1328   1  12   0.0367   0.0356   0.1313   0.0062  -0.0343  -0.0298   7.00    2.0
2018/11/13 01:16:15.000  -74.525929308  163.457849898    26.0831   6  12   0.0345   0.0331   0.1143   0.0062  -0.0321  -0.0191   7.00    0.0
2018/11/13 01:16:30.000  -74.525929292  163.457850172    26.0910   6  12   0.0391   0.0376   0.1326   0.0063  -0.0372  -0.0247   7.00    0.0
2018/11/13 01:16:45.000  -74.525929332  163.457850139    26.1094   6  12   0.0438   0.0423   0.1512   0.0062  -0.0424  -0.0301   7.00    0.0
2018/11/13 01:17:00.000  -74.525929362  163.457849892    26.1202   6  12   0.0486   0.0471   0.1699   0.0060  -0.0477  -0.0353   7.00    0.0
2018/11/13 01:17:15.000  -74.525929318  163.457850074    26.1032   6  12   0.0535   0.0519   0.1886   0.0057  -0.0530  -0.0403   7.00    0.0
2018/11/13 01:17:30.000  -74.525929258  163.457849731    26.0929   6  12   0.0585   0.0568   0.2073   0.0052  -0.0583  -0.0453   7.00    0.0
2018/11/13 01:17:45.000  -74.525929207  163.457849514    26.1122   6  12   0.0537   0.0520   0.1885   0.0057  -0.0529  -0.0406   7.00    0.0
2018/11/13 01:18:00.000  -74.525929270  163.457849264    26.1086   6  12   0.0488   0.0472   0.1694   0.0061  -0.0477  -0.0354   7.00    0.0
2018/11/13 01:18:15.000  -74.525929302  163.457849248    26.1309   6  12   0.0440   0.0424   0.1505   0.0064  -0.0424  -0.0301   7.00    0.0
2018/11/13 01:18:30.000  -74.525929417  163.457848783    26.1643   6  12   0.0393   0.0377   0.1318   0.0065  -0.0373  -0.0247   7.00    0.0
2018/11/13 01:18:45.000  -74.525929514  163.457849059    26.1552   6  12   0.0347   0.0331   0.1135   0.0065  -0.0323  -0.0191   7.00    0.0
2018/11/13 01:19:00.000  -74.525930161  163.457849139    26.1957   1  12   0.0371   0.0359   0.1306   0.0071  -0.0351  -0.0302   5.00    1.0
2018/11/13 01:19:15.000  -74.525930206  163.457849136    26.2120   1  12   0.0308   0.0297   0.1060   0.0077  -0.0277  -0.0240   5.00    1.0
2018/11/13 01:19:30.000  -74.525930277  163.457849331    26.1890   1  12   0.0252   0.0241   0.0834   0.0080  -0.0207  -0.0182   5.00    1.0
2018/11/13 01:19:45.000  -74.525930184  163.457849329    26.1550   1  12   0.0208   0.0195   0.0644   0.0083  -0.0139  -0.0134   5.00    1.0
2018/11/13 01:20:00.000  -74.525930022  163.457849671    26.1346   1  12   0.0185   0.0173   0.0532   0.0084  -0.0088  -0.0109   4.00    1.0
2018/11/13 01:20:15.000  -74.525929906  163.457849887    26.1518   1  12   0.0209   0.0196   0.0648   0.0082  -0.0145  -0.0135   2.00    1.0
2018/11/13 01:20:30.000  -74.525929416  163.457849918    26.0779   6  12   0.0225   0.0207   0.0638   0.0054  -0.0189   0.0091   6.00    0.0
2018/11/13 01:20:45.000  -74.525929423  163.457849710    26.1036   6  12   0.0261   0.0244   0.0788   0.0058  -0.0231  -0.0041   6.00    0.0
2018/11/13 01:21:00.000  -74.525929405  163.457849548    26.1043   6  12   0.0302   0.0285   0.0951   0.0063  -0.0277  -0.0127   6.00    0.0
2018/11/13 01:21:15.000  -74.525929443  163.457849533    26.1005   6  12   0.0345   0.0328   0.1121   0.0065  -0.0325  -0.0187   6.00    0.0
2018/11/13 01:21:30.000  -74.525929471  163.457849710    26.0909   6  12   0.0391   0.0374   0.1295   0.0067  -0.0374  -0.0241   6.00    0.0
2018/11/13 01:21:45.000  -74.525929521  163.457849569    26.0884   6  12   0.0438   0.0420   0.1471   0.0068  -0.0425  -0.0292   6.00    0.0
2018/11/13 01:22:00.000  -74.525929557  163.457849834    26.0696   6  12   0.0486   0.0468   0.1648   0.0067  -0.0476  -0.0342   6.00    0.0
2018/11/13 01:22:15.000  -74.525929544  163.457849713    26.0906   6  12   0.0535   0.0516   0.1826   0.0067  -0.0527  -0.0390   6.00    0.0
2018/11/13 01:22:30.000  -74.525929538  163.457849885    26.0496   6  12   0.0585   0.0565   0.2004   0.0065  -0.0579  -0.0437   6.00    0.0
2018/11/13 01:22:45.000  -74.525929500  163.457849728    26.0932   6  12   0.0535   0.0517   0.1820   0.0069  -0.0528  -0.0388   6.00    0.0
2018/11/13 01:23:00.000  -74.525929515  163.457849493    26.1071   6  12   0.0486   0.0469   0.1637   0.0071  -0.0476  -0.0338   6.00    0.0
2018/11/13 01:23:15.000  -74.525929458  163.457849490    26.1364   6  12   0.0438   0.0421   0.1456   0.0071  -0.0425  -0.0287   6.00    0.0
2018/11/13 01:23:30.000  -74.525929527  163.457849072    26.1274   6  12   0.0391   0.0374   0.1279   0.0071  -0.0375  -0.0234   6.00    0.0
2018/11/13 01:23:45.000  -74.525929575  163.457849362    26.0874   6  12   0.0345   0.0329   0.1107   0.0069  -0.0327  -0.0180   6.00    0.0
2018/11/13 01:24:00.000  -74.525930192  163.457848828    26.0607   1  12   0.0366   0.0361   0.1276   0.0072  -0.0359  -0.0298   8.00    3.0
2018/11/13 01:24:15.000  -74.525930252  163.457848785    26.0737   1  12   0.0303   0.0300   0.1047   0.0075  -0.0290  -0.0242   7.00    3.0
2018/11/13 01:24:30.000  -74.525930201  163.457849130    26.0796   1  12   0.0246   0.0244   0.0838   0.0074  -0.0225  -0.0190   7.00    3.0
2018/11/13 01:24:45.000  -74.525930217  163.457849086    26.0853   1  12   0.0198   0.0176   0.0647   0.0069  -0.0200  -0.0157   8.00    4.0
2018/11/13 01:25:00.000  -74.525930154  163.457849379    26.1009   1  12   0.0175   0.0146   0.0540   0.0072  -0.0163  -0.0139   8.00    4.0
2018/11/13 01:25:15.000  -74.525930065  163.457849816    26.0911   1  12   0.0202   0.0183   0.0674   0.0071  -0.0218  -0.0156   8.00    3.0
2018/11/13 01:25:30.000  -74.525929961  163.457849987    26.0772   1  12   0.0242   0.0229   0.0875   0.0033  -0.0289  -0.0197   8.00    4.0
2018/11/13 01:25:45.000  -74.525929959  163.457850182    26.0354   1  12   0.0304   0.0293   0.1097   0.0029  -0.0356  -0.0235   8.00    4.0
2018/11/13 01:26:00.000  -74.525929939  163.457850421    26.0121   1  12   0.0373   0.0359   0.1329   0.0028  -0.0423  -0.0278   8.00    4.0
2018/11/13 01:26:15.000  -74.525929279  163.457850110    26.0178   6  12   0.0351   0.0332   0.1119   0.0071  -0.0343  -0.0150   6.00    0.0
2018/11/13 01:26:30.000  -74.525929203  163.457849674    26.0357   6  12   0.0397   0.0377   0.1282   0.0075  -0.0389  -0.0200   6.00    0.0
2018/11/13 01:26:45.000  -74.525929237  163.457849599    26.0480   6  12   0.0445   0.0423   0.1448   0.0079  -0.0435  -0.0245   6.00    0.0
2018/11/13 01:27:00.000  -74.525929280  163.457849625    26.0368   6  12   0.0495   0.0471   0.1616   0.0085  -0.0482  -0.0285   6.00    0.0
2018/11/13 01:27:15.000  -74.525929296  163.457849701    26.0189   6  12   0.0548   0.0519   0.1787   0.0095  -0.0527  -0.0317   6.00    0.0
2018/11/13 01:27:30.000  -74.525929266  163.457849633    26.0244   6  12   0.0608   0.0569   0.1969   0.0119  -0.0567  -0.0322   6.00    0.0
2018/11/13 01:27:45.000  -74.525929321  163.457849487    26.0273   6  11   0.0579   0.0523   0.1839   0.0140  -0.0508  -0.0150   6.00    0.0
2018/11/13 01:28:00.000  -74.525929322  163.457849718    26.0615   6  11   0.0526   0.0475   0.1664   0.0127  -0.0466  -0.0101   6.00    0.0
2018/11/13 01:28:15.000  -74.525929426  163.457849712    26.0500   6  11   0.0474   0.0429   0.1494   0.0114  -0.0427   0.0028   6.00    0.0
2018/11/13 01:28:30.000  -74.525929366  163.457850026    26.0903   6  11   0.0423   0.0384   0.1331   0.0099  -0.0392   0.0104   6.00    0.0
2018/11/13 01:28:45.000  -74.525929390  163.457850070    26.0840   6  11   0.0374   0.0343   0.1180   0.0080  -0.0365   0.0144   6.00    0.0
2018/11/13 01:29:00.000  -74.525929380  163.457850125    26.0659   6  11   0.0330   0.0308   0.1058   0.0041  -0.0355   0.0187   6.00    0.0
2018/11/13 01:29:15.000  -74.525930127  163.457849808    26.1145   1  10   0.0340   0.0342   0.1334  -0.0087  -0.0499   0.0081   7.00    4.0
2018/11/13 01:29:30.000  -74.525930176  163.457849665    26.1221   1  10   0.0271   0.0269   0.1093  -0.0008  -0.0411  -0.0162   7.00    4.0
2018/11/13 01:29:45.000  -74.525930260  163.457849461    26.1215   1  10   0.0220   0.0211   0.0921   0.0081  -0.0347  -0.0239   7.00    4.0
2018/11/13 01:30:00.000  -74.525930191  163.457849475    26.0776   1   9   0.0182   0.0161   0.0700   0.0062  -0.0255  -0.0203   7.00    4.0
2018/11/13 01:30:15.000  -74.525930255  163.457849520    26.0611   1   9   0.0220   0.0211   0.0926   0.0080  -0.0350  -0.0240   7.00    4.0
2018/11/13 01:30:30.000  -74.525930222  163.457849573    26.0688   1   9   0.0291   0.0293   0.1278   0.0111  -0.0496  -0.0311   7.00    4.0
2018/11/13 01:30:45.000  -74.525929514  163.457849639    26.0446   6   9   0.0312   0.0313   0.1232   0.0125  -0.0485  -0.0226   5.00    0.0
2018/11/13 01:31:00.000  -74.525929485  163.457849452    26.0541   6   9   0.0370   0.0378   0.1526   0.0152  -0.0606  -0.0304   5.00    0.0
2018/11/13 01:31:15.000  -74.525929433  163.457849885    26.0184   6   9   0.0433   0.0447   0.1831   0.0180  -0.0731  -0.0381   5.00    0.0
2018/11/13 01:31:30.000  -74.525929340  163.457850169    25.9950   6   9   0.0498   0.0519   0.2142   0.0209  -0.0859  -0.0458   5.00    0.0
2018/11/13 01:31:45.000  -74.525929327  163.457850098    26.0550   6   9   0.0565   0.0592   0.2457   0.0238  -0.0989  -0.0536   5.00    0.0
2018/11/13 01:32:00.000  -74.525929540  163.457849623    26.0809   6   9   0.0633   0.0666   0.2775   0.0269  -0.1120  -0.0613   5.00    0.0
2018/11/13 01:32:15.000  -74.525929499  163.457849738    26.1062   6   9   0.0702   0.0741   0.3095   0.0300  -0.1252  -0.0690   5.00    0.0
2018/11/13 01:32:30.000  -74.525929538  163.457849729    26.1399   6   9   0.0771   0.0816   0.3416   0.0331  -0.1385  -0.0767   6.00    0.0
2018/11/13 01:32:45.000  -74.525929488  163.457849975    26.1821   6   9   0.0702   0.0744   0.3103   0.0303  -0.1259  -0.0696   6.00    0.0
2018/11/13 01:33:00.000  -74.525929519  163.457849619    26.2213   6   9   0.0634   0.0672   0.2790   0.0275  -0.1133  -0.0622   6.00    0.0
2018/11/13 01:33:15.000  -74.525929527  163.457849417    26.1741   6   9   0.0566   0.0599   0.2478   0.0247  -0.1006  -0.0547   6.00    0.0
2018/11/13 01:33:30.000  -74.525929488  163.457849276    26.1169   6   9   0.0500   0.0528   0.2167   0.0219  -0.0880  -0.0472   6.00    0.0
2018/11/13 01:33:45.000  -74.525929442  163.457849373    26.0329   6   9   0.0435   0.0457   0.1860   0.0190  -0.0754  -0.0397   6.00    0.0
2018/11/13 01:34:00.000  -74.525929430  163.457849448    25.9904   6   9   0.0372   0.0388   0.1558   0.0163  -0.0629  -0.0323   6.00    0.0
2018/11/13 01:34:15.000  -74.525929433  163.457849434    26.0013   6   9   0.0313   0.0322   0.1267   0.0136  -0.0508  -0.0248   6.00    0.0
2018/11/13 01:34:30.000  -74.525930113  163.457849443    26.0251   1   9   0.0300   0.0303   0.1337   0.0125  -0.0523  -0.0349   7.00    3.0
2018/11/13 01:34:45.000  -74.525930077  163.457849749    26.0084   1   9   0.0230   0.0219   0.0989   0.0091  -0.0374  -0.0281   7.00    3.0
2018/11/13 01:35:00.000  -74.525930222  163.457849194    26.0702   1   9   0.0192   0.0170   0.0770   0.0074  -0.0277  -0.0242   7.00    3.0
2018/11/13 01:35:15.000  -74.525930168  163.457850296    26.0760   1   9   0.0232   0.0219   0.0999   0.0094  -0.0376  -0.0287   7.00    3.0
2018/11/13 01:35:30.000  -74.525930104  163.457850398    26.0195   1   9   0.0303   0.0305   0.1355   0.0129  -0.0529  -0.0362   7.00    3.0
2018/11/13 01:35:45.000  -74.525929696  163.457850239    25.9922   6   9   0.0314   0.0324   0.1280   0.0140  -0.0515  -0.0259   6.00    0.0
2018/11/13 01:36:00.000  -74.525929660  163.457850244    26.0000   6   9   0.0373   0.0392   0.1573   0.0169  -0.0640  -0.0335   6.00    0.0
2018/11/13 01:36:15.000  -74.525929729  163.457850037    25.9919   6   9   0.0436   0.0464   0.1878   0.0199  -0.0770  -0.0410   6.00    0.0
2018/11/13 01:36:30.000  -74.525929727  163.457850159    26.0005   6   9   0.0501   0.0537   0.2188   0.0230  -0.0902  -0.0487   6.00    0.0
2018/11/13 01:36:45.000  -74.525929639  163.457850250    25.9925   6   9   0.0568   0.0613   0.2503   0.0262  -0.1036  -0.0563   6.00    0.0
2018/11/13 01:37:00.000  -74.525929524  163.457851126    25.9122   6   9   0.0637   0.0689   0.2819   0.0295  -0.1170  -0.0639   6.00    0.0
2018/11/13 01:37:15.000  -74.525929604  163.457850514    25.9568   6   9   0.0706   0.0766   0.3137   0.0328  -0.1306  -0.0716   6.00    0.0
2018/11/13 01:37:30.000  -74.525929638  163.457850757    25.9563   6   9   0.0775   0.0844   0.3455   0.0362  -0.1442  -0.0792   6.00    0.0
2018/11/13 01:37:45.000  -74.525929613  163.457850980    25.9336   6   9   0.0707   0.0770   0.3140   0.0330  -0.1310  -0.0718   6.00    0.0
2018/11/13 01:38:00.000  -74.525929592  163.457850777    25.9462   6   9   0.0638   0.0694   0.2822   0.0299  -0.1177  -0.0643   6.00    0.0
2018/11/13 01:38:15.000  -74.525929643  163.457850197    25.9528   6   9   0.0570   0.0618   0.2506   0.0268  -0.1045  -0.0568   6.00    0.0
2018/11/13 01:38:30.000  -74.525929688  163.457850200    25.9592   6   9   0.0504   0.0544   0.2194   0.0237  -0.0913  -0.0493   6.00    0.0
2018/11/13 01:38:45.000  -74.525929900  163.457849181    26.0529   6   9   0.0438   0.0470   0.1886   0.0207  -0.0782  -0.0420   6.00    0.0
2018/11/13 01:39:00.000  -74.525929943  163.457848626    26.0878   6   9   0.0376   0.0399   0.1588   0.0177  -0.0654  -0.0349   6.00    0.0
2018/11/13 01:39:15.000  -74.525929878  163.457848846    26.0391   6   9   0.0317   0.0330   0.1303   0.0149  -0.0530  -0.0280   6.00    0.0
2018/11/13 01:39:30.000  -74.525930407  163.457848719    26.0657   1   9   0.0312   0.0313   0.1413   0.0145  -0.0553  -0.0399   6.00    3.0
2018/11/13 01:39:45.000  -74.525930356  163.457848627    26.0904   1   9   0.0242   0.0227   0.1084   0.0112  -0.0404  -0.0334   6.00    3.0
2018/11/13 01:40:00.000  -74.525929771  163.457848644    26.0215   1   9   0.0163   0.0136   0.0609   0.0083  -0.0208  -0.0199   6.00    1.0
2018/11/13 01:40:15.000  -74.525929636  163.457848937    25.9540   1   9   0.0194   0.0173   0.0777   0.0101  -0.0280  -0.0238   6.00    1.0
2018/11/13 01:40:30.000  -74.525928628  163.457850020    25.9354   1   9   0.0412   0.0375   0.1391   0.0261  -0.0515  -0.0333   6.00    1.0
2018/11/13 01:40:45.000  -74.525929471  163.457850168    25.9389   6   9   0.0327   0.0332   0.1372   0.0160  -0.0544  -0.0342   6.00    1.0
2018/11/13 01:41:00.000  -74.525929558  163.457849292    26.0687   6   9   0.0391   0.0402   0.1684   0.0194  -0.0674  -0.0434   6.00    1.0
2018/11/13 01:41:15.000  -74.525929587  163.457849028    26.1193   6   9   0.0461   0.0476   0.2018   0.0230  -0.0811  -0.0535   6.00    1.0
2018/11/13 01:41:30.000  -74.525929706  163.457848646    26.1363   6   9   0.0537   0.0552   0.2382   0.0271  -0.0954  -0.0653   6.00    1.0
2018/11/13 01:41:45.000  -74.525929659  163.457848992    26.0587   6   9   0.0624   0.0632   0.2809   0.0321  -0.1112  -0.0810   6.00    1.0
2018/11/13 01:42:00.000  -74.525930005  163.457848756    26.2621   6   8   0.0868   0.0746   0.4195   0.0497  -0.1484  -0.1503   5.00    1.0
2018/11/13 01:42:15.000  -74.525929880  163.457848711    26.2480   6   8   0.0971   0.0832   0.4700   0.0559  -0.1663  -0.1692   5.00    1.0
2018/11/13 01:42:30.000  -74.525929607  163.457849157    26.0906   6   8   0.1074   0.0918   0.5210   0.0622  -0.1844  -0.1884   4.00    0.0
2018/11/13 01:42:45.000  -74.525929531  163.457849407    26.0373   6   8   0.0980   0.0835   0.4739   0.0570  -0.1678  -0.1716   4.00    0.0
2018/11/13 01:43:00.000  -74.525929454  163.457849983    25.9833   6   9   0.0646   0.0683   0.2900   0.0274  -0.1138  -0.0708   4.00    0.0
2018/11/13 01:43:15.000  -74.525929348  163.457850010    25.9221   6   9   0.0566   0.0606   0.2508   0.0234  -0.0994  -0.0571   4.00    0.0
2018/11/13 01:43:30.000  -74.525929375  163.457849515    25.9624   6   9   0.0495   0.0532   0.2171   0.0205  -0.0864  -0.0474   5.00    1.0
2018/11/13 01:43:45.000  -74.525929381  163.457849516    25.9459   6   9   0.0429   0.0460   0.1860   0.0180  -0.0741  -0.0395   5.00    1.0
2018/11/13 01:44:00.000  -74.525929480  163.457848957    25.9840   6   9   0.0367   0.0391   0.1568   0.0158  -0.0622  -0.0327   5.00    1.0
2018/11/13 01:44:15.000  -74.525929413  163.457849445    25.9620   6   9   0.0309   0.0325   0.1292   0.0138  -0.0509  -0.0266   5.00    1.0
2018/11/13 01:44:30.000  -74.525929968  163.457849375    25.9528   1   9   0.0281   0.0301   0.1281   0.0102  -0.0497  -0.0282   6.00    3.0
