% program   : RTKLIB ver.2.4.3
% inp file  : _by_type/_obs/tuati/20181107.18o
% inp file  : _by_type/_sp3+clk/igs20263.clk
% inp file  : _by_type/_sp3+clk/igs20263.sp3
% inp file  : _by_type/_nav/tuati/20181107.18n
% obs start : 2018/11/07 00:00:00.0 GPST (week2026 259200.0s)
% obs end   : 2018/11/07 23:59:30.0 GPST (week2026 345570.0s)
% pos mode  : ppp-kinematic
% solution  : combined
% elev mask : 15.0 deg
% dynamics  : off
% tidecorr  : on
% tropo opt : est ztd+grad
% ephemeris : precise
% navi sys  : gps glonass
% antenna1  :                       ( 0.0000  0.0000  0.0000)
%
% (lat/lon/height=WGS84/ellipsoidal,Q=1:fix,2:float,3:sbas,4:dgps,5:single,6:ppp,ns=# of satellites)
%  GPST                  latitude(deg) longitude(deg)  height(m)   Q  ns   sdn(m)   sde(m)   sdu(m)  sdne(m)  sdeu(m)  sdun(m) age(s)  ratio
2018/11/07 00:00:00.000  -74.425537282  163.418478038    64.7773   6   9   0.0383   0.0376   0.1091   0.0134  -0.0134  -0.0280   0.00    0.0
2018/11/07 00:00:30.000  -74.425537416  163.418478683    64.7665   6   9   0.0519   0.0468   0.1579   0.0218  -0.0257  -0.0612   0.00    0.0
2018/11/07 00:01:00.000  -74.425537433  163.418478216    64.7547   6   9   0.0778   0.0646   0.2513   0.0349  -0.0451  -0.1110   0.00    0.0
2018/11/07 00:01:30.000  -74.425537507  163.418477346    64.8083   6   9   0.0857   0.0833   0.2833   0.0207   0.0622  -0.1095   0.00    0.0
2018/11/07 00:02:00.000  -74.425537566  163.418477898    64.8780   6   9   0.1037   0.0899   0.3192   0.0246   0.0214  -0.1293   0.00    0.0
2018/11/07 00:02:30.000  -74.425537617  163.418477443    64.8722   6   9   0.1214   0.1065   0.3765   0.0212   0.0441  -0.1501   0.00    0.0
2018/11/07 00:03:00.000  -74.425537524  163.418477641    64.7859   6   9   0.1095   0.0904   0.3415   0.0326  -0.0295  -0.1451   0.00    0.0
2018/11/07 00:03:30.000  -74.425537655  163.418478194    64.7981   6   9   0.0920   0.0739   0.3167   0.0319  -0.0516  -0.1361   1.00    0.0
2018/11/07 00:04:00.000  -74.425537597  163.418478158    64.7951   6   9   0.0567   0.0551   0.1757  -0.0099   0.0383  -0.0550   2.00    0.0
2018/11/07 00:04:30.000  -74.425537564  163.418477843    64.8250   6   9   0.0421   0.0426   0.1338  -0.0068   0.0282  -0.0356   2.00    0.0
2018/11/07 00:05:00.000  -74.425537496  163.418478184    64.8426   6   9   0.0368   0.0373   0.1136   0.0029   0.0239  -0.0261   2.00    0.0
2018/11/07 00:05:30.000  -74.425537399  163.418478309    64.8233   6   9   0.0437   0.0449   0.1462  -0.0103   0.0381  -0.0426   2.00    0.0
2018/11/07 00:06:00.000  -74.425537340  163.418477733    64.8172   6   9   0.0560   0.0612   0.2068  -0.0234   0.0669  -0.0655   2.00    0.0
2018/11/07 00:06:30.000  -74.425537416  163.418476554    64.7895   6   9   0.0706   0.0795   0.2732  -0.0349   0.0942  -0.0886   2.00    0.0
2018/11/07 00:07:00.000  -74.425537424  163.418475594    64.7868   6   9   0.0844   0.0905   0.3110  -0.0381   0.0961  -0.1005   2.00    0.0
2018/11/07 00:07:30.000  -74.425537561  163.418475649    64.8185   6   9   0.0995   0.1072   0.3728  -0.0471   0.1174  -0.1211   2.00    0.0
2018/11/07 00:08:00.000  -74.425537405  163.418475155    64.7385   6   9   0.0867   0.0987   0.3477  -0.0471   0.1241  -0.1148   3.00    0.0
2018/11/07 00:08:30.000  -74.425537517  163.418475988    64.7946   6   9   0.0722   0.0809   0.2849  -0.0368   0.1005  -0.0943   3.00    0.0
2018/11/07 00:09:00.000  -74.425537605  163.418476837    64.8524   6   9   0.0585   0.0550   0.1923  -0.0142   0.0444  -0.0651   3.00    0.0
2018/11/07 00:09:30.000  -74.425537567  163.418477413    64.8461   6   9   0.0430   0.0424   0.1464  -0.0126   0.0344  -0.0428   2.00    0.0
2018/11/07 00:10:00.000  -74.425537560  163.418477880    64.8129   6   9   0.0377   0.0369   0.1265  -0.0097   0.0289  -0.0332   3.00    0.0
2018/11/07 00:10:30.000  -74.425537493  163.418477664    64.8602   6   9   0.0447   0.0443   0.1634  -0.0153   0.0378  -0.0480   3.00    0.0
2018/11/07 00:11:00.000  -74.425537587  163.418477867    64.8836   6   9   0.0571   0.0580   0.2238  -0.0240   0.0531  -0.0645   2.00    0.0
2018/11/07 00:11:30.000  -74.425537521  163.418477291    64.8057   6   9   0.0718   0.0741   0.2532  -0.0344   0.0693  -0.0862   0.00    0.0
2018/11/07 00:12:00.000  -74.425537418  163.418475492    64.7016   6  10   0.0863   0.0907   0.2753  -0.0524   0.1055  -0.0923   0.00    0.0
2018/11/07 00:12:30.000  -74.425537285  163.418474485    64.6544   6  10   0.0933   0.0981   0.3194  -0.0475   0.1145  -0.0964   0.00    0.0
2018/11/07 00:13:00.000  -74.425537472  163.418475201    64.6960   6  10   0.0803   0.0833   0.2738  -0.0390   0.0957  -0.0841   1.00    0.0
2018/11/07 00:13:30.000  -74.425537537  163.418476002    64.6944   6  10   0.0687   0.0690   0.2323  -0.0303   0.0765  -0.0758   1.00    0.0
2018/11/07 00:14:00.000  -74.425537669  163.418476434    64.7403   6  10   0.0520   0.0552   0.1725  -0.0244   0.0610  -0.0485   2.00    0.0
2018/11/07 00:14:30.000  -74.425537676  163.418476996    64.7320   6  10   0.0419   0.0442   0.1336  -0.0178   0.0456  -0.0364   3.00    0.0
2018/11/07 00:15:00.000  -74.425537638  163.418477449    64.7673   6  10   0.0376   0.0395   0.1147  -0.0159   0.0392  -0.0310   3.00    0.0
2018/11/07 00:15:30.000  -74.425537397  163.418476975    64.7166   6  10   0.0445   0.0499   0.1519  -0.0258   0.0611  -0.0485   3.00    0.0
2018/11/07 00:16:00.000  -74.425537221  163.418475058    64.6257   6  10   0.0558   0.0650   0.2035  -0.0361   0.0859  -0.0665   2.00    0.0
2018/11/07 00:16:30.000  -74.425537228  163.418473973    64.5874   6  10   0.0680   0.0797   0.2542  -0.0443   0.1071  -0.0810   2.00    0.0
2018/11/07 00:17:00.000  -74.425537234  163.418473408    64.6036   6  10   0.0803   0.0941   0.3042  -0.0513   0.1265  -0.0938   2.00    0.0
2018/11/07 00:17:30.000  -74.425537145  163.418472376    64.5462   6  10   0.0926   0.1084   0.3550  -0.0582   0.1461  -0.1068   2.00    0.0
2018/11/07 00:18:00.000  -74.425537140  163.418473046    64.5601   6  10   0.0829   0.1023   0.3396  -0.0587   0.1483  -0.1079   3.00    0.0
2018/11/07 00:18:30.000  -74.425537431  163.418475893    64.7803   6  10   0.0684   0.0731   0.2298  -0.0408   0.0875  -0.0698   3.00    0.0
2018/11/07 00:19:00.000  -74.425537583  163.418477386    64.8011   6  10   0.0513   0.0543   0.1798  -0.0236   0.0631  -0.0499   2.00    0.0
2018/11/07 00:19:30.000  -74.425537680  163.418477523    64.7824   6  10   0.0414   0.0425   0.1387  -0.0159   0.0454  -0.0372   2.00    0.0
2018/11/07 00:20:00.000  -74.425537674  163.418477456    64.7860   6  10   0.0368   0.0369   0.1190  -0.0118   0.0371  -0.0306   2.00    0.0
2018/11/07 00:20:30.000  -74.425537586  163.418477036    64.7497   6  10   0.0417   0.0431   0.1431  -0.0168   0.0481  -0.0392   2.00    0.0
2018/11/07 00:21:00.000  -74.425537640  163.418476886    64.7346   6  10   0.0509   0.0544   0.1821  -0.0233   0.0645  -0.0496   2.00    0.0
2018/11/07 00:21:30.000  -74.425537544  163.418476212    64.7045   6  10   0.0621   0.0675   0.2265  -0.0299   0.0819  -0.0604   2.00    0.0
2018/11/07 00:22:00.000  -74.425537400  163.418475052    64.6787   6  10   0.0739   0.0811   0.2729  -0.0365   0.0997  -0.0718   2.00    0.0
2018/11/07 00:22:30.000  -74.425537098  163.418474016    64.5864   6  10   0.0860   0.0946   0.3206  -0.0433   0.1179  -0.0842   2.00    0.0
2018/11/07 00:23:00.000  -74.425537235  163.418474146    64.5242   6  10   0.0738   0.0809   0.2754  -0.0366   0.1007  -0.0727   2.00    0.0
2018/11/07 00:23:30.000  -74.425537364  163.418474786    64.5547   6  10   0.0619   0.0675   0.2305  -0.0301   0.0837  -0.0618   2.00    0.0
2018/11/07 00:24:00.000  -74.425537698  163.418475838    64.6818   6  10   0.0508   0.0547   0.1874  -0.0238   0.0672  -0.0515   2.00    0.0
2018/11/07 00:24:30.000  -74.425537680  163.418476628    64.7171   6  10   0.0419   0.0440   0.1512  -0.0181   0.0529  -0.0426   2.00    0.0
2018/11/07 00:25:00.000  -74.425537681  163.418476879    64.7433   6  10   0.0377   0.0390   0.1332  -0.0153   0.0461  -0.0373   2.00    0.0
2018/11/07 00:25:30.000  -74.425537642  163.418476231    64.6584   6  10   0.0419   0.0445   0.1532  -0.0185   0.0545  -0.0427   2.00    0.0
2018/11/07 00:26:00.000  -74.425537313  163.418474921    64.5344   6  11   0.0493   0.0549   0.1808  -0.0235   0.0680  -0.0551   2.00    0.0
2018/11/07 00:26:30.000  -74.425537241  163.418474554    64.5128   6  11   0.0593   0.0672   0.2200  -0.0292   0.0842  -0.0672   2.00    0.0
2018/11/07 00:27:00.000  -74.425537244  163.418474047    64.5389   6  11   0.0702   0.0803   0.2635  -0.0356   0.1020  -0.0810   2.00    0.0
2018/11/07 00:27:30.000  -74.425537500  163.418473318    64.6324   6  11   0.0816   0.0937   0.3098  -0.0427   0.1208  -0.0963   2.00    0.0
2018/11/07 00:28:00.000  -74.425537484  163.418472980    64.5823   6  11   0.0702   0.0805   0.2655  -0.0357   0.1026  -0.0811   2.00    0.0
2018/11/07 00:28:30.000  -74.425537506  163.418473579    64.5771   6  11   0.0592   0.0674   0.2231  -0.0292   0.0853  -0.0675   2.00    0.0
2018/11/07 00:29:00.000  -74.425537529  163.418473784    64.5137   6  11   0.0492   0.0552   0.1846  -0.0235   0.0696  -0.0556   2.00    0.0
2018/11/07 00:29:30.000  -74.425537593  163.418474631    64.5516   6  11   0.0414   0.0454   0.1543  -0.0190   0.0572  -0.0459   2.00    0.0
2018/11/07 00:30:00.000  -74.425537674  163.418476172    64.6723   6  11   0.0377   0.0406   0.1384  -0.0163   0.0506  -0.0388   2.00    0.0
2018/11/07 00:30:30.000  -74.425537516  163.418476288    64.6936   6  11   0.0416   0.0460   0.1561  -0.0189   0.0565  -0.0402   2.00    0.0
2018/11/07 00:31:00.000  -74.425537442  163.418475054    64.6526   6  11   0.0506   0.0564   0.1937  -0.0246   0.0669  -0.0424   2.00    0.0
2018/11/07 00:31:30.000  -74.425537568  163.418474421    64.6604   6  11   0.0594   0.0688   0.2226  -0.0312   0.0820  -0.0633   0.00    0.0
2018/11/07 00:32:00.000  -74.425537719  163.418472879    64.6899   6  11   0.0704   0.0818   0.2691  -0.0382   0.0990  -0.0765   0.00    0.0
2018/11/07 00:32:30.000  -74.425537455  163.418472066    64.6416   6  11   0.0819   0.0951   0.3183  -0.0457   0.1174  -0.0915   0.00    0.0
2018/11/07 00:33:00.000  -74.425537695  163.418473664    64.6584   6  11   0.0690   0.0799   0.2654  -0.0350   0.1033  -0.0813   0.00    0.0
2018/11/07 00:33:30.000  -74.425537611  163.418474740    64.7263   6  11   0.0581   0.0673   0.2207  -0.0284   0.0862  -0.0676   0.00    0.0
2018/11/07 00:34:00.000  -74.425537501  163.418474899    64.7094   6  11   0.0483   0.0560   0.1815  -0.0231   0.0717  -0.0565   0.00    0.0
2018/11/07 00:34:30.000  -74.425537545  163.418475117    64.6444   6  11   0.0411   0.0480   0.1544  -0.0204   0.0632  -0.0501   0.00    0.0
2018/11/07 00:35:00.000  -74.425537631  163.418476166    64.6954   6  11   0.0370   0.0376   0.1214  -0.0123   0.0420  -0.0402   3.00    0.0
2018/11/07 00:35:30.000  -74.425537438  163.418475089    64.6664   6  11   0.0411   0.0436   0.1389  -0.0159   0.0493  -0.0454   4.00    0.0
2018/11/07 00:36:00.000  -74.425537444  163.418473939    64.6274   6  11   0.0489   0.0545   0.1729  -0.0217   0.0632  -0.0543   5.00    0.0
2018/11/07 00:36:30.000  -74.425537336  163.418473717    64.6028   6  11   0.0586   0.0672   0.2148  -0.0283   0.0800  -0.0660   5.00    0.0
2018/11/07 00:37:00.000  -74.425537338  163.418473579    64.6315   6  11   0.0692   0.0805   0.2606  -0.0355   0.0984  -0.0798   5.00    0.0
2018/11/07 00:37:30.000  -74.425537333  163.418472907    64.5700   6  11   0.0804   0.0941   0.3082  -0.0432   0.1175  -0.0950   6.00    0.0
2018/11/07 00:38:00.000  -74.425537305  163.418472755    64.5701   6  11   0.0701   0.0846   0.2605  -0.0382   0.0962  -0.0779   6.00    0.0
2018/11/07 00:38:30.000  -74.425537477  163.418473415    64.5645   6  11   0.0582   0.0703   0.2148  -0.0288   0.0803  -0.0664   5.00    0.0
2018/11/07 00:39:00.000  -74.425537562  163.418474337    64.5930   6  11   0.0487   0.0564   0.1737  -0.0218   0.0631  -0.0548   5.00    0.0
2018/11/07 00:39:30.000  -74.425537655  163.418475141    64.6388   6  11   0.0416   0.0448   0.1417  -0.0167   0.0494  -0.0464   5.00    0.0
2018/11/07 00:40:00.000  -74.425537648  163.418475845    64.6774   6  11   0.0378   0.0380   0.1262  -0.0122   0.0438  -0.0431   5.00    0.0
2018/11/07 00:40:30.000  -74.425537348  163.418475456    64.6118   6  11   0.0429   0.0437   0.1450  -0.0149   0.0501  -0.0489   4.00    0.0
2018/11/07 00:41:00.000  -74.425537319  163.418475334    64.6077   6  11   0.0516   0.0546   0.1798  -0.0199   0.0632  -0.0573   4.00    0.0
2018/11/07 00:41:30.000  -74.425537520  163.418475187    64.6862   6  11   0.0618   0.0677   0.2215  -0.0258   0.0793  -0.0674   4.00    0.0
2018/11/07 00:42:00.000  -74.425537754  163.418474589    64.7099   6  11   0.0702   0.0825   0.2616  -0.0324   0.0965  -0.0849   5.00    0.0
2018/11/07 00:42:30.000  -74.425537691  163.418474736    64.7493   6  11   0.0805   0.0965   0.3060  -0.0424   0.1159  -0.0987   5.00    0.0
2018/11/07 00:43:00.000  -74.425537665  163.418475123    64.7342   6  11   0.0702   0.0802   0.2625  -0.0356   0.0995  -0.0863   4.00    0.0
2018/11/07 00:43:30.000  -74.425537466  163.418474487    64.6256   6  11   0.0608   0.0695   0.2221  -0.0304   0.0822  -0.0757   4.00    0.0
2018/11/07 00:44:00.000  -74.425537511  163.418475857    64.5851   6  11   0.0529   0.0528   0.1906  -0.0232   0.0673  -0.0699   4.00    0.0
2018/11/07 00:44:30.000  -74.425537648  163.418475598    64.6289   6  11   0.0475   0.0443   0.1693  -0.0223   0.0599  -0.0672   4.00    0.0
2018/11/07 00:45:00.000  -74.425537689  163.418475478    64.6481   6  11   0.0409   0.0394   0.1392  -0.0178   0.0501  -0.0534   4.00    0.0
2018/11/07 00:45:30.000  -74.425537768  163.418475399    64.6286   6  11   0.0456   0.0448   0.1603  -0.0212   0.0578  -0.0616   3.00    0.0
2018/11/07 00:46:00.000  -74.425537768  163.418474993    64.6608   6  11   0.0546   0.0549   0.1979  -0.0267   0.0711  -0.0748   4.00    0.0
2018/11/07 00:46:30.000  -74.425537519  163.418473859    64.5762   6  11   0.0668   0.0669   0.2482  -0.0338   0.0880  -0.0945   4.00    0.0
2018/11/07 00:47:00.000  -74.425537490  163.418473626    64.5620   6  11   0.0769   0.0813   0.2926  -0.0431   0.1093  -0.1085   4.00    0.0
2018/11/07 00:47:30.000  -74.425537550  163.418473641    64.6517   6  11   0.0844   0.0954   0.3217  -0.0474   0.1210  -0.1131   5.00    0.0
2018/11/07 00:48:00.000  -74.425537803  163.418475329    64.6979   6  11   0.0730   0.0780   0.2748  -0.0389   0.1036  -0.0972   5.00    0.0
2018/11/07 00:48:30.000  -74.425537577  163.418474583    64.5312   6  11   0.0624   0.0651   0.2306  -0.0318   0.0855  -0.0827   5.00    0.0
2018/11/07 00:49:00.000  -74.425537604  163.418475131    64.5428   6  11   0.0534   0.0540   0.1920  -0.0263   0.0699  -0.0712   5.00    0.0
2018/11/07 00:49:30.000  -74.425537639  163.418475578    64.5771   6  11   0.0466   0.0457   0.1618  -0.0225   0.0578  -0.0626   5.00    0.0
2018/11/07 00:50:00.000  -74.425537722  163.418475479    64.6201   6  11   0.0418   0.0384   0.1460  -0.0163   0.0490  -0.0581   4.00    0.0
2018/11/07 00:50:30.000  -74.425537887  163.418474334    64.5831   6  10   0.0514   0.0458   0.1897  -0.0246   0.0650  -0.0787   4.00    0.0
2018/11/07 00:51:00.000  -74.425537709  163.418472922    64.4640   6  10   0.0674   0.0587   0.2568  -0.0355   0.0885  -0.1094   4.00    0.0
2018/11/07 00:51:30.000  -74.425537623  163.418473267    64.4871   6  10   0.0878   0.0736   0.3384  -0.0486   0.1170  -0.1478   3.00    0.0
2018/11/07 00:52:00.000  -74.425537260  163.418473030    64.3968   6  10   0.1089   0.0883   0.4299  -0.0680   0.1549  -0.1897   4.00    0.0
2018/11/07 00:52:30.000  -74.425537714  163.418474477    64.7271   6  10   0.1334   0.1012   0.5186  -0.0832   0.1837  -0.2345   5.00    0.0
2018/11/07 00:53:00.000  -74.425537794  163.418475179    64.7886   6  10   0.1100   0.0838   0.4187  -0.0654   0.1454  -0.1876   5.00    0.0
2018/11/07 00:53:30.000  -74.425538043  163.418475586    64.8970   6  10   0.0932   0.0698   0.3417  -0.0531   0.1175  -0.1531   5.00    0.0
2018/11/07 00:54:00.000  -74.425538171  163.418475899    64.9104   6  10   0.0719   0.0595   0.2884  -0.0436   0.0992  -0.1234   4.00    0.0
2018/11/07 00:54:30.000  -74.425538089  163.418475584    64.7817   6   9   0.0491   0.0414   0.1811  -0.0200   0.0541  -0.0732   4.00    0.0
2018/11/07 00:55:00.000  -74.425537877  163.418475444    64.6390   6   9   0.0406   0.0361   0.1352  -0.0118   0.0406  -0.0531   4.00    0.0
2018/11/07 00:55:30.000  -74.425537889  163.418475200    64.5793   6   9   0.0488   0.0423   0.1791  -0.0207   0.0553  -0.0721   4.00    0.0
2018/11/07 00:56:00.000  -74.425537684  163.418475543    64.6124   6   9   0.0646   0.0546   0.2560  -0.0337   0.0803  -0.1050   4.00    0.0
2018/11/07 00:56:30.000  -74.425537811  163.418475176    64.6867   6   9   0.0897   0.0716   0.3697  -0.0539   0.1204  -0.1577   4.00    0.0
2018/11/07 00:57:00.000  -74.425537909  163.418475487    64.7422   6   9   0.1002   0.0757   0.4165  -0.0516   0.1185  -0.1730   4.00    0.0
2018/11/07 00:57:30.000  -74.425537870  163.418474887    64.6833   6  10   0.0919   0.0855   0.3507  -0.0500   0.1168  -0.1290   4.00    0.0
2018/11/07 00:58:00.000  -74.425537924  163.418474684    64.6523   6  10   0.0765   0.0723   0.2853  -0.0392   0.0940  -0.1016   4.00    0.0
2018/11/07 00:58:30.000  -74.425537867  163.418474709    64.5838   6  10   0.0630   0.0598   0.2282  -0.0290   0.0730  -0.0793   4.00    0.0
2018/11/07 00:59:00.000  -74.425537932  163.418475251    64.6620   6  10   0.0511   0.0484   0.1767  -0.0190   0.0534  -0.0606   4.00    0.0
2018/11/07 00:59:30.000  -74.425537868  163.418475370    64.6135   6  10   0.0423   0.0391   0.1340  -0.0087   0.0367  -0.0465   4.00    0.0
2018/11/07 01:00:00.000  -74.425537857  163.418475306    64.6088   6  10   0.0368   0.0345   0.1115   0.0074   0.0270  -0.0391   4.00    0.0
2018/11/07 01:00:30.000  -74.425537665  163.418475464    64.5070   6  10   0.0417   0.0394   0.1327  -0.0086   0.0364  -0.0457   5.00    0.0
2018/11/07 01:01:00.000  -74.425537455  163.418475182    64.4974   6  10   0.0516   0.0484   0.1692  -0.0186   0.0502  -0.0564   4.00    0.0
2018/11/07 01:01:30.000  -74.425537342  163.418474141    64.4231   6  10   0.0614   0.0589   0.2134  -0.0266   0.0658  -0.0711   4.00    0.0
2018/11/07 01:02:00.000  -74.425537319  163.418474115    64.4910   6  10   0.0724   0.0698   0.2592  -0.0340   0.0811  -0.0857   4.00    0.0
2018/11/07 01:02:30.000  -74.425537376  163.418474526    64.5521   6  10   0.0843   0.0810   0.3072  -0.0415   0.0968  -0.1022   4.00    0.0
2018/11/07 01:03:00.000  -74.425537322  163.418474540    64.5422   6  10   0.0726   0.0700   0.2600  -0.0343   0.0806  -0.0862   4.00    0.0
2018/11/07 01:03:30.000  -74.425537493  163.418474697    64.4980   6  10   0.0624   0.0606   0.2156  -0.0291   0.0676  -0.0732   4.00    0.0
2018/11/07 01:04:00.000  -74.425537743  163.418474928    64.5089   6  10   0.0519   0.0473   0.1677  -0.0168   0.0456  -0.0567   5.00    0.0
2018/11/07 01:04:30.000  -74.425537793  163.418474841    64.5028   6  10   0.0393   0.0385   0.1272   0.0060   0.0287  -0.0409   5.00    0.0
2018/11/07 01:05:00.000  -74.425537854  163.418475396    64.5754   6  10   0.0346   0.0345   0.1033   0.0113   0.0180  -0.0327   5.00    0.0
2018/11/07 01:05:30.000  -74.425537806  163.418474973    64.5207   6  10   0.0401   0.0397   0.1358   0.0078   0.0269  -0.0456   5.00    0.0
2018/11/07 01:06:00.000  -74.425537694  163.418474435    64.4880   6  10   0.0487   0.0489   0.1708  -0.0164   0.0483  -0.0557   4.00    0.0
2018/11/07 01:06:30.000  -74.425537606  163.418474149    64.4745   6  10   0.0594   0.0600   0.2153  -0.0249   0.0639  -0.0696   4.00    0.0
2018/11/07 01:07:00.000  -74.425537532  163.418474377    64.5075   6  10   0.0719   0.0736   0.2658  -0.0347   0.0837  -0.0872   4.00    0.0
2018/11/07 01:07:30.000  -74.425537726  163.418475634    64.5982   6  10   0.0848   0.0837   0.3154  -0.0438   0.0980  -0.1070   3.00    0.0
2018/11/07 01:08:00.000  -74.425537718  163.418475628    64.5677   6  10   0.0726   0.0724   0.2622  -0.0366   0.0798  -0.0882   3.00    0.0
2018/11/07 01:08:30.000  -74.425537936  163.418476213    64.5311   6  10   0.0580   0.0570   0.2074  -0.0208   0.0551  -0.0647   3.00    0.0
2018/11/07 01:09:00.000  -74.425537940  163.418476136    64.4557   6  10   0.0464   0.0470   0.1594  -0.0086   0.0396  -0.0463   3.00    0.0
2018/11/07 01:09:30.000  -74.425537950  163.418476173    64.4717   6  10   0.0372   0.0382   0.1159   0.0104   0.0224  -0.0316   3.00    0.0
2018/11/07 01:10:00.000  -74.425537911  163.418475545    64.5711   6  10   0.0325   0.0338   0.0911   0.0134   0.0058  -0.0231   3.00    0.0
2018/11/07 01:10:30.000  -74.425537845  163.418475269    64.6399   6  10   0.0367   0.0385   0.1139   0.0109   0.0210  -0.0302   4.00    0.0
2018/11/07 01:11:00.000  -74.425537704  163.418474685    64.4956   6  10   0.0453   0.0485   0.1553  -0.0047   0.0385  -0.0427   3.00    0.0
2018/11/07 01:11:30.000  -74.425537577  163.418474974    64.5310   6  10   0.0561   0.0573   0.2007  -0.0184   0.0502  -0.0598   4.00    0.0
2018/11/07 01:12:00.000  -74.425537485  163.418473704    64.4759   6  10   0.0677   0.0681   0.2477  -0.0258   0.0632  -0.0763   4.00    0.0
2018/11/07 01:12:30.000  -74.425537416  163.418473025    64.3903   6  10   0.0798   0.0793   0.2961  -0.0329   0.0764  -0.0936   4.00    0.0
2018/11/07 01:13:00.000  -74.425537571  163.418473404    64.4207   6  10   0.0676   0.0657   0.2458  -0.0243   0.0577  -0.0754   4.00    0.0
2018/11/07 01:13:30.000  -74.425537645  163.418473917    64.4382   6  10   0.0558   0.0560   0.1975  -0.0164   0.0439  -0.0583   5.00    0.0
2018/11/07 01:14:00.000  -74.425537770  163.418474257    64.4813   6  10   0.0449   0.0445   0.1510  -0.0046   0.0266  -0.0423   5.00    0.0
2018/11/07 01:14:30.000  -74.425537840  163.418474962    64.4966   6  10   0.0362   0.0370   0.1109   0.0108   0.0113  -0.0288   5.00    0.0
2018/11/07 01:15:00.000  -74.425537931  163.418475390    64.5712   6  10   0.0319   0.0323   0.0878   0.0133  -0.0120  -0.0205   5.00    0.0
2018/11/07 01:15:30.000  -74.425537840  163.418475075    64.6301   6  10   0.0361   0.0361   0.1102   0.0120  -0.0049  -0.0286   5.00    0.0
2018/11/07 01:16:00.000  -74.425537753  163.418475132    64.5450   6  10   0.0446   0.0435   0.1482   0.0062   0.0187  -0.0411   5.00    0.0
2018/11/07 01:16:30.000  -74.425537672  163.418475035    64.5444   6  10   0.0551   0.0525   0.1916  -0.0111   0.0305  -0.0557   5.00    0.0
2018/11/07 01:17:00.000  -74.425537656  163.418474181    64.5301   6  10   0.0665   0.0621   0.2371  -0.0185   0.0410  -0.0716   5.00    0.0
2018/11/07 01:17:30.000  -74.425537705  163.418473755    64.5339   6  10   0.0784   0.0720   0.2836  -0.0247   0.0506  -0.0879   5.00    0.0
2018/11/07 01:18:00.000  -74.425538021  163.418474679    64.6375   6  11   0.0592   0.0603   0.2041   0.0107  -0.0150  -0.0388   6.00    0.0
2018/11/07 01:18:30.000  -74.425537916  163.418474633    64.6257   6  11   0.0491   0.0511   0.1633   0.0138  -0.0213  -0.0257   6.00    0.0
2018/11/07 01:19:00.000  -74.425537916  163.418475131    64.5911   6  11   0.0406   0.0428   0.1281   0.0148  -0.0221  -0.0190   6.00    0.0
2018/11/07 01:19:30.000  -74.425537882  163.418475930    64.6207   6  11   0.0342   0.0363   0.0993   0.0154  -0.0222  -0.0170   6.00    0.0
2018/11/07 01:20:00.000  -74.425537860  163.418475503    64.5681   6  11   0.0309   0.0324   0.0803   0.0146  -0.0181  -0.0122   5.00    0.0
2018/11/07 01:20:30.000  -74.425537874  163.418475404    64.5589   6  11   0.0337   0.0357   0.0957   0.0146  -0.0193  -0.0126   5.00    0.0
2018/11/07 01:21:00.000  -74.425537895  163.418475431    64.6097   6  11   0.0399   0.0423   0.1236   0.0147  -0.0221  -0.0124   5.00    0.0
2018/11/07 01:21:30.000  -74.425537964  163.418475326    64.5984   6  11   0.0477   0.0504   0.1564   0.0151  -0.0261  -0.0153   5.00    0.0
2018/11/07 01:22:00.000  -74.425538054  163.418475149    64.6423   6  12   0.0555   0.0572   0.1842   0.0092  -0.0422  -0.0314   5.00    0.0
2018/11/07 01:22:30.000  -74.425538019  163.418474799    64.6054   6  12   0.0644   0.0658   0.2180   0.0044  -0.0515  -0.0407   5.00    0.0
2018/11/07 01:23:00.000  -74.425537939  163.418474805    64.5183   6  12   0.0555   0.0570   0.1840   0.0088  -0.0444  -0.0326   5.00    0.0
2018/11/07 01:23:30.000  -74.425537994  163.418475272    64.5314   6  12   0.0470   0.0486   0.1507   0.0113  -0.0373  -0.0251   6.00    0.0
2018/11/07 01:24:00.000  -74.425537921  163.418475887    64.5460   6  12   0.0394   0.0411   0.1192   0.0129  -0.0307  -0.0187   6.00    0.0
2018/11/07 01:24:30.000  -74.425537954  163.418475812    64.5276   6  12   0.0335   0.0352   0.0923   0.0140  -0.0252  -0.0143   6.00    0.0
2018/11/07 01:25:00.000  -74.425537922  163.418475653    64.5555   6  12   0.0308   0.0325   0.0778   0.0143  -0.0225  -0.0119   6.00    0.0
2018/11/07 01:25:30.000  -74.425538028  163.418475869    64.5131   6  12   0.0339   0.0356   0.0930   0.0131  -0.0253  -0.0157   6.00    0.0
2018/11/07 01:26:00.000  -74.425538052  163.418475633    64.5250   6  12   0.0402   0.0417   0.1206   0.0108  -0.0314  -0.0212   6.00    0.0
2018/11/07 01:26:30.000  -74.425537936  163.418475475    64.4828   6  12   0.0480   0.0494   0.1533   0.0072  -0.0395  -0.0284   6.00    0.0
2018/11/07 01:27:00.000  -74.425537791  163.418475433    64.5304   6  12   0.0567   0.0581   0.1885  -0.0062  -0.0490  -0.0366   7.00    0.0
2018/11/07 01:27:30.000  -74.425537754  163.418475774    64.5554   6  12   0.0662   0.0683   0.2259  -0.0147  -0.0609  -0.0444   7.00    0.0
2018/11/07 01:28:00.000  -74.425537713  163.418475892    64.5692   6  12   0.0572   0.0580   0.1908  -0.0053  -0.0489  -0.0396   7.00    0.0
2018/11/07 01:28:30.000  -74.425537623  163.418475209    64.4732   6  12   0.0498   0.0493   0.1581   0.0055  -0.0383  -0.0367   7.00    0.0
2018/11/07 01:29:00.000  -74.425537780  163.418475961    64.5198   6  12   0.0396   0.0415   0.1222   0.0126  -0.0329  -0.0223   6.00    0.0
2018/11/07 01:29:30.000  -74.425537883  163.418475474    64.5130   6  12   0.0330   0.0359   0.0928   0.0141  -0.0276  -0.0135   7.00    0.0
2018/11/07 01:30:00.000  -74.425537902  163.418475949    64.5545   6  12   0.0301   0.0334   0.0778   0.0147  -0.0250  -0.0108   7.00    0.0
2018/11/07 01:30:30.000  -74.425537893  163.418475539    64.5189   6  12   0.0329   0.0361   0.0930   0.0142  -0.0277  -0.0141   7.00    0.0
2018/11/07 01:31:00.000  -74.425537685  163.418474944    64.4914   6  12   0.0389   0.0419   0.1208   0.0132  -0.0331  -0.0196   7.00    0.0
2018/11/07 01:31:30.000  -74.425537606  163.418475209    64.4766   6  12   0.0464   0.0493   0.1539   0.0119  -0.0403  -0.0275   7.00    0.0
2018/11/07 01:32:00.000  -74.425537521  163.418474879    64.5212   6  12   0.0550   0.0580   0.1898   0.0092  -0.0477  -0.0371   7.00    0.0
2018/11/07 01:32:30.000  -74.425537584  163.418475164    64.4555   6  12   0.0641   0.0658   0.2263   0.0062  -0.0581  -0.0472   6.00    0.0
2018/11/07 01:33:00.000  -74.425537570  163.418474993    64.5069   6  12   0.0550   0.0568   0.1890   0.0107  -0.0503  -0.0371   6.00    0.0
2018/11/07 01:33:30.000  -74.425537703  163.418474700    64.4367   6  12   0.0465   0.0486   0.1537   0.0125  -0.0423  -0.0279   6.00    0.0
2018/11/07 01:34:00.000  -74.425537732  163.418474672    64.4417   6  12   0.0389   0.0414   0.1209   0.0137  -0.0351  -0.0203   6.00    0.0
2018/11/07 01:34:30.000  -74.425537795  163.418475233    64.4901   6  12   0.0331   0.0359   0.0938   0.0144  -0.0295  -0.0158   6.00    0.0
2018/11/07 01:35:00.000  -74.425537800  163.418475624    64.5203   6  12   0.0307   0.0334   0.0805   0.0149  -0.0269  -0.0153   6.00    0.0
2018/11/07 01:35:30.000  -74.425537671  163.418475246    64.4950   6  12   0.0350   0.0362   0.0977   0.0151  -0.0305  -0.0235   7.00    0.0
2018/11/07 01:36:00.000  -74.425537600  163.418474755    64.4659   6  12   0.0432   0.0419   0.1276   0.0158  -0.0376  -0.0345   7.00    0.0
2018/11/07 01:36:30.000  -74.425537703  163.418473802    64.5431   6  12   0.0507   0.0493   0.1602   0.0138  -0.0447  -0.0414   7.00    0.0
2018/11/07 01:37:00.000  -74.425537814  163.418474326    64.5488   6  12   0.0619   0.0582   0.1987   0.0136  -0.0538  -0.0565   7.00    0.0
2018/11/07 01:37:30.000  -74.425537867  163.418474000    64.4755   6  12   0.0722   0.0664   0.2355   0.0102  -0.0632  -0.0676   6.00    0.0
2018/11/07 01:38:00.000  -74.425538002  163.418473728    64.5275   6  12   0.0579   0.0571   0.1940   0.0140  -0.0539  -0.0477   6.00    0.0
2018/11/07 01:38:30.000  -74.425538012  163.418473476    64.5494   6  12   0.0479   0.0489   0.1569   0.0148  -0.0452  -0.0348   5.00    0.0
2018/11/07 01:39:00.000  -74.425538134  163.418473597    64.5689   6  12   0.0394   0.0423   0.1228   0.0153  -0.0376  -0.0237   6.00    0.0
2018/11/07 01:39:30.000  -74.425537956  163.418474558    64.5431   6  12   0.0324   0.0361   0.0931   0.0140  -0.0300  -0.0111   5.00    0.0
2018/11/07 01:40:00.000  -74.425537910  163.418475083    64.5903   6  12   0.0293   0.0337   0.0781   0.0140  -0.0270   0.0032   5.00    0.0
2018/11/07 01:40:30.000  -74.425537925  163.418474602    64.5930   6  12   0.0322   0.0366   0.0932   0.0140  -0.0297  -0.0080   5.00    0.0
2018/11/07 01:41:00.000  -74.425537790  163.418474394    64.5739   6  12   0.0381   0.0412   0.1206   0.0126  -0.0344  -0.0159   5.00    0.0
2018/11/07 01:41:30.000  -74.425537602  163.418474854    64.5316   6  12   0.0458   0.0483   0.1537   0.0121  -0.0409  -0.0254   5.00    0.0
2018/11/07 01:42:00.000  -74.425537557  163.418475066    64.5188   6  12   0.0545   0.0560   0.1871   0.0110  -0.0504  -0.0360   5.00    0.0
2018/11/07 01:42:30.000  -74.425537511  163.418474744    64.5342   6  12   0.0635   0.0643   0.2211   0.0109  -0.0609  -0.0452   5.00    0.0
2018/11/07 01:43:00.000  -74.425537629  163.418474927    64.5196   6  12   0.0545   0.0557   0.1850   0.0114  -0.0516  -0.0348   5.00    0.0
2018/11/07 01:43:30.000  -74.425537751  163.418475382    64.5374   6  12   0.0461   0.0479   0.1510   0.0115  -0.0425  -0.0249   6.00    0.0
2018/11/07 01:44:00.000  -74.425537749  163.418474593    64.5913   6  12   0.0392   0.0412   0.1206   0.0110  -0.0338  -0.0164   7.00    0.0
2018/11/07 01:44:30.000  -74.425538065  163.418475284    64.6223   6  12   0.0309   0.0357   0.0920   0.0122  -0.0302   0.0114   5.00    0.0
2018/11/07 01:45:00.000  -74.425537964  163.418475132    64.5874   6  12   0.0279   0.0334   0.0785   0.0124  -0.0276   0.0146   5.00    0.0
2018/11/07 01:45:30.000  -74.425537883  163.418475269    64.5542   6  12   0.0308   0.0359   0.0942   0.0122  -0.0314   0.0111   5.00    0.0
2018/11/07 01:46:00.000  -74.425537583  163.418475851    64.5076   6  12   0.0370   0.0412   0.1201   0.0115  -0.0368  -0.0104   5.00    0.0
2018/11/07 01:46:30.000  -74.425537595  163.418475824    64.4726   6  12   0.0450   0.0482   0.1503   0.0102  -0.0434  -0.0230   6.00    0.0
2018/11/07 01:47:00.000  -74.425537675  163.418475744    64.4173   6  12   0.0538   0.0562   0.1826   0.0087  -0.0511  -0.0334   6.00    0.0
2018/11/07 01:47:30.000  -74.425537612  163.418475805    64.4346   6  12   0.0630   0.0643   0.2150   0.0084  -0.0609  -0.0427   7.00    0.0
2018/11/07 01:48:00.000  -74.425537759  163.418476161    64.4673   6  12   0.0537   0.0555   0.1811   0.0109  -0.0529  -0.0324   7.00    0.0
2018/11/07 01:48:30.000  -74.425537844  163.418476075    64.4832   6  12   0.0450   0.0477   0.1493   0.0115  -0.0449  -0.0219   7.00    0.0
2018/11/07 01:49:00.000  -74.425537796  163.418475828    64.4905   6  12   0.0372   0.0413   0.1213   0.0114  -0.0378  -0.0114   7.00    0.0
2018/11/07 01:49:30.000  -74.425537844  163.418475700    64.4694   6  12   0.0310   0.0363   0.0985   0.0120  -0.0338   0.0094   7.00    0.0
2018/11/07 01:50:00.000  -74.425537917  163.418475316    64.5029   6  12   0.0281   0.0340   0.0871   0.0123  -0.0323   0.0128   7.00    0.0
2018/11/07 01:50:30.000  -74.425537855  163.418475329    64.4338   6  12   0.0314   0.0366   0.1047   0.0126  -0.0371   0.0101   7.00    0.0
2018/11/07 01:51:00.000  -74.425537727  163.418475855    64.4046   6  12   0.0382   0.0418   0.1299   0.0125  -0.0435   0.0065   7.00    0.0
2018/11/07 01:51:30.000  -74.425537805  163.418475700    64.4568   6  12   0.0470   0.0488   0.1589   0.0131  -0.0502  -0.0027   7.00    0.0
2018/11/07 01:52:00.000  -74.425537731  163.418475293    64.4967   6  11   0.0573   0.0569   0.1908   0.0151  -0.0566   0.0047   6.00    0.0
2018/11/07 01:52:30.000  -74.425537706  163.418475556    64.4544   6  11   0.0674   0.0659   0.2242   0.0164  -0.0629  -0.0122   7.00    0.0
2018/11/07 01:53:00.000  -74.425537696  163.418475329    64.5023   6  11   0.0578   0.0580   0.1940   0.0130  -0.0577   0.0128   6.00    0.0
2018/11/07 01:53:30.000  -74.425537737  163.418475844    64.4881   6  11   0.0491   0.0513   0.1692   0.0077  -0.0552   0.0240   6.00    0.0
2018/11/07 01:54:00.000  -74.425537758  163.418475618    64.4788   6  10   0.0402   0.0454   0.1451   0.0086  -0.0543   0.0212   6.00    0.0
2018/11/07 01:54:30.000  -74.425537758  163.418475610    64.4640   6  10   0.0327   0.0391   0.1194   0.0132  -0.0460  -0.0053   6.00    0.0
2018/11/07 01:55:00.000  -74.425537941  163.418475241    64.4926   6   9   0.0288   0.0369   0.1036   0.0142  -0.0423  -0.0093   6.00    0.0
2018/11/07 01:55:30.000  -74.425537712  163.418475655    64.3674   6   9   0.0337   0.0427   0.1318   0.0162  -0.0542  -0.0211   6.00    0.0
2018/11/07 01:56:00.000  -74.425537457  163.418475605    64.3162   6   9   0.0434   0.0529   0.1796   0.0201  -0.0740  -0.0349   7.00    0.0
2018/11/07 01:56:30.000  -74.425537338  163.418475004    64.2936   6   9   0.0551   0.0651   0.2355   0.0251  -0.0970  -0.0498   7.00    0.0
2018/11/07 01:57:00.000  -74.425537482  163.418474651    64.4216   6   9   0.0678   0.0788   0.2952   0.0305  -0.1215  -0.0652   7.00    0.0
2018/11/07 01:57:30.000  -74.425537564  163.418474132    64.5274   6   9   0.0811   0.0919   0.3570   0.0364  -0.1468  -0.0809   6.00    0.0
2018/11/07 01:58:00.000  -74.425537602  163.418474471    64.5212   6   9   0.0681   0.0791   0.2994   0.0317  -0.1246  -0.0668   6.00    0.0
2018/11/07 01:58:30.000  -74.425537642  163.418474148    64.5185   6   9   0.0560   0.0694   0.2452   0.0275  -0.1054  -0.0539   6.00    0.0
2018/11/07 01:59:00.000  -74.425537585  163.418474973    64.4351   6   9   0.0443   0.0578   0.1918   0.0215  -0.0837  -0.0392   4.00    0.0
2018/11/07 01:59:30.000  -74.425537572  163.418475900    64.3777   6   9   0.0344   0.0441   0.1431   0.0198  -0.0602  -0.0294   4.00    0.0
2018/11/07 02:00:00.000  -74.425537908  163.418474871    64.4668   6   9   0.0293   0.0367   0.1154   0.0164  -0.0456  -0.0202   5.00    0.0
2018/11/07 02:00:30.000  -74.425538005  163.418473592    64.5538   6   9   0.0342   0.0410   0.1413   0.0179  -0.0552  -0.0283   4.00    0.0
2018/11/07 02:01:00.000  -74.425538052  163.418472924    64.5654   6   9   0.0439   0.0508   0.1875   0.0217  -0.0748  -0.0404   4.00    0.0
2018/11/07 02:01:30.000  -74.425538086  163.418473428    64.5130   6   9   0.0556   0.0633   0.2421   0.0267  -0.0982  -0.0542   4.00    0.0
2018/11/07 02:02:00.000  -74.425538115  163.418473410    64.4702   6   9   0.0682   0.0767   0.3007   0.0327  -0.1234  -0.0688   5.00    0.0
2018/11/07 02:02:30.000  -74.425538038  163.418473221    64.3978   6   9   0.0814   0.0911   0.3611   0.0391  -0.1495  -0.0838   6.00    0.0
2018/11/07 02:03:00.000  -74.425537862  163.418473069    64.3352   6   9   0.0684   0.0780   0.3006   0.0330  -0.1243  -0.0693   7.00    0.0
2018/11/07 02:03:30.000  -74.425537787  163.418474389    64.2950   6   9   0.0558   0.0630   0.2429   0.0277  -0.0993  -0.0554   5.00    0.0
2018/11/07 02:04:00.000  -74.425537767  163.418474734    64.3188   6   9   0.0442   0.0504   0.1903   0.0229  -0.0763  -0.0430   5.00    0.0
2018/11/07 02:04:30.000  -74.425537915  163.418474313    64.4523   6   9   0.0348   0.0407   0.1478   0.0193  -0.0575  -0.0333   5.00    0.0
2018/11/07 02:05:00.000  -74.425537876  163.418475189    64.4442   6   9   0.0302   0.0363   0.1264   0.0177  -0.0484  -0.0281   5.00    0.0
2018/11/07 02:05:30.000  -74.425537640  163.418476010    64.3212   6   9   0.0362   0.0418   0.1560   0.0218  -0.0610  -0.0406   5.00    0.0
2018/11/07 02:06:00.000  -74.425537463  163.418476180    64.2793   6   9   0.0474   0.0525   0.2081   0.0275  -0.0827  -0.0580   5.00    0.0
2018/11/07 02:06:30.000  -74.425537386  163.418475856    64.2037   6   9   0.0612   0.0649   0.2717   0.0340  -0.1072  -0.0792   5.00    0.0
2018/11/07 02:07:00.000  -74.425537503  163.418475422    64.3139   6   8   0.0933   0.0841   0.4463   0.0572  -0.1620  -0.1611   4.00    0.0
2018/11/07 02:07:30.000  -74.425537520  163.418476210    64.3525   6   8   0.1138   0.1008   0.5474   0.0701  -0.1982  -0.2003   4.00    0.0
2018/11/07 02:08:00.000  -74.425538138  163.418474728    64.7026   6   9   0.0716   0.0794   0.3286   0.0378  -0.1296  -0.0896   5.00    0.0
2018/11/07 02:08:30.000  -74.425538139  163.418474103    64.6541   6   9   0.0581   0.0640   0.2661   0.0317  -0.1045  -0.0719   4.00    0.0
2018/11/07 02:09:00.000  -74.425538118  163.418473960    64.6067   6   9   0.0465   0.0508   0.2119   0.0268  -0.0814  -0.0586   4.00    0.0
2018/11/07 02:09:30.000  -74.425537993  163.418473537    64.5394   6   9   0.0371   0.0405   0.1659   0.0231  -0.0619  -0.0474   5.00    0.0
2018/11/07 02:10:00.000  -74.425537833  163.418474574    64.3954   6   9   0.0319   0.0354   0.1370   0.0207  -0.0499  -0.0386   5.00    0.0
2018/11/07 02:10:30.000  -74.425537812  163.418473681    64.4165   6   9   0.0377   0.0400   0.1617   0.0218  -0.0569  -0.0477   5.00    0.0
2018/11/07 02:11:00.000  -74.425537578  163.418474648    64.3153   6   9   0.0480   0.0499   0.2073   0.0253  -0.0746  -0.0611   5.00    0.0
2018/11/07 02:11:30.000  -74.425537840  163.418473750    64.3433   6   9   0.0611   0.0634   0.2685   0.0311  -0.0979  -0.0803   5.00    0.0
2018/11/07 02:12:00.000  -74.425538514  163.418473405    64.8039   6   9   0.0750   0.0771   0.3518   0.0390  -0.1277  -0.1062   5.00    0.0
2018/11/07 02:12:30.000  -74.425538627  163.418472552    64.7929   6   9   0.0854   0.0899   0.3964   0.0423  -0.1485  -0.1117   5.00    0.0
2018/11/07 02:13:00.000  -74.425538507  163.418473612    64.7091   6   9   0.0726   0.0756   0.3365   0.0372  -0.1246  -0.0969   5.00    0.0
2018/11/07 02:13:30.000  -74.425538598  163.418473165    64.7797   6   9   0.0605   0.0621   0.2807   0.0327  -0.1017  -0.0839   5.00    0.0
2018/11/07 02:14:00.000  -74.425538255  163.418474109    64.5877   6   9   0.0496   0.0498   0.2302   0.0286  -0.0806  -0.0722   5.00    0.0
2018/11/07 02:14:30.000  -74.425537830  163.418474944    64.2988   6   9   0.0404   0.0401   0.1870   0.0252  -0.0627  -0.0611   5.00    0.0
2018/11/07 02:15:00.000  -74.425537845  163.418474046    64.3691   6   9   0.0350   0.0355   0.1617   0.0231  -0.0524  -0.0524   5.00    0.0
2018/11/07 02:15:30.000  -74.425537510  163.418474514    64.2453   6   9   0.0415   0.0411   0.1889   0.0253  -0.0614  -0.0609   5.00    0.0
2018/11/07 02:16:00.000  -74.425537200  163.418474639    64.1950   6   9   0.0533   0.0532   0.2383   0.0315  -0.0847  -0.0801   0.00    0.0
2018/11/07 02:16:30.000  -74.425538156  163.418472351    64.6518   6   9   0.0850   0.0702   0.3893   0.0525  -0.1329  -0.1526   0.00    0.0
2018/11/07 02:17:00.000  -74.425538364  163.418472598    64.6660   6   9   0.0731   0.0801   0.3265   0.0421  -0.1263  -0.0964   0.00    0.0
2018/11/07 02:17:30.000  -74.425538565  163.418471537    64.8483   6   9   0.0847   0.0962   0.3828   0.0484  -0.1498  -0.1086   2.00    0.0
2018/11/07 02:18:00.000  -74.425538635  163.418472448    64.8902   6   9   0.0711   0.0781   0.3173   0.0399  -0.1228  -0.0908   2.00    0.0
2018/11/07 02:18:30.000  -74.425538539  163.418473562    64.7667   6   9   0.0582   0.0627   0.2529   0.0329  -0.0966  -0.0730   3.00    0.0
2018/11/07 02:19:00.000  -74.425538374  163.418474114    64.7600   6   9   0.0459   0.0492   0.1903   0.0267  -0.0716  -0.0549   3.00    0.0
2018/11/07 02:19:30.000  -74.425538334  163.418473832    64.8147   6   9   0.0358   0.0386   0.1348   0.0218  -0.0499  -0.0385   3.00    0.0
2018/11/07 02:20:00.000  -74.425538635  163.418473535    64.8845   1   9   0.0315   0.0421   0.1185   0.0294  -0.0485  -0.0447   3.00    1.0
2018/11/07 02:20:30.000  -74.425538211  163.418474051    64.6537   6   9   0.0368   0.0407   0.1381   0.0246  -0.0549  -0.0425   3.00    0.0
2018/11/07 02:21:00.000  -74.425538062  163.418474115    64.5912   6   9   0.0470   0.0532   0.1921   0.0317  -0.0792  -0.0594   3.00    0.0
2018/11/07 02:21:30.000  -74.425538114  163.418473547    64.6204   6   9   0.0595   0.0691   0.2556   0.0410  -0.1081  -0.0794   4.00    0.0
2018/11/07 02:22:00.000  -74.425538215  163.418473129    64.6590   6   9   0.0744   0.0913   0.3322   0.0551  -0.1463  -0.1063   3.00    0.0
2018/11/07 02:22:30.000  -74.425538094  163.418473101    64.6970   6   9   0.0863   0.1046   0.3954   0.0611  -0.1717  -0.1223   2.00    0.0
2018/11/07 02:23:00.000  -74.425538117  163.418473074    64.6944   6   9   0.0719   0.0852   0.3194   0.0491  -0.1357  -0.0979   3.00    0.0
2018/11/07 02:23:30.000  -74.425537959  163.418474020    64.6283   6   9   0.0583   0.0650   0.2509   0.0377  -0.1028  -0.0766   3.00    0.0
2018/11/07 02:24:00.000  -74.425538151  163.418472599    64.7674   6   9   0.0461   0.0497   0.1875   0.0289  -0.0742  -0.0571   3.00    0.0
2018/11/07 02:24:30.000  -74.425538316  163.418473665    64.7618   6   9   0.0357   0.0373   0.1308   0.0215  -0.0482  -0.0386   3.00    0.0
2018/11/07 02:25:00.000  -74.425538415  163.418472843    64.8060   6   9   0.0304   0.0312   0.0986   0.0178  -0.0327  -0.0276   4.00    0.0
2018/11/07 02:25:30.000  -74.425538664  163.418472110    64.8738   6   9   0.0361   0.0373   0.1295   0.0216  -0.0475  -0.0390   4.00    0.0
2018/11/07 02:26:00.000  -74.425538489  163.418472650    64.7414   6   9   0.0465   0.0489   0.1812   0.0279  -0.0704  -0.0563   5.00    0.0
2018/11/07 02:26:30.000  -74.425538380  163.418473491    64.6111   6   9   0.0585   0.0612   0.2379   0.0355  -0.0943  -0.0745   4.00    0.0
2018/11/07 02:27:00.000  -74.425538322  163.418472998    64.5822   6   9   0.0715   0.0743   0.2960   0.0436  -0.1181  -0.0934   4.00    0.0
2018/11/07 02:27:30.000  -74.425538342  163.418472358    64.5883   6   9   0.0851   0.0881   0.3554   0.0520  -0.1425  -0.1128   4.00    0.0
2018/11/07 02:28:00.000  -74.425538191  163.418473415    64.5221   6   9   0.0717   0.0737   0.2933   0.0441  -0.1167  -0.0944   4.00    0.0
2018/11/07 02:28:30.000  -74.425538196  163.418473529    64.5653   6   9   0.0590   0.0599   0.2338   0.0364  -0.0917  -0.0763   4.00    0.0
2018/11/07 02:29:00.000  -74.425537985  163.418473525    64.5839   6   9   0.0470   0.0472   0.1771   0.0290  -0.0675  -0.0582   5.00    0.0
2018/11/07 02:29:30.000  -74.425538130  163.418473781    64.6686   6   9   0.0367   0.0366   0.1262   0.0225  -0.0451  -0.0408   5.00    0.0
2018/11/07 02:30:00.000  -74.425538552  163.418473491    64.9142   1   9   0.0358   0.0228   0.1089   0.0179  -0.0265  -0.0317   4.00    1.0
2018/11/07 02:30:30.000  -74.425538352  163.418473071    64.7291   6   9   0.0369   0.0365   0.1261   0.0226  -0.0427  -0.0410   6.00    0.0
2018/11/07 02:31:00.000  -74.425538245  163.418472802    64.6934   6   9   0.0472   0.0466   0.1783   0.0283  -0.0613  -0.0592   6.00    0.0
2018/11/07 02:31:30.000  -74.425538316  163.418473463    64.6931   6   9   0.0602   0.0590   0.2438   0.0349  -0.0808  -0.0823   5.00    0.0
2018/11/07 02:32:00.000  -74.425538366  163.418472814    64.7272   6   9   0.0732   0.0717   0.2912   0.0438  -0.1069  -0.0994   5.00    0.0
2018/11/07 02:32:30.000  -74.425538225  163.418472942    64.6159   6   9   0.0871   0.0851   0.3447   0.0528  -0.1313  -0.1185   5.00    0.0
2018/11/07 02:33:00.000  -74.425538309  163.418472480    64.6574   6   9   0.0736   0.0711   0.2848   0.0443  -0.1063  -0.0986   4.00    0.0
2018/11/07 02:33:30.000  -74.425538567  163.418471464    64.8145   6   9   0.0605   0.0578   0.2283   0.0361  -0.0820  -0.0795   4.00    0.0
2018/11/07 02:34:00.000  -74.425538601  163.418471455    64.8726   6   9   0.0485   0.0459   0.1795   0.0283  -0.0578  -0.0626   5.00    0.0
2018/11/07 02:34:30.000  -74.425538618  163.418472106    64.8662   6   9   0.0380   0.0362   0.1278   0.0227  -0.0390  -0.0440   5.00    0.0
2018/11/07 02:35:00.000  -74.425538584  163.418473748    64.9328   1   9   0.0377   0.0235   0.1100   0.0181  -0.0206  -0.0362   6.00    1.0
2018/11/07 02:35:30.000  -74.425538403  163.418473022    64.8293   6   9   0.0379   0.0362   0.1245   0.0227  -0.0371  -0.0427   5.00    0.0
2018/11/07 02:36:00.000  -74.425538408  163.418473293    64.8242   6   9   0.0483   0.0453   0.1698   0.0284  -0.0555  -0.0599   5.00    0.0
2018/11/07 02:36:30.000  -74.425538520  163.418473224    64.8318   6   9   0.0608   0.0568   0.2198   0.0357  -0.0764  -0.0788   5.00    0.0
2018/11/07 02:37:00.000  -74.425538665  163.418472857    64.8320   6   9   0.0746   0.0693   0.2732   0.0440  -0.0980  -0.0993   6.00    0.0
2018/11/07 02:37:30.000  -74.425538587  163.418472183    64.8369   6   9   0.0893   0.0825   0.3284   0.0526  -0.1196  -0.1207   6.00    0.0
2018/11/07 02:38:00.000  -74.425538308  163.418472335    64.7757   6   9   0.0760   0.0692   0.2821   0.0432  -0.0938  -0.1042   6.00    0.0
2018/11/07 02:38:30.000  -74.425538327  163.418472593    64.8163   6   8   0.0633   0.0565   0.2373   0.0345  -0.0694  -0.0884   6.00    0.0
2018/11/07 02:39:00.000  -74.425538507  163.418471984    64.8737   6   8   0.0498   0.0450   0.1757   0.0278  -0.0501  -0.0648   6.00    0.0
2018/11/07 02:39:30.000  -74.425538360  163.418472923    64.8251   6   8   0.0386   0.0359   0.1218   0.0228  -0.0337  -0.0436   6.00    0.0
2018/11/07 02:40:00.000  -74.425538549  163.418472751    64.8528   6   8   0.0329   0.0317   0.0906   0.0203  -0.0244  -0.0312   6.00    0.0
2018/11/07 02:40:30.000  -74.425538757  163.418472116    64.9277   6   8   0.0386   0.0362   0.1192   0.0230  -0.0321  -0.0422   6.00    0.0
2018/11/07 02:41:00.000  -74.425538631  163.418472646    64.8513   6   8   0.0500   0.0451   0.1716   0.0279  -0.0470  -0.0641   6.00    0.0
2018/11/07 02:41:30.000  -74.425538712  163.418472486    64.8431   6   8   0.0643   0.0561   0.2319   0.0343  -0.0641  -0.0893   6.00    0.0
2018/11/07 02:42:00.000  -74.425538655  163.418472750    64.8686   6   8   0.0800   0.0682   0.2949   0.0414  -0.0816  -0.1158   6.00    0.0
2018/11/07 02:42:30.000  -74.425538953  163.418471988    65.0110   6   8   0.0965   0.0810   0.3589   0.0489  -0.0989  -0.1429   6.00    0.0
2018/11/07 02:43:00.000  -74.425538792  163.418472436    64.9443   6   8   0.0807   0.0681   0.2942   0.0413  -0.0797  -0.1167   6.00    0.0
2018/11/07 02:43:30.000  -74.425539024  163.418471367    65.0126   6   8   0.0652   0.0558   0.2302   0.0341  -0.0610  -0.0906   6.00    0.0
2018/11/07 02:44:00.000  -74.425538823  163.418471061    64.9311   6   8   0.0509   0.0449   0.1696   0.0279  -0.0435  -0.0653   6.00    0.0
2018/11/07 02:44:30.000  -74.425538678  163.418471945    64.8483   6   8   0.0391   0.0364   0.1170   0.0232  -0.0287  -0.0425   6.00    0.0
2018/11/07 02:45:00.000  -74.425538451  163.418473115    64.7967   6   9   0.0323   0.0318   0.0845   0.0198  -0.0237  -0.0317   6.00    0.0
2018/11/07 02:45:30.000  -74.425538286  163.418473557    64.7107   6   9   0.0398   0.0389   0.1150   0.0256  -0.0357  -0.0476   6.00    0.0
2018/11/07 02:46:00.000  -74.425538635  163.418472915    64.7736   6   9   0.0542   0.0512   0.1716   0.0351  -0.0563  -0.0759   6.00    0.0
2018/11/07 02:46:30.000  -74.425538534  163.418473331    64.7453   6   9   0.0701   0.0613   0.2375   0.0420  -0.0733  -0.1060   5.00    0.0
2018/11/07 02:47:00.000  -74.425538747  163.418472334    64.8438   6   9   0.0856   0.0723   0.2893   0.0475  -0.0812  -0.1299   5.00    0.0
2018/11/07 02:47:30.000  -74.425538999  163.418471253    64.9069   6   9   0.1022   0.0848   0.3482   0.0541  -0.0882  -0.1553   5.00    0.0
2018/11/07 02:48:00.000  -74.425538880  163.418471757    64.9442   6   8   0.0865   0.0742   0.2949   0.0481  -0.0634  -0.1258   4.00    0.0
2018/11/07 02:48:30.000  -74.425538819  163.418471968    64.9342   6   8   0.0720   0.0620   0.2341   0.0422  -0.0532  -0.1007   4.00    0.0
2018/11/07 02:49:00.000  -74.425538504  163.418472517    64.8207   6   8   0.0529   0.0458   0.1737   0.0284  -0.0357  -0.0718   3.00    0.0
2018/11/07 02:49:30.000  -74.425538494  163.418472580    64.8443   6   8   0.0377   0.0336   0.1178   0.0184  -0.0209  -0.0451   3.00    0.0
2018/11/07 02:50:00.000  -74.425538347  163.418473550    64.8033   6   8   0.0300   0.0273   0.0839   0.0123  -0.0112  -0.0292   3.00    0.0
2018/11/07 02:50:30.000  -74.425538441  163.418473279    64.8491   6   8   0.0370   0.0329   0.1143   0.0165  -0.0136  -0.0430   3.00    0.0
2018/11/07 02:51:00.000  -74.425538524  163.418473814    64.8701   6   8   0.0506   0.0436   0.1675   0.0234  -0.0184  -0.0672   3.00    0.0
2018/11/07 02:51:30.000  -74.425538365  163.418472855    64.8526   6   8   0.0664   0.0560   0.2283   0.0301  -0.0220  -0.0941   4.00    0.0
2018/11/07 02:52:00.000  -74.425538468  163.418471681    64.8957   6   8   0.0833   0.0691   0.2923   0.0367  -0.0234  -0.1220   4.00    0.0
2018/11/07 02:52:30.000  -74.425538351  163.418471920    64.8716   6   8   0.1007   0.0827   0.3579   0.0429  -0.0215  -0.1504   4.00    0.0
2018/11/07 02:53:00.000  -74.425538161  163.418473736    64.7828   6   9   0.0772   0.0665   0.2479   0.0261   0.0530  -0.1001   4.00    0.0
2018/11/07 02:53:30.000  -74.425538175  163.418473783    64.8042   6   9   0.0615   0.0539   0.1914   0.0210   0.0437  -0.0758   4.00    0.0
2018/11/07 02:54:00.000  -74.425538252  163.418474073    64.7505   6   9   0.0474   0.0421   0.1422   0.0168   0.0319  -0.0545   4.00    0.0
2018/11/07 02:54:30.000  -74.425538192  163.418474389    64.8507   1   9   0.0383   0.0343   0.1239   0.0195   0.0304  -0.0482   5.00    1.0
2018/11/07 02:55:00.000  -74.425538317  163.418474068    64.8563   1   9   0.0286   0.0266   0.0916   0.0188   0.0196  -0.0356   5.00    1.0
2018/11/07 02:55:30.000  -74.425538327  163.418474083    64.8022   1   9   0.0384   0.0347   0.1247   0.0192   0.0315  -0.0489   5.00    1.0
2018/11/07 02:56:00.000  -74.425538453  163.418472414    64.7774   6   9   0.0469   0.0421   0.1386   0.0145   0.0368  -0.0528   4.00    0.0
2018/11/07 02:56:30.000  -74.425538650  163.418471626    64.8610   6   9   0.0607   0.0539   0.1862   0.0160   0.0529  -0.0733   4.00    0.0
2018/11/07 02:57:00.000  -74.425538649  163.418471345    64.8876   6   9   0.0757   0.0667   0.2373   0.0165   0.0698  -0.0950   4.00    0.0
2018/11/07 02:57:30.000  -74.425538747  163.418471489    64.9497   6   9   0.0912   0.0801   0.2905   0.0161   0.0872  -0.1174   4.00    1.0
2018/11/07 02:58:00.000  -74.425538674  163.418471584    64.9201   6   9   0.0760   0.0672   0.2411   0.0151   0.0717  -0.0966   4.00    0.0
2018/11/07 02:58:30.000  -74.425538495  163.418471484    64.8804   6   9   0.0611   0.0546   0.1910   0.0140   0.0560  -0.0755   4.00    0.0
2018/11/07 02:59:00.000  -74.425538454  163.418471374    64.8360   6   9   0.0472   0.0426   0.1426   0.0126   0.0404  -0.0548   4.00    0.0
2018/11/07 02:59:30.000  -74.425538401  163.418472658    64.8438   6   9   0.0355   0.0324   0.0994   0.0105   0.0258  -0.0361   4.00    0.0
2018/11/07 03:00:00.000  -74.425538445  163.418473458    64.8158   6   9   0.0297   0.0273   0.0737   0.0089   0.0169  -0.0253   4.00    0.0
2018/11/07 03:00:30.000  -74.425538224  163.418473790    64.7174   6   9   0.0354   0.0326   0.0987   0.0100   0.0269  -0.0357   4.00    0.0
2018/11/07 03:01:00.000  -74.425538247  163.418474003    64.7216   6   9   0.0471   0.0429   0.1434   0.0104   0.0432  -0.0551   4.00    0.0
2018/11/07 03:01:30.000  -74.425538336  163.418473671    64.6558   6   9   0.0613   0.0552   0.1950   0.0083   0.0613  -0.0772   4.00    0.0
2018/11/07 03:02:00.000  -74.425538361  163.418473454    64.6470   6   9   0.0766   0.0685   0.2497  -0.0050   0.0802  -0.1005   5.00    0.0
2018/11/07 03:02:30.000  -74.425538534  163.418472909    64.7335   6   9   0.0925   0.0824   0.3061  -0.0133   0.0996  -0.1243   5.00    0.0
2018/11/07 03:03:00.000  -74.425538442  163.418472939    64.6878   6   9   0.0769   0.0689   0.2520  -0.0097   0.0821  -0.1017   4.00    0.0
2018/11/07 03:03:30.000  -74.425538491  163.418472870    64.6899   6   9   0.0616   0.0558   0.1981  -0.0027   0.0642  -0.0788   4.00    0.0
2018/11/07 03:04:00.000  -74.425538283  163.418473638    64.6633   6   9   0.0474   0.0435   0.1460   0.0071   0.0465  -0.0565   4.00    0.0
2018/11/07 03:04:30.000  -74.425538319  163.418474303    64.7242   6   9   0.0354   0.0333   0.0993   0.0086   0.0297  -0.0362   4.00    0.0
2018/11/07 03:05:00.000  -74.425538456  163.418473493    64.7825   6   9   0.0298   0.0291   0.0719   0.0098   0.0195  -0.0242   4.00    0.0
2018/11/07 03:05:30.000  -74.425538656  163.418474001    64.8158   6   9   0.0355   0.0362   0.0989   0.0109   0.0296  -0.0360   4.00    0.0
2018/11/07 03:06:00.000  -74.425538716  163.418473326    64.7556   6   9   0.0477   0.0494   0.1466   0.0127   0.0469  -0.0569   4.00    0.0
2018/11/07 03:06:30.000  -74.425539056  163.418473222    64.8073   6   9   0.0624   0.0661   0.2010   0.0142   0.0651  -0.0806   4.00    0.0
2018/11/07 03:07:00.000  -74.425538959  163.418473207    64.7964   6   9   0.0781   0.0820   0.2577   0.0123   0.0857  -0.1049   5.00    0.0
2018/11/07 03:07:30.000  -74.425538860  163.418472940    64.7889   6   9   0.0949   0.1059   0.3159   0.0205   0.1044  -0.1300   5.00    0.0
2018/11/07 03:08:00.000  -74.425538787  163.418474217    64.8102   6   9   0.0776   0.0761   0.2583  -0.0151   0.0893  -0.1047   5.00    0.0
2018/11/07 03:08:30.000  -74.425538752  163.418473371    64.7819   6   9   0.0618   0.0595   0.2017  -0.0125   0.0704  -0.0804   5.00    0.0
2018/11/07 03:09:00.000  -74.425538613  163.418473560    64.7465   6   9   0.0471   0.0453   0.1472  -0.0079   0.0513  -0.0567   5.00    0.0
2018/11/07 03:09:30.000  -74.425538540  163.418473697    64.7563   6   9   0.0349   0.0336   0.0986  -0.0030   0.0336  -0.0352   5.00    0.0
2018/11/07 03:10:00.000  -74.425538569  163.418473170    64.7724   6   9   0.0289   0.0278   0.0711   0.0019   0.0232  -0.0228   4.00    0.0
2018/11/07 03:10:30.000  -74.425538675  163.418473935    64.7875   6   9   0.0348   0.0334   0.0984  -0.0049   0.0344  -0.0350   4.00    0.0
2018/11/07 03:11:00.000  -74.425538689  163.418473951    64.8251   6  10   0.0464   0.0384   0.1266   0.0067   0.0337  -0.0515   4.00    0.0
2018/11/07 03:11:30.000  -74.425538718  163.418473417    64.7736   6  10   0.0597   0.0461   0.1607   0.0142   0.0345  -0.0682   4.00    0.0
2018/11/07 03:12:00.000  -74.425538859  163.418473226    64.8076   6  10   0.0743   0.0548   0.1988   0.0198   0.0359  -0.0867   4.00    0.0
2018/11/07 03:12:30.000  -74.425538980  163.418472991    64.8285   6  10   0.0895   0.0640   0.2388   0.0248   0.0380  -0.1060   4.00    0.0
2018/11/07 03:13:00.000  -74.425538952  163.418473075    64.8268   6  10   0.0742   0.0547   0.1985   0.0195   0.0366  -0.0867   5.00    0.0
2018/11/07 03:13:30.000  -74.425538647  163.418473501    64.8122   6  10   0.0594   0.0458   0.1587   0.0142   0.0341  -0.0675   5.00    0.0
2018/11/07 03:14:00.000  -74.425538601  163.418473318    64.8262   6  10   0.0457   0.0377   0.1208   0.0089   0.0307  -0.0489   5.00    0.0
2018/11/07 03:14:30.000  -74.425538624  163.418473534    64.7678   6  10   0.0343   0.0312   0.0879   0.0036   0.0267  -0.0319   5.00    0.0
2018/11/07 03:15:00.000  -74.425538580  163.418473486    64.7776   6  10   0.0287   0.0282   0.0695   0.0030   0.0232  -0.0214   5.00    0.0
2018/11/07 03:15:30.000  -74.425538739  163.418473426    64.7763   6  10   0.0341   0.0337   0.0905   0.0050   0.0305  -0.0313   6.00    0.0
2018/11/07 03:16:00.000  -74.425538826  163.418473139    64.7732   6  10   0.0454   0.0429   0.1272   0.0081   0.0405  -0.0489   6.00    0.0
2018/11/07 03:16:30.000  -74.425538814  163.418472965    64.7188   6  10   0.0593   0.0542   0.1726   0.0088   0.0541  -0.0696   5.00    0.0
2018/11/07 03:17:00.000  -74.425539081  163.418473548    64.8325   6  10   0.0751   0.0601   0.2142   0.0100   0.0541  -0.0924   5.00    0.0
2018/11/07 03:17:30.000  -74.425539046  163.418472866    64.8443   6  10   0.0901   0.0701   0.2518   0.0206   0.0505  -0.1106   5.00    0.0
2018/11/07 03:18:00.000  -74.425538957  163.418473383    64.8143   6  10   0.0743   0.0589   0.2049   0.0150   0.0455  -0.0884   5.00    0.0
2018/11/07 03:18:30.000  -74.425538942  163.418473507    64.8098   6  10   0.0592   0.0480   0.1608   0.0092   0.0404  -0.0676   5.00    0.0
2018/11/07 03:19:00.000  -74.425538706  163.418473801    64.7617   6  10   0.0453   0.0383   0.1205   0.0030   0.0337  -0.0481   5.00    0.0
2018/11/07 03:19:30.000  -74.425538642  163.418473474    64.7736   6  10   0.0339   0.0306   0.0864  -0.0055   0.0272  -0.0305   5.00    0.0
2018/11/07 03:20:00.000  -74.425538343  163.418473659    64.7344   6  10   0.0283   0.0268   0.0693  -0.0061   0.0235  -0.0199   6.00    0.0
2018/11/07 03:20:30.000  -74.425538317  163.418473276    64.7662   6  10   0.0338   0.0302   0.0888  -0.0049   0.0279  -0.0293   6.00    0.0
2018/11/07 03:21:00.000  -74.425538320  163.418473602    64.7460   6  10   0.0449   0.0369   0.1242   0.0051   0.0348  -0.0458   6.00    0.0
2018/11/07 03:21:30.000  -74.425538525  163.418472336    64.7018   6  10   0.0585   0.0455   0.1689   0.0097   0.0440  -0.0643   6.00    0.0
2018/11/07 03:22:00.000  -74.425538459  163.418472863    64.7110   6  10   0.0732   0.0552   0.2364   0.0123   0.0595  -0.0851   0.00    0.0
2018/11/07 03:22:30.000  -74.425538614  163.418473300    64.7716   6  10   0.0883   0.0648   0.2699   0.0150   0.0657  -0.1046   0.00    0.0
2018/11/07 03:23:00.000  -74.425538513  163.418473059    64.6811   6  10   0.0731   0.0554   0.2287   0.0115   0.0591  -0.0847   0.00    0.0
2018/11/07 03:23:30.000  -74.425538345  163.418472944    64.7656   6  10   0.0584   0.0456   0.1678   0.0071   0.0443  -0.0659   0.00    0.0
2018/11/07 03:24:00.000  -74.425538192  163.418473289    64.7646   6  10   0.0449   0.0372   0.1254  -0.0016   0.0363  -0.0470   0.00    0.0
2018/11/07 03:24:30.000  -74.425538268  163.418473492    64.7529   6  10   0.0339   0.0306   0.0945  -0.0060   0.0308  -0.0300   0.00    0.0
2018/11/07 03:25:00.000  -74.425538300  163.418473626    64.7192   6  11   0.0283   0.0270   0.0713  -0.0073   0.0251  -0.0210   0.00    0.0
2018/11/07 03:25:30.000  -74.425538325  163.418472995    64.6856   6  11   0.0332   0.0301   0.0854  -0.0075   0.0297  -0.0277   0.00    0.0
2018/11/07 03:26:00.000  -74.425538334  163.418473141    64.6489   6  11   0.0432   0.0366   0.1123  -0.0086   0.0383  -0.0408   0.00    0.0
2018/11/07 03:26:30.000  -74.425538577  163.418473077    64.6954   6  11   0.0555   0.0448   0.1446  -0.0108   0.0485  -0.0561   3.00    0.0
2018/11/07 03:27:00.000  -74.425538484  163.418472969    64.7249   6  11   0.0690   0.0539   0.1796  -0.0137   0.0596  -0.0723   5.00    0.0
2018/11/07 03:27:30.000  -74.425538457  163.418473338    64.6467   6  11   0.0830   0.0636   0.2160  -0.0170   0.0713  -0.0889   6.00    0.0
2018/11/07 03:28:00.000  -74.425538532  163.418473659    64.6454   6  12   0.0673   0.0539   0.1788  -0.0175   0.0593  -0.0751   6.00    0.0
2018/11/07 03:28:30.000  -74.425538490  163.418473372    64.6455   6  12   0.0540   0.0449   0.1442  -0.0145   0.0487  -0.0588   6.00    0.0
2018/11/07 03:29:00.000  -74.425538407  163.418473262    64.6972   6  12   0.0422   0.0368   0.1126  -0.0115   0.0389  -0.0429   6.00    0.0
