% program   : RTKLIB ver.2.4.3
% inp file  : _by_type/_obs/blake/20181113.18o
% inp file  : _by_type/_sp3+clk/igs20272.clk
% inp file  : _by_type/_sp3+clk/igs20272.sp3
% inp file  : _by_type/_nav/blake/20181113.18n
% obs start : 2018/11/13 00:00:00.0 GPST (week2027 172800.0s)
% obs end   : 2018/11/13 23:59:45.0 GPST (week2027 259185.0s)
% pos mode  : ppp-kinematic
% solution  : combined
% elev mask : 15.0 deg
% dynamics  : off
% tidecorr  : on
% tropo opt : est ztd+grad
% ephemeris : precise
% navi sys  : gps glonass
% antenna1  :                       ( 0.0000  0.0000  0.0000)
%
% (lat/lon/height=WGS84/ellipsoidal,Q=1:fix,2:float,3:sbas,4:dgps,5:single,6:ppp,ns=# of satellites)
%  GPST                  latitude(deg) longitude(deg)  height(m)   Q  ns   sdn(m)   sde(m)   sdu(m)  sdne(m)  sdeu(m)  sdun(m) age(s)  ratio
2018/11/13 00:00:00.000  -74.407220736  163.437627204    80.0336   1  10   0.0181   0.0198   0.0671  -0.0123   0.0211  -0.0232   3.00    1.0
2018/11/13 00:00:15.000  -74.407220698  163.437626660    79.9563   1  10   0.0218   0.0238   0.0835  -0.0149   0.0291  -0.0282   2.00    1.0
2018/11/13 00:00:30.000  -74.407220714  163.437626828    79.9335   1  10   0.0282   0.0309   0.1109  -0.0188   0.0411  -0.0363   3.00    1.0
2018/11/13 00:00:45.000  -74.407220709  163.437626543    79.9030   6  10   0.0371   0.0394   0.1433  -0.0229   0.0546  -0.0447   0.00    0.0
2018/11/13 00:01:00.000  -74.407220703  163.437626450    79.9094   6  10   0.0450   0.0486   0.1774  -0.0280   0.0684  -0.0552   0.00    0.0
2018/11/13 00:01:15.000  -74.407220614  163.437626374    79.8907   6  11   0.0517   0.0579   0.2030  -0.0332   0.0825  -0.0718   1.00    0.0
2018/11/13 00:01:30.000  -74.407220583  163.437626091    79.8624   6  11   0.0598   0.0674   0.2364  -0.0384   0.0964  -0.0839   1.00    0.0
2018/11/13 00:01:45.000  -74.407220748  163.437626572    79.9274   6  11   0.0678   0.0767   0.2696  -0.0436   0.1101  -0.0958   2.00    0.0
2018/11/13 00:02:00.000  -74.407220743  163.437626158    79.8865   6  11   0.0758   0.0859   0.3024  -0.0486   0.1235  -0.1074   2.00    0.0
2018/11/13 00:02:15.000  -74.407220663  163.437625979    79.8559   6  11   0.0837   0.0948   0.3344  -0.0534   0.1364  -0.1188   3.00    0.0
2018/11/13 00:02:30.000  -74.407220577  163.437625748    79.8376   6  11   0.0914   0.1035   0.3656  -0.0581   0.1488  -0.1297   3.00    0.0
2018/11/13 00:02:45.000  -74.407220586  163.437625908    79.9032   6  11   0.0832   0.0945   0.3341  -0.0532   0.1364  -0.1184   4.00    0.0
2018/11/13 00:03:00.000  -74.407220783  163.437626155    79.9518   6  11   0.0751   0.0853   0.3019  -0.0481   0.1232  -0.1068   4.00    0.0
2018/11/13 00:03:15.000  -74.407220914  163.437626122    79.9529   6  11   0.0671   0.0761   0.2695  -0.0430   0.1099  -0.0952   4.00    0.0
2018/11/13 00:03:30.000  -74.407220871  163.437626204    79.9295   6  11   0.0591   0.0668   0.2370  -0.0380   0.0965  -0.0835   4.00    0.0
2018/11/13 00:03:45.000  -74.407220847  163.437626184    79.9180   6  11   0.0512   0.0576   0.2044  -0.0329   0.0830  -0.0719   4.00    0.0
2018/11/13 00:04:00.000  -74.407220865  163.437626805    79.9857   6  11   0.0435   0.0484   0.1722  -0.0279   0.0695  -0.0604   5.00    0.0
2018/11/13 00:04:15.000  -74.407220737  163.437626461    79.9340   6  11   0.0361   0.0395   0.1407  -0.0230   0.0561  -0.0491   5.00    0.0
2018/11/13 00:04:30.000  -74.407220774  163.437626695    79.9688   1  11   0.0271   0.0296   0.1122  -0.0176   0.0432  -0.0402   5.00    2.0
2018/11/13 00:04:45.000  -74.407220748  163.437626790    79.9677   1  11   0.0208   0.0218   0.0859  -0.0131   0.0310  -0.0311   5.00    2.0
2018/11/13 00:05:00.000  -74.407220727  163.437626729    79.9992   1  11   0.0172   0.0172   0.0698  -0.0097   0.0225  -0.0253   5.00    2.0
2018/11/13 00:05:15.000  -74.407220742  163.437626640    80.0243   1  11   0.0211   0.0218   0.0866  -0.0132   0.0312  -0.0315   5.00    2.0
2018/11/13 00:05:30.000  -74.407220758  163.437626829    80.0157   1  11   0.0273   0.0296   0.1136  -0.0178   0.0436  -0.0410   5.00    2.0
2018/11/13 00:05:45.000  -74.407220669  163.437626409    79.9313   6  11   0.0359   0.0391   0.1395  -0.0225   0.0552  -0.0484   6.00    0.0
2018/11/13 00:06:00.000  -74.407220623  163.437626139    79.8922   6  11   0.0427   0.0475   0.1685  -0.0267   0.0672  -0.0582   6.00    0.0
2018/11/13 00:06:15.000  -74.407220645  163.437626173    79.9042   6  11   0.0497   0.0558   0.1973  -0.0306   0.0787  -0.0676   6.00    0.0
2018/11/13 00:06:30.000  -74.407220713  163.437626050    79.9134   6  11   0.0567   0.0640   0.2254  -0.0344   0.0898  -0.0767   6.00    0.0
2018/11/13 00:06:45.000  -74.407220698  163.437625638    79.8846   6  11   0.0636   0.0721   0.2528  -0.0380   0.1004  -0.0854   7.00    0.0
2018/11/13 00:07:00.000  -74.407220693  163.437625569    79.8963   6  11   0.0703   0.0799   0.2796  -0.0415   0.1106  -0.0938   7.00    0.0
2018/11/13 00:07:15.000  -74.407220614  163.437625373    79.8792   6  11   0.0770   0.0875   0.3059  -0.0450   0.1206  -0.1020   7.00    0.0
2018/11/13 00:07:30.000  -74.407220539  163.437625031    79.8549   6  11   0.0835   0.0949   0.3318  -0.0483   0.1304  -0.1101   7.00    0.0
2018/11/13 00:07:45.000  -74.407220551  163.437624892    79.8325   6  11   0.0765   0.0871   0.3047  -0.0445   0.1196  -0.1014   7.00    0.0
2018/11/13 00:08:00.000  -74.407220707  163.437625123    79.8615   6  11   0.0697   0.0792   0.2783  -0.0409   0.1093  -0.0929   7.00    0.0
2018/11/13 00:08:15.000  -74.407220743  163.437625445    79.8947   6  11   0.0628   0.0713   0.2514  -0.0373   0.0989  -0.0843   7.00    0.0
2018/11/13 00:08:30.000  -74.407220681  163.437625431    79.8774   6  11   0.0559   0.0632   0.2239  -0.0335   0.0881  -0.0755   7.00    0.0
2018/11/13 00:08:45.000  -74.407220750  163.437626046    79.9481   6  11   0.0489   0.0550   0.1958  -0.0297   0.0771  -0.0665   7.00    0.0
2018/11/13 00:09:00.000  -74.407220782  163.437626283    79.9753   6  11   0.0421   0.0467   0.1673  -0.0258   0.0657  -0.0573   7.00    0.0
2018/11/13 00:09:15.000  -74.407220828  163.437626527    80.0240   6  11   0.0355   0.0385   0.1389  -0.0219   0.0541  -0.0481   7.00    0.0
2018/11/13 00:09:30.000  -74.407221013  163.437627411    80.1419   1  11   0.0278   0.0314   0.1165  -0.0180   0.0456  -0.0431   4.00    1.0
2018/11/13 00:09:45.000  -74.407220950  163.437627291    80.1072   1  11   0.0220   0.0243   0.0909  -0.0135   0.0343  -0.0346   4.00    1.0
2018/11/13 00:10:00.000  -74.407220831  163.437626824    80.0003   1  11   0.0186   0.0203   0.0757  -0.0108   0.0270  -0.0294   4.00    1.0
2018/11/13 00:10:15.000  -74.407220903  163.437626775    79.9909   1  11   0.0229   0.0245   0.0944  -0.0143   0.0352  -0.0370   4.00    1.0
2018/11/13 00:10:30.000  -74.407220938  163.437626520    79.9921   1  11   0.0300   0.0318   0.1240  -0.0193   0.0477  -0.0483   4.00    1.0
2018/11/13 00:10:45.000  -74.407220860  163.437625846    79.9434   6  11   0.0367   0.0378   0.1403  -0.0217   0.0530  -0.0506   7.00    0.0
2018/11/13 00:11:00.000  -74.407220901  163.437625717    79.9523   6  11   0.0432   0.0454   0.1661  -0.0249   0.0629  -0.0589   7.00    0.0
2018/11/13 00:11:15.000  -74.407220970  163.437625230    79.9454   6  11   0.0498   0.0531   0.1916  -0.0280   0.0726  -0.0669   7.00    0.0
2018/11/13 00:11:30.000  -74.407220937  163.437625065    79.9474   6  11   0.0563   0.0606   0.2170  -0.0311   0.0822  -0.0748   7.00    0.0
2018/11/13 00:11:45.000  -74.407220858  163.437624680    79.9060   6  11   0.0629   0.0681   0.2424  -0.0343   0.0917  -0.0827   7.00    0.0
2018/11/13 00:12:00.000  -74.407220791  163.437624342    79.9148   6  11   0.0694   0.0754   0.2679  -0.0376   0.1013  -0.0908   7.00    0.0
2018/11/13 00:12:15.000  -74.407220710  163.437624027    79.8821   6  11   0.0759   0.0826   0.2936  -0.0409   0.1111  -0.0991   7.00    0.0
2018/11/13 00:12:30.000  -74.407220717  163.437623453    79.8402   6  11   0.0824   0.0897   0.3194  -0.0445   0.1209  -0.1078   7.00    0.0
2018/11/13 00:12:45.000  -74.407220713  163.437622963    79.7694   6  11   0.0774   0.0825   0.2979  -0.0415   0.1115  -0.1032   7.00    0.0
2018/11/13 00:13:00.000  -74.407220742  163.437622985    79.7898   6  11   0.0734   0.0753   0.2801  -0.0392   0.1032  -0.1013   7.00    0.0
2018/11/13 00:13:15.000  -74.407220723  163.437623193    79.7542   6  11   0.0723   0.0682   0.2718  -0.0386   0.0971  -0.1063   7.00    0.0
2018/11/13 00:13:30.000  -74.407221135  163.437623959    79.9448   6  11   0.0596   0.0616   0.2344  -0.0348   0.0884  -0.0859   6.00    0.0
2018/11/13 00:13:45.000  -74.407221134  163.437624155    79.9608   6  11   0.0538   0.0535   0.2085  -0.0309   0.0770  -0.0787   6.00    0.0
2018/11/13 00:14:00.000  -74.407221270  163.437625227    80.0439   6  11   0.0515   0.0461   0.1966  -0.0296   0.0700  -0.0803   6.00    0.0
2018/11/13 00:14:15.000  -74.407221140  163.437625910    80.0461   6  11   0.0351   0.0374   0.1357  -0.0207   0.0515  -0.0468   6.00    0.0
2018/11/13 00:14:30.000  -74.407221195  163.437626781    80.1029   1  11   0.0287   0.0314   0.1199  -0.0186   0.0462  -0.0456   4.00    1.0
2018/11/13 00:14:45.000  -74.407221135  163.437626904    80.1012   1  11   0.0231   0.0246   0.0958  -0.0146   0.0357  -0.0378   4.00    1.0
2018/11/13 00:15:00.000  -74.407220954  163.437626790    80.0660   1  11   0.0200   0.0206   0.0820  -0.0122   0.0291  -0.0332   4.00    1.0
2018/11/13 00:15:15.000  -74.407221002  163.437626814    80.0910   1  11   0.0258   0.0249   0.1062  -0.0165   0.0384  -0.0443   4.00    1.0
2018/11/13 00:15:30.000  -74.407221014  163.437626375    80.0512   6  11   0.0336   0.0298   0.1246  -0.0188   0.0429  -0.0498   6.00    0.0
2018/11/13 00:15:45.000  -74.407221033  163.437626261    80.0467   6  11   0.0390   0.0372   0.1483  -0.0224   0.0535  -0.0570   6.00    0.0
2018/11/13 00:16:00.000  -74.407221244  163.437626504    80.1118   6  11   0.0465   0.0443   0.1752  -0.0255   0.0625  -0.0674   6.00    0.0
2018/11/13 00:16:15.000  -74.407221087  163.437625985    80.0598   6  11   0.0565   0.0517   0.2107  -0.0299   0.0735  -0.0837   6.00    0.0
2018/11/13 00:16:30.000  -74.407221074  163.437625669    80.0792   6  11   0.0711   0.0616   0.2732  -0.0410   0.0967  -0.1140   6.00    0.0
2018/11/13 00:16:45.000  -74.407221136  163.437625225    80.0803   6  11   0.0613   0.0671   0.2423  -0.0351   0.0927  -0.0823   6.00    0.0
2018/11/13 00:17:00.000  -74.407221118  163.437624706    80.0428   6  11   0.0661   0.0733   0.2586  -0.0364   0.0984  -0.0850   6.00    0.0
2018/11/13 00:17:15.000  -74.407221014  163.437624776    80.0545   6  11   0.0715   0.0797   0.2787  -0.0386   0.1059  -0.0901   6.00    0.0
2018/11/13 00:17:30.000  -74.407220996  163.437624888    80.0519   6  11   0.0770   0.0863   0.3001  -0.0413   0.1141  -0.0962   6.00    0.0
2018/11/13 00:17:45.000  -74.407220969  163.437625007    80.0386   6  11   0.0707   0.0792   0.2745  -0.0375   0.1041  -0.0871   6.00    0.0
2018/11/13 00:18:00.000  -74.407220890  163.437624829    79.9633   6  11   0.0643   0.0720   0.2485  -0.0337   0.0939  -0.0783   6.00    0.0
2018/11/13 00:18:15.000  -74.407220916  163.437625162    79.9529   6  11   0.0579   0.0648   0.2228  -0.0302   0.0839  -0.0700   6.00    0.0
2018/11/13 00:18:30.000  -74.407220969  163.437625213    79.9273   6  11   0.0516   0.0575   0.1975  -0.0268   0.0741  -0.0620   6.00    0.0
2018/11/13 00:18:45.000  -74.407220877  163.437625028    79.8876   6  11   0.0453   0.0501   0.1727  -0.0236   0.0644  -0.0545   6.00    0.0
2018/11/13 00:19:00.000  -74.407221001  163.437625967    79.9495   6  11   0.0393   0.0428   0.1486  -0.0207   0.0551  -0.0475   6.00    0.0
2018/11/13 00:19:15.000  -74.407221010  163.437626393    80.0167   6  11   0.0335   0.0356   0.1256  -0.0180   0.0461  -0.0410   6.00    0.0
2018/11/13 00:19:30.000  -74.407221210  163.437627430    80.1282   1  11   0.0291   0.0312   0.1207  -0.0188   0.0459  -0.0463   4.00    1.0
2018/11/13 00:19:45.000  -74.407221057  163.437626909    80.0867   1  11   0.0237   0.0246   0.0984  -0.0155   0.0363  -0.0394   4.00    1.0
2018/11/13 00:20:00.000  -74.407220967  163.437626574    80.0562   1  11   0.0205   0.0208   0.0849  -0.0132   0.0303  -0.0349   4.00    1.0
2018/11/13 00:20:15.000  -74.407220960  163.437626790    80.0958   1  11   0.0259   0.0250   0.1070  -0.0167   0.0386  -0.0446   4.00    1.0
2018/11/13 00:20:30.000  -74.407220835  163.437626500    80.0477   6  11   0.0301   0.0283   0.1091  -0.0155   0.0368  -0.0399   6.00    0.0
2018/11/13 00:20:45.000  -74.407220724  163.437625973    80.0281   6  11   0.0368   0.0347   0.1336  -0.0181   0.0449  -0.0494   6.00    0.0
2018/11/13 00:21:00.000  -74.407220620  163.437625782    80.0118   6  11   0.0455   0.0416   0.1643  -0.0215   0.0542  -0.0631   6.00    0.0
2018/11/13 00:21:15.000  -74.407220806  163.437625895    80.1208   6  11   0.0628   0.0521   0.2408  -0.0354   0.0822  -0.1018   6.00    0.0
2018/11/13 00:21:30.000  -74.407220693  163.437625461    80.0758   6  11   0.0536   0.0574   0.2070  -0.0295   0.0775  -0.0701   6.00    0.0
2018/11/13 00:21:45.000  -74.407220596  163.437625036    80.0635   6  11   0.0583   0.0634   0.2219  -0.0305   0.0826  -0.0723   6.00    0.0
2018/11/13 00:22:00.000  -74.407220554  163.437624905    80.0393   6  11   0.0634   0.0696   0.2400  -0.0324   0.0892  -0.0765   6.00    0.0
2018/11/13 00:22:15.000  -74.407220493  163.437624452    80.0109   6  11   0.0688   0.0759   0.2597  -0.0347   0.0967  -0.0817   6.00    0.0
2018/11/13 00:22:30.000  -74.407220488  163.437624916    80.0586   6  11   0.0741   0.0822   0.2800  -0.0373   0.1045  -0.0876   6.00    0.0
2018/11/13 00:22:45.000  -74.407220569  163.437625331    80.0992   6  11   0.0680   0.0755   0.2555  -0.0338   0.0947  -0.0793   6.00    0.0
2018/11/13 00:23:00.000  -74.407220792  163.437625073    80.0910   6  11   0.0619   0.0687   0.2313  -0.0304   0.0852  -0.0712   6.00    0.0
2018/11/13 00:23:15.000  -74.407220809  163.437624673    80.0469   6  11   0.0559   0.0618   0.2074  -0.0271   0.0759  -0.0634   6.00    0.0
2018/11/13 00:23:30.000  -74.407220856  163.437624619    80.0241   6  11   0.0498   0.0549   0.1839  -0.0239   0.0667  -0.0561   6.00    0.0
2018/11/13 00:23:45.000  -74.407220952  163.437625197    80.0451   6  11   0.0439   0.0480   0.1610  -0.0210   0.0579  -0.0492   6.00    0.0
2018/11/13 00:24:00.000  -74.407221001  163.437625375    80.0263   6  11   0.0381   0.0410   0.1388  -0.0184   0.0493  -0.0429   6.00    0.0
2018/11/13 00:24:15.000  -74.407220918  163.437625887    80.0335   6  11   0.0325   0.0341   0.1179  -0.0160   0.0411  -0.0373   6.00    0.0
2018/11/13 00:24:30.000  -74.407221170  163.437626864    80.1350   1  11   0.0293   0.0306   0.1194  -0.0185   0.0439  -0.0464   4.00    1.0
2018/11/13 00:24:45.000  -74.407221151  163.437626729    80.1134   1  11   0.0243   0.0242   0.0994  -0.0155   0.0354  -0.0403   4.00    1.0
2018/11/13 00:25:00.000  -74.407221156  163.437626561    80.1077   1  11   0.0212   0.0207   0.0874  -0.0134   0.0300  -0.0364   4.00    1.0
2018/11/13 00:25:15.000  -74.407221245  163.437626819    80.1468   1  11   0.0266   0.0245   0.1101  -0.0168   0.0377  -0.0463   4.00    1.0
2018/11/13 00:25:30.000  -74.407220873  163.437625842    79.9637   6  11   0.0293   0.0271   0.1042  -0.0135   0.0320  -0.0372   6.00    0.0
2018/11/13 00:25:45.000  -74.407220796  163.437626131    79.9647   6  11   0.0368   0.0333   0.1298  -0.0160   0.0394  -0.0485   6.00    0.0
2018/11/13 00:26:00.000  -74.407220845  163.437626342    80.0298   6  10   0.0522   0.0424   0.1972  -0.0276   0.0635  -0.0829   6.00    0.0
2018/11/13 00:26:15.000  -74.407220692  163.437625994    79.9882   6  10   0.0620   0.0497   0.2348  -0.0331   0.0761  -0.0999   6.00    0.0
2018/11/13 00:26:30.000  -74.407220540  163.437625266    79.9013   6  10   0.0719   0.0570   0.2727  -0.0387   0.0888  -0.1171   6.00    0.0
2018/11/13 00:26:45.000  -74.407220563  163.437625432    79.9324   6  10   0.0818   0.0641   0.3108  -0.0444   0.1016  -0.1345   6.00    0.0
2018/11/13 00:27:00.000  -74.407220451  163.437624826    79.9050   6  10   0.0916   0.0711   0.3487  -0.0501   0.1142  -0.1519   6.00    0.0
2018/11/13 00:27:15.000  -74.407220341  163.437624544    79.8636   6  10   0.1014   0.0780   0.3866  -0.0558   0.1268  -0.1693   6.00    0.0
2018/11/13 00:27:30.000  -74.407220333  163.437624845    79.9164   6  10   0.1112   0.0848   0.4241  -0.0615   0.1392  -0.1867   6.00    0.0
2018/11/13 00:27:45.000  -74.407220416  163.437625426    79.9373   6  10   0.1013   0.0776   0.3856  -0.0554   0.1257  -0.1688   6.00    0.0
2018/11/13 00:28:00.000  -74.407220529  163.437625546    79.9551   6  10   0.0912   0.0703   0.3461  -0.0492   0.1119  -0.1506   6.00    0.0
2018/11/13 00:28:15.000  -74.407220689  163.437626059    80.0220   6  10   0.0811   0.0631   0.3070  -0.0431   0.0984  -0.1327   6.00    0.0
2018/11/13 00:28:30.000  -74.407220591  163.437625951    79.9225   6  10   0.0711   0.0558   0.2684  -0.0371   0.0850  -0.1149   6.00    0.0
2018/11/13 00:28:45.000  -74.407220641  163.437625988    79.9114   6  10   0.0612   0.0485   0.2307  -0.0313   0.0719  -0.0975   6.00    0.0
2018/11/13 00:29:00.000  -74.407220778  163.437625979    79.9447   6  10   0.0514   0.0412   0.1942  -0.0258   0.0591  -0.0806   6.00    0.0
2018/11/13 00:29:15.000  -74.407220915  163.437625977    79.9828   6  10   0.0419   0.0341   0.1598  -0.0206   0.0467  -0.0643   6.00    0.0
2018/11/13 00:29:30.000  -74.407220919  163.437625613    79.9314   6  10   0.0330   0.0274   0.1297  -0.0160   0.0347  -0.0490   6.00    0.0
2018/11/13 00:29:45.000  -74.407221292  163.437626586    80.0641   1   9   0.0298   0.0227   0.1309  -0.0169   0.0381  -0.0549   5.00    2.0
2018/11/13 00:30:00.000  -74.407221219  163.437626633    80.0485   1   9   0.0232   0.0190   0.1009  -0.0130   0.0298  -0.0423   5.00    2.0
2018/11/13 00:30:15.000  -74.407221111  163.437626186    80.0550   1   9   0.0294   0.0226   0.1289  -0.0167   0.0375  -0.0541   5.00    2.0
2018/11/13 00:30:30.000  -74.407220762  163.437624910    79.9269   6   9   0.0331   0.0271   0.1302  -0.0158   0.0343  -0.0495   6.00    0.0
2018/11/13 00:30:45.000  -74.407220833  163.437624996    80.0624   6   9   0.0421   0.0336   0.1690  -0.0201   0.0445  -0.0660   6.00    0.0
2018/11/13 00:31:00.000  -74.407220734  163.437624741    80.0492   6   9   0.0516   0.0404   0.2101  -0.0248   0.0554  -0.0834   6.00    0.0
2018/11/13 00:31:15.000  -74.407220698  163.437624742    80.0364   6   9   0.0613   0.0472   0.2521  -0.0296   0.0666  -0.1011   6.00    0.0
2018/11/13 00:31:30.000  -74.407220664  163.437624596    79.9979   6   9   0.0710   0.0539   0.2945  -0.0346   0.0778  -0.1191   6.00    0.0
2018/11/13 00:31:45.000  -74.407220750  163.437624390    80.0757   6   9   0.0808   0.0604   0.3369  -0.0395   0.0890  -0.1372   6.00    0.0
2018/11/13 00:32:00.000  -74.407220552  163.437623923    79.9509   6   9   0.0904   0.0669   0.3794  -0.0444   0.1000  -0.1552   6.00    0.0
2018/11/13 00:32:15.000  -74.407220718  163.437624091    80.0598   6   9   0.1000   0.0733   0.4216  -0.0492   0.1109  -0.1732   6.00    0.0
2018/11/13 00:32:30.000  -74.407220527  163.437623980    79.9717   6  10   0.0864   0.0792   0.3345  -0.0484   0.1098  -0.1219   6.00    0.0
2018/11/13 00:32:45.000  -74.407220584  163.437623919    79.9993   6  10   0.0772   0.0723   0.2917  -0.0425   0.0966  -0.1032   6.00    0.0
2018/11/13 00:33:00.000  -74.407220650  163.437624669    80.0088   6  10   0.0692   0.0655   0.2579  -0.0375   0.0852  -0.0892   6.00    0.0
2018/11/13 00:33:15.000  -74.407220759  163.437624987    80.0137   6  10   0.0618   0.0588   0.2275  -0.0329   0.0746  -0.0772   6.00    0.0
2018/11/13 00:33:30.000  -74.407220755  163.437624973    79.9997   6  10   0.0546   0.0521   0.1989  -0.0285   0.0644  -0.0663   6.00    0.0
2018/11/13 00:33:45.000  -74.407220838  163.437625380    80.0409   6  10   0.0476   0.0454   0.1716  -0.0243   0.0546  -0.0562   6.00    0.0
2018/11/13 00:34:00.000  -74.407220881  163.437625327    80.0372   6  10   0.0407   0.0387   0.1453  -0.0203   0.0452  -0.0468   6.00    0.0
2018/11/13 00:34:15.000  -74.407220969  163.437625624    80.0290   6  10   0.0340   0.0321   0.1201  -0.0165   0.0362  -0.0381   6.00    0.0
2018/11/13 00:34:30.000  -74.407221328  163.437626865    80.1060   1  10   0.0308   0.0280   0.1232  -0.0179   0.0398  -0.0477   6.00    2.0
2018/11/13 00:34:45.000  -74.407221228  163.437626784    80.0819   1  10   0.0242   0.0215   0.0977  -0.0136   0.0304  -0.0390   5.00    2.0
2018/11/13 00:35:00.000  -74.407221214  163.437626349    80.0235   1  10   0.0202   0.0179   0.0823  -0.0109   0.0251  -0.0336   6.00    2.0
2018/11/13 00:35:15.000  -74.407221174  163.437626368    79.9869   1  10   0.0249   0.0214   0.1019  -0.0135   0.0304  -0.0412   6.00    2.0
2018/11/13 00:35:30.000  -74.407221072  163.437626429    79.9637   1  10   0.0324   0.0278   0.1333  -0.0178   0.0397  -0.0529   6.00    2.0
2018/11/13 00:35:45.000  -74.407220667  163.437625555    79.8709   6  10   0.0339   0.0314   0.1182  -0.0145   0.0315  -0.0378   6.00    0.0
2018/11/13 00:36:00.000  -74.407220565  163.437625300    79.8838   6  10   0.0404   0.0377   0.1424  -0.0178   0.0393  -0.0462   6.00    0.0
2018/11/13 00:36:15.000  -74.407220552  163.437625662    79.9715   6  10   0.0470   0.0440   0.1676  -0.0213   0.0476  -0.0551   6.00    0.0
2018/11/13 00:36:30.000  -74.407220609  163.437625807    80.0144   6  10   0.0536   0.0502   0.1933  -0.0249   0.0561  -0.0643   6.00    0.0
2018/11/13 00:36:45.000  -74.407220764  163.437625596    80.0034   6  10   0.0603   0.0564   0.2194  -0.0287   0.0647  -0.0738   6.00    0.0
2018/11/13 00:37:00.000  -74.407220689  163.437625370    79.9401   6  10   0.0670   0.0625   0.2458  -0.0325   0.0733  -0.0835   6.00    0.0
2018/11/13 00:37:15.000  -74.407220776  163.437624981    79.9510   6  10   0.0737   0.0686   0.2726  -0.0363   0.0819  -0.0934   6.00    0.0
2018/11/13 00:37:30.000  -74.407220738  163.437625046    79.9341   6  10   0.0804   0.0746   0.2996  -0.0402   0.0904  -0.1034   7.00    0.0
2018/11/13 00:37:45.000  -74.407220718  163.437625391    79.9543   6  10   0.0744   0.0684   0.2774  -0.0358   0.0806  -0.0963   7.00    0.0
2018/11/13 00:38:00.000  -74.407220775  163.437625866    80.0065   6  10   0.0688   0.0621   0.2573  -0.0312   0.0703  -0.0906   7.00    0.0
2018/11/13 00:38:15.000  -74.407220790  163.437625994    80.0080   6  10   0.0643   0.0560   0.2427  -0.0260   0.0586  -0.0883   7.00    0.0
2018/11/13 00:38:30.000  -74.407220973  163.437626187    80.1009   6  10   0.0572   0.0499   0.2204  -0.0269   0.0602  -0.0793   6.00    0.0
2018/11/13 00:38:45.000  -74.407220993  163.437625820    80.1080   6  10   0.0492   0.0435   0.1849  -0.0220   0.0487  -0.0649   6.00    0.0
2018/11/13 00:39:00.000  -74.407220961  163.437626045    80.0789   6  10   0.0424   0.0372   0.1577  -0.0174   0.0381  -0.0552   6.00    0.0
2018/11/13 00:39:15.000  -74.407220945  163.437626194    80.0237   6  10   0.0367   0.0312   0.1369  -0.0125   0.0267  -0.0494   6.00    0.0
2018/11/13 00:39:30.000  -74.407221029  163.437626050    80.0041   6  10   0.0304   0.0253   0.1132  -0.0106   0.0220  -0.0408   6.00    0.0
2018/11/13 00:39:45.000  -74.407221280  163.437625917    80.0433   1  10   0.0218   0.0210   0.0883  -0.0124   0.0284  -0.0327   5.00    2.0
2018/11/13 00:40:00.000  -74.407221259  163.437625502    80.0175   1  10   0.0181   0.0174   0.0721  -0.0102   0.0239  -0.0273   5.00    2.0
2018/11/13 00:40:15.000  -74.407221331  163.437625534    80.0936   1  10   0.0217   0.0208   0.0876  -0.0122   0.0280  -0.0323   5.00    2.0
2018/11/13 00:40:30.000  -74.407221316  163.437625541    80.1003   1  10   0.0285   0.0269   0.1142  -0.0160   0.0357  -0.0414   5.00    2.0
2018/11/13 00:40:45.000  -74.407220969  163.437624463    79.9916   6  10   0.0320   0.0303   0.1087  -0.0136   0.0287  -0.0315   6.00    0.0
2018/11/13 00:41:00.000  -74.407220939  163.437624562    79.9704   6  10   0.0382   0.0362   0.1322  -0.0166   0.0360  -0.0397   6.00    0.0
2018/11/13 00:41:15.000  -74.407220919  163.437624310    79.9464   6  10   0.0445   0.0421   0.1568  -0.0198   0.0435  -0.0483   6.00    0.0
2018/11/13 00:41:30.000  -74.407220891  163.437624585    79.9869   6  10   0.0510   0.0480   0.1819  -0.0232   0.0512  -0.0573   6.00    0.0
2018/11/13 00:41:45.000  -74.407220860  163.437624743    79.9911   6  10   0.0574   0.0538   0.2073  -0.0266   0.0588  -0.0665   6.00    0.0
2018/11/13 00:42:00.000  -74.407220800  163.437624999    79.9895   6  10   0.0638   0.0597   0.2330  -0.0301   0.0665  -0.0757   6.00    0.0
2018/11/13 00:42:15.000  -74.407220881  163.437625278    80.0253   6  10   0.0703   0.0655   0.2588  -0.0335   0.0741  -0.0850   6.00    0.0
2018/11/13 00:42:30.000  -74.407220849  163.437625826    80.0257   6  10   0.0768   0.0712   0.2846  -0.0370   0.0815  -0.0943   6.00    0.0
2018/11/13 00:42:45.000  -74.407220816  163.437625589    80.0068   6  10   0.0703   0.0652   0.2597  -0.0332   0.0730  -0.0850   7.00    0.0
2018/11/13 00:43:00.000  -74.407220890  163.437625401    80.0501   6  10   0.0638   0.0592   0.2337  -0.0294   0.0646  -0.0755   7.00    0.0
2018/11/13 00:43:15.000  -74.407220906  163.437625320    80.1237   6  10   0.0572   0.0533   0.2078  -0.0257   0.0563  -0.0661   7.00    0.0
2018/11/13 00:43:30.000  -74.407220947  163.437625513    80.2041   6  10   0.0508   0.0473   0.1820  -0.0222   0.0482  -0.0568   7.00    0.0
2018/11/13 00:43:45.000  -74.407221028  163.437625626    80.1326   6  10   0.0443   0.0414   0.1565  -0.0187   0.0402  -0.0477   7.00    0.0
2018/11/13 00:44:00.000  -74.407221101  163.437625701    80.0858   6  10   0.0379   0.0354   0.1315  -0.0155   0.0326  -0.0387   7.00    0.0
2018/11/13 00:44:15.000  -74.407221162  163.437625750    80.0469   6  10   0.0316   0.0296   0.1073  -0.0125   0.0253  -0.0301   7.00    0.0
2018/11/13 00:44:30.000  -74.407221438  163.437626074    80.0708   1  10   0.0281   0.0260   0.1124  -0.0149   0.0321  -0.0399   5.00    2.0
2018/11/13 00:44:45.000  -74.407221365  163.437625796    80.0486   1  10   0.0213   0.0200   0.0848  -0.0113   0.0249  -0.0306   5.00    2.0
2018/11/13 00:45:00.000  -74.407221279  163.437625435    80.0003   1  10   0.0175   0.0170   0.0677  -0.0091   0.0212  -0.0252   5.00    2.0
2018/11/13 00:45:15.000  -74.407221354  163.437625505    80.0209   1  10   0.0211   0.0198   0.0838  -0.0111   0.0245  -0.0302   5.00    2.0
2018/11/13 00:45:30.000  -74.407221427  163.437625613    80.0216   1  10   0.0279   0.0257   0.1111  -0.0144   0.0310  -0.0392   5.00    2.0
2018/11/13 00:45:45.000  -74.407221121  163.437625104    80.0181   6  10   0.0312   0.0291   0.1054  -0.0118   0.0239  -0.0295   7.00    0.0
2018/11/13 00:46:00.000  -74.407221101  163.437624996    80.0388   6  10   0.0374   0.0347   0.1292  -0.0145   0.0304  -0.0380   7.00    0.0
2018/11/13 00:46:15.000  -74.407221054  163.437625092    80.1174   6  10   0.0436   0.0403   0.1538  -0.0173   0.0370  -0.0468   7.00    0.0
2018/11/13 00:46:30.000  -74.407221041  163.437624924    80.1550   6  10   0.0499   0.0459   0.1788  -0.0203   0.0436  -0.0557   7.00    0.0
2018/11/13 00:46:45.000  -74.407220968  163.437624745    80.0966   6  10   0.0563   0.0515   0.2040  -0.0234   0.0502  -0.0648   7.00    0.0
2018/11/13 00:47:00.000  -74.407220842  163.437624417    80.0222   6  10   0.0627   0.0570   0.2294  -0.0265   0.0567  -0.0739   7.00    0.0
2018/11/13 00:47:15.000  -74.407220743  163.437624739    79.9798   6  10   0.0691   0.0626   0.2549  -0.0296   0.0630  -0.0829   7.00    0.0
2018/11/13 00:47:30.000  -74.407220701  163.437624736    79.9625   6  10   0.0755   0.0681   0.2803  -0.0327   0.0692  -0.0920   7.00    0.0
2018/11/13 00:47:45.000  -74.407220696  163.437624673    79.9301   6  10   0.0691   0.0625   0.2543  -0.0291   0.0617  -0.0827   7.00    0.0
2018/11/13 00:48:00.000  -74.407220746  163.437624608    79.8747   6  10   0.0627   0.0567   0.2284  -0.0257   0.0543  -0.0734   7.00    0.0
2018/11/13 00:48:15.000  -74.407220806  163.437624427    79.8954   6  10   0.0562   0.0511   0.2026  -0.0223   0.0470  -0.0641   7.00    0.0
2018/11/13 00:48:30.000  -74.407220820  163.437624309    79.8423   6  10   0.0498   0.0454   0.1770  -0.0191   0.0399  -0.0548   7.00    0.0
2018/11/13 00:48:45.000  -74.407220770  163.437623833    79.7941   6  10   0.0434   0.0398   0.1517  -0.0160   0.0330  -0.0457   7.00    0.0
2018/11/13 00:49:00.000  -74.407220882  163.437624419    79.8216   6  10   0.0372   0.0342   0.1269  -0.0131   0.0263  -0.0367   7.00    0.0
2018/11/13 00:49:15.000  -74.407221291  163.437624985    79.9091   1  10   0.0359   0.0321   0.1396  -0.0169   0.0343  -0.0483   5.00    2.0
2018/11/13 00:49:30.000  -74.407221251  163.437624831    79.9152   1  10   0.0278   0.0251   0.1074  -0.0131   0.0269  -0.0375   5.00    2.0
2018/11/13 00:49:45.000  -74.407221264  163.437624905    79.9616   1  10   0.0210   0.0194   0.0797  -0.0101   0.0212  -0.0284   5.00    2.0
2018/11/13 00:50:00.000  -74.407221282  163.437625042    79.9673   1  10   0.0170   0.0161   0.0629  -0.0085   0.0183  -0.0233   5.00    2.0
2018/11/13 00:50:15.000  -74.407221252  163.437624962    79.9653   1  10   0.0209   0.0193   0.0791  -0.0100   0.0208  -0.0281   5.00    2.0
2018/11/13 00:50:30.000  -74.407221225  163.437625200    79.9823   1  10   0.0276   0.0249   0.1061  -0.0129   0.0258  -0.0369   5.00    2.0
2018/11/13 00:50:45.000  -74.407221205  163.437625214    79.9606   1  10   0.0357   0.0318   0.1377  -0.0163   0.0321  -0.0474   5.00    2.0
2018/11/13 00:51:00.000  -74.407220787  163.437624983    79.9252   6  10   0.0367   0.0335   0.1246  -0.0120   0.0238  -0.0359   7.00    0.0
2018/11/13 00:51:15.000  -74.407220743  163.437625119    79.9674   6  10   0.0428   0.0388   0.1486  -0.0144   0.0292  -0.0445   7.00    0.0
2018/11/13 00:51:30.000  -74.407220666  163.437625425    79.9846   6  10   0.0490   0.0442   0.1730  -0.0170   0.0345  -0.0533   7.00    0.0
2018/11/13 00:51:45.000  -74.407220636  163.437625587    79.9753   6  10   0.0552   0.0495   0.1976  -0.0197   0.0396  -0.0620   7.00    0.0
2018/11/13 00:52:00.000  -74.407220615  163.437625415    79.9662   6  10   0.0615   0.0549   0.2223  -0.0224   0.0446  -0.0707   7.00    0.0
2018/11/13 00:52:15.000  -74.407220622  163.437625216    79.9765   6  10   0.0678   0.0603   0.2470  -0.0251   0.0494  -0.0793   7.00    0.0
2018/11/13 00:52:30.000  -74.407220531  163.437624496    79.9302   6  10   0.0742   0.0656   0.2716  -0.0278   0.0540  -0.0879   7.00    0.0
2018/11/13 00:52:45.000  -74.407220642  163.437624200    79.9268   6  10   0.0680   0.0603   0.2469  -0.0250   0.0485  -0.0793   7.00    0.0
2018/11/13 00:53:00.000  -74.407220675  163.437624123    79.9732   6  10   0.0615   0.0548   0.2215  -0.0219   0.0424  -0.0703   7.00    0.0
2018/11/13 00:53:15.000  -74.407220689  163.437624186    79.9649   6  10   0.0552   0.0493   0.1963  -0.0189   0.0365  -0.0613   7.00    0.0
2018/11/13 00:53:30.000  -74.407220658  163.437623980    79.9249   6  11   0.0432   0.0427   0.1491  -0.0052   0.0097  -0.0283   7.00    0.0
2018/11/13 00:53:45.000  -74.407220731  163.437624144    79.9105   6  11   0.0374   0.0375   0.1252   0.0020  -0.0070  -0.0182   7.00    0.0
2018/11/13 00:54:00.000  -74.407221121  163.437624371    79.8829   1  11   0.0361   0.0371   0.1346  -0.0080  -0.0007  -0.0258   5.00    2.0
2018/11/13 00:54:15.000  -74.407221173  163.437624442    79.8919   1  11   0.0294   0.0302   0.1097  -0.0074   0.0081  -0.0230   5.00    2.0
2018/11/13 00:54:30.000  -74.407221192  163.437624491    79.8877   1  11   0.0232   0.0238   0.0864  -0.0068   0.0109  -0.0205   5.00    2.0
2018/11/13 00:54:45.000  -74.407221204  163.437624626    79.9056   1  11   0.0182   0.0184   0.0664  -0.0066   0.0123  -0.0182   5.00    2.0
2018/11/13 00:55:00.000  -74.407221207  163.437624865    79.9137   1  11   0.0154   0.0154   0.0539  -0.0061   0.0126  -0.0168   5.00    2.0
2018/11/13 00:55:15.000  -74.407221152  163.437624943    79.9252   1  11   0.0180   0.0185   0.0661  -0.0064   0.0117  -0.0180   5.00    2.0
2018/11/13 00:55:30.000  -74.407221118  163.437625049    79.9269   1  11   0.0231   0.0236   0.0861  -0.0067   0.0094  -0.0202   5.00    2.0
2018/11/13 00:55:45.000  -74.407221144  163.437624851    79.9252   1  11   0.0293   0.0301   0.1096  -0.0070   0.0003  -0.0229   5.00    2.0
2018/11/13 00:56:00.000  -74.407221133  163.437624742    79.9260   1  11   0.0360   0.0370   0.1350  -0.0072  -0.0112  -0.0262   5.00    2.0
2018/11/13 00:56:15.000  -74.407220696  163.437624649    79.8933   6  11   0.0361   0.0367   0.1181   0.0071  -0.0170  -0.0053   7.00    0.0
2018/11/13 00:56:30.000  -74.407220602  163.437624611    79.8755   6  11   0.0409   0.0416   0.1368   0.0080  -0.0199  -0.0113   7.00    0.0
2018/11/13 00:56:45.000  -74.407220586  163.437624975    79.8798   6  11   0.0458   0.0467   0.1559   0.0087  -0.0228  -0.0161   7.00    0.0
2018/11/13 00:57:00.000  -74.407220685  163.437625230    79.8944   6  11   0.0507   0.0517   0.1753   0.0093  -0.0259  -0.0207   7.00    0.0
2018/11/13 00:57:15.000  -74.407220770  163.437625369    79.8881   6  12   0.0545   0.0546   0.1879  -0.0090  -0.0407  -0.0348   7.00    0.0
2018/11/13 00:57:30.000  -74.407220765  163.437625468    79.9391   6  12   0.0594   0.0592   0.2046  -0.0111  -0.0471  -0.0407   8.00    0.0
2018/11/13 00:57:45.000  -74.407220799  163.437625381    79.9889   6  12   0.0543   0.0542   0.1857  -0.0096  -0.0435  -0.0361   8.00    0.0
2018/11/13 00:58:00.000  -74.407220752  163.437625436    80.0460   6  12   0.0494   0.0493   0.1674  -0.0082  -0.0397  -0.0317   8.00    0.0
2018/11/13 00:58:15.000  -74.407220787  163.437625044    80.0234   6  12   0.0445   0.0445   0.1491  -0.0068  -0.0356  -0.0271   8.00    0.0
2018/11/13 00:58:30.000  -74.407220861  163.437625096    80.0184   6  12   0.0397   0.0397   0.1311  -0.0056  -0.0315  -0.0224   8.00    0.0
2018/11/13 00:58:45.000  -74.407220917  163.437625061    79.9911   6  12   0.0350   0.0349   0.1132  -0.0047  -0.0273  -0.0175   8.00    1.0
2018/11/13 00:59:00.000  -74.407221383  163.437624859    79.9523   1  12   0.0351   0.0351   0.1290  -0.0107  -0.0279  -0.0317   6.00    2.0
2018/11/13 00:59:15.000  -74.407221325  163.437624782    79.9217   1  12   0.0285   0.0285   0.1047  -0.0090  -0.0208  -0.0264   6.00    2.0
2018/11/13 00:59:30.000  -74.407221338  163.437624976    79.9066   1  12   0.0225   0.0225   0.0820  -0.0074  -0.0132  -0.0217   6.00    2.0
2018/11/13 00:59:45.000  -74.407220979  163.437625834    79.8939   1  12   0.0153   0.0142   0.0470  -0.0064  -0.0115  -0.0097   8.00    1.0
2018/11/13 01:00:00.000  -74.407221249  163.437624866    79.9078   1  12   0.0150   0.0148   0.0507  -0.0059   0.0073  -0.0161   6.00    2.0
2018/11/13 01:00:15.000  -74.407221134  163.437624852    79.9099   1  12   0.0176   0.0176   0.0624  -0.0064  -0.0042  -0.0179   6.00    2.0
2018/11/13 01:00:30.000  -74.407221097  163.437624701    79.9172   1  12   0.0225   0.0225   0.0819  -0.0077  -0.0142  -0.0215   6.00    2.0
2018/11/13 01:00:45.000  -74.407221056  163.437624785    79.9277   1  12   0.0284   0.0285   0.1050  -0.0088  -0.0219  -0.0264   6.00    2.0
2018/11/13 01:01:00.000  -74.407221041  163.437624702    79.8930   1  12   0.0350   0.0350   0.1300  -0.0103  -0.0293  -0.0319   6.00    2.0
2018/11/13 01:01:15.000  -74.407220500  163.437624319    79.8788   6  12   0.0347   0.0344   0.1137  -0.0031  -0.0285  -0.0185   8.00    0.0
2018/11/13 01:01:30.000  -74.407220403  163.437624197    79.8897   6  12   0.0394   0.0390   0.1322  -0.0040  -0.0332  -0.0238   8.00    0.0
2018/11/13 01:01:45.000  -74.407220363  163.437624163    79.9323   6  12   0.0442   0.0437   0.1510  -0.0052  -0.0381  -0.0291   9.00    0.0
2018/11/13 01:02:00.000  -74.407220322  163.437624429    79.8976   6  12   0.0490   0.0485   0.1701  -0.0065  -0.0430  -0.0343   9.00    0.0
2018/11/13 01:02:15.000  -74.407220279  163.437624322    79.8717   6  12   0.0539   0.0534   0.1893  -0.0079  -0.0479  -0.0395   9.00    0.0
2018/11/13 01:02:30.000  -74.407220264  163.437624344    79.8749   6  12   0.0589   0.0582   0.2086  -0.0093  -0.0530  -0.0447   9.00    0.0
2018/11/13 01:02:45.000  -74.407220466  163.437624463    79.8551   6  12   0.0541   0.0533   0.1895  -0.0076  -0.0483  -0.0399   9.00    0.0
2018/11/13 01:03:00.000  -74.407220606  163.437624467    79.8862   6  12   0.0491   0.0485   0.1706  -0.0059  -0.0436  -0.0349   9.00    0.0
2018/11/13 01:03:15.000  -74.407220596  163.437624393    79.9148   6  12   0.0443   0.0437   0.1518  -0.0043  -0.0389  -0.0298   9.00    0.0
2018/11/13 01:03:30.000  -74.407220576  163.437624352    79.9051   6  12   0.0395   0.0389   0.1331  -0.0027  -0.0342  -0.0246   9.00    0.0
2018/11/13 01:03:45.000  -74.407220641  163.437624599    79.9216   6  12   0.0347   0.0342   0.1146  -0.0013  -0.0295  -0.0193   9.00    0.0
2018/11/13 01:04:00.000  -74.407221129  163.437624690    79.9262   1  12   0.0352   0.0349   0.1311  -0.0096  -0.0312  -0.0324   6.00    2.0
2018/11/13 01:04:15.000  -74.407220681  163.437625858    79.9040   1  12   0.0233   0.0217   0.0773  -0.0088  -0.0218  -0.0142   9.00    1.0
2018/11/13 01:04:30.000  -74.407221159  163.437625162    79.9200   1  12   0.0225   0.0224   0.0817  -0.0070  -0.0166  -0.0214   6.00    2.0
2018/11/13 01:04:45.000  -74.407221123  163.437624785    79.9016   1  12   0.0176   0.0174   0.0614  -0.0061  -0.0095  -0.0172   6.00    2.0
2018/11/13 01:05:00.000  -74.407221154  163.437624713    79.8863   1  12   0.0145   0.0150   0.0494  -0.0055   0.0026  -0.0154   6.00    2.0
2018/11/13 01:05:15.000  -74.407221185  163.437625077    79.8856   1  12   0.0176   0.0174   0.0612  -0.0065  -0.0096  -0.0172   6.00    2.0
2018/11/13 01:05:30.000  -74.407221165  163.437625129    79.8372   1  12   0.0225   0.0224   0.0816  -0.0071  -0.0172  -0.0212   6.00    2.0
2018/11/13 01:05:45.000  -74.407221108  163.437624822    79.8512   1  12   0.0285   0.0284   0.1057  -0.0080  -0.0247  -0.0265   6.00    2.0
2018/11/13 01:06:00.000  -74.407221138  163.437624702    79.8522   1  12   0.0351   0.0349   0.1315  -0.0092  -0.0322  -0.0324   6.00    2.0
2018/11/13 01:06:15.000  -74.407220589  163.437624535    79.8500   6  12   0.0345   0.0338   0.1151   0.0027  -0.0302  -0.0199   9.00    0.0
2018/11/13 01:06:30.000  -74.407220561  163.437624663    79.8650   6  12   0.0392   0.0384   0.1340   0.0023  -0.0352  -0.0254   9.00    0.0
2018/11/13 01:06:45.000  -74.407220490  163.437624520    79.8909   6  12   0.0440   0.0431   0.1532  -0.0010  -0.0402  -0.0308   9.00    0.0
2018/11/13 01:07:00.000  -74.407220416  163.437624804    79.9592   6  12   0.0489   0.0479   0.1726  -0.0033  -0.0454  -0.0362   9.00    0.0
2018/11/13 01:07:15.000  -74.407220336  163.437624602    80.0017   6  12   0.0538   0.0528   0.1922  -0.0049  -0.0506  -0.0415   9.00    0.0
2018/11/13 01:07:30.000  -74.407220285  163.437624739    80.0278   6  12   0.0588   0.0576   0.2117  -0.0063  -0.0559  -0.0467   9.00    0.0
2018/11/13 01:07:45.000  -74.407220313  163.437624755    79.9995   6  12   0.0538   0.0528   0.1927  -0.0035  -0.0507  -0.0416   9.00    0.0
2018/11/13 01:08:00.000  -74.407220365  163.437624855    79.9968   6  12   0.0488   0.0480   0.1733   0.0016  -0.0457  -0.0364   9.00    0.0
2018/11/13 01:08:15.000  -74.407220408  163.437624695    79.9918   6  12   0.0440   0.0432   0.1539   0.0036  -0.0407  -0.0312   9.00    0.0
2018/11/13 01:08:30.000  -74.407220499  163.437624676    79.8996   6  12   0.0391   0.0384   0.1348   0.0043  -0.0357  -0.0258   9.00    0.0
2018/11/13 01:08:45.000  -74.407220543  163.437624965    79.8413   6  12   0.0344   0.0338   0.1158   0.0044  -0.0308  -0.0203   9.00    0.0
2018/11/13 01:09:00.000  -74.407221061  163.437624691    79.8434   1  12   0.0351   0.0350   0.1325  -0.0081  -0.0334  -0.0327   6.00    2.0
2018/11/13 01:09:15.000  -74.407221061  163.437624901    79.8451   1  12   0.0285   0.0284   0.1065  -0.0071  -0.0260  -0.0266   6.00    2.0
2018/11/13 01:09:30.000  -74.407221083  163.437625019    79.8499   1  12   0.0225   0.0225   0.0821  -0.0063  -0.0188  -0.0212   6.00    2.0
2018/11/13 01:09:45.000  -74.407221104  163.437624803    79.8684   1  12   0.0177   0.0176   0.0614  -0.0060  -0.0120  -0.0168   6.00    2.0
2018/11/13 01:10:00.000  -74.407221164  163.437624665    79.8768   1  12   0.0149   0.0150   0.0491  -0.0053  -0.0063  -0.0150   6.00    2.0
2018/11/13 01:10:15.000  -74.407221279  163.437624720    79.8495   1  12   0.0203   0.0182   0.0622   0.0031  -0.0103  -0.0132   6.00    1.0
2018/11/13 01:10:30.000  -74.407221287  163.437624772    79.8607   1  12   0.0247   0.0212   0.0815  -0.0026  -0.0209  -0.0186   6.00    2.0
2018/11/13 01:10:45.000  -74.407221330  163.437624716    79.8687   1  12   0.0303   0.0275   0.1060  -0.0038  -0.0277  -0.0247   6.00    2.0
2018/11/13 01:11:00.000  -74.407221346  163.437624456    79.8453   1  12   0.0366   0.0342   0.1320  -0.0051  -0.0350  -0.0312   6.00    2.0
2018/11/13 01:11:15.000  -74.407220788  163.437624654    79.8175   6  12   0.0342   0.0333   0.1155   0.0050  -0.0312  -0.0207   8.00    0.0
2018/11/13 01:11:30.000  -74.407220817  163.437624462    79.8064   6  12   0.0389   0.0379   0.1344   0.0051  -0.0363  -0.0262   8.00    0.0
2018/11/13 01:11:45.000  -74.407220809  163.437624122    79.8098   6  12   0.0437   0.0427   0.1536   0.0049  -0.0415  -0.0316   8.00    0.0
2018/11/13 01:12:00.000  -74.407220734  163.437623987    79.7799   6  12   0.0486   0.0475   0.1729   0.0045  -0.0468  -0.0370   8.00    0.0
2018/11/13 01:12:15.000  -74.407220682  163.437624167    79.7708   6  12   0.0535   0.0523   0.1922   0.0036  -0.0521  -0.0422   8.00    0.0
2018/11/13 01:12:30.000  -74.407220665  163.437624743    79.7610   6  12   0.0585   0.0572   0.2116   0.0021  -0.0575  -0.0474   8.00    0.0
2018/11/13 01:12:45.000  -74.407220751  163.437624939    79.7911   6  12   0.0536   0.0523   0.1920   0.0038  -0.0525  -0.0422   8.00    0.0
2018/11/13 01:13:00.000  -74.407220746  163.437625309    79.7776   6  12   0.0486   0.0475   0.1725   0.0049  -0.0473  -0.0369   8.00    0.0
2018/11/13 01:13:15.000  -74.407220764  163.437625405    79.7938   6  12   0.0437   0.0427   0.1531   0.0054  -0.0421  -0.0316   8.00    0.0
2018/11/13 01:13:30.000  -74.407220811  163.437625472    79.7807   6  12   0.0389   0.0379   0.1339   0.0056  -0.0370  -0.0262   8.00    0.0
2018/11/13 01:13:45.000  -74.407220852  163.437625504    79.7694   6  12   0.0342   0.0333   0.1151   0.0055  -0.0319  -0.0206   8.00    0.0
2018/11/13 01:14:00.000  -74.407221303  163.437625098    79.8421   1  12   0.0351   0.0343   0.1311  -0.0044  -0.0361  -0.0319   6.00    3.0
2018/11/13 01:14:15.000  -74.407221339  163.437624777    79.8525   1  12   0.0284   0.0276   0.1053  -0.0031  -0.0290  -0.0257   6.00    3.0
2018/11/13 01:14:30.000  -74.407221318  163.437624813    79.8485   1  12   0.0223   0.0213   0.0811  -0.0017  -0.0224  -0.0200   6.00    3.0
2018/11/13 01:14:45.000  -74.407221222  163.437624917    79.8294   1  12   0.0172   0.0161   0.0606   0.0017  -0.0164  -0.0154   6.00    3.0
2018/11/13 01:15:00.000  -74.407221192  163.437624527    79.8570   1  12   0.0148   0.0133   0.0484   0.0013  -0.0127  -0.0132   6.00    3.0
2018/11/13 01:15:15.000  -74.407221134  163.437624540    79.8583   1  12   0.0172   0.0161   0.0605  -0.0013  -0.0168  -0.0153   6.00    3.0
2018/11/13 01:15:30.000  -74.407221024  163.437624746    79.8544   1  12   0.0223   0.0215   0.0810  -0.0017  -0.0226  -0.0198   6.00    3.0
2018/11/13 01:15:45.000  -74.407221034  163.437624387    79.8745   1  12   0.0284   0.0284   0.1055   0.0025  -0.0307  -0.0259   6.00    2.0
2018/11/13 01:16:00.000  -74.407221046  163.437624405    79.8695   1  12   0.0351   0.0349   0.1308  -0.0012  -0.0376  -0.0320   6.00    2.0
2018/11/13 01:16:15.000  -74.407220469  163.437625147    79.8267   6  12   0.0340   0.0329   0.1140   0.0056  -0.0322  -0.0205   8.00    0.0
2018/11/13 01:16:30.000  -74.407220438  163.437625470    79.8214   6  12   0.0387   0.0375   0.1324   0.0058  -0.0373  -0.0260   8.00    0.0
2018/11/13 01:16:45.000  -74.407220469  163.437625424    79.8615   6  12   0.0435   0.0422   0.1510   0.0059  -0.0424  -0.0312   8.00    0.0
2018/11/13 01:17:00.000  -74.407220462  163.437625205    79.8705   6  12   0.0484   0.0470   0.1697   0.0058  -0.0477  -0.0364   8.00    0.0
2018/11/13 01:17:15.000  -74.407220409  163.437625501    79.8395   6  12   0.0533   0.0519   0.1884   0.0056  -0.0530  -0.0415   8.00    0.0
2018/11/13 01:17:30.000  -74.407220385  163.437624972    79.8607   6  12   0.0583   0.0567   0.2071   0.0053  -0.0583  -0.0465   8.00    0.0
2018/11/13 01:17:45.000  -74.407220333  163.437624796    79.8512   6  12   0.0535   0.0520   0.1883   0.0056  -0.0530  -0.0417   8.00    0.0
2018/11/13 01:18:00.000  -74.407220403  163.437624606    79.8485   6  12   0.0486   0.0471   0.1692   0.0059  -0.0477  -0.0365   8.00    0.0
2018/11/13 01:18:15.000  -74.407220440  163.437624391    79.8824   6  12   0.0437   0.0423   0.1502   0.0061  -0.0425  -0.0313   8.00    0.0
2018/11/13 01:18:30.000  -74.407220573  163.437623968    79.9016   6  12   0.0389   0.0376   0.1316   0.0061  -0.0374  -0.0260   8.00    0.0
2018/11/13 01:18:45.000  -74.407220677  163.437624158    79.8927   6  12   0.0342   0.0330   0.1132   0.0059  -0.0324  -0.0205   8.00    0.0
2018/11/13 01:19:00.000  -74.407221362  163.437623667    79.9486   1  12   0.0358   0.0362   0.1300  -0.0058  -0.0372  -0.0325   6.00    1.0
2018/11/13 01:19:15.000  -74.407221462  163.437623741    79.9553   1  12   0.0292   0.0300   0.1052  -0.0053  -0.0304  -0.0266   6.00    1.0
2018/11/13 01:19:30.000  -74.407221494  163.437623855    79.9425   1  12   0.0232   0.0243   0.0824  -0.0051  -0.0241  -0.0214   6.00    1.0
2018/11/13 01:19:45.000  -74.407221415  163.437623924    79.9033   1  12   0.0182   0.0199   0.0632  -0.0049  -0.0189  -0.0173   6.00    1.0
2018/11/13 01:20:00.000  -74.407221282  163.437624247    79.8787   1  12   0.0156   0.0177   0.0517  -0.0048  -0.0154  -0.0153   6.00    1.0
2018/11/13 01:20:15.000  -74.407220783  163.437625366    79.8315   1  12   0.0155   0.0148   0.0480  -0.0044  -0.0175  -0.0083   8.00    1.0
2018/11/13 01:20:30.000  -74.407220633  163.437625543    79.8250   1  12   0.0192   0.0179   0.0614  -0.0053  -0.0210  -0.0107   8.00    1.0
2018/11/13 01:20:45.000  -74.407220622  163.437625320    79.8620   1  12   0.0231   0.0218   0.0766  -0.0062  -0.0250  -0.0136   8.00    1.0
2018/11/13 01:21:00.000  -74.407220564  163.437625112    79.8707   1  12   0.0277   0.0262   0.0933  -0.0067  -0.0294  -0.0181   8.00    1.0
2018/11/13 01:21:15.000  -74.407220647  163.437624568    79.8462   6  12   0.0340   0.0327   0.1118   0.0059  -0.0326  -0.0201   0.00    0.0
2018/11/13 01:21:30.000  -74.407220648  163.437624885    79.8424   6  12   0.0387   0.0372   0.1292   0.0062  -0.0375  -0.0253   0.00    0.0
2018/11/13 01:21:45.000  -74.407220671  163.437624661    79.8296   6  12   0.0435   0.0419   0.1468   0.0064  -0.0425  -0.0303   1.00    0.0
2018/11/13 01:22:00.000  -74.407220747  163.437624994    79.8093   6  12   0.0484   0.0467   0.1646   0.0064  -0.0476  -0.0353   5.00    1.0
2018/11/13 01:22:15.000  -74.407220741  163.437624994    79.8201   6  12   0.0533   0.0515   0.1824   0.0065  -0.0527  -0.0401   7.00    1.0
2018/11/13 01:22:30.000  -74.407220713  163.437625170    79.7808   6  12   0.0583   0.0564   0.2002   0.0064  -0.0579  -0.0449   6.00    1.0
2018/11/13 01:22:45.000  -74.407220698  163.437624877    79.8177   6  12   0.0532   0.0516   0.1818   0.0067  -0.0528  -0.0399   7.00    1.0
2018/11/13 01:23:00.000  -74.407220689  163.437624641    79.8624   6  12   0.0483   0.0467   0.1635   0.0068  -0.0476  -0.0349   7.00    1.0
2018/11/13 01:23:15.000  -74.407220632  163.437624516    79.8648   6  12   0.0434   0.0420   0.1454   0.0067  -0.0425  -0.0298   6.00    1.0
2018/11/13 01:23:30.000  -74.407220718  163.437624224    79.8419   6  12   0.0386   0.0373   0.1277   0.0066  -0.0376  -0.0247   6.00    1.0
2018/11/13 01:23:45.000  -74.407220798  163.437624482    79.8290   6  12   0.0340   0.0327   0.1104   0.0063  -0.0328  -0.0194   6.00    1.0
2018/11/13 01:24:00.000  -74.407220751  163.437624694    79.7924   1  12   0.0279   0.0258   0.0925  -0.0056  -0.0294  -0.0183   6.00    1.0
2018/11/13 01:24:15.000  -74.407220863  163.437624544    79.7831   1  12   0.0234   0.0214   0.0765  -0.0050  -0.0252  -0.0141   6.00    1.0
2018/11/13 01:24:30.000  -74.407220855  163.437624870    79.7884   1  12   0.0193   0.0174   0.0618  -0.0042  -0.0213  -0.0107   6.00    1.0
2018/11/13 01:24:45.000  -74.407220930  163.437624766    79.7894   1  12   0.0155   0.0138   0.0493  -0.0016  -0.0181  -0.0080   6.00    1.0
2018/11/13 01:25:00.000  -74.407220926  163.437625018    79.8164   1  12   0.0135   0.0119   0.0418   0.0013  -0.0160  -0.0074   6.00    1.0
2018/11/13 01:25:15.000  -74.407220758  163.437625277    79.8026   1  12   0.0156   0.0141   0.0505  -0.0019  -0.0189  -0.0072   6.00    1.0
2018/11/13 01:25:30.000  -74.407220591  163.437625504    79.7885   1  12   0.0194   0.0176   0.0637  -0.0035  -0.0229  -0.0083   6.00    1.0
2018/11/13 01:25:45.000  -74.407220497  163.437625560    79.7538   1  12   0.0238   0.0217   0.0785  -0.0047  -0.0270  -0.0110   7.00    1.0
2018/11/13 01:26:00.000  -74.407220479  163.437625742    79.7349   1  12   0.0289   0.0262   0.0943  -0.0044  -0.0313  -0.0144   7.00    1.0
2018/11/13 01:26:15.000  -74.407220471  163.437624938    79.7788   6  12   0.0347   0.0330   0.1117   0.0062  -0.0343  -0.0151   7.00    1.0
2018/11/13 01:26:30.000  -74.407220392  163.437624559    79.7861   6  12   0.0395   0.0376   0.1282   0.0068  -0.0389  -0.0196   7.00    1.0
2018/11/13 01:26:45.000  -74.407220419  163.437624508    79.8114   6  12   0.0446   0.0423   0.1452   0.0078  -0.0434  -0.0233   7.00    1.0
2018/11/13 01:27:00.000  -74.407220427  163.437624663    79.7842   6  12   0.0504   0.0472   0.1631   0.0099  -0.0475  -0.0244   7.00    1.0
2018/11/13 01:27:15.000  -74.407220419  163.437624714    79.7703   6  11   0.0575   0.0522   0.1835   0.0134  -0.0507  -0.0169   7.00    1.0
2018/11/13 01:27:30.000  -74.407220465  163.437624648    79.7466   6  11   0.0629   0.0571   0.2009   0.0147  -0.0552  -0.0200   7.00    1.0
2018/11/13 01:27:45.000  -74.407220497  163.437624422    79.7817   6  11   0.0577   0.0523   0.1841   0.0132  -0.0513  -0.0154   7.00    1.0
2018/11/13 01:28:00.000  -74.407220440  163.437624643    79.8065   6  11   0.0523   0.0476   0.1668   0.0117  -0.0473  -0.0095   7.00    1.0
2018/11/13 01:28:15.000  -74.407220579  163.437624748    79.8156   6  11   0.0471   0.0430   0.1502   0.0099  -0.0438   0.0070   7.00    1.0
2018/11/13 01:28:30.000  -74.407220528  163.437625013    79.8328   6  11   0.0421   0.0388   0.1348   0.0074  -0.0410   0.0139   7.00    1.0
2018/11/13 01:28:45.000  -74.407220592  163.437624927    79.8329   6  11   0.0374   0.0352   0.1222  -0.0025  -0.0403   0.0201   7.00    0.0
2018/11/13 01:29:00.000  -74.407220589  163.437625142    79.8121   6  10   0.0329   0.0328   0.1148  -0.0085  -0.0425   0.0249   6.00    0.0
2018/11/13 01:29:15.000  -74.407221326  163.437624383    79.8779   1  10   0.0347   0.0343   0.1300  -0.0072  -0.0484   0.0146   5.00    2.0
2018/11/13 01:29:30.000  -74.407220754  163.437625308    79.8112   1  10   0.0220   0.0202   0.0760  -0.0053  -0.0298   0.0121   6.00    1.0
2018/11/13 01:29:45.000  -74.407220870  163.437625286    79.7920   1  10   0.0181   0.0160   0.0605   0.0020  -0.0240   0.0042   6.00    1.0
2018/11/13 01:30:00.000  -74.407220840  163.437625246    79.7589   1  10   0.0161   0.0137   0.0513   0.0050  -0.0205  -0.0084   6.00    1.0
2018/11/13 01:30:15.000  -74.407220910  163.437625054    79.7852   1   9   0.0192   0.0171   0.0696   0.0066  -0.0281  -0.0143   5.00    1.0
2018/11/13 01:30:30.000  -74.407220784  163.437625353    79.7804   1   9   0.0239   0.0225   0.0939   0.0082  -0.0379  -0.0194   5.00    1.0
2018/11/13 01:30:45.000  -74.407220682  163.437624590    79.7979   6   9   0.0305   0.0310   0.1230   0.0122  -0.0486  -0.0240   5.00    1.0
2018/11/13 01:31:00.000  -74.407220644  163.437624371    79.8159   6   9   0.0366   0.0376   0.1524   0.0150  -0.0607  -0.0317   5.00    1.0
2018/11/13 01:31:15.000  -74.407220546  163.437624892    79.7621   6   9   0.0430   0.0446   0.1829   0.0180  -0.0732  -0.0394   5.00    1.0
2018/11/13 01:31:30.000  -74.407220456  163.437625227    79.7319   6   9   0.0496   0.0517   0.2140   0.0210  -0.0859  -0.0472   5.00    1.0
2018/11/13 01:31:45.000  -74.407220445  163.437625227    79.8096   6   9   0.0563   0.0590   0.2456   0.0241  -0.0989  -0.0550   4.00    0.0
2018/11/13 01:32:00.000  -74.407220678  163.437624802    79.8151   6   9   0.0632   0.0665   0.2774   0.0272  -0.1119  -0.0628   4.00    0.0
2018/11/13 01:32:15.000  -74.407220675  163.437624827    79.8516   6   9   0.0701   0.0740   0.3093   0.0304  -0.1251  -0.0706   4.00    0.0
2018/11/13 01:32:30.000  -74.407220666  163.437624916    79.8604   6   9   0.0771   0.0815   0.3414   0.0336  -0.1384  -0.0785   4.00    0.0
2018/11/13 01:32:45.000  -74.407220613  163.437625113    79.9183   6   9   0.0702   0.0743   0.3101   0.0307  -0.1258  -0.0713   4.00    0.0
2018/11/13 01:33:00.000  -74.407220606  163.437624757    79.9397   6   9   0.0633   0.0670   0.2788   0.0278  -0.1132  -0.0637   4.00    0.0
2018/11/13 01:33:15.000  -74.407220580  163.437624707    79.8897   6   9   0.0565   0.0598   0.2476   0.0249  -0.1006  -0.0561   4.00    0.0
2018/11/13 01:33:30.000  -74.407220589  163.437624378    79.8517   6   9   0.0498   0.0526   0.2165   0.0220  -0.0880  -0.0485   4.00    0.0
2018/11/13 01:33:45.000  -74.407220573  163.437624484    79.7741   6   9   0.0432   0.0455   0.1858   0.0191  -0.0754  -0.0410   4.00    0.0
2018/11/13 01:34:00.000  -74.407220537  163.437624656    79.7146   6   9   0.0368   0.0386   0.1556   0.0161  -0.0630  -0.0335   4.00    0.0
2018/11/13 01:34:15.000  -74.407220544  163.437624579    79.7385   6   9   0.0307   0.0319   0.1264   0.0133  -0.0509  -0.0261   4.00    0.0
2018/11/13 01:34:30.000  -74.407221211  163.437624070    79.7756   1   9   0.0308   0.0320   0.1348   0.0146  -0.0515  -0.0344   5.00    1.0
2018/11/13 01:34:45.000  -74.407221199  163.437624257    79.7694   1   9   0.0240   0.0242   0.1004   0.0118  -0.0363  -0.0271   5.00    1.0
2018/11/13 01:35:00.000  -74.407221358  163.437623652    79.8371   1   9   0.0203   0.0199   0.0789   0.0105  -0.0262  -0.0229   5.00    1.0
2018/11/13 01:35:15.000  -74.407221338  163.437624507    79.8224   1   9   0.0234   0.0222   0.1005   0.0095  -0.0383  -0.0291   5.00    2.0
2018/11/13 01:35:30.000  -74.407221302  163.437624541    79.7837   1   9   0.0305   0.0307   0.1359   0.0131  -0.0534  -0.0367   5.00    2.0
2018/11/13 01:35:45.000  -74.407220843  163.437625086    79.7406   6   9   0.0308   0.0321   0.1277   0.0137  -0.0516  -0.0271   5.00    0.0
2018/11/13 01:36:00.000  -74.407220794  163.437625297    79.7263   6   9   0.0369   0.0390   0.1571   0.0167  -0.0641  -0.0346   5.00    0.0
2018/11/13 01:36:15.000  -74.407220846  163.437625263    79.7249   6   9   0.0433   0.0462   0.1876   0.0199  -0.0770  -0.0422   5.00    0.0
2018/11/13 01:36:30.000  -74.407220878  163.437625322    79.7274   6   9   0.0499   0.0536   0.2186   0.0232  -0.0902  -0.0499   5.00    0.0
2018/11/13 01:36:45.000  -74.407220733  163.437625584    79.6984   6   9   0.0567   0.0611   0.2501   0.0265  -0.1036  -0.0576   5.00    0.0
2018/11/13 01:37:00.000  -74.407220637  163.437626180    79.6633   6   9   0.0636   0.0688   0.2817   0.0298  -0.1170  -0.0654   5.00    0.0
2018/11/13 01:37:15.000  -74.407220728  163.437625597    79.7020   6   9   0.0705   0.0765   0.3135   0.0332  -0.1306  -0.0732   5.00    0.0
2018/11/13 01:37:30.000  -74.407220813  163.437625877    79.7251   6   9   0.0775   0.0843   0.3453   0.0366  -0.1441  -0.0809   5.00    0.0
2018/11/13 01:37:45.000  -74.407220704  163.437626221    79.6647   6   9   0.0706   0.0768   0.3138   0.0334  -0.1310  -0.0734   5.00    0.0
2018/11/13 01:38:00.000  -74.407220745  163.437625875    79.6748   6   9   0.0637   0.0693   0.2820   0.0302  -0.1177  -0.0657   5.00    0.0
2018/11/13 01:38:15.000  -74.407220833  163.437625290    79.7224   6   9   0.0569   0.0617   0.2504   0.0270  -0.1044  -0.0581   5.00    0.0
2018/11/13 01:38:30.000  -74.407220823  163.437625368    79.6847   6   9   0.0501   0.0542   0.2191   0.0238  -0.0912  -0.0506   5.00    0.0
2018/11/13 01:38:45.000  -74.407221083  163.437624258    79.7930   6   9   0.0435   0.0469   0.1884   0.0207  -0.0782  -0.0431   5.00    0.0
2018/11/13 01:39:00.000  -74.407221100  163.437623681    79.8368   6   9   0.0372   0.0397   0.1585   0.0176  -0.0654  -0.0359   5.00    0.0
2018/11/13 01:39:15.000  -74.407221074  163.437623742    79.8026   6   9   0.0311   0.0328   0.1300   0.0146  -0.0530  -0.0290   5.00    0.0
2018/11/13 01:39:30.000  -74.407221543  163.437623244    79.8283   1   9   0.0319   0.0330   0.1422   0.0164  -0.0545  -0.0394   4.00    1.0
2018/11/13 01:39:45.000  -74.407221478  163.437623070    79.8523   1   9   0.0251   0.0250   0.1096   0.0134  -0.0393  -0.0326   4.00    1.0
2018/11/13 01:40:00.000  -74.407221335  163.437623514    79.8008   1   9   0.0216   0.0206   0.0893   0.0119  -0.0295  -0.0287   4.00    1.0
2018/11/13 01:40:15.000  -74.407221269  163.437623725    79.7502   1   9   0.0261   0.0251   0.1159   0.0142  -0.0405  -0.0365   4.00    1.0
2018/11/13 01:40:30.000  -74.407220745  163.437624747    79.6521   6   9   0.0262   0.0265   0.1080   0.0125  -0.0423  -0.0264   5.00    0.0
2018/11/13 01:40:45.000  -74.407220655  163.437625152    79.6769   6   9   0.0321   0.0329   0.1365   0.0157  -0.0543  -0.0347   5.00    0.0
2018/11/13 01:41:00.000  -74.407220730  163.437624203    79.8240   6   9   0.0386   0.0400   0.1672   0.0191  -0.0672  -0.0436   5.00    0.0
2018/11/13 01:41:15.000  -74.407220782  163.437623945    79.8917   6   9   0.0456   0.0474   0.1998   0.0228  -0.0807  -0.0532   5.00    0.0
2018/11/13 01:41:30.000  -74.407220866  163.437623736    79.8912   6   9   0.0530   0.0550   0.2342   0.0267  -0.0947  -0.0638   5.00    0.0
2018/11/13 01:41:45.000  -74.407220931  163.437623830    79.8748   6   9   0.0609   0.0628   0.2717   0.0311  -0.1093  -0.0762   5.00    0.0
2018/11/13 01:42:00.000  -74.407220786  163.437624383    79.7787   6   9   0.0700   0.0709   0.3159   0.0364  -0.1254  -0.0928   5.00    0.0
2018/11/13 01:42:15.000  -74.407220931  163.437623920    79.9345   6   8   0.0976   0.0830   0.4698   0.0563  -0.1662  -0.1707   4.00    0.0
2018/11/13 01:42:30.000  -74.407220690  163.437624241    79.8079   6   8   0.1080   0.0917   0.5207   0.0627  -0.1843  -0.1900   4.00    0.0
2018/11/13 01:42:45.000  -74.407220607  163.437624341    79.7431   6   9   0.0714   0.0756   0.3209   0.0301  -0.1261  -0.0794   4.00    0.0
2018/11/13 01:43:00.000  -74.407220489  163.437625280    79.6576   6   9   0.0631   0.0678   0.2808   0.0258  -0.1115  -0.0648   4.00    0.0
2018/11/13 01:43:15.000  -74.407220459  163.437625109    79.6454   6   9   0.0557   0.0603   0.2463   0.0227  -0.0983  -0.0546   4.00    0.0
2018/11/13 01:43:30.000  -74.407220495  163.437624679    79.6610   6   9   0.0488   0.0529   0.2146   0.0200  -0.0858  -0.0463   4.00    0.0
2018/11/13 01:43:45.000  -74.407220511  163.437624498    79.6799   6   9   0.0422   0.0458   0.1845   0.0176  -0.0737  -0.0392   4.00    0.0
2018/11/13 01:44:00.000  -74.407220612  163.437624021    79.7099   6   9   0.0360   0.0388   0.1558   0.0153  -0.0620  -0.0327   4.00    0.0
2018/11/13 01:44:15.000  -74.407220564  163.437624508    79.6816   6   9   0.0302   0.0321   0.1285   0.0132  -0.0507  -0.0267   4.00    0.0
2018/11/13 01:44:30.000  -74.407221101  163.437623777    79.7322   1   9   0.0288   0.0321   0.1278   0.0129  -0.0490  -0.0268   4.00    1.0
