% program   : RTKLIB ver.2.4.3
% inp file  : _by_type/_obs/base/20181107.18o
% inp file  : _by_type/_sp3+clk/igs20263.clk
% inp file  : _by_type/_sp3+clk/igs20263.sp3
% inp file  : _by_type/_nav/base/20181107.18n
% obs start : 2018/11/07 00:00:00.0 GPST (week2026 259200.0s)
% obs end   : 2018/11/07 23:59:45.0 GPST (week2026 345585.0s)
% pos mode  : ppp-kinematic
% solution  : combined
% elev mask : 15.0 deg
% dynamics  : off
% tidecorr  : on
% tropo opt : est ztd+grad
% ephemeris : precise
% navi sys  : gps glonass
% antenna1  :                       ( 0.0000  0.0000  0.0000)
%
% (lat/lon/height=WGS84/ellipsoidal,Q=1:fix,2:float,3:sbas,4:dgps,5:single,6:ppp,ns=# of satellites)
%  GPST                  latitude(deg) longitude(deg)  height(m)   Q  ns   sdn(m)   sde(m)   sdu(m)  sdne(m)  sdeu(m)  sdun(m) age(s)  ratio
2018/11/07 00:00:00.000  -74.370507922  163.307884965  1012.3529   6   9   0.0278   0.0257   0.0792   0.0079  -0.0151  -0.0296   0.00    0.0
2018/11/07 00:00:15.000  -74.370507975  163.307884937  1012.3583   6   9   0.0328   0.0290   0.0974   0.0113  -0.0196  -0.0398   0.00    0.0
2018/11/07 00:00:30.000  -74.370508107  163.307885332  1012.3588   6   9   0.0415   0.0351   0.1290   0.0150  -0.0258  -0.0555   0.00    0.0
2018/11/07 00:00:45.000  -74.370508078  163.307885381  1012.3506   6   9   0.0542   0.0433   0.1777   0.0214  -0.0384  -0.0795   0.00    0.0
2018/11/07 00:01:00.000  -74.370508264  163.307884651  1012.4100   6   9   0.0483   0.0481   0.1492  -0.0147   0.0321  -0.0504   0.00    0.0
2018/11/07 00:01:15.000  -74.370508254  163.307884008  1012.4047   6   9   0.0569   0.0565   0.1760  -0.0177   0.0397  -0.0596   0.00    0.0
2018/11/07 00:01:30.000  -74.370508273  163.307883750  1012.4480   6   9   0.0675   0.0653   0.2039  -0.0184   0.0468  -0.0701   1.00    0.0
2018/11/07 00:01:45.000  -74.370508293  163.307883648  1012.4888   6   9   0.0762   0.0739   0.2318  -0.0217   0.0545  -0.0795   1.00    0.0
2018/11/07 00:02:00.000  -74.370508300  163.307883739  1012.4721   6   9   0.0805   0.0817   0.2593  -0.0303   0.0636  -0.0861   1.00    0.0
2018/11/07 00:02:15.000  -74.370508358  163.307883693  1012.5063   6   9   0.0891   0.0901   0.2872  -0.0334   0.0710  -0.0955   1.00    0.0
2018/11/07 00:02:30.000  -74.370508325  163.307883087  1012.4647   6   9   0.0980   0.0983   0.3150  -0.0359   0.0780  -0.1050   1.00    0.0
2018/11/07 00:02:45.000  -74.370508307  163.307883213  1012.4364   6   9   0.0931   0.0901   0.2882  -0.0279   0.0698  -0.0984   1.00    0.0
2018/11/07 00:03:00.000  -74.370508228  163.307883419  1012.3661   6   9   0.0844   0.0816   0.2615  -0.0249   0.0630  -0.0896   1.00    0.0
2018/11/07 00:03:15.000  -74.370508280  163.307883559  1012.3778   6   9   0.0697   0.0721   0.2333  -0.0288   0.0586  -0.0761   1.00    0.0
2018/11/07 00:03:30.000  -74.370508303  163.307884032  1012.3597   6   9   0.0617   0.0637   0.2063  -0.0252   0.0515  -0.0674   1.00    0.0
2018/11/07 00:03:45.000  -74.370508321  163.307884471  1012.3622   6   9   0.0538   0.0554   0.1794  -0.0215   0.0443  -0.0587   1.00    0.0
2018/11/07 00:04:00.000  -74.370508279  163.307884176  1012.3754   6   9   0.0462   0.0473   0.1530  -0.0179   0.0369  -0.0501   1.00    0.0
2018/11/07 00:04:15.000  -74.370508255  163.307883905  1012.3586   6   9   0.0391   0.0396   0.1274  -0.0143   0.0298  -0.0417   2.00    0.0
2018/11/07 00:04:30.000  -74.370508255  163.307884097  1012.4056   6   9   0.0327   0.0327   0.1040  -0.0111   0.0231  -0.0339   2.00    0.0
2018/11/07 00:04:45.000  -74.370508221  163.307884333  1012.4160   6   9   0.0278   0.0275   0.0847  -0.0089   0.0181  -0.0272   2.00    0.0
2018/11/07 00:05:00.000  -74.370508226  163.307884531  1012.4235   6   9   0.0253   0.0252   0.0746  -0.0087   0.0173  -0.0237   2.00    0.0
2018/11/07 00:05:15.000  -74.370508236  163.307884493  1012.4199   6   9   0.0282   0.0286   0.0894  -0.0106   0.0237  -0.0295   2.00    0.0
2018/11/07 00:05:30.000  -74.370508126  163.307884460  1012.3900   6   9   0.0336   0.0363   0.1188  -0.0155   0.0378  -0.0398   3.00    0.0
2018/11/07 00:05:45.000  -74.370508100  163.307884057  1012.3710   6   9   0.0395   0.0411   0.1354  -0.0166   0.0376  -0.0449   3.00    0.0
2018/11/07 00:06:00.000  -74.370508088  163.307883873  1012.3576   6   9   0.0465   0.0491   0.1631  -0.0205   0.0467  -0.0538   3.00    0.0
2018/11/07 00:06:15.000  -74.370508057  163.307883433  1012.3521   6   9   0.0539   0.0573   0.1915  -0.0244   0.0558  -0.0627   3.00    0.0
2018/11/07 00:06:30.000  -74.370508061  163.307882616  1012.3302   6   9   0.0614   0.0655   0.2202  -0.0283   0.0649  -0.0716   3.00    0.0
2018/11/07 00:06:45.000  -74.370508110  163.307881854  1012.3168   6   9   0.0689   0.0737   0.2488  -0.0321   0.0738  -0.0804   3.00    0.0
2018/11/07 00:07:00.000  -74.370508122  163.307881210  1012.3300   6   9   0.0763   0.0818   0.2772  -0.0357   0.0828  -0.0891   3.00    0.0
2018/11/07 00:07:15.000  -74.370508240  163.307880989  1012.3170   6   9   0.0835   0.0897   0.3054  -0.0394   0.0918  -0.0976   3.00    0.0
2018/11/07 00:07:30.000  -74.370508252  163.307880841  1012.3641   6   9   0.0907   0.0976   0.3336  -0.0430   0.1011  -0.1062   3.00    0.0
2018/11/07 00:07:45.000  -74.370508235  163.307880610  1012.3478   6   9   0.0841   0.0925   0.3182  -0.0426   0.1024  -0.1024   3.00    0.0
2018/11/07 00:08:00.000  -74.370508071  163.307880299  1012.2665   6   9   0.0782   0.0907   0.3161  -0.0449   0.1137  -0.1034   3.00    0.0
2018/11/07 00:08:15.000  -74.370508138  163.307881234  1012.3419   6   9   0.0683   0.0709   0.2425  -0.0302   0.0662  -0.0781   3.00    0.0
2018/11/07 00:08:30.000  -74.370508278  163.307881683  1012.3714   6   9   0.0608   0.0629   0.2152  -0.0266   0.0581  -0.0696   3.00    0.0
2018/11/07 00:08:45.000  -74.370508364  163.307882001  1012.3830   6   9   0.0534   0.0549   0.1879  -0.0230   0.0500  -0.0612   3.00    0.0
2018/11/07 00:09:00.000  -74.370508360  163.307882594  1012.4230   6   9   0.0461   0.0471   0.1606  -0.0194   0.0419  -0.0527   3.00    0.0
2018/11/07 00:09:15.000  -74.370508316  163.307883204  1012.4379   6   9   0.0393   0.0395   0.1338  -0.0158   0.0336  -0.0443   3.00    0.0
2018/11/07 00:09:30.000  -74.370508339  163.307883685  1012.4433   6   9   0.0331   0.0326   0.1087  -0.0125   0.0255  -0.0363   4.00    0.0
2018/11/07 00:09:45.000  -74.370508271  163.307883936  1012.4140   6   9   0.0282   0.0272   0.0877  -0.0097   0.0184  -0.0294   3.00    0.0
2018/11/07 00:10:00.000  -74.370508310  163.307884226  1012.3951   6   9   0.0259   0.0245   0.0762  -0.0088   0.0145  -0.0255   3.00    0.0
2018/11/07 00:10:15.000  -74.370508369  163.307884325  1012.4219   6   9   0.0288   0.0277   0.0897  -0.0104   0.0181  -0.0308   3.00    0.0
2018/11/07 00:10:30.000  -74.370508263  163.307883882  1012.3820   6   9   0.0340   0.0336   0.1125  -0.0135   0.0251  -0.0388   3.00    0.0
2018/11/07 00:10:45.000  -74.370508298  163.307883754  1012.3930   6   9   0.0404   0.0409   0.1387  -0.0172   0.0335  -0.0473   3.00    0.0
2018/11/07 00:11:00.000  -74.370508368  163.307883944  1012.3918   6   9   0.0472   0.0488   0.1659  -0.0211   0.0421  -0.0556   3.00    0.0
2018/11/07 00:11:15.000  -74.370508369  163.307883283  1012.3802   6   9   0.0543   0.0568   0.1931  -0.0252   0.0508  -0.0636   3.00    0.0
2018/11/07 00:11:30.000  -74.370508379  163.307882816  1012.3626   6   9   0.0616   0.0650   0.2199  -0.0295   0.0594  -0.0713   3.00    0.0
2018/11/07 00:11:45.000  -74.370508395  163.307881578  1012.2882   6  10   0.0674   0.0717   0.2193  -0.0382   0.0809  -0.0671   3.00    0.0
2018/11/07 00:12:00.000  -74.370508273  163.307880615  1012.2287   6  10   0.0764   0.0816   0.2443  -0.0463   0.0928  -0.0766   3.00    0.0
2018/11/07 00:12:15.000  -74.370508396  163.307880375  1012.2238   6  10   0.0777   0.0831   0.2647  -0.0397   0.0949  -0.0752   3.00    0.0
2018/11/07 00:12:30.000  -74.370508298  163.307879643  1012.1704   6  10   0.0837   0.0896   0.2870  -0.0424   0.1026  -0.0802   3.00    0.0
2018/11/07 00:12:45.000  -74.370508301  163.307879543  1012.1483   6  10   0.0773   0.0823   0.2650  -0.0383   0.0936  -0.0745   3.00    0.0
2018/11/07 00:13:00.000  -74.370508433  163.307880590  1012.2019   6  10   0.0711   0.0752   0.2436  -0.0347   0.0852  -0.0698   3.00    0.0
2018/11/07 00:13:15.000  -74.370508412  163.307880751  1012.2369   6  10   0.0651   0.0680   0.2227  -0.0309   0.0764  -0.0660   3.00    0.0
2018/11/07 00:13:30.000  -74.370508359  163.307881345  1012.2408   6  10   0.0602   0.0608   0.2049  -0.0263   0.0663  -0.0655   3.00    0.0
2018/11/07 00:13:45.000  -74.370508412  163.307881787  1012.2771   6  10   0.0499   0.0531   0.1697  -0.0249   0.0603  -0.0479   3.00    0.0
2018/11/07 00:14:00.000  -74.370508399  163.307882284  1012.3104   6  10   0.0432   0.0457   0.1452  -0.0211   0.0509  -0.0414   3.00    0.0
2018/11/07 00:14:15.000  -74.370508396  163.307882584  1012.3052   6  10   0.0368   0.0385   0.1211  -0.0173   0.0414  -0.0348   4.00    0.0
2018/11/07 00:14:30.000  -74.370508380  163.307883274  1012.3028   6  10   0.0310   0.0319   0.0984  -0.0136   0.0320  -0.0285   4.00    0.0
2018/11/07 00:14:45.000  -74.370508352  163.307883611  1012.3457   6  10   0.0265   0.0266   0.0795  -0.0105   0.0238  -0.0230   3.00    0.0
2018/11/07 00:15:00.000  -74.370508360  163.307883999  1012.3899   6  10   0.0243   0.0240   0.0694  -0.0091   0.0197  -0.0200   3.00    0.0
2018/11/07 00:15:15.000  -74.370508210  163.307883636  1012.3358   6  10   0.0264   0.0264   0.0787  -0.0104   0.0235  -0.0225   3.00    0.0
2018/11/07 00:15:30.000  -74.370508149  163.307883414  1012.3055   6  10   0.0307   0.0317   0.0975  -0.0133   0.0316  -0.0275   3.00    0.0
2018/11/07 00:15:45.000  -74.370508152  163.307882660  1012.2973   6  10   0.0361   0.0383   0.1198  -0.0167   0.0409  -0.0330   3.00    0.0
2018/11/07 00:16:00.000  -74.370508089  163.307881521  1012.2442   6  10   0.0421   0.0453   0.1434  -0.0201   0.0503  -0.0384   3.00    0.0
2018/11/07 00:16:15.000  -74.370508104  163.307880817  1012.1935   6  10   0.0483   0.0524   0.1673  -0.0234   0.0594  -0.0436   3.00    0.0
2018/11/07 00:16:30.000  -74.370508161  163.307880242  1012.1939   6  10   0.0545   0.0596   0.1910  -0.0266   0.0683  -0.0487   3.00    0.0
2018/11/07 00:16:45.000  -74.370508222  163.307880179  1012.2300   6  10   0.0608   0.0666   0.2147  -0.0298   0.0771  -0.0540   3.00    0.0
2018/11/07 00:17:00.000  -74.370508319  163.307879360  1012.2031   6  10   0.0670   0.0735   0.2383  -0.0331   0.0859  -0.0596   3.00    0.0
2018/11/07 00:17:15.000  -74.370508316  163.307878893  1012.1631   6  10   0.0731   0.0804   0.2618  -0.0364   0.0947  -0.0655   3.00    0.0
2018/11/07 00:17:30.000  -74.370508271  163.307878344  1012.1497   6  10   0.0792   0.0871   0.2854  -0.0399   0.1037  -0.0717   3.00    0.0
2018/11/07 00:17:45.000  -74.370508244  163.307878742  1012.1757   6  10   0.0731   0.0805   0.2642  -0.0367   0.0958  -0.0664   3.00    0.0
2018/11/07 00:18:00.000  -74.370508204  163.307879227  1012.1854   6  10   0.0668   0.0737   0.2417  -0.0334   0.0875  -0.0610   3.00    0.0
2018/11/07 00:18:15.000  -74.370508261  163.307880431  1012.2361   6  10   0.0606   0.0667   0.2189  -0.0301   0.0790  -0.0556   3.00    0.0
2018/11/07 00:18:30.000  -74.370508299  163.307881198  1012.2777   6  10   0.0543   0.0597   0.1957  -0.0269   0.0704  -0.0503   3.00    0.0
2018/11/07 00:18:45.000  -74.370508309  163.307881830  1012.2942   6  10   0.0480   0.0526   0.1720  -0.0236   0.0617  -0.0450   3.00    0.0
2018/11/07 00:19:00.000  -74.370508309  163.307882628  1012.3165   6  10   0.0418   0.0455   0.1481  -0.0204   0.0527  -0.0396   3.00    0.0
2018/11/07 00:19:15.000  -74.370508317  163.307884616  1012.3921   1  10   0.0346   0.0411   0.1351  -0.0201   0.0493  -0.0436   5.00    1.0
2018/11/07 00:19:30.000  -74.370508333  163.307884690  1012.3826   1  10   0.0272   0.0335   0.1077  -0.0156   0.0378  -0.0356   5.00    1.0
2018/11/07 00:19:45.000  -74.370508448  163.307884613  1012.4004   1  10   0.0212   0.0277   0.0853  -0.0119   0.0282  -0.0294   5.00    1.0
2018/11/07 00:20:00.000  -74.370508394  163.307884315  1012.3837   1  10   0.0181   0.0247   0.0736  -0.0103   0.0233  -0.0263   5.00    1.0
2018/11/07 00:20:15.000  -74.370508299  163.307883124  1012.2820   6  10   0.0261   0.0268   0.0812  -0.0108   0.0260  -0.0230   3.00    0.0
2018/11/07 00:20:30.000  -74.370508268  163.307882904  1012.2842   6  10   0.0301   0.0320   0.1000  -0.0133   0.0339  -0.0272   3.00    0.0
2018/11/07 00:20:45.000  -74.370508268  163.307882627  1012.2586   6  10   0.0352   0.0383   0.1220  -0.0163   0.0427  -0.0317   3.00    0.0
2018/11/07 00:21:00.000  -74.370508341  163.307882339  1012.2441   6  10   0.0409   0.0451   0.1454  -0.0193   0.0518  -0.0365   3.00    0.0
2018/11/07 00:21:15.000  -74.370508388  163.307882082  1012.2104   6  10   0.0469   0.0520   0.1693  -0.0225   0.0609  -0.0416   3.00    0.0
2018/11/07 00:21:30.000  -74.370508390  163.307881537  1012.1852   6  10   0.0530   0.0590   0.1935  -0.0258   0.0701  -0.0471   3.00    0.0
2018/11/07 00:21:45.000  -74.370508296  163.307880520  1012.1520   6  10   0.0592   0.0659   0.2181  -0.0292   0.0795  -0.0531   3.00    0.0
2018/11/07 00:22:00.000  -74.370508297  163.307880142  1012.1667   6  10   0.0653   0.0728   0.2428  -0.0327   0.0891  -0.0597   3.00    0.0
2018/11/07 00:22:15.000  -74.370508196  163.307879469  1012.1123   6  10   0.0715   0.0797   0.2677  -0.0364   0.0988  -0.0668   3.00    0.0
2018/11/07 00:22:30.000  -74.370508187  163.307879250  1012.0678   6  10   0.0777   0.0865   0.2927  -0.0402   0.1086  -0.0743   3.00    0.0
2018/11/07 00:22:45.000  -74.370508236  163.307880074  1012.0692   6  10   0.0714   0.0795   0.2689  -0.0366   0.0993  -0.0674   3.00    0.0
2018/11/07 00:23:00.000  -74.370508212  163.307879481  1012.0148   6  10   0.0652   0.0727   0.2450  -0.0330   0.0900  -0.0608   3.00    0.0
2018/11/07 00:23:15.000  -74.370508178  163.307879788  1012.0167   6  10   0.0590   0.0658   0.2209  -0.0294   0.0808  -0.0545   3.00    0.0
2018/11/07 00:23:30.000  -74.370508212  163.307880260  1012.0580   6  10   0.0528   0.0588   0.1967  -0.0260   0.0716  -0.0485   3.00    0.0
2018/11/07 00:23:45.000  -74.370508302  163.307880943  1012.1551   6  10   0.0467   0.0518   0.1725  -0.0227   0.0623  -0.0428   3.00    0.0
2018/11/07 00:24:00.000  -74.370508395  163.307881389  1012.1851   6  10   0.0407   0.0449   0.1483  -0.0194   0.0532  -0.0374   3.00    0.0
2018/11/07 00:24:15.000  -74.370508360  163.307881990  1012.2403   6  10   0.0350   0.0382   0.1246  -0.0163   0.0441  -0.0323   3.00    0.0
2018/11/07 00:24:30.000  -74.370508327  163.307882436  1012.2554   6  10   0.0298   0.0320   0.1020  -0.0134   0.0353  -0.0275   3.00    0.0
2018/11/07 00:24:45.000  -74.370508294  163.307882680  1012.2755   6  10   0.0259   0.0270   0.0831  -0.0110   0.0275  -0.0232   3.00    0.0
2018/11/07 00:25:00.000  -74.370508348  163.307883050  1012.3021   6  10   0.0238   0.0244   0.0727  -0.0096   0.0233  -0.0208   3.00    0.0
2018/11/07 00:25:15.000  -74.370508303  163.307882653  1012.2263   6  10   0.0257   0.0270   0.0825  -0.0108   0.0273  -0.0226   3.00    0.0
2018/11/07 00:25:30.000  -74.370508271  163.307882089  1012.1706   6  10   0.0294   0.0318   0.1004  -0.0130   0.0345  -0.0259   3.00    0.0
2018/11/07 00:25:45.000  -74.370508145  163.307881284  1012.0968   6  10   0.0344   0.0379   0.1222  -0.0157   0.0431  -0.0302   3.00    0.0
2018/11/07 00:26:00.000  -74.370507982  163.307880420  1012.0287   6  11   0.0387   0.0445   0.1394  -0.0185   0.0524  -0.0408   3.00    0.0
2018/11/07 00:26:15.000  -74.370507964  163.307880147  1011.9754   6  11   0.0444   0.0513   0.1624  -0.0218   0.0620  -0.0479   4.00    0.0
2018/11/07 00:26:30.000  -74.370508026  163.307880043  1012.0061   6  11   0.0502   0.0582   0.1862  -0.0253   0.0718  -0.0555   4.00    0.0
2018/11/07 00:26:45.000  -74.370508066  163.307879895  1012.0262   6  11   0.0561   0.0651   0.2105  -0.0290   0.0818  -0.0635   4.00    0.0
2018/11/07 00:27:00.000  -74.370508147  163.307879504  1012.0257   6  11   0.0621   0.0720   0.2352  -0.0328   0.0920  -0.0719   4.00    0.0
2018/11/07 00:27:15.000  -74.370508302  163.307879256  1012.0538   6  11   0.0681   0.0788   0.2601  -0.0368   0.1023  -0.0806   4.00    0.0
2018/11/07 00:27:30.000  -74.370508391  163.307878781  1012.0698   6  11   0.0741   0.0857   0.2852  -0.0409   0.1127  -0.0895   4.00    0.0
2018/11/07 00:27:45.000  -74.370508405  163.307879143  1012.0983   6  11   0.0682   0.0790   0.2611  -0.0369   0.1026  -0.0805   4.00    0.0
2018/11/07 00:28:00.000  -74.370508349  163.307878517  1012.0744   6  11   0.0621   0.0721   0.2370  -0.0330   0.0926  -0.0721   4.00    0.0
2018/11/07 00:28:15.000  -74.370508332  163.307878711  1012.0760   6  11   0.0561   0.0652   0.2129  -0.0291   0.0826  -0.0638   4.00    0.0
2018/11/07 00:28:30.000  -74.370508282  163.307879049  1012.0855   6  11   0.0502   0.0583   0.1888  -0.0254   0.0727  -0.0559   4.00    0.0
2018/11/07 00:28:45.000  -74.370508193  163.307879601  1012.0536   6  11   0.0443   0.0514   0.1650  -0.0219   0.0629  -0.0482   4.00    0.0
2018/11/07 00:29:00.000  -74.370508204  163.307879430  1012.0225   6  11   0.0386   0.0446   0.1418  -0.0185   0.0533  -0.0410   4.00    0.0
2018/11/07 00:29:15.000  -74.370508239  163.307879976  1012.0518   6  11   0.0333   0.0380   0.1195  -0.0155   0.0440  -0.0343   4.00    0.0
2018/11/07 00:29:30.000  -74.370508237  163.307880729  1012.1068   6  11   0.0287   0.0320   0.0990  -0.0128   0.0353  -0.0284   3.00    0.0
2018/11/07 00:29:45.000  -74.370508237  163.307881865  1012.1657   6  11   0.0251   0.0272   0.0824  -0.0107   0.0281  -0.0238   3.00    0.0
2018/11/07 00:30:00.000  -74.370508441  163.307883957  1012.3223   1  11   0.0266   0.0235   0.0858  -0.0131   0.0300  -0.0312   4.00    1.0
2018/11/07 00:30:15.000  -74.370508388  163.307883958  1012.3093   1  11   0.0290   0.0274   0.0978  -0.0150   0.0359  -0.0353   4.00    1.0
2018/11/07 00:30:30.000  -74.370508245  163.307882585  1012.2626   6  11   0.0285   0.0320   0.0981  -0.0129   0.0341  -0.0268   3.00    0.0
2018/11/07 00:30:45.000  -74.370508224  163.307881910  1012.2381   6  11   0.0332   0.0380   0.1185  -0.0157   0.0423  -0.0323   4.00    0.0
2018/11/07 00:31:00.000  -74.370508245  163.307880933  1012.2119   6  11   0.0385   0.0446   0.1413  -0.0190   0.0514  -0.0388   4.00    0.0
2018/11/07 00:31:15.000  -74.370508351  163.307880449  1012.2283   6  11   0.0443   0.0515   0.1657  -0.0228   0.0607  -0.0458   4.00    0.0
2018/11/07 00:31:30.000  -74.370508476  163.307880021  1012.2123   6  11   0.0506   0.0589   0.1918  -0.0275   0.0693  -0.0524   4.00    0.0
2018/11/07 00:31:45.000  -74.370508569  163.307879124  1012.1764   6  11   0.0567   0.0660   0.2178  -0.0317   0.0790  -0.0603   3.00    0.0
2018/11/07 00:32:00.000  -74.370508677  163.307878432  1012.2035   6  11   0.0620   0.0721   0.2414  -0.0343   0.0912  -0.0711   3.00    0.0
2018/11/07 00:32:15.000  -74.370508533  163.307877566  1012.1438   6  11   0.0681   0.0790   0.2676  -0.0385   0.1014  -0.0797   3.00    0.0
2018/11/07 00:32:30.000  -74.370508441  163.307877420  1012.1490   6  11   0.0746   0.0864   0.2955  -0.0436   0.1104  -0.0872   0.00    0.0
2018/11/07 00:32:45.000  -74.370508491  163.307877994  1012.1647   6  11   0.0686   0.0796   0.2707  -0.0397   0.0992  -0.0778   0.00    0.0
2018/11/07 00:33:00.000  -74.370508628  163.307878966  1012.1821   6  11   0.0613   0.0711   0.2406  -0.0329   0.0928  -0.0731   0.00    0.0
2018/11/07 00:33:15.000  -74.370508605  163.307879710  1012.2476   6  11   0.0553   0.0641   0.2153  -0.0287   0.0827  -0.0645   0.00    0.0
2018/11/07 00:33:30.000  -74.370508552  163.307880481  1012.2840   6  11   0.0493   0.0571   0.1904  -0.0248   0.0726  -0.0562   0.00    0.0
2018/11/07 00:33:45.000  -74.370508415  163.307880862  1012.2899   6  11   0.0435   0.0503   0.1659  -0.0210   0.0626  -0.0482   1.00    0.0
2018/11/07 00:34:00.000  -74.370508361  163.307880908  1012.2979   6  11   0.0378   0.0436   0.1423  -0.0175   0.0529  -0.0408   4.00    1.0
2018/11/07 00:34:15.000  -74.370508300  163.307881312  1012.2938   6  11   0.0326   0.0372   0.1201  -0.0143   0.0437  -0.0341   5.00    0.0
2018/11/07 00:34:30.000  -74.370508324  163.307881463  1012.2489   6  11   0.0280   0.0313   0.1003  -0.0117   0.0354  -0.0286   6.00    0.0
2018/11/07 00:34:45.000  -74.370508370  163.307882314  1012.2513   6  11   0.0245   0.0267   0.0852  -0.0096   0.0289  -0.0247   6.00    0.0
2018/11/07 00:35:00.000  -74.370508364  163.307882371  1012.2752   6  11   0.0229   0.0246   0.0782  -0.0090   0.0260  -0.0232   6.00    0.0
2018/11/07 00:35:15.000  -74.370508306  163.307882034  1012.2806   6  11   0.0246   0.0271   0.0864  -0.0100   0.0295  -0.0254   6.00    0.0
2018/11/07 00:35:30.000  -74.370508299  163.307883023  1012.3349   1  11   0.0319   0.0361   0.1304  -0.0184   0.0511  -0.0516   5.00    1.0
2018/11/07 00:35:45.000  -74.370508338  163.307880529  1012.2480   6  11   0.0326   0.0377   0.1215  -0.0148   0.0443  -0.0352   6.00    0.0
2018/11/07 00:36:00.000  -74.370508376  163.307879802  1012.2168   6  11   0.0378   0.0440   0.1435  -0.0180   0.0533  -0.0417   6.00    0.0
2018/11/07 00:36:15.000  -74.370508407  163.307879404  1012.1991   6  11   0.0433   0.0506   0.1669  -0.0214   0.0629  -0.0490   6.00    0.0
2018/11/07 00:36:30.000  -74.370508413  163.307879180  1012.1570   6  11   0.0490   0.0572   0.1911  -0.0250   0.0728  -0.0569   6.00    0.0
2018/11/07 00:36:45.000  -74.370508492  163.307878947  1012.1703   6  11   0.0548   0.0639   0.2157  -0.0288   0.0829  -0.0652   6.00    0.0
2018/11/07 00:37:00.000  -74.370508467  163.307878595  1012.1457   6  11   0.0606   0.0706   0.2405  -0.0326   0.0931  -0.0738   6.00    0.0
2018/11/07 00:37:15.000  -74.370508508  163.307878195  1012.1321   6  11   0.0664   0.0773   0.2655  -0.0365   0.1033  -0.0825   5.00    0.0
2018/11/07 00:37:30.000  -74.370508475  163.307877891  1012.0862   6  11   0.0722   0.0840   0.2906  -0.0405   0.1136  -0.0914   6.00    0.0
2018/11/07 00:37:45.000  -74.370508452  163.307878464  1012.1305   6  11   0.0662   0.0773   0.2650  -0.0363   0.1029  -0.0823   6.00    0.0
2018/11/07 00:38:00.000  -74.370508508  163.307878233  1012.0846   6  11   0.0603   0.0709   0.2398  -0.0324   0.0925  -0.0734   6.00    0.0
2018/11/07 00:38:15.000  -74.370508512  163.307878227  1012.0830   6  11   0.0545   0.0650   0.2149  -0.0288   0.0821  -0.0647   6.00    0.0
2018/11/07 00:38:30.000  -74.370508429  163.307878163  1012.0889   6  11   0.0488   0.0605   0.1905  -0.0258   0.0717  -0.0564   6.00    0.0
2018/11/07 00:38:45.000  -74.370508406  163.307878861  1012.1057   6  11   0.0431   0.0544   0.1668  -0.0225   0.0627  -0.0489   5.00    0.0
2018/11/07 00:39:00.000  -74.370508445  163.307880052  1012.1344   6  11   0.0376   0.0435   0.1439  -0.0176   0.0536  -0.0419   5.00    0.0
2018/11/07 00:39:15.000  -74.370508384  163.307880344  1012.1426   6  11   0.0325   0.0370   0.1225  -0.0145   0.0447  -0.0357   5.00    0.0
2018/11/07 00:39:30.000  -74.370508404  163.307880937  1012.1802   6  11   0.0281   0.0314   0.1039  -0.0121   0.0370  -0.0308   5.00    0.0
2018/11/07 00:39:45.000  -74.370508390  163.307881485  1012.2139   6  11   0.0247   0.0270   0.0899  -0.0106   0.0312  -0.0273   6.00    0.0
2018/11/07 00:40:00.000  -74.370508380  163.307881841  1012.2394   6  11   0.0230   0.0250   0.0834  -0.0100   0.0287  -0.0260   6.00    0.0
2018/11/07 00:40:15.000  -74.370508241  163.307881291  1012.2111   6  11   0.0248   0.0274   0.0906  -0.0106   0.0315  -0.0278   6.00    0.0
2018/11/07 00:40:30.000  -74.370508293  163.307883414  1012.2983   1  11   0.0342   0.0376   0.1407  -0.0212   0.0553  -0.0578   5.00    1.0
2018/11/07 00:40:45.000  -74.370508215  163.307881234  1012.1742   6  11   0.0326   0.0376   0.1231  -0.0148   0.0447  -0.0365   6.00    0.0
2018/11/07 00:41:00.000  -74.370508387  163.307881104  1012.2119   6  11   0.0375   0.0438   0.1438  -0.0177   0.0531  -0.0424   6.00    0.0
2018/11/07 00:41:15.000  -74.370508482  163.307880650  1012.1941   6  11   0.0428   0.0502   0.1658  -0.0209   0.0620  -0.0491   6.00    0.0
2018/11/07 00:41:30.000  -74.370508609  163.307880356  1012.2222   6  11   0.0483   0.0568   0.1886  -0.0243   0.0713  -0.0564   6.00    0.0
2018/11/07 00:41:45.000  -74.370508753  163.307880237  1012.2542   6  11   0.0539   0.0636   0.2118  -0.0280   0.0808  -0.0641   6.00    0.0
2018/11/07 00:42:00.000  -74.370508895  163.307880023  1012.2593   6  11   0.0595   0.0705   0.2353  -0.0317   0.0903  -0.0721   6.00    0.0
2018/11/07 00:42:15.000  -74.370508971  163.307879678  1012.2556   6  11   0.0652   0.0780   0.2588  -0.0358   0.1000  -0.0802   6.00    0.0
2018/11/07 00:42:30.000  -74.370508987  163.307879420  1012.2703   6  11   0.0710   0.0871   0.2824  -0.0406   0.1097  -0.0885   6.00    0.0
2018/11/07 00:42:45.000  -74.370508921  163.307879844  1012.2998   6  11   0.0654   0.0836   0.2589  -0.0386   0.1017  -0.0806   5.00    0.0
2018/11/07 00:43:00.000  -74.370508811  163.307880431  1012.2719   6  11   0.0595   0.0729   0.2346  -0.0330   0.0913  -0.0721   5.00    0.0
2018/11/07 00:43:15.000  -74.370508638  163.307879633  1012.2151   6  11   0.0538   0.0676   0.2107  -0.0298   0.0810  -0.0638   5.00    0.0
2018/11/07 00:43:30.000  -74.370508618  163.307880814  1012.2052   6  11   0.0480   0.0560   0.1876  -0.0240   0.0714  -0.0561   5.00    0.0
2018/11/07 00:43:45.000  -74.370508540  163.307881192  1012.2287   6  11   0.0425   0.0489   0.1649  -0.0202   0.0617  -0.0489   5.00    0.0
2018/11/07 00:44:00.000  -74.370508418  163.307881114  1012.1587   6  11   0.0373   0.0424   0.1434  -0.0170   0.0527  -0.0424   5.00    0.0
2018/11/07 00:44:15.000  -74.370508461  163.307881139  1012.1652   6  11   0.0324   0.0363   0.1236  -0.0142   0.0445  -0.0370   5.00    0.0
2018/11/07 00:44:30.000  -74.370508496  163.307881606  1012.2293   6  11   0.0282   0.0309   0.1065  -0.0119   0.0373  -0.0326   5.00    0.0
2018/11/07 00:44:45.000  -74.370508577  163.307883399  1012.3589   1  11   0.0315   0.0312   0.1292  -0.0192   0.0490  -0.0564   4.00    1.0
2018/11/07 00:45:00.000  -74.370508592  163.307883483  1012.3639   1  11   0.0300   0.0287   0.1231  -0.0184   0.0462  -0.0553   4.00    1.0
2018/11/07 00:45:15.000  -74.370508480  163.307881942  1012.2465   6  11   0.0258   0.0265   0.0957  -0.0103   0.0317  -0.0317   5.00    0.0
2018/11/07 00:45:30.000  -74.370508664  163.307881716  1012.2664   6  11   0.0306   0.0317   0.1189  -0.0155   0.0425  -0.0414   4.00    0.0
2018/11/07 00:45:45.000  -74.370508745  163.307881074  1012.2809   6  11   0.0339   0.0366   0.1312  -0.0165   0.0475  -0.0430   4.00    0.0
2018/11/07 00:46:00.000  -74.370508814  163.307880968  1012.2911   6  11   0.0382   0.0422   0.1478  -0.0183   0.0541  -0.0468   4.00    0.0
2018/11/07 00:46:15.000  -74.370508733  163.307880328  1012.2442   6  11   0.0430   0.0481   0.1665  -0.0207   0.0617  -0.0518   4.00    0.0
2018/11/07 00:46:30.000  -74.370508671  163.307879575  1012.2116   6  11   0.0480   0.0541   0.1864  -0.0235   0.0697  -0.0576   4.00    0.0
2018/11/07 00:46:45.000  -74.370508660  163.307879140  1012.1641   6  11   0.0532   0.0602   0.2070  -0.0264   0.0780  -0.0640   4.00    0.0
2018/11/07 00:47:00.000  -74.370508662  163.307879120  1012.1447   6  11   0.0585   0.0664   0.2281  -0.0295   0.0864  -0.0708   4.00    0.0
2018/11/07 00:47:15.000  -74.370508812  163.307879521  1012.2149   6  11   0.0638   0.0726   0.2493  -0.0327   0.0949  -0.0778   4.00    0.0
2018/11/07 00:47:30.000  -74.370508956  163.307879786  1012.2586   6  11   0.0692   0.0789   0.2707  -0.0358   0.1034  -0.0850   4.00    0.0
2018/11/07 00:47:45.000  -74.370508894  163.307879442  1012.2176   6  11   0.0637   0.0723   0.2482  -0.0325   0.0942  -0.0776   4.00    0.0
2018/11/07 00:48:00.000  -74.370508938  163.307879882  1012.2401   6  11   0.0582   0.0659   0.2257  -0.0290   0.0851  -0.0699   4.00    0.0
2018/11/07 00:48:15.000  -74.370508775  163.307879664  1012.1767   6  11   0.0527   0.0595   0.2036  -0.0257   0.0761  -0.0625   4.00    0.0
2018/11/07 00:48:30.000  -74.370508688  163.307879816  1012.1384   6  11   0.0474   0.0533   0.1822  -0.0225   0.0673  -0.0556   4.00    0.0
2018/11/07 00:48:45.000  -74.370508628  163.307879976  1012.1500   6  11   0.0422   0.0472   0.1615  -0.0195   0.0589  -0.0492   4.00    0.0
2018/11/07 00:49:00.000  -74.370508532  163.307880282  1012.1536   6  11   0.0372   0.0412   0.1418  -0.0167   0.0508  -0.0434   4.00    0.0
2018/11/07 00:49:15.000  -74.370508520  163.307880712  1012.1692   6  11   0.0325   0.0356   0.1236  -0.0142   0.0433  -0.0384   4.00    0.0
2018/11/07 00:49:30.000  -74.370508543  163.307881235  1012.2131   6  11   0.0283   0.0305   0.1072  -0.0122   0.0366  -0.0339   4.00    0.0
2018/11/07 00:49:45.000  -74.370508607  163.307883195  1012.3598   1  11   0.0322   0.0315   0.1317  -0.0199   0.0491  -0.0583   4.00    1.0
2018/11/07 00:50:00.000  -74.370508757  163.307883397  1012.4175   1  11   0.0311   0.0295   0.1270  -0.0196   0.0473  -0.0577   4.00    1.0
2018/11/07 00:50:15.000  -74.370508649  163.307881254  1012.2594   6  11   0.0256   0.0271   0.0954  -0.0110   0.0315  -0.0318   4.00    0.0
2018/11/07 00:50:30.000  -74.370508724  163.307880238  1012.2185   6  11   0.0303   0.0317   0.1136  -0.0132   0.0377  -0.0396   4.00    0.0
2018/11/07 00:50:45.000  -74.370508728  163.307879304  1012.1679   6  10   0.0443   0.0396   0.1732  -0.0245   0.0593  -0.0716   4.00    0.0
2018/11/07 00:51:00.000  -74.370508686  163.307878763  1012.1267   6  10   0.0540   0.0467   0.2118  -0.0305   0.0727  -0.0898   4.00    0.0
2018/11/07 00:51:15.000  -74.370508824  163.307878605  1012.1759   6  10   0.0646   0.0545   0.2527  -0.0365   0.0865  -0.1094   4.00    0.0
2018/11/07 00:51:30.000  -74.370508689  163.307879013  1012.1005   6  10   0.0755   0.0606   0.2975  -0.0453   0.1035  -0.1306   4.00    0.0
2018/11/07 00:51:45.000  -74.370508598  163.307879096  1012.0844   6  10   0.0865   0.0690   0.3422  -0.0538   0.1213  -0.1515   5.00    0.0
2018/11/07 00:52:00.000  -74.370508452  163.307878385  1012.0278   6  10   0.0999   0.0795   0.3984  -0.0650   0.1447  -0.1784   5.00    0.0
2018/11/07 00:52:15.000  -74.370509027  163.307880191  1012.3120   6  10   0.1115   0.0848   0.4403  -0.0709   0.1562  -0.1993   5.00    0.0
2018/11/07 00:52:30.000  -74.370508902  163.307879412  1012.2679   6  10   0.1167   0.0884   0.4556  -0.0713   0.1583  -0.2055   5.00    0.0
2018/11/07 00:52:45.000  -74.370508768  163.307879649  1012.2495   6  10   0.1047   0.0796   0.4069  -0.0625   0.1395  -0.1822   5.00    0.0
2018/11/07 00:53:00.000  -74.370508903  163.307880245  1012.3482   6  10   0.0934   0.0715   0.3623  -0.0546   0.1227  -0.1610   5.00    0.0
2018/11/07 00:53:15.000  -74.370508977  163.307880314  1012.4038   6  10   0.0827   0.0638   0.3209  -0.0474   0.1070  -0.1410   5.00    0.0
2018/11/07 00:53:30.000  -74.370509154  163.307881030  1012.5078   6  10   0.0723   0.0564   0.2826  -0.0405   0.0921  -0.1220   5.00    0.0
2018/11/07 00:53:45.000  -74.370509163  163.307881315  1012.5622   6  10   0.0623   0.0493   0.2506  -0.0338   0.0775  -0.1043   4.00    0.0
2018/11/07 00:54:00.000  -74.370509101  163.307881718  1012.5766   6   9   0.0534   0.0425   0.2188  -0.0278   0.0645  -0.0893   4.00    0.0
2018/11/07 00:54:15.000  -74.370509044  163.307881827  1012.5227   6   9   0.0439   0.0361   0.1765  -0.0219   0.0517  -0.0707   5.00    0.0
2018/11/07 00:54:30.000  -74.370508860  163.307881471  1012.4127   6   9   0.0351   0.0303   0.1371  -0.0164   0.0401  -0.0531   4.00    0.0
2018/11/07 00:54:45.000  -74.370508738  163.307882939  1012.4086   1   9   0.0331   0.0293   0.1313  -0.0193   0.0453  -0.0515   4.00    1.0
2018/11/07 00:55:00.000  -74.370508727  163.307883041  1012.3641   1   9   0.0284   0.0266   0.1075  -0.0171   0.0401  -0.0406   4.00    1.0
2018/11/07 00:55:15.000  -74.370508779  163.307883140  1012.3344   1   9   0.0347   0.0306   0.1376  -0.0215   0.0491  -0.0556   3.00    1.0
2018/11/07 00:55:30.000  -74.370508691  163.307881103  1012.2364   6   9   0.0350   0.0310   0.1344  -0.0172   0.0407  -0.0524   5.00    0.0
2018/11/07 00:55:45.000  -74.370508699  163.307880937  1012.2796   6   9   0.0440   0.0373   0.1746  -0.0232   0.0533  -0.0705   5.00    0.0
2018/11/07 00:56:00.000  -74.370508587  163.307880782  1012.2587   6   9   0.0547   0.0451   0.2220  -0.0312   0.0697  -0.0922   6.00    0.0
2018/11/07 00:56:15.000  -74.370508824  163.307881310  1012.3896   6   9   0.0645   0.0492   0.2673  -0.0347   0.0786  -0.1117   5.00    0.0
2018/11/07 00:56:30.000  -74.370508811  163.307880473  1012.3389   6   9   0.0719   0.0543   0.2992  -0.0373   0.0849  -0.1244   6.00    0.0
2018/11/07 00:56:45.000  -74.370508889  163.307880089  1012.3284   6   9   0.0806   0.0600   0.3367  -0.0412   0.0937  -0.1401   5.00    0.0
2018/11/07 00:57:00.000  -74.370508887  163.307879682  1012.2812   6   9   0.0896   0.0660   0.3762  -0.0455   0.1032  -0.1568   5.00    0.0
2018/11/07 00:57:15.000  -74.370508743  163.307879454  1012.1940   6  10   0.0775   0.0714   0.3012  -0.0436   0.1001  -0.1123   5.00    0.0
2018/11/07 00:57:30.000  -74.370508850  163.307879035  1012.2252   6  10   0.0821   0.0773   0.3145  -0.0465   0.1066  -0.1149   5.00    0.0
2018/11/07 00:57:45.000  -74.370508910  163.307879209  1012.2414   6  10   0.0744   0.0707   0.2826  -0.0416   0.0959  -0.1017   5.00    0.0
2018/11/07 00:58:00.000  -74.370508871  163.307879344  1012.2303   6  10   0.0671   0.0642   0.2529  -0.0370   0.0857  -0.0899   5.00    0.0
2018/11/07 00:58:15.000  -74.370508778  163.307879315  1012.2130   6  10   0.0601   0.0578   0.2246  -0.0325   0.0757  -0.0787   5.00    0.0
2018/11/07 00:58:30.000  -74.370508792  163.307879612  1012.2225   6  10   0.0533   0.0515   0.1972  -0.0280   0.0659  -0.0681   5.00    0.0
2018/11/07 00:58:45.000  -74.370508782  163.307880151  1012.2607   6  10   0.0467   0.0454   0.1707  -0.0237   0.0563  -0.0578   5.00    0.0
2018/11/07 00:59:00.000  -74.370508785  163.307880491  1012.2900   6  10   0.0402   0.0394   0.1449  -0.0194   0.0469  -0.0479   5.00    0.0
2018/11/07 00:59:15.000  -74.370508710  163.307880451  1012.2723   6  10   0.0341   0.0336   0.1202  -0.0152   0.0379  -0.0385   5.00    0.0
2018/11/07 00:59:30.000  -74.370508635  163.307882721  1012.2957   1  10   0.0325   0.0324   0.1171  -0.0175   0.0420  -0.0384   4.00    1.0
2018/11/07 00:59:45.000  -74.370508705  163.307882911  1012.3279   1  10   0.0267   0.0271   0.0922  -0.0137   0.0341  -0.0283   4.00    1.0
2018/11/07 01:00:00.000  -74.370508670  163.307882640  1012.3040   1  10   0.0238   0.0245   0.0780  -0.0120   0.0301  -0.0222   4.00    1.0
2018/11/07 01:00:15.000  -74.370508561  163.307882626  1012.2450   1  10   0.0269   0.0275   0.0927  -0.0145   0.0347  -0.0292   4.00    1.0
2018/11/07 01:00:30.000  -74.370508584  163.307883124  1012.2340   1  10   0.0330   0.0331   0.1186  -0.0185   0.0433  -0.0400   4.00    1.0
2018/11/07 01:00:45.000  -74.370508550  163.307880675  1012.2003   6  10   0.0330   0.0334   0.1118  -0.0143   0.0351  -0.0336   5.00    0.0
2018/11/07 01:01:00.000  -74.370508526  163.307880490  1012.2102   6  10   0.0387   0.0388   0.1342  -0.0180   0.0431  -0.0418   5.00    0.0
2018/11/07 01:01:15.000  -74.370508479  163.307879737  1012.1835   6  10   0.0448   0.0445   0.1579  -0.0218   0.0514  -0.0505   5.00    0.0
2018/11/07 01:01:30.000  -74.370508466  163.307879161  1012.1584   6  10   0.0509   0.0503   0.1824  -0.0257   0.0598  -0.0594   5.00    0.0
2018/11/07 01:01:45.000  -74.370508404  163.307878737  1012.1457   6  10   0.0572   0.0561   0.2074  -0.0296   0.0682  -0.0686   5.00    0.0
2018/11/07 01:02:00.000  -74.370508423  163.307878814  1012.1879   6  10   0.0636   0.0620   0.2328  -0.0335   0.0767  -0.0779   5.00    0.0
2018/11/07 01:02:15.000  -74.370508376  163.307878780  1012.1864   6  10   0.0701   0.0680   0.2584  -0.0374   0.0851  -0.0873   5.00    0.0
2018/11/07 01:02:30.000  -74.370508497  163.307879137  1012.2367   6  10   0.0766   0.0739   0.2842  -0.0412   0.0934  -0.0967   5.00    0.0
2018/11/07 01:02:45.000  -74.370508502  163.307879272  1012.2373   6  10   0.0701   0.0680   0.2590  -0.0374   0.0848  -0.0874   5.00    0.0
2018/11/07 01:03:00.000  -74.370508416  163.307879176  1012.2309   6  10   0.0638   0.0622   0.2339  -0.0337   0.0763  -0.0785   5.00    0.0
2018/11/07 01:03:15.000  -74.370508426  163.307879332  1012.2115   6  10   0.0578   0.0567   0.2093  -0.0306   0.0686  -0.0701   5.00    0.0
2018/11/07 01:03:30.000  -74.370508448  163.307879368  1012.1924   6  10   0.0524   0.0523   0.1863  -0.0288   0.0627  -0.0631   5.00    0.0
2018/11/07 01:03:45.000  -74.370508650  163.307880102  1012.2359   6  10   0.0454   0.0444   0.1610  -0.0225   0.0515  -0.0527   5.00    0.0
2018/11/07 01:04:00.000  -74.370508627  163.307880036  1012.1977   6  10   0.0386   0.0380   0.1342  -0.0172   0.0408  -0.0417   5.00    0.0
2018/11/07 01:04:15.000  -74.370508653  163.307880046  1012.1855   6  10   0.0326   0.0324   0.1101  -0.0128   0.0318  -0.0322   5.00    0.0
2018/11/07 01:04:30.000  -74.370508648  163.307882422  1012.2167   1  10   0.0318   0.0308   0.1127  -0.0152   0.0369  -0.0354   5.00    1.0
2018/11/07 01:04:45.000  -74.370508651  163.307882412  1012.2513   1  10   0.0260   0.0256   0.0862  -0.0112   0.0291  -0.0242   5.00    1.0
2018/11/07 01:05:00.000  -74.370508677  163.307882826  1012.2829   1  10   0.0231   0.0232   0.0709  -0.0088   0.0252  -0.0165   5.00    1.0
2018/11/07 01:05:15.000  -74.370508621  163.307882842  1012.2532   1  10   0.0259   0.0258   0.0858  -0.0110   0.0291  -0.0238   5.00    1.0
2018/11/07 01:05:30.000  -74.370508672  163.307882856  1012.2533   1  10   0.0318   0.0311   0.1124  -0.0146   0.0368  -0.0348   5.00    1.0
2018/11/07 01:05:45.000  -74.370508630  163.307880152  1012.1982   6  10   0.0320   0.0322   0.1074  -0.0111   0.0301  -0.0298   5.00    0.0
2018/11/07 01:06:00.000  -74.370508585  163.307879824  1012.1871   6  10   0.0377   0.0374   0.1307  -0.0148   0.0377  -0.0385   5.00    0.0
2018/11/07 01:06:15.000  -74.370508609  163.307879579  1012.1914   6  10   0.0437   0.0430   0.1552  -0.0184   0.0457  -0.0475   5.00    0.0
2018/11/07 01:06:30.000  -74.370508574  163.307879140  1012.1768   6  10   0.0499   0.0488   0.1806  -0.0220   0.0540  -0.0566   5.00    0.0
2018/11/07 01:06:45.000  -74.370508613  163.307879223  1012.2119   6  10   0.0562   0.0553   0.2072  -0.0253   0.0634  -0.0656   5.00    0.0
2018/11/07 01:07:00.000  -74.370508613  163.307879589  1012.2364   6  10   0.0626   0.0623   0.2360  -0.0289   0.0745  -0.0750   6.00    0.0
2018/11/07 01:07:15.000  -74.370508687  163.307880233  1012.3001   6  10   0.0689   0.0659   0.2588  -0.0333   0.0778  -0.0851   5.00    0.0
2018/11/07 01:07:30.000  -74.370508737  163.307880246  1012.2923   6  10   0.0754   0.0710   0.2833  -0.0368   0.0836  -0.0943   5.00    0.0
2018/11/07 01:07:45.000  -74.370508710  163.307880182  1012.2334   6  10   0.0690   0.0650   0.2568  -0.0331   0.0749  -0.0849   5.00    0.0
2018/11/07 01:08:00.000  -74.370508779  163.307880728  1012.2773   6  10   0.0626   0.0589   0.2306  -0.0293   0.0663  -0.0754   6.00    0.0
2018/11/07 01:08:15.000  -74.370508757  163.307880723  1012.2311   6  10   0.0561   0.0531   0.2047  -0.0254   0.0580  -0.0660   6.00    0.0
2018/11/07 01:08:30.000  -74.370508788  163.307880812  1012.2011   6  10   0.0498   0.0473   0.1790  -0.0217   0.0497  -0.0566   6.00    0.0
2018/11/07 01:08:45.000  -74.370508769  163.307880787  1012.1540   6  10   0.0436   0.0417   0.1538  -0.0180   0.0417  -0.0472   6.00    0.0
2018/11/07 01:09:00.000  -74.370508729  163.307881094  1012.1451   6  10   0.0376   0.0363   0.1292  -0.0143   0.0339  -0.0380   6.00    0.0
2018/11/07 01:09:15.000  -74.370508691  163.307881410  1012.1198   6  10   0.0318   0.0311   0.1056  -0.0107   0.0264  -0.0290   6.00    0.0
2018/11/07 01:09:30.000  -74.370508804  163.307883476  1012.1573   1  10   0.0316   0.0299   0.1087  -0.0138   0.0326  -0.0333   6.00    1.0
2018/11/07 01:09:45.000  -74.370508773  163.307883102  1012.1964   1  10   0.0258   0.0248   0.0817  -0.0101   0.0257  -0.0217   6.00    1.0
2018/11/07 01:10:00.000  -74.370508735  163.307882867  1012.2739   1  10   0.0228   0.0224   0.0664  -0.0084   0.0221  -0.0135   6.00    1.0
2018/11/07 01:10:15.000  -74.370508669  163.307882829  1012.3176   1  10   0.0258   0.0251   0.0812  -0.0101   0.0255  -0.0216   6.00    1.0
2018/11/07 01:10:30.000  -74.370508709  163.307883099  1012.3490   1  10   0.0315   0.0304   0.1079  -0.0137   0.0323  -0.0329   6.00    1.0
2018/11/07 01:10:45.000  -74.370508686  163.307882797  1012.2964   1  10   0.0389   0.0373   0.1397  -0.0181   0.0409  -0.0451   6.00    1.0
2018/11/07 01:11:00.000  -74.370508515  163.307880038  1012.2315   6  10   0.0372   0.0373   0.1277  -0.0138   0.0328  -0.0373   6.00    0.0
2018/11/07 01:11:15.000  -74.370508583  163.307880352  1012.2606   6  10   0.0433   0.0433   0.1527  -0.0177   0.0412  -0.0468   5.00    0.0
2018/11/07 01:11:30.000  -74.370508508  163.307879809  1012.2594   6  10   0.0494   0.0491   0.1777  -0.0213   0.0485  -0.0560   5.00    0.0
2018/11/07 01:11:45.000  -74.370508462  163.307879211  1012.2088   6  10   0.0557   0.0534   0.2024  -0.0243   0.0538  -0.0651   5.00    0.0
2018/11/07 01:12:00.000  -74.370508474  163.307878455  1012.2064   6  10   0.0619   0.0585   0.2273  -0.0272   0.0596  -0.0740   5.00    0.0
2018/11/07 01:12:15.000  -74.370508583  163.307878236  1012.1884   6  10   0.0683   0.0643   0.2527  -0.0305   0.0661  -0.0831   5.00    0.0
2018/11/07 01:12:30.000  -74.370508464  163.307877714  1012.1114   6  10   0.0748   0.0711   0.2786  -0.0341   0.0739  -0.0923   5.00    0.0
2018/11/07 01:12:45.000  -74.370508541  163.307878091  1012.1435   6  10   0.0684   0.0636   0.2528  -0.0303   0.0648  -0.0831   5.00    0.0
2018/11/07 01:13:00.000  -74.370508559  163.307878049  1012.1349   6  10   0.0619   0.0571   0.2265  -0.0263   0.0562  -0.0735   5.00    0.0
2018/11/07 01:13:15.000  -74.370508592  163.307878291  1012.1357   6  10   0.0555   0.0513   0.2007  -0.0226   0.0485  -0.0640   5.00    0.0
2018/11/07 01:13:30.000  -74.370508610  163.307878755  1012.1838   6  10   0.0492   0.0457   0.1752  -0.0191   0.0413  -0.0547   5.00    0.0
2018/11/07 01:13:45.000  -74.370508574  163.307879050  1012.2148   6  10   0.0430   0.0403   0.1503  -0.0157   0.0342  -0.0454   5.00    0.0
2018/11/07 01:14:00.000  -74.370508653  163.307879401  1012.2057   6  10   0.0370   0.0351   0.1259  -0.0123   0.0274  -0.0362   6.00    0.0
2018/11/07 01:14:15.000  -74.370508800  163.307882383  1012.2132   1  10   0.0386   0.0351   0.1366  -0.0161   0.0348  -0.0432   6.00    1.0
2018/11/07 01:14:30.000  -74.370508739  163.307882365  1012.2144   1  10   0.0313   0.0288   0.1048  -0.0120   0.0275  -0.0309   6.00    1.0
2018/11/07 01:14:45.000  -74.370508783  163.307882630  1012.2535   1  10   0.0256   0.0240   0.0779  -0.0086   0.0220  -0.0192   6.00    1.0
2018/11/07 01:15:00.000  -74.370508774  163.307882414  1012.2591   1  10   0.0228   0.0214   0.0626  -0.0062   0.0192  -0.0104   6.00    1.0
2018/11/07 01:15:15.000  -74.370508748  163.307882286  1012.2768   1  10   0.0256   0.0239   0.0774  -0.0085   0.0216  -0.0188   6.00    1.0
2018/11/07 01:15:30.000  -74.370508794  163.307882519  1012.3293   1  10   0.0311   0.0286   0.1037  -0.0117   0.0265  -0.0302   6.00    1.0
2018/11/07 01:15:45.000  -74.370508745  163.307882572  1012.2925   1  10   0.0384   0.0347   0.1347  -0.0154   0.0326  -0.0422   6.00    1.0
2018/11/07 01:16:00.000  -74.370508631  163.307880270  1012.2467   6  10   0.0366   0.0345   0.1238  -0.0112   0.0240  -0.0350   6.00    0.0
2018/11/07 01:16:15.000  -74.370508566  163.307880146  1012.2292   6  10   0.0425   0.0395   0.1474  -0.0141   0.0294  -0.0438   6.00    0.0
2018/11/07 01:16:30.000  -74.370508551  163.307879998  1012.2356   6  10   0.0485   0.0446   0.1714  -0.0170   0.0346  -0.0526   6.00    0.0
2018/11/07 01:16:45.000  -74.370508586  163.307879422  1012.2399   6  10   0.0547   0.0497   0.1957  -0.0199   0.0397  -0.0614   6.00    0.0
2018/11/07 01:17:00.000  -74.370508619  163.307878952  1012.1881   6  10   0.0609   0.0550   0.2202  -0.0227   0.0446  -0.0702   6.00    0.0
2018/11/07 01:17:15.000  -74.370508623  163.307878431  1012.1541   6  10   0.0672   0.0602   0.2446  -0.0255   0.0493  -0.0789   6.00    0.0
2018/11/07 01:17:30.000  -74.370508684  163.307878354  1012.2026   6  10   0.0735   0.0656   0.2691  -0.0282   0.0539  -0.0875   6.00    0.0
2018/11/07 01:17:45.000  -74.370508709  163.307878711  1012.2378   6  10   0.0671   0.0602   0.2439  -0.0251   0.0479  -0.0784   6.00    0.0
2018/11/07 01:18:00.000  -74.370508838  163.307879116  1012.2519   6  11   0.0533   0.0531   0.1889  -0.0092   0.0160  -0.0401   6.00    0.0
2018/11/07 01:18:15.000  -74.370508801  163.307878968  1012.2542   6  11   0.0471   0.0478   0.1636  -0.0035  -0.0024  -0.0286   6.00    0.0
2018/11/07 01:18:30.000  -74.370508737  163.307879235  1012.2495   6  11   0.0418   0.0428   0.1422   0.0042  -0.0095  -0.0209   6.00    0.0
2018/11/07 01:18:45.000  -74.370508711  163.307879521  1012.2374   6  11   0.0368   0.0380   0.1225   0.0057  -0.0108  -0.0144   6.00    0.0
2018/11/07 01:19:00.000  -74.370508727  163.307882360  1012.2308   1  11   0.0385   0.0377   0.1320  -0.0053  -0.0127  -0.0173   7.00    2.0
2018/11/07 01:19:15.000  -74.370508666  163.307882739  1012.2572   1  11   0.0324   0.0309   0.1073  -0.0047  -0.0094  -0.0125   7.00    2.0
2018/11/07 01:19:30.000  -74.370508663  163.307882886  1012.2663   1  11   0.0271   0.0248   0.0843  -0.0044  -0.0058  -0.0063   7.00    2.0
2018/11/07 01:19:45.000  -74.370508611  163.307882595  1012.2509   1  11   0.0231   0.0199   0.0648  -0.0040  -0.0011   0.0071   7.00    2.0
2018/11/07 01:20:00.000  -74.370508655  163.307882418  1012.2136   1  11   0.0212   0.0175   0.0538  -0.0047   0.0014   0.0100   7.00    2.0
2018/11/07 01:20:15.000  -74.370508653  163.307882111  1012.2025   1  11   0.0231   0.0200   0.0647  -0.0045  -0.0043   0.0074   7.00    2.0
2018/11/07 01:20:30.000  -74.370508668  163.307882533  1012.2113   1  11   0.0271   0.0249   0.0841  -0.0041  -0.0086  -0.0061   7.00    2.0
2018/11/07 01:20:45.000  -74.370508687  163.307882764  1012.2327   1  11   0.0324   0.0309   0.1074  -0.0042  -0.0129  -0.0127   7.00    2.0
2018/11/07 01:21:00.000  -74.370508774  163.307882799  1012.2594   1  11   0.0385   0.0377   0.1325  -0.0042  -0.0171  -0.0181   7.00    2.0
2018/11/07 01:21:15.000  -74.370508769  163.307879844  1012.2603   6  11   0.0358   0.0376   0.1180   0.0079  -0.0180   0.0017   7.00    0.0
2018/11/07 01:21:30.000  -74.370508797  163.307879874  1012.2389   6  11   0.0405   0.0423   0.1364   0.0083  -0.0207  -0.0103   7.00    0.0
2018/11/07 01:21:45.000  -74.370508844  163.307879687  1012.2271   6  11   0.0452   0.0472   0.1553   0.0086  -0.0236  -0.0157   7.00    0.0
2018/11/07 01:22:00.000  -74.370508898  163.307879835  1012.2889   6  12   0.0491   0.0501   0.1687  -0.0075  -0.0366  -0.0292   7.00    0.0
2018/11/07 01:22:15.000  -74.370508922  163.307879780  1012.2803   6  12   0.0539   0.0546   0.1854  -0.0098  -0.0427  -0.0353   8.00    0.0
2018/11/07 01:22:30.000  -74.370508897  163.307879330  1012.2217   6  12   0.0588   0.0593   0.2033  -0.0116  -0.0480  -0.0407   8.00    0.0
2018/11/07 01:22:45.000  -74.370508840  163.307878995  1012.1650   6  12   0.0539   0.0545   0.1855  -0.0102  -0.0440  -0.0361   8.00    0.0
2018/11/07 01:23:00.000  -74.370508752  163.307879212  1012.1324   6  12   0.0491   0.0498   0.1674  -0.0086  -0.0400  -0.0314   0.00    0.0
2018/11/07 01:23:15.000  -74.370508735  163.307879443  1012.1420   6  12   0.0443   0.0451   0.1494  -0.0069  -0.0359  -0.0265   0.00    0.0
2018/11/07 01:23:30.000  -74.370508761  163.307879641  1012.1536   6  12   0.0397   0.0405   0.1316  -0.0051  -0.0318  -0.0214   0.00    0.0
2018/11/07 01:23:45.000  -74.370508764  163.307880199  1012.1769   6  12   0.0351   0.0360   0.1141  -0.0030  -0.0278  -0.0160   3.00    0.0
2018/11/07 01:24:00.000  -74.370508798  163.307882424  1012.1964   1  12   0.0380   0.0382   0.1291  -0.0066  -0.0336  -0.0266   7.00    1.0
2018/11/07 01:24:15.000  -74.370508749  163.307882187  1012.1838   1  12   0.0321   0.0324   0.1053  -0.0034  -0.0282  -0.0199   7.00    1.0
2018/11/07 01:24:30.000  -74.370508758  163.307882249  1012.1796   1  12   0.0270   0.0275   0.0833   0.0037  -0.0235  -0.0130   7.00    1.0
2018/11/07 01:24:45.000  -74.370508789  163.307881866  1012.2116   1  12   0.0233   0.0235   0.0651   0.0049  -0.0201  -0.0049   7.00    1.0
2018/11/07 01:25:00.000  -74.370508728  163.307881888  1012.2213   1  12   0.0216   0.0219   0.0551   0.0058  -0.0186   0.0061   7.00    1.0
2018/11/07 01:25:15.000  -74.370508773  163.307881816  1012.2123   1  12   0.0233   0.0237   0.0651   0.0050  -0.0206  -0.0047   7.00    1.0
2018/11/07 01:25:30.000  -74.370508900  163.307882047  1012.1781   1  12   0.0270   0.0276   0.0835   0.0036  -0.0242  -0.0131   7.00    1.0
2018/11/07 01:25:45.000  -74.370508956  163.307882337  1012.1867   1  12   0.0321   0.0327   0.1058  -0.0024  -0.0293  -0.0201   7.00    1.0
2018/11/07 01:26:00.000  -74.370508964  163.307882010  1012.1882   1  12   0.0380   0.0385   0.1303  -0.0058  -0.0351  -0.0270   7.00    1.0
2018/11/07 01:26:15.000  -74.370508840  163.307880029  1012.1861   6  12   0.0349   0.0357   0.1147   0.0007  -0.0293  -0.0170   5.00    0.0
2018/11/07 01:26:30.000  -74.370508832  163.307880216  1012.1676   6  12   0.0394   0.0401   0.1328  -0.0035  -0.0338  -0.0228   5.00    0.0
2018/11/07 01:26:45.000  -74.370508779  163.307880301  1012.1844   6  12   0.0441   0.0447   0.1514  -0.0054  -0.0385  -0.0284   4.00    0.0
2018/11/07 01:27:00.000  -74.370508755  163.307880253  1012.2185   6  12   0.0489   0.0493   0.1702  -0.0070  -0.0434  -0.0338   4.00    0.0
2018/11/07 01:27:15.000  -74.370508773  163.307879989  1012.2400   6  12   0.0537   0.0540   0.1892  -0.0086  -0.0483  -0.0391   6.00    0.0
2018/11/07 01:27:30.000  -74.370508754  163.307880123  1012.2359   6  12   0.0586   0.0588   0.2084  -0.0100  -0.0532  -0.0444   6.00    0.0
2018/11/07 01:27:45.000  -74.370508742  163.307880389  1012.2463   6  12   0.0539   0.0540   0.1905  -0.0087  -0.0484  -0.0395   7.00    0.0
2018/11/07 01:28:00.000  -74.370508713  163.307880518  1012.2485   6  12   0.0490   0.0493   0.1717  -0.0070  -0.0438  -0.0343   7.00    0.0
2018/11/07 01:28:15.000  -74.370508661  163.307880151  1012.2081   6  12   0.0443   0.0446   0.1531  -0.0052  -0.0392  -0.0290   6.00    0.0
2018/11/07 01:28:30.000  -74.370508633  163.307880151  1012.1788   6  12   0.0395   0.0401   0.1346  -0.0031  -0.0347  -0.0236   7.00    0.0
2018/11/07 01:28:45.000  -74.370508564  163.307880645  1012.1812   6  12   0.0350   0.0357   0.1164   0.0019  -0.0302  -0.0178   7.00    0.0
2018/11/07 01:29:00.000  -74.370508681  163.307882192  1012.1759   1  12   0.0382   0.0386   0.1326  -0.0053  -0.0366  -0.0275   7.00    1.0
2018/11/07 01:29:15.000  -74.370508752  163.307881738  1012.1620   1  12   0.0322   0.0329   0.1077  -0.0008  -0.0309  -0.0204   7.00    1.0
2018/11/07 01:29:30.000  -74.370508729  163.307881650  1012.1570   1  12   0.0271   0.0279   0.0847   0.0043  -0.0260  -0.0128   7.00    1.0
2018/11/07 01:29:45.000  -74.370508767  163.307881752  1012.1923   1  12   0.0232   0.0242   0.0657   0.0054  -0.0225  -0.0032   7.00    1.0
2018/11/07 01:30:00.000  -74.370508733  163.307882310  1012.1822   1  12   0.0208   0.0166   0.0489   0.0108  -0.0063  -0.0086   7.00    2.0
2018/11/07 01:30:15.000  -74.370508706  163.307882174  1012.1538   1  12   0.0229   0.0190   0.0606   0.0102  -0.0112  -0.0116   7.00    2.0
2018/11/07 01:30:30.000  -74.370508751  163.307882215  1012.1516   1  12   0.0267   0.0237   0.0809   0.0097  -0.0174  -0.0171   7.00    2.0
2018/11/07 01:30:45.000  -74.370508714  163.307882107  1012.1655   1  12   0.0319   0.0294   0.1050   0.0087  -0.0243  -0.0235   7.00    2.0
2018/11/07 01:31:00.000  -74.370508595  163.307881683  1012.1674   1  12   0.0382   0.0392   0.1333  -0.0048  -0.0373  -0.0280   7.00    1.0
2018/11/07 01:31:15.000  -74.370508417  163.307880249  1012.1260   6  12   0.0348   0.0355   0.1169   0.0032  -0.0308  -0.0186   4.00    0.0
2018/11/07 01:31:30.000  -74.370508398  163.307880135  1012.1721   6  12   0.0393   0.0399   0.1355   0.0008  -0.0355  -0.0245   4.00    0.0
2018/11/07 01:31:45.000  -74.370508390  163.307880134  1012.2174   6  12   0.0441   0.0444   0.1545  -0.0035  -0.0404  -0.0302   4.00    0.0
2018/11/07 01:32:00.000  -74.370508376  163.307879957  1012.1944   6  12   0.0489   0.0491   0.1736  -0.0052  -0.0454  -0.0357   4.00    0.0
2018/11/07 01:32:15.000  -74.370508341  163.307879784  1012.1457   6  12   0.0537   0.0538   0.1930  -0.0067  -0.0505  -0.0411   4.00    0.0
2018/11/07 01:32:30.000  -74.370508369  163.307880070  1012.1448   6  12   0.0587   0.0586   0.2124  -0.0081  -0.0557  -0.0464   4.00    0.0
2018/11/07 01:32:45.000  -74.370508393  163.307880121  1012.1616   6  12   0.0537   0.0539   0.1927  -0.0064  -0.0508  -0.0412   4.00    0.0
2018/11/07 01:33:00.000  -74.370508315  163.307880012  1012.1641   6  12   0.0488   0.0493   0.1735  -0.0049  -0.0458  -0.0359   4.00    0.0
2018/11/07 01:33:15.000  -74.370508412  163.307879650  1012.1140   6  12   0.0440   0.0448   0.1545  -0.0036  -0.0406  -0.0306   4.00    0.0
2018/11/07 01:33:30.000  -74.370508411  163.307879471  1012.1129   6  12   0.0394   0.0409   0.1360  -0.0034  -0.0349  -0.0253   4.00    0.0
2018/11/07 01:33:45.000  -74.370508475  163.307879829  1012.1293   6  12   0.0348   0.0357   0.1173   0.0026  -0.0311  -0.0197   4.00    0.0
2018/11/07 01:34:00.000  -74.370508608  163.307881343  1012.1130   1  12   0.0382   0.0390   0.1329   0.0013  -0.0394  -0.0278   7.00    1.0
2018/11/07 01:34:15.000  -74.370508689  163.307881658  1012.1338   1  12   0.0323   0.0333   0.1076   0.0044  -0.0336  -0.0204   7.00    1.0
2018/11/07 01:34:30.000  -74.370508716  163.307881582  1012.1779   1  12   0.0271   0.0284   0.0845   0.0058  -0.0286  -0.0126   7.00    1.0
2018/11/07 01:34:45.000  -74.370508682  163.307881666  1012.1767   1  12   0.0233   0.0248   0.0656   0.0066  -0.0249  -0.0025   7.00    1.0
2018/11/07 01:35:00.000  -74.370508700  163.307881966  1012.1830   1  12   0.0215   0.0231   0.0557   0.0069  -0.0234   0.0072   7.00    1.0
2018/11/07 01:35:15.000  -74.370508695  163.307881961  1012.1918   1  12   0.0232   0.0251   0.0656   0.0069  -0.0253  -0.0022   7.00    1.0
2018/11/07 01:35:30.000  -74.370508745  163.307881761  1012.1942   1  12   0.0271   0.0287   0.0845   0.0059  -0.0293  -0.0127   7.00    1.0
2018/11/07 01:35:45.000  -74.370508776  163.307882033  1012.1802   1  12   0.0318   0.0295   0.1042   0.0102  -0.0274  -0.0235   7.00    2.0
2018/11/07 01:36:00.000  -74.370508784  163.307881629  1012.1677   1  12   0.0379   0.0358   0.1301   0.0096  -0.0346  -0.0301   7.00    2.0
2018/11/07 01:36:15.000  -74.370508531  163.307879485  1012.1837   6  12   0.0345   0.0350   0.1166   0.0053  -0.0327  -0.0191   5.00    0.0
2018/11/07 01:36:30.000  -74.370508523  163.307878982  1012.2073   6  12   0.0391   0.0394   0.1351   0.0049  -0.0375  -0.0250   6.00    0.0
2018/11/07 01:36:45.000  -74.370508598  163.307878971  1012.1761   6  12   0.0438   0.0439   0.1539   0.0041  -0.0425  -0.0306   5.00    0.0
2018/11/07 01:37:00.000  -74.370508561  163.307879261  1012.1705   6  12   0.0486   0.0485   0.1729   0.0028  -0.0476  -0.0361   5.00    0.0
2018/11/07 01:37:15.000  -74.370508646  163.307879330  1012.1652   6  12   0.0535   0.0532   0.1920  -0.0015  -0.0528  -0.0414   5.00    0.0
2018/11/07 01:37:30.000  -74.370508685  163.307879323  1012.1337   6  12   0.0585   0.0580   0.2112  -0.0037  -0.0580  -0.0467   5.00    0.0
2018/11/07 01:37:45.000  -74.370508704  163.307879087  1012.1320   6  12   0.0535   0.0532   0.1918   0.0017  -0.0527  -0.0413   5.00    0.0
2018/11/07 01:38:00.000  -74.370508661  163.307878911  1012.1434   6  12   0.0486   0.0485   0.1726   0.0038  -0.0477  -0.0359   5.00    0.0
2018/11/07 01:38:15.000  -74.370508633  163.307878736  1012.1470   6  12   0.0438   0.0438   0.1535   0.0049  -0.0427  -0.0304   5.00    0.0
2018/11/07 01:38:30.000  -74.370508674  163.307878733  1012.1715   6  12   0.0390   0.0393   0.1347   0.0055  -0.0378  -0.0248   5.00    0.0
2018/11/07 01:38:45.000  -74.370508727  163.307879127  1012.1676   6  12   0.0344   0.0350   0.1163   0.0059  -0.0331  -0.0189   5.00    0.0
2018/11/07 01:39:00.000  -74.370508954  163.307880592  1012.1709   1  12   0.0382   0.0394   0.1324   0.0051  -0.0412  -0.0275   7.00    1.0
2018/11/07 01:39:15.000  -74.370508898  163.307880905  1012.1730   1  12   0.0323   0.0339   0.1076   0.0062  -0.0355  -0.0201   7.00    1.0
2018/11/07 01:39:30.000  -74.370508814  163.307881206  1012.1603   1  12   0.0271   0.0291   0.0850   0.0067  -0.0307  -0.0124   7.00    1.0
2018/11/07 01:39:45.000  -74.370508744  163.307881542  1012.1709   1  12   0.0233   0.0257   0.0667   0.0072  -0.0270   0.0007   7.00    1.0
2018/11/07 01:40:00.000  -74.370508718  163.307881876  1012.1918   1  12   0.0219   0.0240   0.0573   0.0077  -0.0255   0.0073   7.00    1.0
2018/11/07 01:40:15.000  -74.370508716  163.307881642  1012.1915   1  12   0.0235   0.0259   0.0669   0.0072  -0.0275  -0.0020   7.00    1.0
2018/11/07 01:40:30.000  -74.370508765  163.307881408  1012.2042   1  12   0.0272   0.0294   0.0853   0.0071  -0.0314  -0.0126   7.00    1.0
2018/11/07 01:40:45.000  -74.370508743  163.307881030  1012.1849   1  12   0.0323   0.0342   0.1077   0.0066  -0.0364  -0.0202   7.00    1.0
2018/11/07 01:41:00.000  -74.370508628  163.307881368  1012.1861   1  12   0.0383   0.0398   0.1320   0.0061  -0.0422  -0.0275   7.00    1.0
2018/11/07 01:41:15.000  -74.370508299  163.307880196  1012.1894   6  12   0.0343   0.0347   0.1156   0.0063  -0.0335  -0.0190   5.00    0.0
2018/11/07 01:41:30.000  -74.370508284  163.307880368  1012.1760   6  12   0.0388   0.0390   0.1335   0.0061  -0.0383  -0.0248   5.00    0.0
2018/11/07 01:41:45.000  -74.370508250  163.307880487  1012.1873   6  12   0.0436   0.0435   0.1517   0.0059  -0.0432  -0.0303   6.00    0.0
2018/11/07 01:42:00.000  -74.370508201  163.307880573  1012.1532   6  12   0.0484   0.0481   0.1700   0.0055  -0.0482  -0.0355   6.00    0.0
2018/11/07 01:42:15.000  -74.370508230  163.307880211  1012.1763   6  12   0.0533   0.0528   0.1885   0.0050  -0.0534  -0.0407   6.00    0.0
2018/11/07 01:42:30.000  -74.370508232  163.307880159  1012.1777   6  12   0.0582   0.0576   0.2070   0.0044  -0.0585  -0.0458   6.00    0.0
2018/11/07 01:42:45.000  -74.370508341  163.307880349  1012.1587   6  12   0.0533   0.0528   0.1877   0.0052  -0.0535  -0.0403   6.00    0.0
2018/11/07 01:43:00.000  -74.370508282  163.307880371  1012.1432   6  12   0.0484   0.0481   0.1689   0.0058  -0.0484  -0.0350   6.00    0.0
2018/11/07 01:43:15.000  -74.370508370  163.307880872  1012.1825   6  12   0.0436   0.0434   0.1504   0.0062  -0.0434  -0.0297   6.00    0.0
2018/11/07 01:43:30.000  -74.370508416  163.307880950  1012.1842   6  12   0.0388   0.0389   0.1322   0.0065  -0.0385  -0.0241   6.00    0.0
2018/11/07 01:43:45.000  -74.370508409  163.307880600  1012.1942   6  12   0.0343   0.0346   0.1145   0.0066  -0.0339  -0.0183   6.00    0.0
2018/11/07 01:44:00.000  -74.370508585  163.307881515  1012.1989   1  12   0.0384   0.0400   0.1305   0.0068  -0.0430  -0.0268   7.00    1.0
2018/11/07 01:44:15.000  -74.370508735  163.307881891  1012.2106   1  12   0.0325   0.0346   0.1069   0.0072  -0.0376  -0.0197   7.00    1.0
2018/11/07 01:44:30.000  -74.370508796  163.307881954  1012.2207   1  12   0.0274   0.0300   0.0857   0.0077  -0.0330  -0.0124   7.00    1.0
