% program   : RTKLIB ver.2.4.3
% inp file  : _by_type/_obs/blake/20181108.18o
% inp file  : _by_type/_sp3+clk/igs20264.clk
% inp file  : _by_type/_sp3+clk/igs20264.sp3
% inp file  : _by_type/_nav/blake/20181108.18n
% obs start : 2018/11/08 00:00:00.0 GPST (week2026 345600.0s)
% obs end   : 2018/11/08 23:59:45.0 GPST (week2026 431985.0s)
% pos mode  : ppp-kinematic
% solution  : combined
% elev mask : 15.0 deg
% dynamics  : off
% tidecorr  : on
% tropo opt : est ztd+grad
% ephemeris : precise
% navi sys  : gps glonass
% antenna1  :                       ( 0.0000  0.0000  0.0000)
%
% (lat/lon/height=WGS84/ellipsoidal,Q=1:fix,2:float,3:sbas,4:dgps,5:single,6:ppp,ns=# of satellites)
%  GPST                  latitude(deg) longitude(deg)  height(m)   Q  ns   sdn(m)   sde(m)   sdu(m)  sdne(m)  sdeu(m)  sdun(m) age(s)  ratio
2018/11/08 00:00:00.000  -74.407203392  163.437658730    80.0476   6   9   0.0211   0.0214   0.0690  -0.0089   0.0097  -0.0190   0.00    0.0
2018/11/08 00:00:15.000  -74.407203443  163.437658403    80.0685   6   9   0.0241   0.0247   0.0805  -0.0109   0.0154  -0.0240   0.00    0.0
2018/11/08 00:00:30.000  -74.407203468  163.437658650    80.0914   6   9   0.0297   0.0308   0.1012  -0.0137   0.0233  -0.0316   0.00    0.0
2018/11/08 00:00:45.000  -74.407203500  163.437658496    80.0872   6   9   0.0368   0.0383   0.1265  -0.0173   0.0317  -0.0404   0.00    0.0
2018/11/08 00:01:00.000  -74.407203526  163.437658311    80.0659   6   9   0.0445   0.0466   0.1543  -0.0211   0.0405  -0.0497   1.00    0.0
2018/11/08 00:01:15.000  -74.407203554  163.437658173    80.0821   6   9   0.0526   0.0552   0.1833  -0.0250   0.0493  -0.0593   1.00    0.0
2018/11/08 00:01:30.000  -74.407203533  163.437658251    80.0612   6   9   0.0609   0.0639   0.2131  -0.0289   0.0581  -0.0689   1.00    0.0
2018/11/08 00:01:45.000  -74.407203554  163.437658115    80.0619   6   9   0.0692   0.0727   0.2430  -0.0328   0.0668  -0.0786   1.00    0.0
2018/11/08 00:02:00.000  -74.407203588  163.437657789    80.0935   6   9   0.0775   0.0813   0.2729  -0.0366   0.0754  -0.0882   1.00    0.0
2018/11/08 00:02:15.000  -74.407203457  163.437657402    80.0766   6   9   0.0857   0.0898   0.3025  -0.0403   0.0838  -0.0976   4.00    0.0
2018/11/08 00:02:30.000  -74.407203518  163.437657276    80.0644   6   9   0.0937   0.0980   0.3317  -0.0438   0.0919  -0.1069   4.00    0.0
2018/11/08 00:02:45.000  -74.407203437  163.437657499    80.0372   6   9   0.0851   0.0890   0.3021  -0.0396   0.0834  -0.0968   4.00    0.0
2018/11/08 00:03:00.000  -74.407203406  163.437657664    80.0504   6   9   0.0768   0.0804   0.2734  -0.0359   0.0756  -0.0875   4.00    0.0
2018/11/08 00:03:15.000  -74.407203489  163.437657164    79.9885   6   9   0.0685   0.0717   0.2444  -0.0322   0.0676  -0.0782   4.00    0.0
2018/11/08 00:03:30.000  -74.407203575  163.437657389    80.0062   6   9   0.0602   0.0631   0.2153  -0.0285   0.0595  -0.0688   4.00    0.0
2018/11/08 00:03:45.000  -74.407203538  163.437657739    80.0186   6   9   0.0521   0.0545   0.1863  -0.0247   0.0512  -0.0593   4.00    0.0
2018/11/08 00:04:00.000  -74.407203480  163.437658039    80.0406   6   9   0.0441   0.0460   0.1574  -0.0210   0.0427  -0.0499   4.00    0.0
2018/11/08 00:04:15.000  -74.407203533  163.437658511    80.0938   6   9   0.0364   0.0379   0.1295  -0.0173   0.0342  -0.0407   4.00    0.0
2018/11/08 00:04:30.000  -74.407203541  163.437658435    80.0895   6   9   0.0295   0.0305   0.1035  -0.0139   0.0259  -0.0319   4.00    0.0
2018/11/08 00:04:45.000  -74.407203465  163.437658611    80.0551   6   9   0.0240   0.0245   0.0821  -0.0111   0.0185  -0.0242   3.00    0.0
2018/11/08 00:05:00.000  -74.407203471  163.437658706    80.0456   6   9   0.0211   0.0214   0.0705  -0.0095   0.0137  -0.0195   3.00    0.0
2018/11/08 00:05:15.000  -74.407203531  163.437659056    80.1244   6   9   0.0239   0.0245   0.0823  -0.0112   0.0187  -0.0240   3.00    0.0
2018/11/08 00:05:30.000  -74.407203450  163.437658848    80.1520   6   9   0.0294   0.0305   0.1039  -0.0140   0.0265  -0.0316   3.00    0.0
2018/11/08 00:05:45.000  -74.407203350  163.437659297    80.1885   6   9   0.0361   0.0378   0.1298  -0.0174   0.0350  -0.0400   2.00    0.0
2018/11/08 00:06:00.000  -74.407203280  163.437659225    80.1980   6   9   0.0434   0.0458   0.1573  -0.0208   0.0437  -0.0485   3.00    0.0
2018/11/08 00:06:15.000  -74.407203309  163.437658762    80.1581   6   9   0.0509   0.0540   0.1852  -0.0242   0.0521  -0.0568   3.00    0.0
2018/11/08 00:06:30.000  -74.407203400  163.437658240    80.1245   6   9   0.0583   0.0622   0.2129  -0.0274   0.0602  -0.0646   3.00    0.0
2018/11/08 00:06:45.000  -74.407203358  163.437657301    80.0849   6   9   0.0657   0.0702   0.2401  -0.0306   0.0681  -0.0722   3.00    0.0
2018/11/08 00:07:00.000  -74.407203371  163.437657235    80.0479   6   9   0.0729   0.0780   0.2667  -0.0336   0.0757  -0.0794   2.00    0.0
2018/11/08 00:07:15.000  -74.407203424  163.437656381    79.9830   6   9   0.0799   0.0856   0.2928  -0.0365   0.0832  -0.0865   2.00    0.0
2018/11/08 00:07:30.000  -74.407203522  163.437655989    79.9779   6   9   0.0867   0.0930   0.3185  -0.0393   0.0905  -0.0934   2.00    0.0
2018/11/08 00:07:45.000  -74.407203437  163.437656110    79.9564   6  10   0.0775   0.0840   0.2648  -0.0407   0.0965  -0.0716   2.00    0.0
2018/11/08 00:08:00.000  -74.407203332  163.437655888    79.9003   6  10   0.0705   0.0765   0.2415  -0.0374   0.0883  -0.0657   2.00    0.0
2018/11/08 00:08:15.000  -74.407203373  163.437656452    79.9365   6  10   0.0634   0.0689   0.2183  -0.0340   0.0799  -0.0599   2.00    0.0
2018/11/08 00:08:30.000  -74.407203368  163.437656913    79.9451   6  10   0.0562   0.0611   0.1946  -0.0305   0.0712  -0.0539   2.00    0.0
2018/11/08 00:08:45.000  -74.407203321  163.437657398    79.9317   6  10   0.0490   0.0533   0.1704  -0.0269   0.0621  -0.0476   2.00    0.0
2018/11/08 00:09:00.000  -74.407203440  163.437658139    80.0160   6  10   0.0419   0.0454   0.1460  -0.0232   0.0525  -0.0410   2.00    0.0
2018/11/08 00:09:15.000  -74.407203415  163.437657882    80.0069   6  10   0.0349   0.0377   0.1218  -0.0194   0.0427  -0.0342   2.00    0.0
2018/11/08 00:09:30.000  -74.407203479  163.437658175    80.0131   6  10   0.0286   0.0306   0.0991  -0.0157   0.0329  -0.0274   2.00    0.0
2018/11/08 00:09:45.000  -74.407203483  163.437658589    80.0381   6  10   0.0235   0.0247   0.0803  -0.0125   0.0241  -0.0212   2.00    0.0
2018/11/08 00:10:00.000  -74.407203546  163.437658627    80.0513   6  10   0.0210   0.0216   0.0707  -0.0107   0.0187  -0.0165   2.00    0.0
2018/11/08 00:10:15.000  -74.407203564  163.437659034    80.0849   6  10   0.0235   0.0247   0.0829  -0.0123   0.0246  -0.0197   2.00    0.0
2018/11/08 00:10:30.000  -74.407203517  163.437658983    80.0751   6  10   0.0285   0.0306   0.1035  -0.0153   0.0336  -0.0247   2.00    0.0
2018/11/08 00:10:45.000  -74.407203437  163.437658921    80.0562   6  10   0.0347   0.0376   0.1281  -0.0186   0.0433  -0.0295   2.00    0.0
2018/11/08 00:11:00.000  -74.407203387  163.437658683    80.0169   6  10   0.0414   0.0450   0.1554  -0.0218   0.0531  -0.0330   2.00    0.0
2018/11/08 00:11:15.000  -74.407203345  163.437658876    80.0054   6  10   0.0486   0.0526   0.1892  -0.0247   0.0632  -0.0316   2.00    0.0
2018/11/08 00:11:30.000  -74.407203395  163.437658969    80.0269   6  10   0.0542   0.0600   0.1921  -0.0284   0.0701  -0.0488   0.00    0.0
2018/11/08 00:11:45.000  -74.407203269  163.437658064    79.9719   6  10   0.0607   0.0673   0.2155  -0.0315   0.0787  -0.0537   0.00    0.0
2018/11/08 00:12:00.000  -74.407203343  163.437657724    79.9842   6  10   0.0672   0.0745   0.2391  -0.0345   0.0873  -0.0587   0.00    0.0
2018/11/08 00:12:15.000  -74.407203333  163.437657624    80.0674   6  10   0.0736   0.0816   0.2626  -0.0376   0.0960  -0.0641   0.00    0.0
2018/11/08 00:12:30.000  -74.407203365  163.437657616    80.0817   6  10   0.0799   0.0886   0.2861  -0.0408   0.1047  -0.0698   2.00    0.0
2018/11/08 00:12:45.000  -74.407203401  163.437657912    80.1417   6  10   0.0737   0.0817   0.2642  -0.0379   0.0969  -0.0651   4.00    0.0
2018/11/08 00:13:00.000  -74.407203563  163.437657809    80.1103   6  10   0.0672   0.0746   0.2417  -0.0348   0.0887  -0.0601   2.00    0.0
2018/11/08 00:13:15.000  -74.407203594  163.437658019    80.0994   6  10   0.0607   0.0673   0.2188  -0.0318   0.0803  -0.0552   2.00    0.0
2018/11/08 00:13:30.000  -74.407203563  163.437657828    80.0891   6  10   0.0541   0.0600   0.1954  -0.0287   0.0718  -0.0502   2.00    0.0
2018/11/08 00:13:45.000  -74.407203618  163.437658391    80.1005   6  10   0.0475   0.0526   0.1716  -0.0256   0.0630  -0.0451   3.00    0.0
2018/11/08 00:14:00.000  -74.407203610  163.437658470    80.0849   6  10   0.0409   0.0451   0.1473  -0.0224   0.0539  -0.0397   5.00    0.0
2018/11/08 00:14:15.000  -74.407203585  163.437658617    80.0735   6  10   0.0344   0.0377   0.1229  -0.0192   0.0445  -0.0340   5.00    0.0
2018/11/08 00:14:30.000  -74.407203520  163.437658601    80.0223   6  10   0.0284   0.0308   0.0991  -0.0159   0.0348  -0.0280   5.00    0.0
2018/11/08 00:14:45.000  -74.407203599  163.437658508    80.0474   6  10   0.0235   0.0249   0.0782  -0.0130   0.0257  -0.0222   5.00    0.0
2018/11/08 00:15:00.000  -74.407203596  163.437658615    80.0414   6  10   0.0210   0.0218   0.0661  -0.0113   0.0196  -0.0187   5.00    0.0
2018/11/08 00:15:15.000  -74.407203540  163.437658399    79.9784   6  10   0.0233   0.0248   0.0776  -0.0129   0.0253  -0.0220   5.00    0.0
2018/11/08 00:15:30.000  -74.407203478  163.437658715    79.9706   6  10   0.0281   0.0305   0.0979  -0.0156   0.0341  -0.0271   5.00    0.0
2018/11/08 00:15:45.000  -74.407203338  163.437658176    79.9184   6  10   0.0339   0.0373   0.1212  -0.0185   0.0434  -0.0322   5.00    0.0
2018/11/08 00:16:00.000  -74.407203216  163.437657705    79.8887   6  10   0.0401   0.0444   0.1453  -0.0213   0.0526  -0.0373   5.00    0.0
2018/11/08 00:16:15.000  -74.407203213  163.437657027    79.8846   6  10   0.0464   0.0517   0.1697  -0.0242   0.0617  -0.0423   5.00    0.0
2018/11/08 00:16:30.000  -74.407203268  163.437656655    79.9051   6  10   0.0529   0.0589   0.1942  -0.0272   0.0708  -0.0476   5.00    0.0
2018/11/08 00:16:45.000  -74.407203304  163.437656193    79.8776   6  10   0.0593   0.0661   0.2189  -0.0303   0.0800  -0.0532   5.00    0.0
2018/11/08 00:17:00.000  -74.407203336  163.437656205    79.8678   6  10   0.0657   0.0732   0.2437  -0.0335   0.0894  -0.0594   5.00    0.0
2018/11/08 00:17:15.000  -74.407203363  163.437656084    79.8715   6  10   0.0720   0.0803   0.2686  -0.0370   0.0989  -0.0660   5.00    0.0
2018/11/08 00:17:30.000  -74.407203289  163.437656123    79.8510   6  10   0.0782   0.0872   0.2936  -0.0405   0.1085  -0.0731   5.00    0.0
2018/11/08 00:17:45.000  -74.407203339  163.437656683    79.8600   6  10   0.0718   0.0801   0.2693  -0.0369   0.0987  -0.0664   5.00    0.0
2018/11/08 00:18:00.000  -74.407203376  163.437656910    79.8888   6  10   0.0655   0.0730   0.2454  -0.0335   0.0897  -0.0602   5.00    0.0
2018/11/08 00:18:15.000  -74.407203403  163.437656709    79.8550   6  10   0.0591   0.0659   0.2213  -0.0303   0.0806  -0.0543   5.00    0.0
2018/11/08 00:18:30.000  -74.407203477  163.437657240    79.9043   6  10   0.0526   0.0587   0.1970  -0.0271   0.0716  -0.0486   5.00    0.0
2018/11/08 00:18:45.000  -74.407203516  163.437657421    79.9381   6  10   0.0462   0.0514   0.1725  -0.0241   0.0625  -0.0432   5.00    0.0
2018/11/08 00:19:00.000  -74.407203399  163.437657549    79.9341   6  10   0.0398   0.0442   0.1479  -0.0211   0.0533  -0.0378   5.00    0.0
2018/11/08 00:19:15.000  -74.407203381  163.437657308    79.9138   6  10   0.0336   0.0370   0.1233  -0.0182   0.0440  -0.0325   5.00    0.0
2018/11/08 00:19:30.000  -74.407203417  163.437657465    79.9303   6  10   0.0279   0.0303   0.0995  -0.0154   0.0346  -0.0272   5.00    0.0
2018/11/08 00:19:45.000  -74.407203581  163.437658247    80.0008   6  10   0.0233   0.0248   0.0788  -0.0128   0.0259  -0.0220   5.00    0.0
2018/11/08 00:20:00.000  -74.407203639  163.437658481    80.0209   6  10   0.0207   0.0220   0.0669  -0.0112   0.0202  -0.0187   5.00    0.0
2018/11/08 00:20:15.000  -74.407203676  163.437658235    80.0052   6  10   0.0231   0.0251   0.0781  -0.0127   0.0252  -0.0215   5.00    0.0
2018/11/08 00:20:30.000  -74.407203668  163.437657258    79.9547   6  10   0.0276   0.0309   0.0980  -0.0149   0.0333  -0.0258   5.00    0.0
2018/11/08 00:20:45.000  -74.407203624  163.437656506    79.8747   6  10   0.0331   0.0377   0.1211  -0.0175   0.0421  -0.0305   5.00    0.0
2018/11/08 00:21:00.000  -74.407203685  163.437656541    79.8738   6  10   0.0392   0.0450   0.1455  -0.0202   0.0511  -0.0356   5.00    0.0
2018/11/08 00:21:15.000  -74.407203694  163.437656867    79.9078   6  10   0.0454   0.0527   0.1707  -0.0231   0.0603  -0.0411   5.00    0.0
2018/11/08 00:21:30.000  -74.407203700  163.437656868    79.9347   6  10   0.0518   0.0607   0.1963  -0.0263   0.0695  -0.0473   5.00    0.0
2018/11/08 00:21:45.000  -74.407203728  163.437656759    79.9432   6  11   0.0559   0.0703   0.2119  -0.0295   0.0788  -0.0632   5.00    0.0
2018/11/08 00:22:00.000  -74.407203728  163.437657243    79.9479   6  11   0.0621   0.0727   0.2358  -0.0330   0.0919  -0.0715   4.00    0.0
2018/11/08 00:22:15.000  -74.407203685  163.437656838    79.9469   6  11   0.0682   0.0795   0.2606  -0.0367   0.1020  -0.0800   4.00    0.0
2018/11/08 00:22:30.000  -74.407203646  163.437656481    79.9683   6  11   0.0743   0.0864   0.2856  -0.0405   0.1123  -0.0887   4.00    0.0
2018/11/08 00:22:45.000  -74.407203676  163.437656310    79.9350   6  11   0.0682   0.0794   0.2629  -0.0370   0.1031  -0.0809   4.00    0.0
2018/11/08 00:23:00.000  -74.407203718  163.437656339    79.9074   6  11   0.0621   0.0723   0.2388  -0.0333   0.0932  -0.0727   4.00    0.0
2018/11/08 00:23:15.000  -74.407203701  163.437656343    79.8881   6  11   0.0559   0.0651   0.2147  -0.0298   0.0834  -0.0648   4.00    0.0
2018/11/08 00:23:30.000  -74.407203689  163.437656890    79.9053   6  11   0.0498   0.0579   0.1906  -0.0264   0.0736  -0.0571   4.00    0.0
2018/11/08 00:23:45.000  -74.407203675  163.437657349    79.9269   6  11   0.0437   0.0506   0.1665  -0.0232   0.0639  -0.0496   4.00    0.0
2018/11/08 00:24:00.000  -74.407203628  163.437657534    79.9344   6  11   0.0377   0.0434   0.1428  -0.0202   0.0544  -0.0425   3.00    0.0
2018/11/08 00:24:15.000  -74.407203560  163.437657783    79.9233   6  11   0.0321   0.0364   0.1197  -0.0175   0.0450  -0.0356   4.00    0.0
2018/11/08 00:24:30.000  -74.407203589  163.437658077    79.9452   6  11   0.0269   0.0298   0.0977  -0.0150   0.0359  -0.0292   4.00    0.0
2018/11/08 00:24:45.000  -74.407203579  163.437657988    79.9393   6  11   0.0228   0.0243   0.0787  -0.0129   0.0275  -0.0236   4.00    0.0
2018/11/08 00:25:00.000  -74.407203602  163.437658241    79.9911   6  11   0.0208   0.0214   0.0675  -0.0116   0.0219  -0.0199   4.00    0.0
2018/11/08 00:25:15.000  -74.407203532  163.437657985    79.9789   6  11   0.0229   0.0243   0.0783  -0.0130   0.0273  -0.0232   4.00    0.0
2018/11/08 00:25:30.000  -74.407203488  163.437657650    79.9554   6  11   0.0270   0.0298   0.0968  -0.0152   0.0353  -0.0285   4.00    0.0
2018/11/08 00:25:45.000  -74.407203450  163.437657367    79.9371   6  11   0.0321   0.0364   0.1185  -0.0177   0.0443  -0.0347   4.00    0.0
2018/11/08 00:26:00.000  -74.407203328  163.437656856    79.8921   6  11   0.0378   0.0434   0.1419  -0.0205   0.0538  -0.0416   4.00    0.0
2018/11/08 00:26:15.000  -74.407203414  163.437656710    79.9145   6  11   0.0438   0.0506   0.1662  -0.0238   0.0637  -0.0491   4.00    0.0
2018/11/08 00:26:30.000  -74.407203337  163.437655662    79.8754   6  11   0.0499   0.0578   0.1912  -0.0273   0.0738  -0.0571   4.00    0.0
2018/11/08 00:26:45.000  -74.407203244  163.437655436    79.8677   6  11   0.0562   0.0651   0.2165  -0.0312   0.0842  -0.0654   4.00    0.0
2018/11/08 00:27:00.000  -74.407203240  163.437655435    79.8925   6  11   0.0627   0.0725   0.2420  -0.0357   0.0947  -0.0742   4.00    0.0
2018/11/08 00:27:15.000  -74.407203112  163.437654952    79.8595   6  11   0.0699   0.0806   0.2677  -0.0415   0.1055  -0.0834   4.00    0.0
2018/11/08 00:27:30.000  -74.407203075  163.437654734    79.8696   6  11   0.0773   0.0891   0.2952  -0.0480   0.1183  -0.0949   3.00    0.0
2018/11/08 00:27:45.000  -74.407203220  163.437655496    79.8686   6  11   0.0682   0.0792   0.2695  -0.0388   0.1066  -0.0847   4.00    0.0
2018/11/08 00:28:00.000  -74.407203275  163.437655620    79.8854   6  11   0.0617   0.0716   0.2436  -0.0340   0.0954  -0.0750   4.00    0.0
2018/11/08 00:28:15.000  -74.407203310  163.437655671    79.8994   6  11   0.0554   0.0643   0.2182  -0.0299   0.0848  -0.0662   4.00    0.0
2018/11/08 00:28:30.000  -74.407203440  163.437655713    79.9590   6  11   0.0492   0.0571   0.1930  -0.0262   0.0744  -0.0578   5.00    0.0
2018/11/08 00:28:45.000  -74.407203487  163.437656030    79.9530   6  11   0.0431   0.0499   0.1681  -0.0227   0.0642  -0.0497   5.00    0.0
2018/11/08 00:29:00.000  -74.407203525  163.437656521    79.9630   6  11   0.0372   0.0427   0.1437  -0.0195   0.0543  -0.0422   5.00    0.0
2018/11/08 00:29:15.000  -74.407203599  163.437657008    79.9740   6  11   0.0316   0.0357   0.1202  -0.0167   0.0447  -0.0352   5.00    0.0
2018/11/08 00:29:30.000  -74.407203703  163.437657450    79.9615   6  11   0.0265   0.0292   0.0983  -0.0143   0.0356  -0.0289   5.00    0.0
2018/11/08 00:29:45.000  -74.407203756  163.437658112    79.9956   6  11   0.0225   0.0238   0.0798  -0.0123   0.0275  -0.0236   5.00    0.0
2018/11/08 00:30:00.000  -74.407203760  163.437658216    79.9872   6  11   0.0204   0.0209   0.0692  -0.0107   0.0225  -0.0203   5.00    0.0
2018/11/08 00:30:15.000  -74.407203787  163.437658317    80.0062   6  11   0.0224   0.0236   0.0794  -0.0122   0.0270  -0.0230   5.00    0.0
2018/11/08 00:30:30.000  -74.407203772  163.437658090    79.9813   6  11   0.0264   0.0289   0.0973  -0.0140   0.0348  -0.0279   5.00    0.0
2018/11/08 00:30:45.000  -74.407203757  163.437657640    79.9869   6  11   0.0314   0.0354   0.1188  -0.0163   0.0438  -0.0338   5.00    0.0
2018/11/08 00:31:00.000  -74.407203698  163.437657190    79.9875   6  11   0.0369   0.0422   0.1421  -0.0190   0.0533  -0.0407   5.00    0.0
2018/11/08 00:31:15.000  -74.407203575  163.437656716    79.9517   6  11   0.0427   0.0492   0.1664  -0.0221   0.0632  -0.0482   4.00    0.0
2018/11/08 00:31:30.000  -74.407203548  163.437656550    79.9494   6  11   0.0486   0.0563   0.1912  -0.0254   0.0733  -0.0562   4.00    0.0
2018/11/08 00:31:45.000  -74.407203522  163.437656491    79.9257   6  11   0.0546   0.0632   0.2163  -0.0289   0.0835  -0.0647   4.00    0.0
2018/11/08 00:32:00.000  -74.407203580  163.437656767    79.9477   6  11   0.0605   0.0702   0.2416  -0.0326   0.0939  -0.0733   4.00    0.0
2018/11/08 00:32:15.000  -74.407203616  163.437656758    79.9695   6  11   0.0664   0.0771   0.2670  -0.0364   0.1042  -0.0822   4.00    0.0
2018/11/08 00:32:30.000  -74.407203462  163.437656261    79.8995   6  11   0.0723   0.0839   0.2924  -0.0403   0.1146  -0.0912   4.00    0.0
2018/11/08 00:32:45.000  -74.407203514  163.437656309    79.8910   6  11   0.0663   0.0772   0.2668  -0.0364   0.1041  -0.0822   4.00    0.0
2018/11/08 00:33:00.000  -74.407203585  163.437656890    79.9141   6  11   0.0603   0.0702   0.2414  -0.0325   0.0935  -0.0731   4.00    0.0
2018/11/08 00:33:15.000  -74.407203604  163.437657114    79.9022   6  11   0.0544   0.0632   0.2161  -0.0287   0.0830  -0.0643   4.00    0.0
2018/11/08 00:33:30.000  -74.407203572  163.437657028    79.8331   6  11   0.0484   0.0562   0.1910  -0.0251   0.0727  -0.0557   4.00    0.0
2018/11/08 00:33:45.000  -74.407203665  163.437657439    79.8772   6  11   0.0426   0.0491   0.1665  -0.0218   0.0625  -0.0474   4.00    0.0
2018/11/08 00:34:00.000  -74.407203727  163.437657149    79.8957   6  11   0.0371   0.0421   0.1428  -0.0187   0.0526  -0.0393   4.00    0.0
2018/11/08 00:34:15.000  -74.407203757  163.437657214    79.9110   6  11   0.0322   0.0353   0.1211  -0.0162   0.0430  -0.0308   4.00    0.0
2018/11/08 00:34:30.000  -74.407204114  163.437658603    80.0766   1  11   0.0293   0.0325   0.1176  -0.0198   0.0453  -0.0447   6.00    1.0
2018/11/08 00:34:45.000  -74.407204104  163.437658870    80.0983   1  11   0.0239   0.0259   0.0934  -0.0162   0.0345  -0.0370   5.00    1.0
2018/11/08 00:35:00.000  -74.407204000  163.437658782    80.0713   1  11   0.0214   0.0223   0.0802  -0.0142   0.0282  -0.0329   5.00    1.0
2018/11/08 00:35:15.000  -74.407203976  163.437658991    80.0747   1  11   0.0244   0.0260   0.0941  -0.0163   0.0346  -0.0376   5.00    1.0
2018/11/08 00:35:30.000  -74.407203752  163.437657694    80.0193   6  11   0.0259   0.0286   0.0962  -0.0133   0.0336  -0.0276   3.00    0.0
2018/11/08 00:35:45.000  -74.407203707  163.437657357    80.0037   6  11   0.0308   0.0349   0.1166  -0.0155   0.0421  -0.0333   3.00    0.0
2018/11/08 00:36:00.000  -74.407203711  163.437657445    80.0245   6  11   0.0361   0.0416   0.1389  -0.0181   0.0512  -0.0399   3.00    0.0
2018/11/08 00:36:15.000  -74.407203669  163.437657123    80.0129   6  11   0.0417   0.0484   0.1622  -0.0210   0.0607  -0.0471   3.00    0.0
2018/11/08 00:36:30.000  -74.407203654  163.437657303    80.0363   6  11   0.0475   0.0552   0.1861  -0.0242   0.0704  -0.0547   3.00    0.0
2018/11/08 00:36:45.000  -74.407203632  163.437657228    80.0369   6  11   0.0532   0.0619   0.2103  -0.0276   0.0802  -0.0628   3.00    0.0
2018/11/08 00:37:00.000  -74.407203681  163.437657244    80.0499   6  11   0.0590   0.0687   0.2345  -0.0311   0.0901  -0.0710   3.00    0.0
2018/11/08 00:37:15.000  -74.407203711  163.437657023    80.0776   6  11   0.0648   0.0753   0.2588  -0.0347   0.0999  -0.0794   3.00    0.0
2018/11/08 00:37:30.000  -74.407203820  163.437657446    80.1342   6  11   0.0705   0.0820   0.2830  -0.0383   0.1097  -0.0879   3.00    0.0
2018/11/08 00:37:45.000  -74.407203916  163.437657719    80.1353   6  11   0.0645   0.0749   0.2574  -0.0343   0.0992  -0.0786   4.00    0.0
2018/11/08 00:38:00.000  -74.407203876  163.437657476    80.0977   6  11   0.0586   0.0680   0.2325  -0.0305   0.0889  -0.0698   5.00    0.0
2018/11/08 00:38:15.000  -74.407203928  163.437657947    80.1144   6  11   0.0527   0.0612   0.2078  -0.0269   0.0788  -0.0613   5.00    0.0
2018/11/08 00:38:30.000  -74.407204021  163.437658227    80.1200   6  11   0.0469   0.0543   0.1835  -0.0234   0.0688  -0.0532   5.00    0.0
2018/11/08 00:38:45.000  -74.407204058  163.437657939    80.1116   6  11   0.0412   0.0475   0.1598  -0.0201   0.0590  -0.0456   5.00    0.0
2018/11/08 00:39:00.000  -74.407204071  163.437658164    80.1007   6  11   0.0356   0.0407   0.1368  -0.0172   0.0496  -0.0386   5.00    0.0
2018/11/08 00:39:15.000  -74.407204105  163.437658193    80.1225   6  11   0.0304   0.0341   0.1152  -0.0147   0.0406  -0.0323   5.00    0.0
2018/11/08 00:39:30.000  -74.407204058  163.437658210    80.1074   6  11   0.0257   0.0279   0.0959  -0.0127   0.0322  -0.0270   5.00    0.0
2018/11/08 00:39:45.000  -74.407203900  163.437658030    80.0451   6  11   0.0219   0.0227   0.0804  -0.0110   0.0251  -0.0227   5.00    0.0
2018/11/08 00:40:00.000  -74.407203774  163.437657804    80.0087   6  11   0.0199   0.0201   0.0722  -0.0098   0.0204  -0.0196   5.00    0.0
2018/11/08 00:40:15.000  -74.407203755  163.437657747    80.0040   6  11   0.0220   0.0227   0.0813  -0.0108   0.0243  -0.0220   5.00    0.0
2018/11/08 00:40:30.000  -74.407203776  163.437657776    80.0042   6  11   0.0257   0.0276   0.0970  -0.0124   0.0308  -0.0260   5.00    0.0
2018/11/08 00:40:45.000  -74.407203722  163.437657796    79.9990   6  11   0.0303   0.0336   0.1161  -0.0144   0.0385  -0.0309   5.00    0.0
2018/11/08 00:41:00.000  -74.407203680  163.437657665    79.9844   6  11   0.0355   0.0401   0.1371  -0.0168   0.0468  -0.0367   5.00    0.0
2018/11/08 00:41:15.000  -74.407203692  163.437657699    80.0127   6  11   0.0409   0.0466   0.1594  -0.0195   0.0555  -0.0430   5.00    0.0
2018/11/08 00:41:30.000  -74.407203631  163.437657184    80.0116   6  11   0.0464   0.0532   0.1827  -0.0225   0.0643  -0.0497   5.00    0.0
2018/11/08 00:41:45.000  -74.407203589  163.437657068    80.0153   6  11   0.0520   0.0597   0.2073  -0.0257   0.0730  -0.0565   5.00    0.0
2018/11/08 00:42:00.000  -74.407203649  163.437657130    80.0558   6  11   0.0577   0.0662   0.2359  -0.0291   0.0811  -0.0624   5.00    0.0
2018/11/08 00:42:15.000  -74.407203786  163.437657063    80.0334   6  11   0.0630   0.0725   0.2596  -0.0320   0.0917  -0.0728   0.00    0.0
2018/11/08 00:42:30.000  -74.407203745  163.437657074    80.0566   6  11   0.0686   0.0790   0.2807  -0.0354   0.1005  -0.0799   0.00    0.0
2018/11/08 00:42:45.000  -74.407203711  163.437656336    79.9795   6  11   0.0632   0.0725   0.2639  -0.0321   0.0896  -0.0696   0.00    0.0
2018/11/08 00:43:00.000  -74.407203717  163.437656595    79.9644   6  11   0.0572   0.0657   0.2307  -0.0282   0.0822  -0.0653   0.00    0.0
2018/11/08 00:43:15.000  -74.407203791  163.437656840    79.9852   6  11   0.0516   0.0591   0.2055  -0.0248   0.0725  -0.0570   0.00    0.0
2018/11/08 00:43:30.000  -74.407203839  163.437657379    80.0245   6  11   0.0461   0.0526   0.1839  -0.0217   0.0628  -0.0488   0.00    0.0
2018/11/08 00:43:45.000  -74.407203784  163.437657421    80.0308   6  11   0.0409   0.0461   0.1674  -0.0190   0.0527  -0.0397   1.00    0.0
2018/11/08 00:44:00.000  -74.407203713  163.437657296    79.9717   6  11   0.0356   0.0396   0.1469  -0.0163   0.0445  -0.0345   0.00    0.0
2018/11/08 00:44:15.000  -74.407203676  163.437657293    79.9314   6  11   0.0303   0.0330   0.1151  -0.0137   0.0384  -0.0326   0.00    0.0
2018/11/08 00:44:30.000  -74.407203703  163.437657434    79.9229   6  11   0.0258   0.0271   0.0970  -0.0119   0.0309  -0.0280   0.00    0.0
2018/11/08 00:44:45.000  -74.407204134  163.437658519    80.0675   1  11   0.0263   0.0250   0.0977  -0.0161   0.0352  -0.0355   5.00    1.0
2018/11/08 00:45:00.000  -74.407203723  163.437657580    79.9616   6  11   0.0202   0.0195   0.0759  -0.0096   0.0213  -0.0223   2.00    0.0
2018/11/08 00:45:15.000  -74.407203656  163.437657941    79.9696   6  11   0.0226   0.0221   0.0856  -0.0106   0.0248  -0.0261   4.00    0.0
2018/11/08 00:45:30.000  -74.407203580  163.437657930    79.9451   6  11   0.0270   0.0269   0.1029  -0.0121   0.0308  -0.0321   4.00    0.0
2018/11/08 00:45:45.000  -74.407203484  163.437657614    79.8856   6  11   0.0324   0.0327   0.1238  -0.0142   0.0381  -0.0395   5.00    0.0
2018/11/08 00:46:00.000  -74.407203443  163.437657108    79.8753   6  11   0.0387   0.0389   0.1479  -0.0170   0.0464  -0.0488   5.00    0.0
2018/11/08 00:46:15.000  -74.407203340  163.437656070    79.8320   6  11   0.0464   0.0454   0.1769  -0.0207   0.0561  -0.0617   5.00    0.0
2018/11/08 00:46:30.000  -74.407203287  163.437655846    79.7893   6  10   0.0697   0.0556   0.2759  -0.0389   0.0899  -0.1167   3.00    0.0
2018/11/08 00:46:45.000  -74.407203312  163.437655785    79.8054   6  10   0.0795   0.0625   0.3148  -0.0447   0.1028  -0.1345   3.00    0.0
2018/11/08 00:47:00.000  -74.407203208  163.437655688    79.7733   6  10   0.0893   0.0694   0.3541  -0.0505   0.1156  -0.1523   3.00    0.0
2018/11/08 00:47:15.000  -74.407203240  163.437655590    79.7892   6  10   0.0991   0.0763   0.3939  -0.0563   0.1283  -0.1703   4.00    0.0
2018/11/08 00:47:30.000  -74.407203266  163.437655502    79.8036   6  10   0.1089   0.0831   0.4349  -0.0620   0.1409  -0.1884   4.00    0.0
2018/11/08 00:47:45.000  -74.407203231  163.437654985    79.7335   6  10   0.0991   0.0760   0.4066  -0.0557   0.1267  -0.1718   3.00    0.0
2018/11/08 00:48:00.000  -74.407203338  163.437655148    79.7519   6  10   0.0900   0.0688   0.3653  -0.0499   0.1146  -0.1558   3.00    0.0
2018/11/08 00:48:15.000  -74.407203482  163.437655259    79.8575   6  10   0.0796   0.0617   0.3228  -0.0435   0.1002  -0.1362   3.00    0.0
2018/11/08 00:48:30.000  -74.407203499  163.437655400    79.8719   6  10   0.0697   0.0546   0.2907  -0.0373   0.0859  -0.1187   3.00    0.0
2018/11/08 00:48:45.000  -74.407203552  163.437655738    79.8694   6  10   0.0602   0.0476   0.2378  -0.0319   0.0745  -0.1001   3.00    0.0
2018/11/08 00:49:00.000  -74.407203503  163.437655717    79.8311   6  10   0.0502   0.0406   0.1969  -0.0261   0.0610  -0.0814   3.00    0.0
2018/11/08 00:49:15.000  -74.407203611  163.437656335    79.8725   6  10   0.0409   0.0338   0.1604  -0.0207   0.0484  -0.0644   3.00    0.0
2018/11/08 00:49:30.000  -74.407203591  163.437656351    79.8342   6  10   0.0323   0.0274   0.1275  -0.0159   0.0367  -0.0487   4.00    0.0
2018/11/08 00:49:45.000  -74.407203722  163.437656943    79.8987   6  10   0.0253   0.0222   0.1010  -0.0120   0.0267  -0.0352   4.00    0.0
2018/11/08 00:50:00.000  -74.407203764  163.437657386    79.9286   6   9   0.0216   0.0194   0.0840  -0.0098   0.0215  -0.0272   3.00    0.0
2018/11/08 00:50:15.000  -74.407203782  163.437657917    79.9423   6   9   0.0253   0.0221   0.1008  -0.0119   0.0263  -0.0351   4.00    0.0
2018/11/08 00:50:30.000  -74.407203628  163.437657801    79.8808   6   9   0.0322   0.0272   0.1321  -0.0155   0.0353  -0.0491   4.00    0.0
2018/11/08 00:50:45.000  -74.407203396  163.437657481    79.8441   6   9   0.0408   0.0334   0.1696  -0.0198   0.0459  -0.0655   4.00    0.0
2018/11/08 00:51:00.000  -74.407203414  163.437657604    79.9279   6   9   0.0499   0.0398   0.2097  -0.0246   0.0571  -0.0829   4.00    0.0
2018/11/08 00:51:15.000  -74.407203487  163.437657618    79.9757   6   9   0.0594   0.0463   0.2510  -0.0295   0.0686  -0.1007   4.00    0.0
2018/11/08 00:51:30.000  -74.407203566  163.437657649    79.9997   6   9   0.0689   0.0528   0.2929  -0.0346   0.0801  -0.1188   4.00    0.0
2018/11/08 00:51:45.000  -74.407203391  163.437657231    79.9509   6   9   0.0786   0.0592   0.3350  -0.0396   0.0915  -0.1370   4.00    0.0
2018/11/08 00:52:00.000  -74.407203303  163.437657092    79.8956   6   9   0.0882   0.0656   0.3771  -0.0447   0.1027  -0.1551   4.00    0.0
2018/11/08 00:52:15.000  -74.407203292  163.437657042    79.9080   6   9   0.0978   0.0720   0.4192  -0.0496   0.1138  -0.1732   4.00    0.0
2018/11/08 00:52:30.000  -74.407203224  163.437656787    79.7866   6   9   0.1074   0.0784   0.4612  -0.0545   0.1246  -0.1912   4.00    0.0
2018/11/08 00:52:45.000  -74.407203354  163.437656792    79.8742   6   9   0.0974   0.0717   0.4169  -0.0487   0.1118  -0.1721   4.00    0.0
2018/11/08 00:53:00.000  -74.407203536  163.437657010    79.9724   6  10   0.0691   0.0646   0.2714  -0.0385   0.0898  -0.0986   4.00    0.0
2018/11/08 00:53:15.000  -74.407203424  163.437656903    79.9629   6  10   0.0602   0.0578   0.2332  -0.0330   0.0776  -0.0817   4.00    0.0
2018/11/08 00:53:30.000  -74.407203428  163.437657311    79.9868   6  10   0.0526   0.0513   0.2019  -0.0282   0.0668  -0.0686   4.00    0.0
2018/11/08 00:53:45.000  -74.407203449  163.437657473    79.9687   6  10   0.0456   0.0448   0.1736  -0.0238   0.0567  -0.0573   4.00    0.0
2018/11/08 00:54:00.000  -74.407203487  163.437657771    79.9794   6  10   0.0389   0.0384   0.1471  -0.0198   0.0471  -0.0471   4.00    0.0
2018/11/08 00:54:15.000  -74.407203504  163.437657833    79.9684   6  10   0.0326   0.0321   0.1222  -0.0161   0.0379  -0.0379   4.00    0.0
2018/11/08 00:54:30.000  -74.407203553  163.437657870    80.0051   6  10   0.0268   0.0263   0.0995  -0.0128   0.0295  -0.0295   5.00    0.0
2018/11/08 00:54:45.000  -74.407203741  163.437657833    80.0046   6  10   0.0221   0.0214   0.0805  -0.0101   0.0222  -0.0222   4.00    0.0
2018/11/08 00:55:00.000  -74.407203791  163.437657394    79.9688   6  10   0.0197   0.0191   0.0697  -0.0084   0.0183  -0.0174   5.00    0.0
2018/11/08 00:55:15.000  -74.407203712  163.437656885    79.9295   6  10   0.0222   0.0215   0.0787  -0.0098   0.0214  -0.0208   5.00    0.0
2018/11/08 00:55:30.000  -74.407203703  163.437656825    80.0000   6  10   0.0268   0.0262   0.0953  -0.0122   0.0275  -0.0264   5.00    0.0
2018/11/08 00:55:45.000  -74.407203623  163.437656915    80.0406   6  10   0.0324   0.0319   0.1154  -0.0151   0.0349  -0.0330   5.00    0.0
2018/11/08 00:56:00.000  -74.407203528  163.437656789    80.0245   6  10   0.0388   0.0378   0.1376  -0.0186   0.0428  -0.0403   5.00    0.0
2018/11/08 00:56:15.000  -74.407203458  163.437656729    80.0189   6  10   0.0462   0.0439   0.1611  -0.0226   0.0509  -0.0475   4.00    0.0
2018/11/08 00:56:30.000  -74.407203647  163.437657349    80.0201   6  10   0.0507   0.0500   0.1843  -0.0259   0.0600  -0.0589   3.00    0.0
2018/11/08 00:56:45.000  -74.407203630  163.437657368    80.0430   6  10   0.0565   0.0560   0.2090  -0.0293   0.0685  -0.0679   3.00    0.0
2018/11/08 00:57:00.000  -74.407203654  163.437657088    80.0423   6  10   0.0627   0.0620   0.2340  -0.0330   0.0770  -0.0771   3.00    0.0
2018/11/08 00:57:15.000  -74.407203669  163.437657124    80.0180   6  10   0.0691   0.0681   0.2593  -0.0368   0.0855  -0.0863   3.00    0.0
2018/11/08 00:57:30.000  -74.407203625  163.437657085    80.0153   6  10   0.0755   0.0741   0.2849  -0.0406   0.0939  -0.0956   3.00    0.0
2018/11/08 00:57:45.000  -74.407203667  163.437657189    80.0403   6  10   0.0689   0.0679   0.2595  -0.0364   0.0848  -0.0862   3.00    0.0
2018/11/08 00:58:00.000  -74.407203692  163.437656561    79.9935   6  10   0.0623   0.0617   0.2342  -0.0323   0.0757  -0.0770   3.00    0.0
2018/11/08 00:58:15.000  -74.407203734  163.437656372    79.9842   6  10   0.0558   0.0557   0.2091  -0.0282   0.0669  -0.0678   4.00    0.0
2018/11/08 00:58:30.000  -74.407203748  163.437656508    79.9902   6  10   0.0494   0.0499   0.1843  -0.0243   0.0582  -0.0588   5.00    0.0
2018/11/08 00:58:45.000  -74.407203707  163.437656392    79.9889   6  10   0.0430   0.0450   0.1599  -0.0205   0.0503  -0.0499   6.00    0.0
2018/11/08 00:59:00.000  -74.407203776  163.437656488    80.0101   6  10   0.0369   0.0377   0.1361  -0.0170   0.0414  -0.0414   6.00    0.0
2018/11/08 00:59:15.000  -74.407203804  163.437656549    80.0073   6  10   0.0309   0.0325   0.1131  -0.0134   0.0335  -0.0331   6.00    0.0
2018/11/08 00:59:30.000  -74.407203791  163.437657063    79.9996   6  10   0.0254   0.0249   0.0918  -0.0106   0.0253  -0.0257   6.00    0.0
2018/11/08 00:59:45.000  -74.407204214  163.437657918    80.0610   1  10   0.0254   0.0210   0.0942  -0.0123   0.0297  -0.0322   6.00    1.0
2018/11/08 01:00:00.000  -74.407204139  163.437657582    80.0254   1  10   0.0223   0.0177   0.0799  -0.0104   0.0254  -0.0265   6.00    1.0
2018/11/08 01:00:15.000  -74.407204137  163.437657439    79.9899   1  10   0.0253   0.0210   0.0950  -0.0123   0.0287  -0.0317   6.00    1.0
2018/11/08 01:00:30.000  -74.407204108  163.437657463    79.9739   1  10   0.0314   0.0270   0.1205  -0.0160   0.0361  -0.0409   6.00    1.0
2018/11/08 01:00:45.000  -74.407203604  163.437656547    79.9526   6  10   0.0306   0.0305   0.1110  -0.0125   0.0318  -0.0327   6.00    0.0
2018/11/08 01:01:00.000  -74.407203616  163.437656560    80.0017   6  10   0.0364   0.0363   0.1338  -0.0155   0.0394  -0.0409   6.00    0.0
2018/11/08 01:01:15.000  -74.407203537  163.437656463    80.0122   6  10   0.0424   0.0422   0.1577  -0.0188   0.0472  -0.0496   6.00    0.0
2018/11/08 01:01:30.000  -74.407203506  163.437656500    80.0338   6  10   0.0487   0.0481   0.1824  -0.0223   0.0552  -0.0585   7.00    0.0
2018/11/08 01:01:45.000  -74.407203485  163.437656751    80.0893   6  10   0.0550   0.0541   0.2077  -0.0258   0.0632  -0.0675   7.00    0.0
2018/11/08 01:02:00.000  -74.407203489  163.437656729    80.0542   6  10   0.0615   0.0603   0.2337  -0.0293   0.0717  -0.0766   6.00    0.0
2018/11/08 01:02:15.000  -74.407203519  163.437657296    80.0931   6  10   0.0680   0.0673   0.2608  -0.0325   0.0814  -0.0855   6.00    0.0
2018/11/08 01:02:30.000  -74.407203525  163.437657500    80.0874   6  10   0.0744   0.0719   0.2865  -0.0369   0.0877  -0.0954   5.00    0.0
2018/11/08 01:02:45.000  -74.407203413  163.437657192    80.0770   6  10   0.0679   0.0651   0.2586  -0.0330   0.0775  -0.0858   6.00    0.0
2018/11/08 01:03:00.000  -74.407203486  163.437657359    80.0731   6  10   0.0614   0.0589   0.2323  -0.0291   0.0685  -0.0765   6.00    0.0
2018/11/08 01:03:15.000  -74.407203465  163.437657369    80.0799   6  10   0.0549   0.0528   0.2064  -0.0253   0.0599  -0.0672   6.00    0.0
2018/11/08 01:03:30.000  -74.407203580  163.437657337    80.0796   6  10   0.0485   0.0468   0.1809  -0.0216   0.0515  -0.0580   6.00    0.0
2018/11/08 01:03:45.000  -74.407203688  163.437657228    80.0450   6  10   0.0422   0.0409   0.1560  -0.0181   0.0434  -0.0489   6.00    0.0
2018/11/08 01:04:00.000  -74.407203717  163.437656478    79.9933   6  10   0.0361   0.0350   0.1317  -0.0147   0.0355  -0.0401   5.00    0.0
2018/11/08 01:04:15.000  -74.407203710  163.437656142    79.9585   6  10   0.0303   0.0293   0.1085  -0.0117   0.0279  -0.0317   6.00    0.0
2018/11/08 01:04:30.000  -74.407203723  163.437656244    79.9408   6  10   0.0249   0.0239   0.0872  -0.0090   0.0211  -0.0239   6.00    0.0
2018/11/08 01:04:45.000  -74.407203833  163.437656694    79.9526   6  10   0.0207   0.0195   0.0695  -0.0072   0.0154  -0.0172   6.00    0.0
2018/11/08 01:05:00.000  -74.407203757  163.437657197    79.9622   6  10   0.0185   0.0172   0.0599  -0.0062   0.0124  -0.0132   6.00    0.0
2018/11/08 01:05:15.000  -74.407203792  163.437657480    79.9858   6  10   0.0209   0.0197   0.0698  -0.0070   0.0144  -0.0180   6.00    0.0
2018/11/08 01:05:30.000  -74.407203826  163.437657839    80.0200   6  10   0.0254   0.0244   0.0885  -0.0086   0.0189  -0.0259   6.00    0.0
2018/11/08 01:05:45.000  -74.407203797  163.437657737    80.0867   6  10   0.0312   0.0299   0.1111  -0.0109   0.0245  -0.0350   5.00    0.0
2018/11/08 01:06:00.000  -74.407203752  163.437657434    80.1145   6  10   0.0375   0.0359   0.1362  -0.0138   0.0307  -0.0450   6.00    0.0
2018/11/08 01:06:15.000  -74.407203717  163.437657298    80.1259   6  10   0.0447   0.0426   0.1640  -0.0177   0.0374  -0.0565   5.00    0.0
2018/11/08 01:06:30.000  -74.407203630  163.437657196    80.1165   6  10   0.0536   0.0489   0.1984  -0.0214   0.0436  -0.0727   5.00    0.0
2018/11/08 01:06:45.000  -74.407203647  163.437657361    80.2248   6  10   0.0661   0.0556   0.2596  -0.0227   0.0438  -0.1016   4.00    0.0
2018/11/08 01:07:00.000  -74.407203712  163.437657610    80.2821   6  10   0.0656   0.0583   0.2519  -0.0286   0.0598  -0.0905   4.00    0.0
2018/11/08 01:07:15.000  -74.407203543  163.437657451    80.2824   6  10   0.0702   0.0632   0.2675  -0.0307   0.0654  -0.0935   4.00    0.0
2018/11/08 01:07:30.000  -74.407203528  163.437657094    80.2390   6  10   0.0758   0.0685   0.2885  -0.0334   0.0714  -0.0997   5.00    0.0
2018/11/08 01:07:45.000  -74.407203553  163.437656937    80.2666   6  10   0.0689   0.0627   0.2612  -0.0300   0.0642  -0.0895   5.00    0.0
2018/11/08 01:08:00.000  -74.407203646  163.437656787    80.3096   6  10   0.0621   0.0569   0.2341  -0.0264   0.0569  -0.0794   5.00    0.0
2018/11/08 01:08:15.000  -74.407203669  163.437656687    80.3067   6  10   0.0554   0.0511   0.2075  -0.0229   0.0497  -0.0696   5.00    0.0
2018/11/08 01:08:30.000  -74.407203767  163.437657351    80.2605   6  10   0.0489   0.0454   0.1813  -0.0195   0.0426  -0.0599   5.00    0.0
2018/11/08 01:08:45.000  -74.407203857  163.437657635    80.2330   6  10   0.0425   0.0397   0.1558  -0.0162   0.0355  -0.0505   5.00    0.0
2018/11/08 01:09:00.000  -74.407203855  163.437657728    80.2025   6  10   0.0363   0.0342   0.1311  -0.0130   0.0286  -0.0413   5.00    0.0
2018/11/08 01:09:15.000  -74.407203842  163.437657294    80.1631   6  10   0.0305   0.0287   0.1075  -0.0100   0.0218  -0.0326   5.00    0.0
2018/11/08 01:09:30.000  -74.407203799  163.437657049    80.1097   6  10   0.0252   0.0236   0.0860  -0.0072   0.0150  -0.0246   5.00    0.0
2018/11/08 01:09:45.000  -74.407203860  163.437657133    80.0611   6  10   0.0211   0.0195   0.0690  -0.0044   0.0077  -0.0184   6.00    0.0
2018/11/08 01:10:00.000  -74.407203782  163.437657235    79.9440   6  10   0.0183   0.0169   0.0571  -0.0052   0.0088  -0.0115   5.00    0.0
2018/11/08 01:10:15.000  -74.407203761  163.437657221    79.9162   6  10   0.0205   0.0192   0.0663  -0.0056   0.0101  -0.0159   5.00    0.0
2018/11/08 01:10:30.000  -74.407203600  163.437657009    79.8667   6  10   0.0249   0.0235   0.0841  -0.0067   0.0134  -0.0234   6.00    0.0
2018/11/08 01:10:45.000  -74.407203535  163.437656990    79.8772   6  10   0.0303   0.0286   0.1057  -0.0084   0.0178  -0.0318   5.00    0.0
2018/11/08 01:11:00.000  -74.407203401  163.437656767    79.8955   6  10   0.0362   0.0340   0.1292  -0.0104   0.0225  -0.0408   6.00    0.0
2018/11/08 01:11:15.000  -74.407203321  163.437656650    79.9069   6  10   0.0425   0.0394   0.1542  -0.0125   0.0269  -0.0504   6.00    0.0
2018/11/08 01:11:30.000  -74.407203332  163.437656913    79.9538   6  10   0.0492   0.0450   0.1810  -0.0143   0.0304  -0.0609   6.00    0.0
2018/11/08 01:11:45.000  -74.407203280  163.437657142    79.9963   6  10   0.0569   0.0508   0.2119  -0.0145   0.0303  -0.0741   6.00    0.0
2018/11/08 01:12:00.000  -74.407203370  163.437657011    80.0593   6  10   0.0653   0.0559   0.2495  -0.0170   0.0337  -0.0903   6.00    0.0
2018/11/08 01:12:15.000  -74.407203308  163.437657355    80.0583   6  10   0.0710   0.0614   0.2694  -0.0199   0.0388  -0.0963   6.00    0.0
2018/11/08 01:12:30.000  -74.407203264  163.437657724    80.0637   6  10   0.0788   0.0674   0.2999  -0.0196   0.0367  -0.1089   6.00    0.0
2018/11/08 01:12:45.000  -74.407203303  163.437657819    80.0458   6  10   0.0704   0.0608   0.2679  -0.0210   0.0401  -0.0950   6.00    0.0
2018/11/08 01:13:00.000  -74.407203265  163.437657832    80.0377   6  10   0.0627   0.0552   0.2353  -0.0188   0.0364  -0.0816   6.00    0.0
2018/11/08 01:13:15.000  -74.407203319  163.437657858    80.0189   6  10   0.0562   0.0499   0.2090  -0.0151   0.0292  -0.0722   6.00    0.0
2018/11/08 01:13:30.000  -74.407203224  163.437657599    79.9726   6  10   0.0508   0.0451   0.1879  -0.0079   0.0147  -0.0662   6.00    0.0
2018/11/08 01:13:45.000  -74.407203368  163.437658055    80.0037   6  10   0.0429   0.0387   0.1572  -0.0114   0.0219  -0.0524   6.00    0.0
2018/11/08 01:14:00.000  -74.407203802  163.437657691    79.9305   1  11   0.0378   0.0383   0.1349   0.0015  -0.0210  -0.0238   6.00    1.0
2018/11/08 01:14:15.000  -74.407203766  163.437657516    79.9195   1  11   0.0320   0.0324   0.1133   0.0068  -0.0234  -0.0233   6.00    1.0
2018/11/08 01:14:30.000  -74.407203834  163.437657235    79.8787   1  11   0.0262   0.0256   0.0894   0.0040  -0.0182  -0.0179   6.00    1.0
2018/11/08 01:14:45.000  -74.407203943  163.437657420    79.9023   1  11   0.0216   0.0201   0.0692   0.0010  -0.0141  -0.0123   6.00    1.0
2018/11/08 01:15:00.000  -74.407204078  163.437657423    79.9260   1  11   0.0193   0.0166   0.0556  -0.0048  -0.0090  -0.0027   7.00    1.0
2018/11/08 01:15:15.000  -74.407204131  163.437657480    79.9423   1  11   0.0211   0.0190   0.0654  -0.0056  -0.0095  -0.0070   7.00    1.0
2018/11/08 01:15:30.000  -74.407204145  163.437657572    79.9677   1  11   0.0254   0.0241   0.0844  -0.0059  -0.0110  -0.0116   7.00    1.0
2018/11/08 01:15:45.000  -74.407204139  163.437656958    79.9796   1  11   0.0310   0.0302   0.1073  -0.0064  -0.0137  -0.0160   7.00    1.0
2018/11/08 01:16:00.000  -74.407204245  163.437656736    80.0203   1  11   0.0373   0.0369   0.1322  -0.0067  -0.0171  -0.0204   7.00    1.0
2018/11/08 01:16:15.000  -74.407203776  163.437656404    80.0433   6  11   0.0344   0.0367   0.1175   0.0054  -0.0148  -0.0110   6.00    0.0
2018/11/08 01:16:30.000  -74.407203758  163.437656531    80.0172   6  11   0.0391   0.0417   0.1358   0.0062  -0.0177  -0.0152   6.00    0.0
2018/11/08 01:16:45.000  -74.407203694  163.437656713    80.0081   6  11   0.0439   0.0467   0.1546   0.0067  -0.0207  -0.0193   6.00    0.0
2018/11/08 01:17:00.000  -74.407203693  163.437656921    79.9693   6  11   0.0489   0.0517   0.1737   0.0071  -0.0239  -0.0233   7.00    0.0
2018/11/08 01:17:15.000  -74.407203659  163.437657306    79.9444   6  11   0.0539   0.0568   0.1930   0.0074  -0.0271  -0.0274   7.00    0.0
2018/11/08 01:17:30.000  -74.407203741  163.437657209    79.9590   6  11   0.0589   0.0619   0.2125   0.0076  -0.0304  -0.0314   7.00    0.0
2018/11/08 01:17:45.000  -74.407203888  163.437657379    79.9900   6  11   0.0540   0.0571   0.1938   0.0073  -0.0284  -0.0274   7.00    0.0
2018/11/08 01:18:00.000  -74.407203960  163.437657407    79.9511   6  12   0.0481   0.0499   0.1687  -0.0092  -0.0365  -0.0314   7.00    0.0
2018/11/08 01:18:15.000  -74.407203952  163.437657660    79.9753   6  12   0.0432   0.0449   0.1493  -0.0085  -0.0339  -0.0279   8.00    0.0
2018/11/08 01:18:30.000  -74.407203937  163.437657786    79.9713   6  12   0.0384   0.0400   0.1311  -0.0074  -0.0302  -0.0236   8.00    0.0
2018/11/08 01:18:45.000  -74.407203886  163.437658063    79.9433   6  12   0.0337   0.0353   0.1135  -0.0064  -0.0262  -0.0189   8.00    0.0
2018/11/08 01:19:00.000  -74.407204299  163.437658296    79.9039   1  12   0.0368   0.0355   0.1273  -0.0108  -0.0305  -0.0268   8.00    1.0
2018/11/08 01:19:15.000  -74.407204207  163.437658008    79.8605   1  12   0.0306   0.0291   0.1035  -0.0091  -0.0246  -0.0203   8.00    1.0
2018/11/08 01:19:30.000  -74.407204140  163.437657561    79.8935   1  12   0.0252   0.0234   0.0815  -0.0074  -0.0191  -0.0138   8.00    1.0
2018/11/08 01:19:45.000  -74.407204106  163.437657193    79.9302   1  12   0.0208   0.0188   0.0631  -0.0057  -0.0146  -0.0067   8.00    1.0
2018/11/08 01:20:00.000  -74.407204087  163.437657316    79.9419   1  12   0.0191   0.0163   0.0531  -0.0052  -0.0130   0.0040   8.00    1.0
2018/11/08 01:20:15.000  -74.407204066  163.437657623    79.9235   1  12   0.0210   0.0186   0.0631  -0.0060  -0.0150  -0.0063   8.00    1.0
2018/11/08 01:20:30.000  -74.407204004  163.437658157    79.9107   1  12   0.0251   0.0234   0.0816  -0.0072  -0.0197  -0.0136   8.00    1.0
2018/11/08 01:20:45.000  -74.407203921  163.437658265    79.8844   1  12   0.0305   0.0291   0.1040  -0.0087  -0.0255  -0.0203   8.00    1.0
2018/11/08 01:21:00.000  -74.407203901  163.437658168    79.8653   1  12   0.0367   0.0355   0.1284  -0.0104  -0.0318  -0.0270   8.00    1.0
2018/11/08 01:21:15.000  -74.407203444  163.437657721    79.8729   6  12   0.0335   0.0349   0.1137  -0.0061  -0.0279  -0.0195   9.00    0.0
2018/11/08 01:21:30.000  -74.407203464  163.437657900    79.8821   6  12   0.0382   0.0396   0.1317  -0.0071  -0.0326  -0.0248   9.00    0.0
2018/11/08 01:21:45.000  -74.407203432  163.437657781    79.8645   6  12   0.0429   0.0443   0.1501  -0.0082  -0.0375  -0.0299   9.00    0.0
2018/11/08 01:22:00.000  -74.407203369  163.437657519    79.8239   6  12   0.0478   0.0491   0.1689  -0.0094  -0.0424  -0.0351   9.00    0.0
2018/11/08 01:22:15.000  -74.407203232  163.437657430    79.8597   6  12   0.0527   0.0538   0.1879  -0.0107  -0.0473  -0.0402   9.00    0.0
2018/11/08 01:22:30.000  -74.407203213  163.437657053    79.8478   6  12   0.0577   0.0587   0.2070  -0.0120  -0.0523  -0.0452   9.00    0.0
2018/11/08 01:22:45.000  -74.407203314  163.437657419    79.9113   6  12   0.0527   0.0538   0.1884  -0.0100  -0.0477  -0.0405   9.00    0.0
2018/11/08 01:23:00.000  -74.407203383  163.437657384    79.9490   6  12   0.0478   0.0490   0.1697  -0.0085  -0.0431  -0.0356   9.00    0.0
2018/11/08 01:23:15.000  -74.407203418  163.437657481    79.9563   6  12   0.0429   0.0442   0.1512  -0.0072  -0.0384  -0.0306   9.00    0.0
2018/11/08 01:23:30.000  -74.407203495  163.437657472    79.9626   6  12   0.0381   0.0395   0.1328  -0.0059  -0.0338  -0.0254   9.00    0.0
2018/11/08 01:23:45.000  -74.407203488  163.437657455    79.9487   6  12   0.0335   0.0348   0.1147  -0.0049  -0.0291  -0.0202   9.00    0.0
2018/11/08 01:24:00.000  -74.407204068  163.437657545    79.9354   1  12   0.0367   0.0354   0.1298  -0.0092  -0.0336  -0.0275   8.00    1.0
2018/11/08 01:24:15.000  -74.407204052  163.437657498    79.9408   1  12   0.0305   0.0290   0.1048  -0.0076  -0.0274  -0.0205   8.00    1.0
2018/11/08 01:24:30.000  -74.407204099  163.437657295    79.9149   1  12   0.0251   0.0233   0.0817  -0.0062  -0.0216  -0.0133   8.00    1.0
2018/11/08 01:24:45.000  -74.407204078  163.437657193    79.9233   1  12   0.0209   0.0188   0.0625  -0.0049  -0.0170  -0.0048   8.00    1.0
2018/11/08 01:25:00.000  -74.407204075  163.437657238    79.9487   1  12   0.0190   0.0166   0.0524  -0.0045  -0.0149   0.0063   8.00    1.0
2018/11/08 01:25:15.000  -74.407204136  163.437657283    79.9594   1  12   0.0210   0.0186   0.0624  -0.0051  -0.0172  -0.0049   8.00    1.0
2018/11/08 01:25:30.000  -74.407204144  163.437657272    79.9489   1  12   0.0251   0.0233   0.0817  -0.0059  -0.0220  -0.0132   8.00    1.0
2018/11/08 01:25:45.000  -74.407204109  163.437657027    79.9385   1  12   0.0305   0.0290   0.1050  -0.0072  -0.0281  -0.0205   8.00    1.0
2018/11/08 01:26:00.000  -74.407204004  163.437657039    79.9384   1  12   0.0367   0.0354   0.1303  -0.0086  -0.0346  -0.0277   8.00    1.0
2018/11/08 01:26:15.000  -74.407203341  163.437656741    79.8887   6  12   0.0333   0.0344   0.1152  -0.0042  -0.0300  -0.0206   9.00    0.0
2018/11/08 01:26:30.000  -74.407203214  163.437656592    79.8915   6  12   0.0380   0.0390   0.1338  -0.0051  -0.0350  -0.0260   9.00    0.0
2018/11/08 01:26:45.000  -74.407203252  163.437656345    79.8918   6  12   0.0428   0.0437   0.1527  -0.0061  -0.0400  -0.0314   9.00    0.0
2018/11/08 01:27:00.000  -74.407203279  163.437656332    79.9122   6  12   0.0477   0.0485   0.1719  -0.0071  -0.0451  -0.0366   9.00    0.0
2018/11/08 01:27:15.000  -74.407203268  163.437656171    79.9326   6  12   0.0526   0.0533   0.1912  -0.0082  -0.0503  -0.0419   9.00    0.0
2018/11/08 01:27:30.000  -74.407203305  163.437656079    79.9664   6  12   0.0576   0.0581   0.2107  -0.0094  -0.0556  -0.0470   9.00    0.0
2018/11/08 01:27:45.000  -74.407203321  163.437656075    79.9287   6  12   0.0527   0.0534   0.1923  -0.0081  -0.0507  -0.0419   9.00    0.0
2018/11/08 01:28:00.000  -74.407203298  163.437655960    79.9356   6  12   0.0478   0.0485   0.1731  -0.0069  -0.0457  -0.0368   9.00    0.0
2018/11/08 01:28:15.000  -74.407203322  163.437656388    79.9081   6  12   0.0429   0.0438   0.1540  -0.0056  -0.0408  -0.0316   9.00    0.0
2018/11/08 01:28:30.000  -74.407203322  163.437656264    79.8984   6  12   0.0381   0.0391   0.1351  -0.0045  -0.0358  -0.0262   9.00    0.0
2018/11/08 01:28:45.000  -74.407203366  163.437656407    79.9014   6  12   0.0334   0.0344   0.1165  -0.0036  -0.0310  -0.0208   9.00    0.0
2018/11/08 01:29:00.000  -74.407203931  163.437656382    79.9104   1  12   0.0368   0.0356   0.1321  -0.0080  -0.0361  -0.0278   8.00    1.0
2018/11/08 01:29:15.000  -74.407203883  163.437656665    79.9180   1  12   0.0307   0.0292   0.1066  -0.0067  -0.0296  -0.0205   8.00    1.0
2018/11/08 01:29:30.000  -74.407203908  163.437656699    79.9171   1  12   0.0252   0.0235   0.0829  -0.0055  -0.0237  -0.0129   8.00    1.0
2018/11/08 01:29:45.000  -74.407203957  163.437656688    79.9535   1  12   0.0210   0.0189   0.0633  -0.0047  -0.0190  -0.0038   8.00    1.0
2018/11/08 01:30:00.000  -74.407204125  163.437656913    79.9592   1  12   0.0192   0.0166   0.0526  -0.0038  -0.0165   0.0067   8.00    1.0
2018/11/08 01:30:15.000  -74.407204166  163.437656934    79.9764   1  12   0.0210   0.0189   0.0632  -0.0042  -0.0191  -0.0038   8.00    1.0
2018/11/08 01:30:30.000  -74.407204137  163.437656659    79.9872   1  12   0.0252   0.0235   0.0828  -0.0054  -0.0241  -0.0130   8.00    1.0
2018/11/08 01:30:45.000  -74.407204147  163.437656658    79.9593   1  12   0.0307   0.0292   0.1065  -0.0062  -0.0302  -0.0206   8.00    1.0
2018/11/08 01:31:00.000  -74.407204138  163.437656424    79.9437   1  12   0.0369   0.0356   0.1320  -0.0073  -0.0369  -0.0279   8.00    1.0
2018/11/08 01:31:15.000  -74.407203545  163.437656375    79.9325   6  12   0.0333   0.0339   0.1163  -0.0028  -0.0315  -0.0210   9.00    0.0
2018/11/08 01:31:30.000  -74.407203535  163.437656624    79.9112   6  12   0.0379   0.0385   0.1349  -0.0035  -0.0366  -0.0265   9.00    0.0
2018/11/08 01:31:45.000  -74.407203443  163.437656853    79.8658   6  12   0.0427   0.0432   0.1539  -0.0044  -0.0418  -0.0319   9.00    0.0
2018/11/08 01:32:00.000  -74.407203420  163.437657280    79.8485   6  12   0.0476   0.0480   0.1730  -0.0053  -0.0470  -0.0371   9.00    0.0
2018/11/08 01:32:15.000  -74.407203478  163.437657119    79.8751   6  12   0.0526   0.0528   0.1922  -0.0063  -0.0523  -0.0423   9.00    0.0
2018/11/08 01:32:30.000  -74.407203398  163.437657389    79.8912   6  12   0.0576   0.0577   0.2115  -0.0072  -0.0576  -0.0475   9.00    0.0
2018/11/08 01:32:45.000  -74.407203338  163.437657161    79.9151   6  12   0.0527   0.0528   0.1918  -0.0058  -0.0525  -0.0425   9.00    0.0
2018/11/08 01:33:00.000  -74.407203372  163.437656988    79.9253   6  12   0.0478   0.0480   0.1724  -0.0046  -0.0473  -0.0373   9.00    0.0
2018/11/08 01:33:15.000  -74.407203450  163.437657354    79.9241   6  12   0.0429   0.0432   0.1532  -0.0034  -0.0422  -0.0320   9.00    0.0
2018/11/08 01:33:30.000  -74.407203502  163.437657486    79.9427   6  12   0.0381   0.0385   0.1343  -0.0022  -0.0371  -0.0266   9.00    0.0
2018/11/08 01:33:45.000  -74.407203540  163.437657510    79.9208   6  12   0.0334   0.0339   0.1157  -0.0011  -0.0321  -0.0211   9.00    0.0
2018/11/08 01:34:00.000  -74.407204084  163.437657194    79.9511   1  12   0.0371   0.0356   0.1312  -0.0064  -0.0378  -0.0279   8.00    1.0
2018/11/08 01:34:15.000  -74.407204107  163.437656829    79.9591   1  12   0.0309   0.0293   0.1059  -0.0053  -0.0312  -0.0206   8.00    1.0
2018/11/08 01:34:30.000  -74.407204110  163.437656582    79.9603   1  12   0.0255   0.0236   0.0826  -0.0041  -0.0253  -0.0132   8.00    1.0
2018/11/08 01:34:45.000  -74.407204174  163.437656680    79.9369   1  12   0.0213   0.0192   0.0635  -0.0024  -0.0206  -0.0045   8.00    1.0
2018/11/08 01:35:00.000  -74.407204076  163.437656747    79.9432   1  12   0.0195   0.0168   0.0532  -0.0020  -0.0181   0.0060   8.00    1.0
2018/11/08 01:35:15.000  -74.407203970  163.437656659    79.9427   1  12   0.0214   0.0191   0.0636  -0.0035  -0.0209  -0.0048   8.00    1.0
2018/11/08 01:35:30.000  -74.407203985  163.437656613    79.9245   1  12   0.0256   0.0238   0.0828  -0.0034  -0.0259  -0.0136   8.00    1.0
2018/11/08 01:35:45.000  -74.407203947  163.437656361    79.9486   1  12   0.0311   0.0294   0.1059  -0.0044  -0.0319  -0.0210   8.00    1.0
2018/11/08 01:36:00.000  -74.407203999  163.437656397    79.9610   1  12   0.0373   0.0357   0.1308  -0.0054  -0.0385  -0.0281   8.00    1.0
2018/11/08 01:36:15.000  -74.407203450  163.437656539    79.9072   6  12   0.0333   0.0334   0.1149   0.0021  -0.0325  -0.0211   9.00    0.0
2018/11/08 01:36:30.000  -74.407203436  163.437656413    79.9148   6  12   0.0380   0.0380   0.1331   0.0017  -0.0375  -0.0265   9.00    0.0
2018/11/08 01:36:45.000  -74.407203427  163.437656009    79.9211   6  12   0.0428   0.0427   0.1515  -0.0008  -0.0426  -0.0317   9.00    0.0
2018/11/08 01:37:00.000  -74.407203389  163.437656230    79.9202   6  12   0.0477   0.0474   0.1701  -0.0023  -0.0478  -0.0369   9.00    0.0
2018/11/08 01:37:15.000  -74.407203449  163.437656597    79.9100   6  12   0.0526   0.0522   0.1887  -0.0033  -0.0531  -0.0419   9.00    0.0
2018/11/08 01:37:30.000  -74.407203413  163.437656584    79.8936   6  12   0.0576   0.0571   0.2074  -0.0042  -0.0584  -0.0469   9.00    0.0
2018/11/08 01:37:45.000  -74.407203424  163.437656388    79.9207   6  12   0.0527   0.0523   0.1888  -0.0031  -0.0533  -0.0418   9.00    0.0
2018/11/08 01:38:00.000  -74.407203473  163.437656274    79.9366   6  12   0.0478   0.0475   0.1698  -0.0015  -0.0480  -0.0366   9.00    0.0
2018/11/08 01:38:15.000  -74.407203474  163.437656451    79.9418   6  12   0.0429   0.0427   0.1510   0.0018  -0.0429  -0.0314   9.00    0.0
2018/11/08 01:38:30.000  -74.407203542  163.437656181    79.9041   6  12   0.0381   0.0380   0.1325   0.0026  -0.0378  -0.0261   9.00    0.0
2018/11/08 01:38:45.000  -74.407203506  163.437656429    79.8752   6  12   0.0334   0.0334   0.1145   0.0029  -0.0329  -0.0208   9.00    0.0
2018/11/08 01:39:00.000  -74.407204153  163.437656676    79.9338   1  12   0.0376   0.0358   0.1303  -0.0042  -0.0392  -0.0278   7.00    1.0
2018/11/08 01:39:15.000  -74.407204261  163.437656709    79.9494   1  12   0.0315   0.0296   0.1061  -0.0032  -0.0329  -0.0210   7.00    1.0
2018/11/08 01:39:30.000  -74.407204273  163.437656585    79.9554   1  12   0.0261   0.0240   0.0839  -0.0016  -0.0272  -0.0142   7.00    1.0
2018/11/08 01:39:45.000  -74.407204222  163.437656429    79.9664   1  12   0.0219   0.0197   0.0658   0.0025  -0.0226  -0.0079   7.00    1.0
2018/11/08 01:40:00.000  -74.407204131  163.437656307    79.9535   1  12   0.0202   0.0175   0.0562   0.0028  -0.0203  -0.0044   7.00    1.0
2018/11/08 01:40:15.000  -74.407203962  163.437656365    79.9305   1  12   0.0227   0.0199   0.0679   0.0040  -0.0237  -0.0119   7.00    1.0
2018/11/08 01:40:30.000  -74.407203854  163.437655873    79.9649   1  12   0.0277   0.0244   0.0887   0.0058  -0.0296  -0.0212   7.00    1.0
2018/11/08 01:40:45.000  -74.407203822  163.437655799    79.9652   1  12   0.0346   0.0303   0.1146   0.0088  -0.0370  -0.0324   7.00    1.0
2018/11/08 01:41:00.000  -74.407203187  163.437656135    79.8606   6  12   0.0312   0.0291   0.1016   0.0084  -0.0311  -0.0244   9.00    0.0
2018/11/08 01:41:15.000  -74.407203171  163.437656015    79.8473   6  12   0.0395   0.0341   0.1298   0.0135  -0.0401  -0.0418   8.00    0.0
2018/11/08 01:41:30.000  -74.407203354  163.437655679    79.9130   6  12   0.0405   0.0379   0.1382   0.0090  -0.0408  -0.0359   8.00    0.0
2018/11/08 01:41:45.000  -74.407203272  163.437656168    79.8769   6  12   0.0444   0.0424   0.1525   0.0077  -0.0447  -0.0369   8.00    0.0
2018/11/08 01:42:00.000  -74.407203178  163.437656680    79.8652   6  12   0.0489   0.0471   0.1688   0.0071  -0.0493  -0.0400   8.00    0.0
2018/11/08 01:42:15.000  -74.407203175  163.437656770    79.8291   6  12   0.0536   0.0519   0.1858   0.0066  -0.0542  -0.0438   8.00    0.0
2018/11/08 01:42:30.000  -74.407203164  163.437656483    79.8285   6  12   0.0584   0.0567   0.2031   0.0062  -0.0591  -0.0479   8.00    0.0
2018/11/08 01:42:45.000  -74.407203248  163.437656065    79.8084   6  12   0.0533   0.0518   0.1845   0.0060  -0.0539  -0.0427   8.00    0.0
2018/11/08 01:43:00.000  -74.407203385  163.437656265    79.8031   6  12   0.0483   0.0470   0.1661   0.0060  -0.0487  -0.0376   8.00    0.0
2018/11/08 01:43:15.000  -74.407203465  163.437656408    79.8398   6  12   0.0434   0.0422   0.1481   0.0058  -0.0436  -0.0325   8.00    0.0
2018/11/08 01:43:30.000  -74.407203564  163.437656612    79.8384   6  12   0.0385   0.0376   0.1303   0.0056  -0.0386  -0.0273   8.00    0.0
2018/11/08 01:43:45.000  -74.407203557  163.437656430    79.8701   6  12   0.0338   0.0330   0.1131   0.0052  -0.0337  -0.0220   8.00    0.0
2018/11/08 01:44:00.000  -74.407204124  163.437655863    79.9982   1  12   0.0376   0.0360   0.1272  -0.0027  -0.0399  -0.0255   8.00    1.0
2018/11/08 01:44:15.000  -74.407204155  163.437655742    80.0134   1  12   0.0316   0.0298   0.1044  -0.0014  -0.0339  -0.0187   7.00    1.0
2018/11/08 01:44:30.000  -74.407204188  163.437655701    80.0166   1  12   0.0263   0.0243   0.0839   0.0015  -0.0286  -0.0116   7.00    1.0
