% program   : RTKLIB ver.2.4.3
% inp file  : _by_type/_obs/tuati/20181113.18o
% inp file  : _by_type/_sp3+clk/igs20272.clk
% inp file  : _by_type/_sp3+clk/igs20272.sp3
% inp file  : _by_type/_nav/tuati/20181113.18n
% obs start : 2018/11/13 00:00:00.0 GPST (week2027 172800.0s)
% obs end   : 2018/11/13 23:59:30.0 GPST (week2027 259170.0s)
% pos mode  : ppp-kinematic
% solution  : combined
% elev mask : 15.0 deg
% dynamics  : off
% tidecorr  : on
% tropo opt : est ztd+grad
% ephemeris : precise
% navi sys  : gps glonass
% antenna1  :                       ( 0.0000  0.0000  0.0000)
%
% (lat/lon/height=WGS84/ellipsoidal,Q=1:fix,2:float,3:sbas,4:dgps,5:single,6:ppp,ns=# of satellites)
%  GPST                  latitude(deg) longitude(deg)  height(m)   Q  ns   sdn(m)   sde(m)   sdu(m)  sdne(m)  sdeu(m)  sdun(m) age(s)  ratio
2018/11/13 00:00:00.000  -74.425555138  163.418441162    64.7765   6  10   0.0296   0.0245   0.0733  -0.0175   0.0214  -0.0189   0.00    0.0
2018/11/13 00:00:30.000  -74.425555119  163.418440812    64.6858   6  10   0.0368   0.0343   0.1156  -0.0227   0.0413  -0.0343   0.00    0.0
2018/11/13 00:01:00.000  -74.425555084  163.418440365    64.6656   6  10   0.0499   0.0508   0.1808  -0.0312   0.0685  -0.0553   0.00    0.0
2018/11/13 00:01:30.000  -74.425554957  163.418439903    64.6206   6  11   0.0638   0.0693   0.2397  -0.0410   0.0970  -0.0842   0.00    0.0
2018/11/13 00:02:00.000  -74.425555143  163.418440193    64.6465   6  11   0.0794   0.0880   0.3071  -0.0510   0.1251  -0.1086   0.00    0.0
2018/11/13 00:02:30.000  -74.425555028  163.418439933    64.5975   6  11   0.0951   0.1064   0.3732  -0.0609   0.1522  -0.1322   0.00    0.0
2018/11/13 00:03:00.000  -74.425555334  163.418440249    64.7400   6  11   0.0790   0.0879   0.3080  -0.0508   0.1255  -0.1086   1.00    0.0
2018/11/13 00:03:30.000  -74.425555319  163.418440285    64.6996   6  11   0.0634   0.0691   0.2418  -0.0408   0.0979  -0.0847   1.00    0.0
2018/11/13 00:04:00.000  -74.425555313  163.418441124    64.7596   6  11   0.0489   0.0509   0.1766  -0.0312   0.0701  -0.0610   1.00    0.0
2018/11/13 00:04:30.000  -74.425555175  163.418440554    64.6927   6  11   0.0368   0.0346   0.1165  -0.0230   0.0435  -0.0390   1.00    0.0
2018/11/13 00:05:00.000  -74.425555128  163.418440775    64.7260   6  11   0.0305   0.0250   0.0784  -0.0179   0.0236  -0.0242   1.00    0.0
2018/11/13 00:05:30.000  -74.425555160  163.418440769    64.7581   6  11   0.0368   0.0346   0.1156  -0.0234   0.0443  -0.0384   3.00    0.0
2018/11/13 00:06:00.000  -74.425555144  163.418440358    64.6931   6  11   0.0485   0.0503   0.1738  -0.0308   0.0691  -0.0592   3.00    0.0
2018/11/13 00:06:30.000  -74.425555151  163.418440172    64.6788   6  11   0.0617   0.0671   0.2326  -0.0383   0.0931  -0.0790   3.00    0.0
2018/11/13 00:07:00.000  -74.425555138  163.418439570    64.6502   6  11   0.0753   0.0836   0.2889  -0.0455   0.1152  -0.0973   3.00    0.0
2018/11/13 00:07:30.000  -74.425555055  163.418439390    64.6021   6  11   0.0887   0.0995   0.3426  -0.0523   0.1360  -0.1143   3.00    0.0
2018/11/13 00:08:00.000  -74.425555184  163.418439616    64.6343   6  11   0.0747   0.0831   0.2877  -0.0449   0.1141  -0.0965   2.00    0.0
2018/11/13 00:08:30.000  -74.425555141  163.418439625    64.6423   6  11   0.0611   0.0664   0.2316  -0.0375   0.0917  -0.0781   2.00    0.0
2018/11/13 00:09:00.000  -74.425555095  163.418440030    64.7071   6  11   0.0481   0.0497   0.1737  -0.0300   0.0681  -0.0589   2.00    0.0
2018/11/13 00:09:30.000  -74.425555389  163.418441438    64.8687   1  11   0.0357   0.0308   0.1220  -0.0191   0.0477  -0.0434   4.00    1.0
2018/11/13 00:10:00.000  -74.425555223  163.418440922    64.7568   1  11   0.0288   0.0192   0.0825  -0.0119   0.0298  -0.0286   4.00    1.0
2018/11/13 00:10:30.000  -74.425555181  163.418440520    64.7045   1  11   0.0396   0.0315   0.1349  -0.0212   0.0514  -0.0525   4.00    1.0
2018/11/13 00:11:00.000  -74.425555162  163.418439831    64.6782   6  11   0.0536   0.0492   0.1857  -0.0306   0.0690  -0.0693   2.00    0.0
2018/11/13 00:11:30.000  -74.425555159  163.418439454    64.6680   6  11   0.0691   0.0647   0.2456  -0.0373   0.0907  -0.0921   2.00    0.0
2018/11/13 00:12:00.000  -74.425554925  163.418438836    64.5614   6  11   0.0880   0.0804   0.3139  -0.0455   0.1135  -0.1217   3.00    0.0
2018/11/13 00:12:30.000  -74.425555016  163.418438615    64.5818   6  11   0.1128   0.0993   0.4166  -0.0630   0.1522  -0.1700   3.00    0.0
2018/11/13 00:13:00.000  -74.425555017  163.418438157    64.5548   6  11   0.0983   0.0833   0.3498  -0.0515   0.1271  -0.1420   3.00    0.0
2018/11/13 00:13:30.000  -74.425555248  163.418437905    64.5601   6  11   0.0755   0.0663   0.2820  -0.0444   0.1015  -0.1158   2.00    0.0
2018/11/13 00:14:00.000  -74.425555706  163.418439334    64.7862   6  11   0.0580   0.0498   0.2122  -0.0348   0.0758  -0.0867   2.00    0.0
2018/11/13 00:14:30.000  -74.425555394  163.418440035    64.7753   6  11   0.0418   0.0345   0.1412  -0.0254   0.0493  -0.0559   3.00    0.0
2018/11/13 00:15:00.000  -74.425555354  163.418440745    64.7657   1  11   0.0293   0.0197   0.0897  -0.0127   0.0326  -0.0332   5.00    1.0
2018/11/13 00:15:30.000  -74.425555433  163.418440499    64.8190   6  11   0.0405   0.0338   0.1352  -0.0240   0.0464  -0.0520   4.00    0.0
2018/11/13 00:16:00.000  -74.425555697  163.418440693    64.8818   6  11   0.0569   0.0487   0.2066  -0.0331   0.0724  -0.0836   4.00    0.0
2018/11/13 00:16:30.000  -74.425555497  163.418440078    64.8105   6  11   0.0591   0.0630   0.2200  -0.0339   0.0841  -0.0724   4.00    0.0
2018/11/13 00:17:00.000  -74.425555561  163.418439754    64.7876   6  11   0.0703   0.0770   0.2637  -0.0380   0.1000  -0.0836   4.00    0.0
2018/11/13 00:17:30.000  -74.425555379  163.418439860    64.7831   6  11   0.0818   0.0909   0.3088  -0.0428   0.1168  -0.0963   4.00    0.0
2018/11/13 00:18:00.000  -74.425555287  163.418439819    64.6952   6  11   0.0693   0.0761   0.2583  -0.0363   0.0972  -0.0799   4.00    0.0
2018/11/13 00:18:30.000  -74.425555343  163.418440097    64.6627   6  11   0.0570   0.0611   0.2079  -0.0305   0.0778  -0.0644   3.00    0.0
2018/11/13 00:19:00.000  -74.425555352  163.418440566    64.6944   6  11   0.0456   0.0462   0.1593  -0.0253   0.0588  -0.0501   3.00    0.0
2018/11/13 00:19:30.000  -74.425555605  163.418441558    64.8235   1  11   0.0364   0.0310   0.1300  -0.0193   0.0497  -0.0480   4.00    1.0
2018/11/13 00:20:00.000  -74.425555395  163.418440673    64.7625   1  11   0.0294   0.0203   0.0947  -0.0132   0.0347  -0.0351   4.00    1.0
2018/11/13 00:20:30.000  -74.425555222  163.418440923    64.8100   6  11   0.0379   0.0322   0.1242  -0.0210   0.0408  -0.0437   4.00    0.0
2018/11/13 00:21:00.000  -74.425555123  163.418440467    64.7916   6  11   0.0513   0.0450   0.1780  -0.0255   0.0577  -0.0666   4.00    0.0
2018/11/13 00:21:30.000  -74.425555118  163.418440004    64.7972   6  11   0.0713   0.0624   0.2655  -0.0396   0.0919  -0.1065   4.00    0.0
2018/11/13 00:22:00.000  -74.425555053  163.418439616    64.7811   6  11   0.0868   0.0755   0.3200  -0.0449   0.1076  -0.1291   4.00    0.0
2018/11/13 00:22:30.000  -74.425554928  163.418439653    64.7964   6  11   0.0846   0.0897   0.3216  -0.0463   0.1204  -0.1089   4.00    0.0
2018/11/13 00:23:00.000  -74.425555212  163.418439674    64.8199   6  11   0.0696   0.0743   0.2567  -0.0364   0.0949  -0.0826   4.00    0.0
2018/11/13 00:23:30.000  -74.425555246  163.418439077    64.7316   6  11   0.0565   0.0593   0.2017  -0.0290   0.0734  -0.0628   4.00    0.0
2018/11/13 00:24:00.000  -74.425555354  163.418439867    64.7727   6  11   0.0449   0.0447   0.1530  -0.0234   0.0541  -0.0470   4.00    0.0
2018/11/13 00:24:30.000  -74.425555446  163.418440682    64.7881   1  11   0.0365   0.0307   0.1316  -0.0185   0.0487  -0.0486   4.00    1.0
2018/11/13 00:25:00.000  -74.425555467  163.418440546    64.7749   1  11   0.0296   0.0207   0.0996  -0.0127   0.0357  -0.0368   4.00    1.0
2018/11/13 00:25:30.000  -74.425555342  163.418439969    64.7601   6  11   0.0372   0.0309   0.1213  -0.0185   0.0354  -0.0409   4.00    0.0
2018/11/13 00:26:00.000  -74.425555360  163.418440540    64.8088   6  10   0.0562   0.0455   0.2027  -0.0295   0.0641  -0.0817   4.00    0.0
2018/11/13 00:26:30.000  -74.425555108  163.418439392    64.6919   6  10   0.0751   0.0603   0.2773  -0.0395   0.0890  -0.1160   4.00    0.0
2018/11/13 00:27:00.000  -74.425554991  163.418438777    64.6705   6  10   0.0946   0.0749   0.3529  -0.0501   0.1142  -0.1506   4.00    0.0
2018/11/13 00:27:30.000  -74.425554852  163.418439056    64.6937   6  10   0.1141   0.0890   0.4281  -0.0610   0.1390  -0.1851   4.00    0.0
2018/11/13 00:28:00.000  -74.425554975  163.418439637    64.7190   6  10   0.0942   0.0742   0.3505  -0.0491   0.1118  -0.1493   4.00    0.0
2018/11/13 00:28:30.000  -74.425555142  163.418439999    64.7295   6  10   0.0743   0.0592   0.2735  -0.0378   0.0851  -0.1137   4.00    0.0
2018/11/13 00:29:00.000  -74.425555332  163.418440390    64.7585   6  10   0.0553   0.0443   0.2005  -0.0275   0.0594  -0.0792   4.00    0.0
2018/11/13 00:29:30.000  -74.425555411  163.418439919    64.7314   6  10   0.0386   0.0308   0.1360  -0.0191   0.0356  -0.0463   4.00    0.0
2018/11/13 00:30:00.000  -74.425555544  163.418440220    64.7738   1   9   0.0301   0.0206   0.1077  -0.0120   0.0360  -0.0395   4.00    1.0
2018/11/13 00:30:30.000  -74.425555247  163.418439183    64.7598   6   9   0.0386   0.0305   0.1351  -0.0188   0.0348  -0.0460   4.00    0.0
2018/11/13 00:31:00.000  -74.425555253  163.418439061    64.8636   6   9   0.0554   0.0436   0.2135  -0.0264   0.0554  -0.0811   4.00    0.0
2018/11/13 00:31:30.000  -74.425555229  163.418438789    64.7938   6   9   0.0742   0.0575   0.2973  -0.0352   0.0773  -0.1171   4.00    0.0
2018/11/13 00:32:00.000  -74.425555217  163.418438430    64.7732   6   9   0.0934   0.0710   0.3819  -0.0444   0.0993  -0.1532   4.00    0.0
2018/11/13 00:32:30.000  -74.425555202  163.418438503    64.7914   6  10   0.0902   0.0837   0.3392  -0.0496   0.1122  -0.1192   4.00    0.0
2018/11/13 00:33:00.000  -74.425555233  163.418439268    64.7892   6  10   0.0742   0.0698   0.2694  -0.0394   0.0883  -0.0903   4.00    0.0
2018/11/13 00:33:30.000  -74.425555320  163.418439311    64.7698   6  10   0.0597   0.0558   0.2100  -0.0307   0.0671  -0.0671   4.00    0.0
2018/11/13 00:34:00.000  -74.425555439  163.418439867    64.8154   6  10   0.0463   0.0420   0.1556  -0.0230   0.0474  -0.0465   4.00    0.0
2018/11/13 00:34:30.000  -74.425555678  163.418440655    64.8217   1  10   0.0366   0.0295   0.1342  -0.0168   0.0454  -0.0478   5.00    1.0
2018/11/13 00:35:00.000  -74.425555608  163.418440172    64.7664   1  10   0.0281   0.0199   0.0951  -0.0088   0.0328  -0.0325   5.00    1.0
2018/11/13 00:35:30.000  -74.425555395  163.418440382    64.7064   6  10   0.0348   0.0289   0.1079  -0.0144   0.0241  -0.0281   4.00    0.0
2018/11/13 00:36:00.000  -74.425555096  163.418440148    64.6612   6  10   0.0470   0.0409   0.1592  -0.0183   0.0362  -0.0503   4.00    0.0
2018/11/13 00:36:30.000  -74.425555140  163.418440602    64.7587   6  10   0.0619   0.0538   0.2217  -0.0230   0.0496  -0.0768   4.00    0.0
2018/11/13 00:37:00.000  -74.425555338  163.418440319    64.7618   6  10   0.0807   0.0670   0.3134  -0.0367   0.0818  -0.1170   4.00    0.0
2018/11/13 00:37:30.000  -74.425555336  163.418439920    64.6983   6  10   0.0921   0.0789   0.3528  -0.0413   0.0929  -0.1294   4.00    0.0
2018/11/13 00:38:00.000  -74.425555406  163.418440778    64.8094   6  10   0.0812   0.0663   0.3133  -0.0311   0.0695  -0.1180   4.00    0.0
2018/11/13 00:38:30.000  -74.425555529  163.418440828    64.8660   6  10   0.0633   0.0536   0.2370  -0.0276   0.0597  -0.0843   4.00    0.0
2018/11/13 00:39:00.000  -74.425555495  163.418440650    64.8394   6  10   0.0502   0.0407   0.1821  -0.0179   0.0352  -0.0642   4.00    0.0
2018/11/13 00:39:30.000  -74.425555559  163.418440611    64.7813   6  10   0.0362   0.0286   0.1180  -0.0135   0.0218  -0.0354   4.00    0.0
2018/11/13 00:40:00.000  -74.425555573  163.418439861    64.7723   1  10   0.0272   0.0194   0.0900  -0.0048   0.0297  -0.0296   5.00    1.0
2018/11/13 00:40:30.000  -74.425555587  163.418439796    64.8505   6  10   0.0346   0.0282   0.1064  -0.0118   0.0169  -0.0276   4.00    0.0
2018/11/13 00:41:00.000  -74.425555498  163.418439428    64.7564   6  10   0.0450   0.0396   0.1523  -0.0201   0.0406  -0.0449   4.00    0.0
2018/11/13 00:41:30.000  -74.425555492  163.418439555    64.7953   6  10   0.0565   0.0515   0.1958  -0.0247   0.0528  -0.0596   4.00    0.0
2018/11/13 00:42:00.000  -74.425555434  163.418439940    64.8193   6  10   0.0688   0.0633   0.2436  -0.0305   0.0667  -0.0764   4.00    0.0
2018/11/13 00:42:30.000  -74.425555414  163.418440584    64.7986   6  10   0.0813   0.0749   0.2931  -0.0368   0.0811  -0.0942   4.00    0.0
2018/11/13 00:43:00.000  -74.425555524  163.418440445    64.8353   6  10   0.0684   0.0628   0.2425  -0.0296   0.0643  -0.0752   4.00    0.0
2018/11/13 00:43:30.000  -74.425555566  163.418440400    65.0165   6  10   0.0557   0.0507   0.1910  -0.0231   0.0482  -0.0559   4.00    0.0
2018/11/13 00:44:00.000  -74.425555647  163.418440497    64.8932   6  10   0.0435   0.0385   0.1407  -0.0173   0.0330  -0.0365   4.00    0.0
2018/11/13 00:44:30.000  -74.425555773  163.418440402    64.8330   1  10   0.0339   0.0273   0.1201  -0.0109   0.0356  -0.0387   5.00    1.0
2018/11/13 00:45:00.000  -74.425555582  163.418439818    64.7435   1  10   0.0257   0.0188   0.0784   0.0038   0.0263  -0.0223   5.00    1.0
2018/11/13 00:45:30.000  -74.425555763  163.418440007    64.7723   1  10   0.0339   0.0271   0.1201  -0.0099   0.0342  -0.0389   5.00    1.0
2018/11/13 00:46:00.000  -74.425555541  163.418439852    64.8058   6  10   0.0426   0.0378   0.1351  -0.0155   0.0290  -0.0336   4.00    0.0
2018/11/13 00:46:30.000  -74.425555527  163.418439625    64.9196   6  10   0.0544   0.0492   0.1835  -0.0204   0.0422  -0.0524   5.00    0.0
2018/11/13 00:47:00.000  -74.425555364  163.418439181    64.8052   6  10   0.0666   0.0605   0.2333  -0.0260   0.0553  -0.0710   5.00    0.0
2018/11/13 00:47:30.000  -74.425555155  163.418439335    64.7311   6  10   0.0791   0.0716   0.2837  -0.0318   0.0679  -0.0893   5.00    0.0
2018/11/13 00:48:00.000  -74.425555319  163.418439285    64.6929   6  10   0.0666   0.0602   0.2322  -0.0251   0.0528  -0.0704   5.00    0.0
2018/11/13 00:48:30.000  -74.425555377  163.418439022    64.6375   6  10   0.0542   0.0488   0.1815  -0.0190   0.0382  -0.0514   5.00    0.0
2018/11/13 00:49:00.000  -74.425555427  163.418439342    64.6142   6  10   0.0424   0.0373   0.1326  -0.0138   0.0242  -0.0321   5.00    0.0
2018/11/13 00:49:30.000  -74.425555582  163.418439156    64.6868   1  10   0.0339   0.0266   0.1175  -0.0061   0.0294  -0.0380   5.00    1.0
2018/11/13 00:50:00.000  -74.425555685  163.418439535    64.7459   1  10   0.0201   0.0218   0.0743  -0.0077   0.0184  -0.0303   5.00    1.0
2018/11/13 00:50:30.000  -74.425555468  163.418439582    64.7317   6  10   0.0324   0.0263   0.0887  -0.0102   0.0150  -0.0111   4.00    0.0
2018/11/13 00:51:00.000  -74.425555347  163.418439673    64.7277   6  10   0.0421   0.0365   0.1309  -0.0129   0.0234  -0.0319   4.00    0.0
2018/11/13 00:51:30.000  -74.425555246  163.418440107    64.7914   6  10   0.0534   0.0474   0.1778  -0.0168   0.0334  -0.0502   4.00    0.0
2018/11/13 00:52:00.000  -74.425555159  163.418440022    64.8071   6  10   0.0654   0.0582   0.2261  -0.0215   0.0434  -0.0680   5.00    0.0
2018/11/13 00:52:30.000  -74.425555116  163.418439168    64.7918   6  10   0.0777   0.0689   0.2747  -0.0265   0.0529  -0.0856   5.00    0.0
2018/11/13 00:53:00.000  -74.425555234  163.418438846    64.7976   6  10   0.0654   0.0581   0.2251  -0.0210   0.0412  -0.0675   5.00    0.0
2018/11/13 00:53:30.000  -74.425555244  163.418438695    64.7559   6  11   0.0482   0.0461   0.1541  -0.0053   0.0072  -0.0219   5.00    0.0
2018/11/13 00:54:00.000  -74.425555400  163.418439081    64.7245   6  11   0.0385   0.0356   0.1124  -0.0050  -0.0073   0.0103   5.00    0.0
2018/11/13 00:54:30.000  -74.425555468  163.418439333    64.7207   6  11   0.0307   0.0258   0.0770  -0.0068  -0.0029   0.0180   5.00    0.0
2018/11/13 00:55:00.000  -74.425555422  163.418439475    64.7133   6  11   0.0266   0.0198   0.0546  -0.0067   0.0047   0.0206   5.00    0.0
2018/11/13 00:55:30.000  -74.425555387  163.418439745    64.7533   6  11   0.0307   0.0255   0.0760  -0.0060  -0.0046   0.0177   6.00    0.0
2018/11/13 00:56:00.000  -74.425555373  163.418439682    64.7451   6  11   0.0385   0.0350   0.1096  -0.0035  -0.0102   0.0090   6.00    0.0
2018/11/13 00:56:30.000  -74.425555110  163.418439698    64.6963   6  11   0.0480   0.0451   0.1482   0.0016  -0.0136  -0.0201   6.00    0.0
2018/11/13 00:57:00.000  -74.425555132  163.418440354    64.6797   6  11   0.0590   0.0554   0.1919  -0.0065  -0.0125  -0.0389   6.00    0.0
2018/11/13 00:57:30.000  -74.425555238  163.418440428    64.7139   6  12   0.0669   0.0626   0.2254  -0.0148  -0.0400  -0.0547   6.00    0.0
2018/11/13 00:58:00.000  -74.425555206  163.418440406    64.8116   6  12   0.0554   0.0525   0.1808  -0.0100  -0.0370  -0.0372   6.00    0.0
2018/11/13 00:58:30.000  -74.425555309  163.418440020    64.7979   6  12   0.0454   0.0427   0.1415  -0.0071  -0.0307  -0.0220   6.00    0.0
2018/11/13 00:59:00.000  -74.425555408  163.418439787    64.7080   6  12   0.0365   0.0332   0.1048  -0.0057  -0.0232   0.0081   6.00    0.0
2018/11/13 00:59:30.000  -74.425555464  163.418439749    64.6637   6  12   0.0293   0.0244   0.0720  -0.0053  -0.0148   0.0193   6.00    0.0
2018/11/13 01:00:00.000  -74.425555370  163.418439493    64.6688   6  12   0.0259   0.0190   0.0518  -0.0051  -0.0078   0.0220   6.00    0.0
2018/11/13 01:00:30.000  -74.425555295  163.418439528    64.6660   6  12   0.0291   0.0241   0.0704  -0.0045  -0.0156   0.0204   6.00    0.0
2018/11/13 01:01:00.000  -74.425555226  163.418439714    64.6617   6  12   0.0358   0.0327   0.1011  -0.0025  -0.0248   0.0145   6.00    0.0
2018/11/13 01:01:30.000  -74.425554979  163.418439384    64.6653   6  12   0.0440   0.0419   0.1363   0.0016  -0.0341  -0.0132   6.00    0.0
2018/11/13 01:02:00.000  -74.425554950  163.418439574    64.6817   6  12   0.0530   0.0513   0.1733  -0.0020  -0.0437  -0.0276   6.00    0.0
2018/11/13 01:02:30.000  -74.425554892  163.418439498    64.6723   6  12   0.0624   0.0608   0.2113  -0.0054  -0.0535  -0.0395   6.00    0.0
2018/11/13 01:03:00.000  -74.425555187  163.418439723    64.6829   6  12   0.0531   0.0512   0.1738   0.0021  -0.0443  -0.0282   6.00    0.0
2018/11/13 01:03:30.000  -74.425555202  163.418439600    64.7094   6  12   0.0441   0.0418   0.1369   0.0036  -0.0351  -0.0144   6.00    0.0
2018/11/13 01:04:00.000  -74.425555691  163.418439402    64.7031   1  12   0.0374   0.0368   0.1329   0.0070  -0.0287  -0.0303   6.00    1.0
2018/11/13 01:04:30.000  -74.425555726  163.418439837    64.6840   1  12   0.0258   0.0254   0.0846   0.0097  -0.0112  -0.0181   6.00    1.0
2018/11/13 01:05:00.000  -74.425555809  163.418439423    64.6597   1  12   0.0196   0.0191   0.0542   0.0109   0.0127  -0.0103   6.00    1.0
2018/11/13 01:05:30.000  -74.425555778  163.418439796    64.6172   1  12   0.0258   0.0254   0.0845   0.0100  -0.0121  -0.0180   7.00    1.0
2018/11/13 01:06:00.000  -74.425555712  163.418439222    64.6415   1  12   0.0373   0.0369   0.1333   0.0078  -0.0299  -0.0304   7.00    1.0
2018/11/13 01:06:30.000  -74.425555186  163.418439597    64.6616   6  12   0.0438   0.0411   0.1376   0.0059  -0.0359  -0.0154   7.00    0.0
2018/11/13 01:07:00.000  -74.425555117  163.418439703    64.7468   6  12   0.0528   0.0505   0.1755   0.0061  -0.0460  -0.0297   7.00    0.0
2018/11/13 01:07:30.000  -74.425554972  163.418439845    64.8154   6  12   0.0622   0.0600   0.2142   0.0048  -0.0563  -0.0416   7.00    0.0
2018/11/13 01:08:00.000  -74.425555113  163.418439868    64.7790   6  12   0.0528   0.0505   0.1762   0.0072  -0.0463  -0.0300   7.00    0.0
2018/11/13 01:08:30.000  -74.425555205  163.418439585    64.6896   6  12   0.0438   0.0411   0.1383   0.0071  -0.0365  -0.0160   7.00    0.0
2018/11/13 01:09:00.000  -74.425555694  163.418439104    64.6121   1  12   0.0373   0.0357   0.1329   0.0087  -0.0341  -0.0310   8.00    2.0
2018/11/13 01:09:30.000  -74.425555666  163.418439457    64.6087   1  12   0.0256   0.0237   0.0828   0.0103  -0.0202  -0.0185   9.00    2.0
2018/11/13 01:10:00.000  -74.425555734  163.418439177    64.6479   1  12   0.0195   0.0166   0.0500   0.0106  -0.0100  -0.0109   9.00    2.0
2018/11/13 01:10:30.000  -74.425555785  163.418439066    64.6539   1  12   0.0256   0.0238   0.0827   0.0103  -0.0208  -0.0186   8.00    2.0
2018/11/13 01:11:00.000  -74.425555864  163.418438691    64.6471   1  12   0.0373   0.0358   0.1327   0.0092  -0.0349  -0.0311   8.00    2.0
2018/11/13 01:11:30.000  -74.425555422  163.418439263    64.6210   6  12   0.0435   0.0405   0.1380   0.0081  -0.0370  -0.0165   7.00    0.0
2018/11/13 01:12:00.000  -74.425555356  163.418438936    64.5871   6  12   0.0525   0.0498   0.1758   0.0086  -0.0473  -0.0306   7.00    0.0
2018/11/13 01:12:30.000  -74.425555271  163.418439686    64.5735   6  12   0.0618   0.0593   0.2140   0.0083  -0.0578  -0.0424   7.00    0.0
2018/11/13 01:13:00.000  -74.425555281  163.418440189    64.5744   6  12   0.0525   0.0498   0.1754   0.0088  -0.0478  -0.0305   7.00    0.0
2018/11/13 01:13:30.000  -74.425555372  163.418440398    64.5834   6  12   0.0435   0.0405   0.1376   0.0085  -0.0376  -0.0163   7.00    0.0
2018/11/13 01:14:00.000  -74.425555789  163.418439462    64.6241   1  12   0.0443   0.0363   0.1358  -0.0062  -0.0385  -0.0150   6.00    1.0
2018/11/13 01:14:30.000  -74.425555781  163.418439097    64.6433   1  12   0.0351   0.0245   0.0885  -0.0046  -0.0261   0.0200   6.00    1.0
2018/11/13 01:15:00.000  -74.425555642  163.418438967    64.6412   1  12   0.0311   0.0177   0.0599  -0.0035  -0.0184   0.0252   6.00    1.0
2018/11/13 01:15:30.000  -74.425555495  163.418439185    64.6455   1  12   0.0355   0.0247   0.0887  -0.0044  -0.0265   0.0205   6.00    1.0
2018/11/13 01:16:00.000  -74.425555024  163.418439682    64.6259   6  12   0.0353   0.0313   0.1011   0.0079  -0.0279   0.0142   7.00    0.0
2018/11/13 01:16:30.000  -74.425555006  163.418440183    64.6221   6  12   0.0434   0.0400   0.1363   0.0090  -0.0379  -0.0158   7.00    0.0
2018/11/13 01:17:00.000  -74.425555043  163.418440276    64.6347   6  12   0.0522   0.0492   0.1728   0.0095  -0.0482  -0.0299   7.00    0.0
2018/11/13 01:17:30.000  -74.425554924  163.418440200    64.6174   6  12   0.0616   0.0586   0.2098   0.0096  -0.0587  -0.0415   7.00    0.0
2018/11/13 01:18:00.000  -74.425554953  163.418439583    64.6189   6  12   0.0524   0.0492   0.1724   0.0096  -0.0482  -0.0300   0.00    0.0
2018/11/13 01:18:30.000  -74.425555141  163.418438994    64.6868   6  12   0.0435   0.0400   0.1356   0.0093  -0.0380  -0.0157   0.00    0.0
2018/11/13 01:19:00.000  -74.425555891  163.418438417    64.7101   1  12   0.0452   0.0366   0.1348  -0.0037  -0.0395  -0.0128   7.00    1.0
2018/11/13 01:19:30.000  -74.425555941  163.418438528    64.6946   1  12   0.0360   0.0250   0.0899  -0.0015  -0.0275   0.0209   7.00    1.0
2018/11/13 01:20:00.000  -74.425555724  163.418438785    64.6399   1  12   0.0319   0.0182   0.0626   0.0013  -0.0199   0.0260   7.00    1.0
2018/11/13 01:20:30.000  -74.425555593  163.418439278    64.6332   1  12   0.0366   0.0252   0.0911   0.0002  -0.0284   0.0214   7.00    1.0
2018/11/13 01:21:00.000  -74.425555651  163.418439052    64.6474   1  12   0.0458   0.0369   0.1352  -0.0019  -0.0405  -0.0104   7.00    1.0
2018/11/13 01:21:30.000  -74.425555174  163.418440262    64.5929   6  12   0.0434   0.0396   0.1338   0.0094  -0.0383  -0.0143   8.00    0.0
2018/11/13 01:22:00.000  -74.425555281  163.418440419    64.5693   6  12   0.0522   0.0487   0.1683   0.0099  -0.0482  -0.0284   8.00    0.0
2018/11/13 01:22:30.000  -74.425555229  163.418440403    64.5508   6  12   0.0616   0.0581   0.2033   0.0101  -0.0584  -0.0396   8.00    0.0
2018/11/13 01:23:00.000  -74.425555204  163.418440187    64.6023   6  12   0.0522   0.0488   0.1673   0.0102  -0.0483  -0.0278   8.00    0.0
2018/11/13 01:23:30.000  -74.425555255  163.418439589    64.6000   6  12   0.0434   0.0397   0.1326   0.0098  -0.0384  -0.0131   7.00    0.0
2018/11/13 01:24:00.000  -74.425555881  163.418438585    64.5614   1  12   0.0460   0.0371   0.1343   0.0040  -0.0411  -0.0069   6.00    1.0
2018/11/13 01:24:30.000  -74.425555868  163.418438751    64.5630   1  12   0.0371   0.0257   0.0935   0.0046  -0.0300   0.0223   6.00    1.0
2018/11/13 01:25:00.000  -74.425555802  163.418438993    64.5877   1  12   0.0330   0.0188   0.0685   0.0047  -0.0227   0.0266   6.00    1.0
2018/11/13 01:25:30.000  -74.425555647  163.418439546    64.5446   1  12   0.0382   0.0269   0.1011   0.0042  -0.0341   0.0241   6.00    1.0
2018/11/13 01:26:00.000  -74.425555017  163.418440711    64.4842   6  12   0.0363   0.0319   0.1045   0.0087  -0.0323   0.0198   7.00    0.0
2018/11/13 01:26:30.000  -74.425554935  163.418440131    64.5409   6  12   0.0446   0.0404   0.1362   0.0096  -0.0415   0.0126   7.00    0.0
2018/11/13 01:27:00.000  -74.425554973  163.418440174    64.5569   6  12   0.0544   0.0497   0.1699   0.0115  -0.0504  -0.0079   7.00    0.0
2018/11/13 01:27:30.000  -74.425555048  163.418440131    64.5268   6  11   0.0662   0.0594   0.2072   0.0153  -0.0585   0.0131   6.00    0.0
2018/11/13 01:28:00.000  -74.425555085  163.418440074    64.5676   6  11   0.0563   0.0505   0.1750   0.0120  -0.0517   0.0226   6.00    0.0
2018/11/13 01:28:30.000  -74.425555134  163.418440197    64.6313   6  11   0.0469   0.0426   0.1464   0.0064  -0.0475   0.0294   6.00    0.0
2018/11/13 01:29:00.000  -74.425555180  163.418440320    64.6158   6  10   0.0384   0.0354   0.1212  -0.0040  -0.0437   0.0318   6.00    0.0
2018/11/13 01:29:30.000  -74.425555995  163.418439096    64.6256   1  10   0.0399   0.0294   0.1164   0.0048  -0.0419   0.0265   5.00    1.0
2018/11/13 01:30:00.000  -74.425555999  163.418438700    64.5985   1  10   0.0348   0.0204   0.0834   0.0088  -0.0286   0.0227   5.00    1.0
2018/11/13 01:30:30.000  -74.425555372  163.418439770    64.5594   6   9   0.0324   0.0281   0.1029   0.0120  -0.0380   0.0090   5.00    0.0
2018/11/13 01:31:00.000  -74.425555259  163.418439517    64.5961   6   9   0.0422   0.0400   0.1590   0.0168  -0.0613  -0.0280   6.00    0.0
2018/11/13 01:31:30.000  -74.425555016  163.418440459    64.5041   6   9   0.0540   0.0536   0.2201   0.0224  -0.0866  -0.0461   5.00    0.0
2018/11/13 01:32:00.000  -74.425555262  163.418439969    64.5863   6   9   0.0669   0.0680   0.2831   0.0284  -0.1126  -0.0629   6.00    0.0
2018/11/13 01:32:30.000  -74.425555287  163.418440018    64.6917   6   9   0.0802   0.0828   0.3469   0.0347  -0.1390  -0.0792   5.00    0.0
2018/11/13 01:33:00.000  -74.425555290  163.418439548    64.7664   6   9   0.0672   0.0686   0.2860   0.0292  -0.1140  -0.0650   5.00    0.0
2018/11/13 01:33:30.000  -74.425555203  163.418439399    64.6420   6   9   0.0548   0.0545   0.2267   0.0238  -0.0891  -0.0512   5.00    0.0
2018/11/13 01:34:00.000  -74.425555076  163.418439620    64.5085   6   9   0.0438   0.0410   0.1715   0.0187  -0.0646  -0.0391   5.00    0.0
2018/11/13 01:34:30.000  -74.425555320  163.418439472    64.5443   6   9   0.0330   0.0290   0.1129   0.0139  -0.0413  -0.0152   4.00    0.0
2018/11/13 01:35:00.000  -74.425556041  163.418438322    64.5898   1   9   0.0351   0.0212   0.0897   0.0112  -0.0312   0.0235   5.00    1.0
2018/11/13 01:35:30.000  -74.425555323  163.418440591    64.5292   6   9   0.0325   0.0291   0.1097   0.0139  -0.0413  -0.0071   4.00    0.0
2018/11/13 01:36:00.000  -74.425555424  163.418440148    64.5504   6   9   0.0420   0.0415   0.1642   0.0190  -0.0655  -0.0302   4.00    0.0
2018/11/13 01:36:30.000  -74.425555445  163.418440388    64.5345   6   9   0.0538   0.0555   0.2240   0.0249  -0.0914  -0.0472   4.00    0.0
2018/11/13 01:37:00.000  -74.425555207  163.418441657    64.4496   6   9   0.0667   0.0704   0.2861   0.0312  -0.1180  -0.0634   4.00    0.0
2018/11/13 01:37:30.000  -74.425555340  163.418440862    64.5187   6   9   0.0801   0.0856   0.3489   0.0378  -0.1450  -0.0793   4.00    0.0
2018/11/13 01:38:00.000  -74.425555281  163.418441195    64.4535   6   9   0.0668   0.0709   0.2865   0.0317  -0.1188  -0.0638   4.00    0.0
2018/11/13 01:38:30.000  -74.425555433  163.418440465    64.5083   6   9   0.0540   0.0562   0.2249   0.0257  -0.0926  -0.0480   4.00    0.0
2018/11/13 01:39:00.000  -74.425555633  163.418438859    64.6109   6   9   0.0423   0.0422   0.1661   0.0201  -0.0671  -0.0321   4.00    0.0
2018/11/13 01:39:30.000  -74.425555588  163.418439161    64.5760   6   9   0.0327   0.0298   0.1139   0.0152  -0.0435  -0.0140   4.00    0.0
2018/11/13 01:40:00.000  -74.425556098  163.418438390    64.5929   1   9   0.0365   0.0220   0.1034   0.0139  -0.0346   0.0150   5.00    1.0
2018/11/13 01:40:30.000  -74.425555270  163.418440048    64.4358   6   9   0.0334   0.0301   0.1203   0.0161  -0.0452  -0.0217   4.00    0.0
2018/11/13 01:41:00.000  -74.425555312  163.418439693    64.5721   6   9   0.0443   0.0428   0.1802   0.0223  -0.0704  -0.0448   4.00    0.0
2018/11/13 01:41:30.000  -74.425555396  163.418439251    64.6165   6   9   0.0583   0.0574   0.2515   0.0301  -0.0987  -0.0699   5.00    0.0
2018/11/13 01:42:00.000  -74.425555783  163.418439331    64.8081   6   9   0.0892   0.0760   0.4208   0.0509  -0.1489  -0.1498   4.00    0.0
2018/11/13 01:42:30.000  -74.425555398  163.418439474    64.6356   6   8   0.1096   0.0930   0.5224   0.0634  -0.1849  -0.1888   4.00    0.0
2018/11/13 01:43:00.000  -74.425555227  163.418440609    64.4697   6   9   0.0796   0.0732   0.3647   0.0423  -0.1339  -0.1184   4.00    0.0
2018/11/13 01:43:30.000  -74.425555029  163.418440107    64.4256   6   9   0.0678   0.0595   0.3094   0.0383  -0.1119  -0.1056   4.00    0.0
2018/11/13 01:44:00.000  -74.425555204  163.418439240    64.5173   6   9   0.0427   0.0419   0.1694   0.0200  -0.0657  -0.0366   4.00    0.0
2018/11/13 01:44:30.000  -74.425555768  163.418438741    64.4904   1   9   0.0418   0.0326   0.1363   0.0153  -0.0507   0.0186   5.00    1.0
2018/11/13 01:45:00.000  -74.425556009  163.418438230    64.5393   1   9   0.0358   0.0216   0.0952   0.0138  -0.0310   0.0247   5.00    1.0
2018/11/13 01:45:30.000  -74.425556065  163.418437333    64.6695   1   9   0.0421   0.0328   0.1374   0.0158  -0.0507   0.0175   5.00    1.0
2018/11/13 01:46:00.000  -74.425555313  163.418438383    64.6236   6   9   0.0404   0.0417   0.1548   0.0189  -0.0631  -0.0216   4.00    0.0
2018/11/13 01:46:30.000  -74.425555349  163.418438778    64.5607   6   9   0.0508   0.0552   0.2087   0.0227  -0.0862  -0.0334   4.00    0.0
2018/11/13 01:47:00.000  -74.425555341  163.418439040    64.5974   6   9   0.0624   0.0696   0.2662   0.0273  -0.1104  -0.0456   4.00    0.0
2018/11/13 01:47:30.000  -74.425555376  163.418439210    64.5910   6   9   0.0746   0.0844   0.3256   0.0326  -0.1352  -0.0586   4.00    0.0
2018/11/13 01:48:00.000  -74.425555435  163.418438781    64.6023   6   9   0.0626   0.0700   0.2692   0.0287  -0.1116  -0.0495   4.00    0.0
2018/11/13 01:48:30.000  -74.425555543  163.418438217    64.6996   6   9   0.0512   0.0557   0.2127   0.0247  -0.0878  -0.0390   4.00    0.0
2018/11/13 01:49:00.000  -74.425555424  163.418439029    64.6285   6   9   0.0407   0.0422   0.1581   0.0208  -0.0646  -0.0276   4.00    0.0
2018/11/13 01:49:30.000  -74.425555316  163.418439088    64.5439   6   9   0.0323   0.0303   0.1089   0.0172  -0.0431  -0.0138   4.00    0.0
2018/11/13 01:50:00.000  -74.425556060  163.418437966    64.5614   1   9   0.0365   0.0217   0.0979   0.0157  -0.0308   0.0222   5.00    1.0
2018/11/13 01:50:30.000  -74.425555343  163.418438939    64.5044   6   9   0.0322   0.0303   0.1080   0.0176  -0.0428  -0.0147   4.00    0.0
2018/11/13 01:51:00.000  -74.425555488  163.418439311    64.4943   6   9   0.0408   0.0421   0.1581   0.0218  -0.0646  -0.0302   4.00    0.0
2018/11/13 01:51:30.000  -74.425555578  163.418440206    64.5040   6   9   0.0516   0.0559   0.2156   0.0270  -0.0888  -0.0453   4.00    0.0
2018/11/13 01:52:00.000  -74.425555599  163.418440482    64.4674   6   9   0.0636   0.0704   0.2763   0.0331  -0.1141  -0.0610   4.00    0.0
2018/11/13 01:52:30.000  -74.425555608  163.418440655    64.4863   6   9   0.0764   0.0854   0.3386   0.0397  -0.1399  -0.0774   4.00    0.0
2018/11/13 01:53:00.000  -74.425555500  163.418441057    64.4250   6   9   0.0640   0.0705   0.2779   0.0341  -0.1145  -0.0639   4.00    0.0
2018/11/13 01:53:30.000  -74.425555468  163.418440481    64.4809   6   9   0.0522   0.0560   0.2177   0.0285  -0.0894  -0.0497   4.00    0.0
2018/11/13 01:54:00.000  -74.425555323  163.418440647    64.4685   6   9   0.0413   0.0423   0.1596   0.0233  -0.0650  -0.0349   4.00    0.0
2018/11/13 01:54:30.000  -74.425555193  163.418440401    64.4938   6   9   0.0326   0.0304   0.1077   0.0188  -0.0425  -0.0193   4.00    0.0
2018/11/13 01:55:00.000  -74.425556042  163.418437586    64.6116   1   9   0.0373   0.0218   0.0990   0.0173  -0.0293   0.0186   5.00    1.0
2018/11/13 01:55:30.000  -74.425555436  163.418438039    64.6631   6   9   0.0327   0.0301   0.1067   0.0191  -0.0418  -0.0200   4.00    0.0
2018/11/13 01:56:00.000  -74.425555492  163.418438136    64.6373   6   9   0.0416   0.0418   0.1588   0.0241  -0.0642  -0.0372   4.00    0.0
2018/11/13 01:56:30.000  -74.425555426  163.418436836    64.7141   6   9   0.0529   0.0556   0.2181   0.0304  -0.0889  -0.0551   4.00    0.0
2018/11/13 01:57:00.000  -74.425555495  163.418437057    64.6484   6   9   0.0655   0.0702   0.2803   0.0376  -0.1146  -0.0735   4.00    0.0
2018/11/13 01:57:30.000  -74.425555445  163.418437544    64.5596   6   9   0.0788   0.0851   0.3435   0.0454  -0.1407  -0.0925   4.00    0.0
2018/11/13 01:58:00.000  -74.425555502  163.418438000    64.5162   6   9   0.0659   0.0701   0.2804   0.0384  -0.1145  -0.0755   4.00    0.0
2018/11/13 01:58:30.000  -74.425555827  163.418437223    64.6946   6   9   0.0535   0.0554   0.2181   0.0316  -0.0886  -0.0583   4.00    0.0
2018/11/13 01:59:00.000  -74.425555700  163.418438041    64.6008   6   9   0.0422   0.0416   0.1582   0.0253  -0.0635  -0.0406   4.00    0.0
2018/11/13 01:59:30.000  -74.425555476  163.418438175    64.6228   6   9   0.0331   0.0299   0.1052   0.0201  -0.0407  -0.0231   4.00    0.0
2018/11/13 02:00:00.000  -74.425556010  163.418437555    64.6197   1   9   0.0381   0.0219   0.0988   0.0188  -0.0266   0.0138   5.00    1.0
2018/11/13 02:00:30.000  -74.425555285  163.418438131    64.6495   6   9   0.0332   0.0295   0.1041   0.0201  -0.0398  -0.0236   4.00    0.0
2018/11/13 02:01:00.000  -74.425555337  163.418437700    64.6749   6   9   0.0425   0.0410   0.1564   0.0257  -0.0621  -0.0423   4.00    0.0
2018/11/13 02:01:30.000  -74.425555076  163.418439337    64.4853   6   9   0.0544   0.0546   0.2156   0.0329  -0.0868  -0.0621   4.00    0.0
2018/11/13 02:02:00.000  -74.425555113  163.418439046    64.5179   6   9   0.0676   0.0690   0.2771   0.0409  -0.1121  -0.0824   4.00    0.0
2018/11/13 02:02:30.000  -74.425555214  163.418438675    64.5467   6   9   0.0815   0.0838   0.3392   0.0495  -0.1375  -0.1031   4.00    0.0
2018/11/13 02:03:00.000  -74.425555133  163.418438549    64.4844   6   9   0.0682   0.0689   0.2762   0.0417  -0.1116  -0.0840   4.00    0.0
2018/11/13 02:03:30.000  -74.425555285  163.418437577    64.6210   6   9   0.0552   0.0543   0.2139   0.0339  -0.0857  -0.0644   4.00    0.0
2018/11/13 02:04:00.000  -74.425555270  163.418436518    64.7001   6   9   0.0432   0.0407   0.1544   0.0268  -0.0607  -0.0448   4.00    0.0
2018/11/13 02:04:30.000  -74.425555236  163.418437039    64.7027   6   9   0.0336   0.0292   0.1021   0.0209  -0.0381  -0.0258   4.00    0.0
2018/11/13 02:05:00.000  -74.425555171  163.418437503    64.7739   1   9   0.0252   0.0184   0.0666   0.0164  -0.0173  -0.0195   4.00    1.0
2018/11/13 02:05:30.000  -74.425554816  163.418437475    64.7097   1   9   0.0437   0.0416   0.1355   0.0327  -0.0479  -0.0469   4.00    1.0
2018/11/13 02:06:00.000  -74.425555515  163.418436901    64.6480   6   9   0.0435   0.0400   0.1520   0.0269  -0.0588  -0.0457   6.00    0.0
2018/11/13 02:06:30.000  -74.425555690  163.418436359    64.7438   6   9   0.0560   0.0533   0.2089   0.0346  -0.0827  -0.0666   6.00    0.0
2018/11/13 02:07:00.000  -74.425555350  163.418438079    64.6987   6   9   0.0697   0.0673   0.2677   0.0431  -0.1069  -0.0879   6.00    0.0
2018/11/13 02:07:30.000  -74.425555402  163.418437402    64.7737   6   9   0.0841   0.0816   0.3267   0.0521  -0.1311  -0.1095   6.00    0.0
2018/11/13 02:08:00.000  -74.425555228  163.418438485    64.6448   6   9   0.0703   0.0672   0.2660   0.0436  -0.1061  -0.0891   6.00    0.0
2018/11/13 02:08:30.000  -74.425555286  163.418438231    64.6275   6   9   0.0567   0.0530   0.2059   0.0352  -0.0811  -0.0682   6.00    0.0
2018/11/13 02:09:00.000  -74.425555263  163.418438701    64.6225   6   9   0.0442   0.0397   0.1489   0.0275  -0.0569  -0.0475   6.00    0.0
2018/11/13 02:09:30.000  -74.425555234  163.418438632    64.6259   6   9   0.0341   0.0285   0.0993   0.0212  -0.0348  -0.0276   6.00    0.0
2018/11/13 02:10:00.000  -74.425555461  163.418437275    64.7414   6   9   0.0289   0.0225   0.0717   0.0179  -0.0211  -0.0141   6.00    0.0
2018/11/13 02:10:30.000  -74.425555500  163.418437842    64.6477   6   9   0.0340   0.0282   0.1000   0.0209  -0.0332  -0.0280   6.00    0.0
2018/11/13 02:11:00.000  -74.425555623  163.418437429    64.6925   6   9   0.0445   0.0391   0.1494   0.0271  -0.0539  -0.0490   6.00    0.0
2018/11/13 02:11:30.000  -74.425555683  163.418436477    64.7929   6   9   0.0576   0.0520   0.2044   0.0350  -0.0762  -0.0710   6.00    0.0
2018/11/13 02:12:00.000  -74.425555664  163.418436520    64.7833   6   9   0.0720   0.0656   0.2611   0.0436  -0.0986  -0.0933   6.00    0.0
2018/11/13 02:12:30.000  -74.425555590  163.418437025    64.7752   6   9   0.0871   0.0794   0.3186   0.0525  -0.1206  -0.1159   6.00    0.0
2018/11/13 02:13:00.000  -74.425555595  163.418437067    64.7645   6   9   0.0731   0.0653   0.2673   0.0429  -0.0951  -0.0971   6.00    0.0
2018/11/13 02:13:30.000  -74.425555714  163.418436473    64.8927   6   8   0.0607   0.0518   0.2300   0.0332  -0.0680  -0.0839   5.00    0.0
2018/11/13 02:14:00.000  -74.425555543  163.418437067    64.8377   6   8   0.0467   0.0388   0.1655   0.0261  -0.0474  -0.0584   4.00    0.0
2018/11/13 02:14:30.000  -74.425555404  163.418437154    64.8217   6   8   0.0351   0.0278   0.1079   0.0205  -0.0286  -0.0339   4.00    0.0
2018/11/13 02:15:00.000  -74.425555527  163.418436920    64.8076   6   8   0.0291   0.0220   0.0745   0.0176  -0.0166  -0.0171   4.00    0.0
2018/11/13 02:15:30.000  -74.425555635  163.418435708    64.9176   6   8   0.0350   0.0275   0.1076   0.0201  -0.0271  -0.0334   4.00    0.0
2018/11/13 02:16:00.000  -74.425555648  163.418434922    64.9169   6   8   0.0471   0.0382   0.1643   0.0256  -0.0445  -0.0590   4.00    0.0
2018/11/13 02:16:30.000  -74.425555742  163.418435049    65.0140   6   8   0.0620   0.0508   0.2273   0.0326  -0.0629  -0.0861   4.00    0.0
2018/11/13 02:17:00.000  -74.425555476  163.418436213    64.8974   6   8   0.0782   0.0641   0.2922   0.0401  -0.0811  -0.1137   5.00    0.0
2018/11/13 02:17:30.000  -74.425555496  163.418437478    64.8110   6   8   0.0950   0.0776   0.3575   0.0479  -0.0990  -0.1415   5.00    0.0
2018/11/13 02:18:00.000  -74.425555560  163.418436898    64.8555   6   8   0.0788   0.0639   0.2911   0.0403  -0.0798  -0.1149   5.00    0.0
2018/11/13 02:18:30.000  -74.425555691  163.418436663    64.8846   6   8   0.0630   0.0504   0.2255   0.0327  -0.0602  -0.0878   5.00    0.0
2018/11/13 02:19:00.000  -74.425555456  163.418436340    64.8652   6   8   0.0480   0.0379   0.1626   0.0258  -0.0413  -0.0607   5.00    0.0
2018/11/13 02:19:30.000  -74.425555638  163.418435856    64.9095   6   8   0.0355   0.0274   0.1065   0.0203  -0.0233  -0.0343   5.00    0.0
2018/11/13 02:20:00.000  -74.425555527  163.418437039    64.8091   6   8   0.0289   0.0219   0.0732   0.0171  -0.0096  -0.0149   5.00    0.0
2018/11/13 02:20:30.000  -74.425555556  163.418436495    64.8010   6   9   0.0355   0.0274   0.1059   0.0200  -0.0207  -0.0334   5.00    0.0
2018/11/13 02:21:00.000  -74.425555642  163.418435942    64.8745   6   9   0.0484   0.0379   0.1550   0.0255  -0.0357  -0.0614   5.00    0.0
2018/11/13 02:21:30.000  -74.425556120  163.418434840    65.0783   6   9   0.0640   0.0501   0.2109   0.0322  -0.0509  -0.0903   5.00    0.0
2018/11/13 02:22:00.000  -74.425555982  163.418435667    65.0899   6   9   0.0808   0.0632   0.2696   0.0394  -0.0658  -0.1195   5.00    0.0
2018/11/13 02:22:30.000  -74.425555810  163.418436140    65.0002   6   9   0.0982   0.0765   0.3296   0.0469  -0.0802  -0.1486   5.00    0.0
2018/11/13 02:23:00.000  -74.425555694  163.418436632    64.9507   6   9   0.0814   0.0638   0.2736   0.0393  -0.0600  -0.1195   5.00    0.0
2018/11/13 02:23:30.000  -74.425555722  163.418436807    65.0141   6   8   0.0650   0.0523   0.2254   0.0330  -0.0321  -0.0883   4.00    0.0
2018/11/13 02:24:00.000  -74.425555594  163.418437488    64.9557   6   8   0.0493   0.0393   0.1668   0.0258  -0.0178  -0.0598   4.00    0.0
2018/11/13 02:24:30.000  -74.425555604  163.418437354    64.9413   6   8   0.0361   0.0285   0.1143   0.0200   0.0089  -0.0310   4.00    0.0
2018/11/13 02:25:00.000  -74.425555423  163.418437442    64.8091   6   8   0.0288   0.0223   0.0776   0.0170   0.0117  -0.0078   3.00    0.0
2018/11/13 02:25:30.000  -74.425555452  163.418437054    64.8554   6   8   0.0368   0.0289   0.1237   0.0208   0.0200  -0.0249   3.00    0.0
2018/11/13 02:26:00.000  -74.425555589  163.418436708    64.8329   6   8   0.0516   0.0411   0.1993   0.0278   0.0348  -0.0467   3.00    0.0
2018/11/13 02:26:30.000  -74.425555499  163.418437889    64.8499   6   8   0.0691   0.0554   0.2809   0.0360   0.0517  -0.0688   3.00    0.0
2018/11/13 02:27:00.000  -74.425555343  163.418438162    64.7506   6   8   0.0875   0.0696   0.3517   0.0434   0.0609  -0.0949   3.00    0.0
2018/11/13 02:27:30.000  -74.425555528  163.418438291    64.8673   6   8   0.1059   0.0840   0.4157   0.0489   0.0667  -0.1262   4.00    0.0
2018/11/13 02:28:00.000  -74.425555375  163.418438272    64.6226   6   9   0.0834   0.0667   0.2620   0.0328   0.0633  -0.0906   4.00    0.0
2018/11/13 02:28:30.000  -74.425555172  163.418437939    64.5791   6   9   0.0652   0.0523   0.1998   0.0260   0.0504  -0.0679   4.00    0.0
2018/11/13 02:29:00.000  -74.425555181  163.418438185    64.6567   6   9   0.0505   0.0398   0.1459   0.0216   0.0374  -0.0470   4.00    0.0
2018/11/13 02:29:30.000  -74.425555179  163.418438053    64.6745   6   9   0.0374   0.0291   0.0982   0.0190   0.0250  -0.0244   4.00    0.0
2018/11/13 02:30:00.000  -74.425555422  163.418437425    64.7764   6   9   0.0293   0.0235   0.0682   0.0174   0.0185   0.0107   4.00    0.0
2018/11/13 02:30:30.000  -74.425555377  163.418438117    64.7490   6   9   0.0373   0.0323   0.0953   0.0224   0.0302  -0.0166   3.00    0.0
2018/11/13 02:31:00.000  -74.425555283  163.418438941    64.7347   6   9   0.0510   0.0448   0.1386   0.0278   0.0443  -0.0408   3.00    0.0
2018/11/13 02:31:30.000  -74.425555309  163.418439057    64.7695   6   9   0.0668   0.0597   0.1904   0.0339   0.0613  -0.0624   3.00    0.0
2018/11/13 02:32:00.000  -74.425555352  163.418439555    64.7164   6   9   0.0907   0.0842   0.2522   0.0542   0.0935  -0.0690   3.00    0.0
2018/11/13 02:32:30.000  -74.425555505  163.418438423    64.7890   6   9   0.1058   0.1002   0.3058   0.0585   0.1071  -0.0975   3.00    0.0
2018/11/13 02:33:00.000  -74.425555493  163.418438246    64.7439   6   9   0.0874   0.0928   0.2468   0.0531   0.0689  -0.0956   2.00    0.0
2018/11/13 02:33:30.000  -74.425555529  163.418439047    64.7661   6   9   0.0649   0.0592   0.1914   0.0281   0.0590  -0.0709   2.00    0.0
2018/11/13 02:34:00.000  -74.425555405  163.418438620    64.7638   6   9   0.0476   0.0431   0.1395   0.0213   0.0434  -0.0483   3.00    0.0
2018/11/13 02:34:30.000  -74.425555579  163.418437571    64.7904   6   9   0.0326   0.0295   0.0931   0.0156   0.0286  -0.0259   3.00    1.0
2018/11/13 02:35:00.000  -74.425555479  163.418437517    64.8034   6   9   0.0237   0.0216   0.0638   0.0117   0.0199  -0.0047   3.00    0.0
2018/11/13 02:35:30.000  -74.425555216  163.418437946    64.7248   6   9   0.0315   0.0279   0.0924   0.0132   0.0300  -0.0258   4.00    0.0
2018/11/13 02:36:00.000  -74.425555191  163.418438273    64.7226   6   9   0.0447   0.0392   0.1395   0.0135   0.0456  -0.0496   4.00    1.0
2018/11/13 02:36:30.000  -74.425555231  163.418438787    64.7485   6   9   0.0597   0.0523   0.1923   0.0116   0.0630  -0.0738   5.00    1.0
2018/11/13 02:37:00.000  -74.425555292  163.418439172    64.7284   6   9   0.0755   0.0661   0.2478   0.0059   0.0814  -0.0983   5.00    2.0
2018/11/13 02:37:30.000  -74.425555418  163.418438874    64.7464   6   9   0.0918   0.0804   0.3046  -0.0109   0.1005  -0.1230   5.00    1.0
2018/11/13 02:38:00.000  -74.425555380  163.418438018    64.7266   6   9   0.0757   0.0667   0.2499  -0.0053   0.0835  -0.0994   4.00    1.0
2018/11/13 02:38:30.000  -74.425555352  163.418437864    64.7201   6   9   0.0599   0.0531   0.1956   0.0084   0.0663  -0.0753   4.00    1.0
2018/11/13 02:39:00.000  -74.425555395  163.418437801    64.7776   6   9   0.0450   0.0403   0.1429   0.0122   0.0497  -0.0507   4.00    1.0
2018/11/13 02:39:30.000  -74.425555307  163.418437420    64.7751   1   9   0.0440   0.0445   0.1303   0.0280   0.0530  -0.0343   4.00    1.0
2018/11/13 02:40:00.000  -74.425555355  163.418437365    64.7575   1   9   0.0324   0.0360   0.0877   0.0272   0.0423   0.0176   4.00    1.0
2018/11/13 02:40:30.000  -74.425555275  163.418437907    64.7581   1   9   0.0422   0.0433   0.1295   0.0257   0.0533  -0.0357   4.00    1.0
2018/11/13 02:41:00.000  -74.425555511  163.418437543    64.7207   6   9   0.0446   0.0405   0.1445   0.0090   0.0517  -0.0518   4.00    1.0
2018/11/13 02:41:30.000  -74.425555543  163.418437827    64.6848   6   9   0.0599   0.0539   0.1991  -0.0076   0.0703  -0.0774   4.00    1.0
2018/11/13 02:42:00.000  -74.425555556  163.418437640    64.6849   6   9   0.0761   0.0682   0.2563  -0.0165   0.0902  -0.1028   4.00    1.0
2018/11/13 02:42:30.000  -74.425555712  163.418437065    64.6917   6   9   0.0927   0.0831   0.3146  -0.0237   0.1108  -0.1282   4.00    1.0
2018/11/13 02:43:00.000  -74.425555712  163.418437878    64.7329   6   9   0.0762   0.0684   0.2568  -0.0183   0.0911  -0.1036   4.00    1.0
2018/11/13 02:43:30.000  -74.425555825  163.418438044    64.7255   6   9   0.0598   0.0540   0.1995  -0.0123   0.0714  -0.0789   4.00    1.0
2018/11/13 02:44:00.000  -74.425555771  163.418438138    64.7960   6   9   0.0442   0.0402   0.1437  -0.0049   0.0519  -0.0543   4.00    1.0
2018/11/13 02:44:30.000  -74.425555525  163.418437697    64.7691   1   9   0.0396   0.0422   0.1246   0.0206   0.0514  -0.0422   4.00    2.0
2018/11/13 02:45:00.000  -74.425555421  163.418437086    64.7321   1   9   0.0291   0.0348   0.0837   0.0237   0.0414   0.0060   4.00    1.0
2018/11/13 02:45:30.000  -74.425555612  163.418437723    64.8183   1   9   0.0399   0.0428   0.1265   0.0216   0.0538  -0.0394   4.00    1.0
2018/11/13 02:46:00.000  -74.425556041  163.418439332    64.8718   6   9   0.0438   0.0400   0.1434  -0.0094   0.0524  -0.0554   4.00    1.0
2018/11/13 02:46:30.000  -74.425556234  163.418438890    64.9628   6   9   0.0595   0.0543   0.1993  -0.0170   0.0730  -0.0804   4.00    1.0
2018/11/13 02:47:00.000  -74.425556010  163.418437753    64.8234   6  10   0.0735   0.0547   0.2095   0.0150   0.0506  -0.0912   4.00    1.0
2018/11/13 02:47:30.000  -74.425556037  163.418437648    64.8166   6  10   0.0887   0.0633   0.2448   0.0227   0.0482  -0.1089   4.00    1.0
2018/11/13 02:48:00.000  -74.425556018  163.418437773    64.8340   6  10   0.0728   0.0525   0.2009   0.0186   0.0417  -0.0881   4.00    1.0
2018/11/13 02:48:30.000  -74.425556035  163.418436822    64.8712   6  10   0.0573   0.0421   0.1581   0.0147   0.0358  -0.0676   4.00    1.0
2018/11/13 02:49:00.000  -74.425555970  163.418436542    64.8789   6  10   0.0425   0.0325   0.1175   0.0110   0.0304  -0.0474   4.00    1.0
2018/11/13 02:49:30.000  -74.425555554  163.418437384    64.8077   1  10   0.0387   0.0410   0.1151   0.0218   0.0480  -0.0364   4.00    1.0
2018/11/13 02:50:00.000  -74.425555368  163.418437172    64.7684   1  10   0.0270   0.0339   0.0777   0.0217   0.0388  -0.0099   4.00    1.0
2018/11/13 02:50:30.000  -74.425555432  163.418436827    64.7456   1  10   0.0376   0.0385   0.1058   0.0221   0.0416  -0.0345   4.00    1.0
2018/11/13 02:51:00.000  -74.425555623  163.418437250    64.7399   6  10   0.0420   0.0314   0.1127   0.0119   0.0268  -0.0457   4.00    1.0
2018/11/13 02:51:30.000  -74.425555685  163.418437967    64.7520   6  10   0.0566   0.0403   0.1511   0.0156   0.0303  -0.0653   4.00    1.0
2018/11/13 02:52:00.000  -74.425555806  163.418438156    64.7706   6  10   0.0720   0.0499   0.1917   0.0194   0.0348  -0.0851   4.00    1.0
2018/11/13 02:52:30.000  -74.425555729  163.418438008    64.7766   6  10   0.0877   0.0600   0.2333   0.0231   0.0404  -0.1051   4.00    1.0
2018/11/13 02:53:00.000  -74.425555506  163.418438103    64.7726   6  10   0.0720   0.0501   0.1922   0.0188   0.0367  -0.0853   5.00    1.0
2018/11/13 02:53:30.000  -74.425555520  163.418438419    64.8054   6  10   0.0566   0.0405   0.1515   0.0146   0.0327  -0.0654   5.00    1.0
2018/11/13 02:54:00.000  -74.425555616  163.418438466    64.8113   6  10   0.0420   0.0316   0.1128   0.0108   0.0287  -0.0459   5.00    1.0
2018/11/13 02:54:30.000  -74.425555391  163.418437473    64.7567   1  10   0.0371   0.0384   0.1039   0.0212   0.0411  -0.0351   5.00    1.0
2018/11/13 02:55:00.000  -74.425555209  163.418437184    64.7309   1  10   0.0258   0.0333   0.0736   0.0203   0.0366  -0.0144   5.00    1.0
2018/11/13 02:55:30.000  -74.425555261  163.418437302    64.7529   1  10   0.0366   0.0379   0.1020   0.0205   0.0399  -0.0354   5.00    1.0
2018/11/13 02:56:00.000  -74.425555549  163.418437655    64.8401   6  10   0.0419   0.0317   0.1124   0.0096   0.0297  -0.0460   5.00    1.0
2018/11/13 02:56:30.000  -74.425555536  163.418437258    64.8204   6  10   0.0564   0.0407   0.1507   0.0125   0.0357  -0.0652   5.00    1.0
2018/11/13 02:57:00.000  -74.425555537  163.418437281    64.8482   6  10   0.0716   0.0505   0.1910   0.0152   0.0429  -0.0847   5.00    1.0
2018/11/13 02:57:30.000  -74.425555611  163.418437653    64.8651   6  10   0.0872   0.0608   0.2322   0.0179   0.0509  -0.1043   5.00    1.0
2018/11/13 02:58:00.000  -74.425555471  163.418437650    64.8772   6  10   0.0718   0.0508   0.1908   0.0146   0.0439  -0.0848   5.00    1.0
2018/11/13 02:58:30.000  -74.425555629  163.418437421    64.8616   6  10   0.0565   0.0410   0.1502   0.0113   0.0373  -0.0652   5.00    1.0
2018/11/13 02:59:00.000  -74.425555644  163.418437625    64.7966   6  10   0.0420   0.0320   0.1118   0.0085   0.0311  -0.0460   5.00    1.0
2018/11/13 02:59:30.000  -74.425555306  163.418436932    64.7461   1  10   0.0356   0.0358   0.0973   0.0167   0.0352  -0.0390   5.00    2.0
2018/11/13 03:00:00.000  -74.425555118  163.418437390    64.7286   1  11   0.0252   0.0330   0.0716   0.0190   0.0349  -0.0184   5.00    1.0
2018/11/13 03:00:30.000  -74.425555131  163.418437180    64.7366   1  11   0.0351   0.0375   0.0954   0.0180   0.0403  -0.0333   5.00    1.0
2018/11/13 03:01:00.000  -74.425555394  163.418437329    64.7886   6  11   0.0401   0.0317   0.1039  -0.0056   0.0356  -0.0401   5.00    1.0
2018/11/13 03:01:30.000  -74.425555539  163.418437248    64.8211   6  11   0.0535   0.0405   0.1377  -0.0094   0.0456  -0.0561   5.00    1.0
2018/11/13 03:02:00.000  -74.425555612  163.418437080    64.8544   6  11   0.0677   0.0502   0.1737  -0.0130   0.0567  -0.0726   5.00    1.0
2018/11/13 03:02:30.000  -74.425555555  163.418436917    64.7845   6  11   0.0822   0.0603   0.2109  -0.0166   0.0684  -0.0893   5.00    1.0
2018/11/13 03:03:00.000  -74.425555490  163.418437337    64.6936   6  12   0.0661   0.0503   0.1735  -0.0165   0.0564  -0.0751   5.00    1.0
2018/11/13 03:03:30.000  -74.425555601  163.418438092    64.7923   6  12   0.0524   0.0407   0.1376  -0.0135   0.0457  -0.0583   5.00    1.0
2018/11/13 03:04:00.000  -74.425555674  163.418438054    64.8159   6  12   0.0394   0.0320   0.1038  -0.0097   0.0360  -0.0420   4.00    1.0
2018/11/13 03:04:30.000  -74.425555454  163.418437735    64.8356   1  12   0.0351   0.0377   0.0943   0.0162   0.0404  -0.0337   4.00    1.0
2018/11/13 03:05:00.000  -74.425555213  163.418437160    64.7402   1  12   0.0242   0.0327   0.0685   0.0172   0.0341  -0.0198   4.00    1.0
2018/11/13 03:05:30.000  -74.425555281  163.418437025    64.6872   1  12   0.0338   0.0373   0.0929   0.0154   0.0398  -0.0348   4.00    1.0
2018/11/13 03:06:00.000  -74.425555800  163.418438202    64.7796   6  12   0.0388   0.0323   0.1040  -0.0106   0.0369  -0.0428   4.00    1.0
2018/11/13 03:06:30.000  -74.425555899  163.418438534    64.7989   6  12   0.0512   0.0413   0.1378  -0.0150   0.0474  -0.0595   4.00    0.0
2018/11/13 03:07:00.000  -74.425555942  163.418437998    64.8658   6  12   0.0644   0.0510   0.1736  -0.0194   0.0588  -0.0766   4.00    0.0
2018/11/13 03:07:30.000  -74.425556030  163.418437922    64.8660   6  12   0.0779   0.0613   0.2104  -0.0239   0.0707  -0.0938   4.00    0.0
2018/11/13 03:08:00.000  -74.425555897  163.418437779    64.7944   6  12   0.0642   0.0513   0.1736  -0.0200   0.0595  -0.0762   5.00    0.0
2018/11/13 03:08:30.000  -74.425555801  163.418437346    64.7712   6  12   0.0510   0.0416   0.1379  -0.0158   0.0482  -0.0592   4.00    0.0
2018/11/13 03:09:00.000  -74.425555742  163.418437473    64.7928   6  12   0.0387   0.0329   0.1044  -0.0117   0.0376  -0.0427   4.00    0.0
2018/11/13 03:09:30.000  -74.425555601  163.418437560    64.8089   6  12   0.0280   0.0255   0.0753  -0.0072   0.0286  -0.0276   3.00    0.0
2018/11/13 03:10:00.000  -74.425555477  163.418437500    64.7499   6  12   0.0221   0.0217   0.0589  -0.0020   0.0231  -0.0176   3.00    0.0
2018/11/13 03:10:30.000  -74.425555186  163.418436591    64.6411   6  12   0.0283   0.0265   0.0766  -0.0081   0.0301  -0.0285   4.00    0.0
2018/11/13 03:11:00.000  -74.425555129  163.418436862    64.6234   6  12   0.0391   0.0350   0.1072  -0.0135   0.0415  -0.0442   4.00    0.0
2018/11/13 03:11:30.000  -74.425555384  163.418436994    64.6869   6  12   0.0515   0.0455   0.1421  -0.0190   0.0548  -0.0608   4.00    0.0
2018/11/13 03:12:00.000  -74.425555626  163.418437268    64.7929   6  12   0.0647   0.0585   0.1802  -0.0255   0.0711  -0.0781   4.00    0.0
2018/11/13 03:12:30.000  -74.425555660  163.418436764    64.7782   6  12   0.0792   0.0765   0.2258  -0.0368   0.0957  -0.0990   3.00    0.0
2018/11/13 03:13:00.000  -74.425555644  163.418437535    64.8082   6  12   0.0657   0.0650   0.1880  -0.0306   0.0811  -0.0806   3.00    0.0
2018/11/13 03:13:30.000  -74.425555353  163.418437027    64.7833   6  11   0.0529   0.0502   0.1490  -0.0242   0.0625  -0.0629   2.00    0.0
2018/11/13 03:14:00.000  -74.425555199  163.418436862    64.7364   6  11   0.0404   0.0398   0.1142  -0.0183   0.0491  -0.0470   2.00    0.0
2018/11/13 03:14:30.000  -74.425555507  163.418437630    64.7977   6  11   0.0300   0.0271   0.0802  -0.0109   0.0315  -0.0319   1.00    0.0
2018/11/13 03:15:00.000  -74.425555449  163.418437401    64.7594   6  11   0.0235   0.0223   0.0624  -0.0032   0.0234  -0.0211   1.00    0.0
2018/11/13 03:15:30.000  -74.425555318  163.418436877    64.7637   6  11   0.0304   0.0279   0.0836  -0.0086   0.0305  -0.0316   1.00    0.0
2018/11/13 03:16:00.000  -74.425555317  163.418437058    64.7422   6  11   0.0428   0.0354   0.1189  -0.0128   0.0393  -0.0488   1.00    0.0
2018/11/13 03:16:30.000  -74.425555340  163.418437042    64.7331   6  10   0.0582   0.0450   0.1624  -0.0152   0.0495  -0.0692   1.00    0.0
2018/11/13 03:17:00.000  -74.425555630  163.418437376    64.8334   6   9   0.0998   0.0558   0.2834  -0.0146   0.0601  -0.1436   2.00    0.0
2018/11/13 03:17:30.000  -74.425555721  163.418438084    64.8514   6   9   0.1228   0.0663   0.3463  -0.0139   0.0668  -0.1778   0.00    0.0
2018/11/13 03:18:00.000  -74.425555393  163.418437838    64.7999   6  10   0.0647   0.0548   0.1888   0.0153   0.0435  -0.0713   0.00    0.0
2018/11/13 03:18:30.000  -74.425555442  163.418437695    64.7803   6  10   0.0500   0.0439   0.1468   0.0106   0.0355  -0.0539   0.00    0.0
2018/11/13 03:19:00.000  -74.425555404  163.418437390    64.7488   6  10   0.0376   0.0335   0.1087   0.0069   0.0276  -0.0392   1.00    0.0
2018/11/13 03:19:30.000  -74.425555388  163.418436941    64.7109   6  10   0.0276   0.0246   0.0754   0.0039   0.0202  -0.0266   1.00    0.0
2018/11/13 03:20:00.000  -74.425555356  163.418436697    64.7065   6  10   0.0227   0.0200   0.0561   0.0041   0.0157  -0.0195   2.00    0.0
2018/11/13 03:20:30.000  -74.425555303  163.418436888    64.7176   6  10   0.0275   0.0252   0.0722   0.0059   0.0199  -0.0245   2.00    0.0
2018/11/13 03:21:00.000  -74.425555324  163.418436260    64.7468   6  10   0.0369   0.0352   0.1008   0.0104   0.0256  -0.0332   3.00    0.0
2018/11/13 03:21:30.000  -74.425555421  163.418436089    64.7419   6  10   0.0468   0.0455   0.1337   0.0136   0.0306  -0.0429   2.00    0.0
2018/11/13 03:22:00.000  -74.425555484  163.418435474    64.6958   6  10   0.0570   0.0552   0.1681   0.0162   0.0376  -0.0537   2.00    0.0
2018/11/13 03:22:30.000  -74.425555530  163.418435912    64.6857   6  10   0.0681   0.0659   0.2041   0.0196   0.0440  -0.0650   2.00    0.0
2018/11/13 03:23:00.000  -74.425555493  163.418435686    64.7043   6  10   0.0568   0.0548   0.1701   0.0155   0.0381  -0.0548   2.00    0.0
2018/11/13 03:23:30.000  -74.425555473  163.418435552    64.7442   6  10   0.0458   0.0439   0.1361   0.0114   0.0322  -0.0445   2.00    0.0
2018/11/13 03:24:00.000  -74.425555447  163.418436010    64.7511   6  10   0.0354   0.0337   0.1030   0.0075   0.0264  -0.0342   2.00    0.0
2018/11/13 03:24:30.000  -74.425555561  163.418436403    64.7431   6  10   0.0264   0.0248   0.0727   0.0040   0.0206  -0.0240   2.00    0.0
2018/11/13 03:25:00.000  -74.425555545  163.418436004    64.7078   6  10   0.0216   0.0202   0.0544   0.0028   0.0169  -0.0171   2.00    0.0
2018/11/13 03:25:30.000  -74.425555546  163.418436752    64.7132   6  10   0.0261   0.0247   0.0724   0.0040   0.0209  -0.0236   2.00    0.0
2018/11/13 03:26:00.000  -74.425555554  163.418436096    64.6865   6  10   0.0348   0.0332   0.1036   0.0072   0.0265  -0.0341   3.00    0.0
2018/11/13 03:26:30.000  -74.425555569  163.418435766    64.7065   6  10   0.0452   0.0433   0.1390   0.0109   0.0321  -0.0456   3.00    0.0
2018/11/13 03:27:00.000  -74.425555476  163.418436475    64.7786   6  10   0.0565   0.0541   0.1765   0.0148   0.0377  -0.0578   3.00    0.0
2018/11/13 03:27:30.000  -74.425555436  163.418436682    64.7562   6  10   0.0682   0.0652   0.2155   0.0188   0.0434  -0.0706   3.00    0.0
2018/11/13 03:28:00.000  -74.425555416  163.418437216    64.7656   6  10   0.0567   0.0542   0.1787   0.0148   0.0376  -0.0589   3.00    0.0
2018/11/13 03:28:30.000  -74.425555336  163.418437185    64.7607   6  10   0.0455   0.0434   0.1421   0.0109   0.0318  -0.0472   3.00    0.0
2018/11/13 03:29:00.000  -74.425555605  163.418437208    64.7520   1  10   0.0426   0.0387   0.1346   0.0136   0.0208  -0.0458   4.00    2.0
