% program   : RTKLIB ver.2.4.3
% inp file  : _by_type/_obs/base/20181110.18o
% inp file  : _by_type/_sp3+clk/igs20266.clk
% inp file  : _by_type/_sp3+clk/igs20266.sp3
% inp file  : _by_type/_nav/base/20181110.18n
% obs start : 2018/11/10 00:00:00.0 GPST (week2026 518400.0s)
% obs end   : 2018/11/10 23:59:45.0 GPST (week2026 604785.0s)
% pos mode  : ppp-kinematic
% solution  : combined
% elev mask : 15.0 deg
% dynamics  : off
% tidecorr  : on
% tropo opt : est ztd+grad
% ephemeris : precise
% navi sys  : gps glonass
% antenna1  :                       ( 0.0000  0.0000  0.0000)
%
% (lat/lon/height=WGS84/ellipsoidal,Q=1:fix,2:float,3:sbas,4:dgps,5:single,6:ppp,ns=# of satellites)
%  GPST                  latitude(deg) longitude(deg)  height(m)   Q  ns   sdn(m)   sde(m)   sdu(m)  sdne(m)  sdeu(m)  sdun(m) age(s)  ratio
2018/11/10 00:00:00.000  -74.370509753  163.307882389  1011.7246   6  10   0.0743   0.0736   0.1965  -0.0282   0.0648  -0.0488   0.00    0.0
2018/11/10 00:00:15.000  -74.370509662  163.307881669  1011.6589   6  10   0.0762   0.0752   0.2037  -0.0307   0.0686  -0.0546   0.00    0.0
2018/11/10 00:00:30.000  -74.370509609  163.307881371  1011.6387   6  10   0.0782   0.0771   0.2137  -0.0317   0.0720  -0.0586   0.00    0.0
2018/11/10 00:00:45.000  -74.370509528  163.307881087  1011.6291   6  10   0.0813   0.0804   0.2280  -0.0344   0.0783  -0.0644   0.00    0.0
2018/11/10 00:01:00.000  -74.370509416  163.307880532  1011.5176   6  10   0.0850   0.0846   0.2449  -0.0374   0.0856  -0.0706   0.00    0.0
2018/11/10 00:01:15.000  -74.370509437  163.307880046  1011.4861   6  10   0.0893   0.0895   0.2639  -0.0406   0.0936  -0.0771   0.00    0.0
2018/11/10 00:01:30.000  -74.370509403  163.307879953  1011.4596   6  10   0.0939   0.0948   0.2847  -0.0441   0.1022  -0.0838   0.00    0.0
2018/11/10 00:01:45.000  -74.370509426  163.307880032  1011.4104   6  10   0.0990   0.1006   0.3067  -0.0476   0.1112  -0.0908   0.00    0.0
2018/11/10 00:02:00.000  -74.370509450  163.307880560  1011.4718   6  10   0.1042   0.1065   0.3296  -0.0511   0.1202  -0.0979   2.00    0.0
2018/11/10 00:02:15.000  -74.370509274  163.307879503  1011.3948   6  10   0.1097   0.1126   0.3529  -0.0546   0.1293  -0.1051   2.00    0.0
2018/11/10 00:02:30.000  -74.370509238  163.307879012  1011.3370   6  10   0.1152   0.1187   0.3764  -0.0581   0.1383  -0.1122   2.00    0.0
2018/11/10 00:02:45.000  -74.370509217  163.307879332  1011.3709   6  10   0.1091   0.1118   0.3537  -0.0542   0.1290  -0.1052   2.00    0.0
2018/11/10 00:03:00.000  -74.370509384  163.307879716  1011.4073   6  10   0.1034   0.1053   0.3313  -0.0505   0.1200  -0.0984   4.00    0.0
2018/11/10 00:03:15.000  -74.370509422  163.307880636  1011.4905   6  10   0.0980   0.0993   0.3098  -0.0469   0.1114  -0.0918   4.00    0.0
2018/11/10 00:03:30.000  -74.370509546  163.307881024  1011.5313   6  10   0.0931   0.0936   0.2894  -0.0435   0.1031  -0.0854   4.00    0.0
2018/11/10 00:03:45.000  -74.370509662  163.307881834  1011.5775   6  10   0.0888   0.0885   0.2704  -0.0402   0.0952  -0.0796   4.00    0.0
2018/11/10 00:04:00.000  -74.370509726  163.307882096  1011.5748   6  10   0.0850   0.0840   0.2535  -0.0373   0.0880  -0.0744   4.00    0.0
2018/11/10 00:04:15.000  -74.370509740  163.307882340  1011.5661   6  10   0.0823   0.0802   0.2395  -0.0346   0.0816  -0.0706   4.00    0.0
2018/11/10 00:04:30.000  -74.370509832  163.307882334  1011.6322   6  10   0.0788   0.0774   0.2277  -0.0329   0.0771  -0.0649   2.00    0.0
2018/11/10 00:04:45.000  -74.370509599  163.307881773  1011.5813   6  10   0.0770   0.0756   0.2201  -0.0314   0.0736  -0.0617   2.00    0.0
2018/11/10 00:05:00.000  -74.370509581  163.307881757  1011.6271   6  10   0.0763   0.0749   0.2168  -0.0305   0.0716  -0.0600   3.00    0.0
2018/11/10 00:05:15.000  -74.370509601  163.307882061  1011.7065   6  10   0.0772   0.0761   0.2241  -0.0322   0.0737  -0.0638   3.00    0.0
2018/11/10 00:05:30.000  -74.370509659  163.307881745  1011.6806   6  10   0.0793   0.0793   0.2362  -0.0351   0.0792  -0.0683   3.00    0.0
2018/11/10 00:05:45.000  -74.370509847  163.307881955  1011.7363   6  10   0.0810   0.0812   0.2489  -0.0355   0.0836  -0.0704   3.00    0.0
2018/11/10 00:06:00.000  -74.370509788  163.307882187  1011.7365   6  10   0.0838   0.0850   0.2643  -0.0375   0.0893  -0.0743   3.00    0.0
2018/11/10 00:06:15.000  -74.370509751  163.307882494  1011.7305   6  10   0.0871   0.0896   0.2809  -0.0396   0.0952  -0.0783   3.00    0.0
2018/11/10 00:06:30.000  -74.370509890  163.307882926  1011.7602   6  10   0.0907   0.0957   0.2989  -0.0418   0.1005  -0.0826   3.00    0.0
2018/11/10 00:06:45.000  -74.370509953  163.307883006  1011.8148   6  10   0.0947   0.1012   0.3176  -0.0441   0.1070  -0.0871   4.00    0.0
2018/11/10 00:07:00.000  -74.370509928  163.307882545  1011.7568   6  10   0.0990   0.1069   0.3372  -0.0466   0.1137  -0.0919   4.00    0.0
2018/11/10 00:07:15.000  -74.370509898  163.307882333  1011.6870   6  10   0.1034   0.1089   0.3566  -0.0494   0.1234  -0.0970   3.00    0.0
2018/11/10 00:07:30.000  -74.370509894  163.307882194  1011.7148   6  10   0.1081   0.1143   0.3775  -0.0520   0.1308  -0.1026   3.00    0.0
2018/11/10 00:07:45.000  -74.370509840  163.307882164  1011.7049   6  10   0.1038   0.1096   0.3617  -0.0490   0.1228  -0.0981   4.00    0.0
2018/11/10 00:08:00.000  -74.370509774  163.307881017  1011.5992   6  10   0.1005   0.1066   0.3502  -0.0452   0.1130  -0.0953   4.00    0.0
2018/11/10 00:08:15.000  -74.370509679  163.307880877  1011.5901   6  10   0.0965   0.1011   0.3415  -0.0432   0.1064  -0.0860   4.00    0.0
2018/11/10 00:08:30.000  -74.370509569  163.307880840  1011.5567   6  10   0.0902   0.0927   0.2994  -0.0424   0.1056  -0.0839   0.00    0.0
2018/11/10 00:08:45.000  -74.370509528  163.307881055  1011.5604   6  10   0.0866   0.0884   0.2837  -0.0402   0.0995  -0.0801   0.00    0.0
2018/11/10 00:09:00.000  -74.370509558  163.307881563  1011.5907   6  10   0.0839   0.0849   0.2712  -0.0380   0.0938  -0.0776   1.00    0.0
2018/11/10 00:09:15.000  -74.370509684  163.307881507  1011.6137   6  10   0.0806   0.0818   0.2572  -0.0370   0.0901  -0.0716   3.00    0.0
2018/11/10 00:09:30.000  -74.370509817  163.307881336  1011.6225   6  10   0.0786   0.0796   0.2483  -0.0357   0.0864  -0.0688   3.00    0.0
2018/11/10 00:09:45.000  -74.370509782  163.307881021  1011.6051   6  10   0.0773   0.0785   0.2424  -0.0349   0.0839  -0.0667   3.00    0.0
2018/11/10 00:10:00.000  -74.370509682  163.307881204  1011.5929   6  10   0.0769   0.0782   0.2402  -0.0351   0.0834  -0.0656   3.00    0.0
2018/11/10 00:10:15.000  -74.370509755  163.307881364  1011.6004   6  10   0.0780   0.0802   0.2451  -0.0371   0.0861  -0.0668   3.00    0.0
2018/11/10 00:10:30.000  -74.370509702  163.307880483  1011.6361   6  10   0.0792   0.0839   0.2520  -0.0409   0.0912  -0.0664   0.00    0.0
2018/11/10 00:10:45.000  -74.370509647  163.307879677  1011.6283   6  10   0.0824   0.0889   0.2670  -0.0452   0.0973  -0.0715   0.00    0.0
2018/11/10 00:11:00.000  -74.370509544  163.307878950  1011.5747   6  10   0.0860   0.0948   0.2599  -0.0500   0.1048  -0.0845   0.00    0.0
2018/11/10 00:11:15.000  -74.370509461  163.307878091  1011.4960   6  10   0.0905   0.0989   0.2842  -0.0546   0.1153  -0.0927   0.00    0.0
2018/11/10 00:11:30.000  -74.370509464  163.307878196  1011.5294   6  10   0.0949   0.1044   0.3097  -0.0586   0.1267  -0.1025   0.00    0.0
2018/11/10 00:11:45.000  -74.370509384  163.307877444  1011.4703   6  10   0.1001   0.1107   0.3373  -0.0635   0.1380  -0.1120   1.00    0.0
2018/11/10 00:12:00.000  -74.370509267  163.307877127  1011.4250   6  10   0.1065   0.1182   0.3677  -0.0698   0.1509  -0.1225   2.00    0.0
2018/11/10 00:12:15.000  -74.370509069  163.307876591  1011.4212   6  10   0.1152   0.1291   0.4058  -0.0801   0.1706  -0.1395   2.00    0.0
2018/11/10 00:12:30.000  -74.370508787  163.307875833  1011.3044   6  10   0.1233   0.1410   0.4522  -0.0896   0.1941  -0.1574   3.00    0.0
2018/11/10 00:12:45.000  -74.370509532  163.307880045  1011.6296   6  10   0.1189   0.1256   0.4198  -0.0795   0.1689  -0.1516   3.00    0.0
2018/11/10 00:13:00.000  -74.370509534  163.307880636  1011.6154   6  10   0.1050   0.1164   0.3797  -0.0678   0.1517  -0.1276   2.00    0.0
2018/11/10 00:13:15.000  -74.370509426  163.307880396  1011.5973   6  10   0.0998   0.1124   0.3668  -0.0637   0.1428  -0.1214   2.00    0.0
2018/11/10 00:13:30.000  -74.370509467  163.307879590  1011.5747   6  10   0.0967   0.1130   0.3635  -0.0654   0.1471  -0.1194   2.00    0.0
2018/11/10 00:13:45.000  -74.370509648  163.307880623  1011.5533   6  11   0.0917   0.1034   0.3287  -0.0597   0.1400  -0.1154   1.00    0.0
2018/11/10 00:14:00.000  -74.370509759  163.307880791  1011.7328   6  11   0.0853   0.0887   0.2615  -0.0463   0.1004  -0.0904   1.00    0.0
2018/11/10 00:14:15.000  -74.370509717  163.307880279  1011.6692   6  11   0.0818   0.0840   0.2458  -0.0422   0.0938  -0.0839   1.00    0.0
2018/11/10 00:14:30.000  -74.370509746  163.307881084  1011.6544   6  11   0.0796   0.0812   0.2347  -0.0405   0.0898  -0.0787   2.00    0.0
2018/11/10 00:14:45.000  -74.370509544  163.307880718  1011.5457   6  11   0.0782   0.0793   0.2317  -0.0388   0.0876  -0.0776   1.00    0.0
2018/11/10 00:15:00.000  -74.370509328  163.307880510  1011.4592   6  11   0.0779   0.0789   0.2338  -0.0389   0.0886  -0.0780   2.00    0.0
2018/11/10 00:15:15.000  -74.370509117  163.307879401  1011.3481   6  11   0.0782   0.0795   0.2471  -0.0389   0.0924  -0.0819   3.00    0.0
2018/11/10 00:15:30.000  -74.370508808  163.307878785  1011.1409   6  11   0.0806   0.0822   0.2686  -0.0422   0.1013  -0.0913   4.00    0.0
2018/11/10 00:15:45.000  -74.370508717  163.307878720  1011.0441   6  11   0.0831   0.0853   0.2881  -0.0450   0.1092  -0.0991   5.00    0.0
2018/11/10 00:16:00.000  -74.370508513  163.307877983  1010.8750   6  11   0.0857   0.0887   0.3058  -0.0474   0.1162  -0.1057   5.00    0.0
2018/11/10 00:16:15.000  -74.370508371  163.307877846  1010.7507   6  11   0.0885   0.0923   0.3227  -0.0497   0.1227  -0.1117   5.00    0.0
2018/11/10 00:16:30.000  -74.370508338  163.307878126  1010.6877   6  11   0.0916   0.0963   0.3397  -0.0518   0.1290  -0.1176   5.00    0.0
2018/11/10 00:16:45.000  -74.370508272  163.307877890  1010.6850   6  11   0.0952   0.1008   0.3579  -0.0536   0.1348  -0.1243   5.00    0.0
2018/11/10 00:17:00.000  -74.370508254  163.307876736  1010.6719   6  11   0.0982   0.1049   0.3715  -0.0569   0.1436  -0.1281   5.00    0.0
2018/11/10 00:17:15.000  -74.370508312  163.307875797  1010.7050   6  11   0.1017   0.1096   0.3892  -0.0597   0.1511  -0.1339   5.00    0.0
2018/11/10 00:17:30.000  -74.370508304  163.307875437  1010.6798   6  11   0.1056   0.1145   0.4078  -0.0625   0.1587  -0.1402   5.00    0.0
2018/11/10 00:17:45.000  -74.370508325  163.307875428  1010.6793   6  11   0.1017   0.1102   0.3918  -0.0601   0.1521  -0.1345   5.00    0.0
2018/11/10 00:18:00.000  -74.370508255  163.307875581  1010.5951   6  11   0.0980   0.1061   0.3764  -0.0578   0.1457  -0.1292   5.00    0.0
2018/11/10 00:18:15.000  -74.370508213  163.307875289  1010.5999   6  11   0.0946   0.1029   0.3622  -0.0557   0.1392  -0.1243   5.00    0.0
2018/11/10 00:18:30.000  -74.370508295  163.307876044  1010.6300   6  11   0.0916   0.0983   0.3488  -0.0542   0.1359  -0.1200   4.00    0.0
2018/11/10 00:18:45.000  -74.370508361  163.307876448  1010.6839   6  11   0.0887   0.0946   0.3368  -0.0521   0.1307  -0.1157   4.00    0.0
2018/11/10 00:19:00.000  -74.370508473  163.307876091  1010.7366   6  11   0.0862   0.0919   0.3260  -0.0503   0.1260  -0.1117   4.00    0.0
2018/11/10 00:19:15.000  -74.370508628  163.307876420  1010.8007   6  11   0.0840   0.0886   0.3160  -0.0487   0.1228  -0.1077   5.00    0.0
2018/11/10 00:19:30.000  -74.370508641  163.307876490  1010.8222   6  11   0.0820   0.0863   0.3069  -0.0469   0.1189  -0.1036   5.00    0.0
2018/11/10 00:19:45.000  -74.370508737  163.307876869  1010.8642   6  11   0.0802   0.0845   0.2983  -0.0449   0.1149  -0.0990   5.00    0.0
2018/11/10 00:20:00.000  -74.370508860  163.307877082  1010.9722   6  11   0.0788   0.0834   0.2913  -0.0431   0.1117  -0.0946   5.00    0.0
2018/11/10 00:20:15.000  -74.370508933  163.307877354  1010.9982   6  11   0.0789   0.0839   0.2925  -0.0430   0.1120  -0.0942   5.00    0.0
2018/11/10 00:20:30.000  -74.370508828  163.307877080  1010.9775   6  11   0.0798   0.0855   0.2978  -0.0437   0.1141  -0.0957   5.00    0.0
2018/11/10 00:20:45.000  -74.370508932  163.307877081  1010.9833   6  11   0.0814   0.0878   0.3059  -0.0451   0.1173  -0.0984   5.00    0.0
2018/11/10 00:21:00.000  -74.370508915  163.307877128  1011.0289   6  11   0.0835   0.0907   0.3165  -0.0469   0.1216  -0.1022   5.00    0.0
2018/11/10 00:21:15.000  -74.370508902  163.307876616  1011.0453   6  11   0.0863   0.0944   0.3293  -0.0493   0.1266  -0.1067   5.00    0.0
2018/11/10 00:21:30.000  -74.370509000  163.307876758  1011.0634   6  11   0.0897   0.0989   0.3446  -0.0525   0.1337  -0.1135   5.00    0.0
2018/11/10 00:21:45.000  -74.370508944  163.307875659  1011.0180   6  11   0.0929   0.1030   0.3603  -0.0545   0.1397  -0.1191   5.00    0.0
2018/11/10 00:22:00.000  -74.370508889  163.307874982  1010.9857   6  11   0.0966   0.1081   0.3779  -0.0568   0.1461  -0.1258   5.00    0.0
2018/11/10 00:22:15.000  -74.370508878  163.307876020  1011.0031   6  11   0.1004   0.1124   0.3944  -0.0606   0.1552  -0.1316   4.00    0.0
2018/11/10 00:22:30.000  -74.370508772  163.307874969  1010.9248   6  11   0.1046   0.1176   0.4136  -0.0641   0.1633  -0.1384   4.00    0.0
2018/11/10 00:22:45.000  -74.370508796  163.307874429  1010.9519   6  11   0.1009   0.1134   0.3958  -0.0609   0.1546  -0.1307   4.00    0.0
2018/11/10 00:23:00.000  -74.370508872  163.307874056  1010.9874   6  11   0.0973   0.1099   0.3797  -0.0598   0.1477  -0.1237   3.00    0.0
2018/11/10 00:23:15.000  -74.370509024  163.307873696  1011.0721   6  11   0.0925   0.1055   0.3652  -0.0558   0.1391  -0.1160   3.00    0.0
2018/11/10 00:23:30.000  -74.370509326  163.307876330  1011.0559   6  11   0.0881   0.1010   0.3495  -0.0516   0.1359  -0.1109   0.00    0.0
2018/11/10 00:23:45.000  -74.370509373  163.307876426  1011.0934   6  11   0.0848   0.0955   0.3354  -0.0478   0.1308  -0.1049   0.00    0.0
2018/11/10 00:24:00.000  -74.370509285  163.307877053  1011.0749   6  11   0.0818   0.0916   0.3234  -0.0447   0.1249  -0.0992   0.00    0.0
2018/11/10 00:24:15.000  -74.370509224  163.307877595  1011.0904   6  11   0.0793   0.0885   0.3133  -0.0425   0.1208  -0.0942   0.00    0.0
2018/11/10 00:24:30.000  -74.370509240  163.307877322  1011.0501   6  11   0.0772   0.0856   0.3050  -0.0405   0.1175  -0.0899   3.00    0.0
2018/11/10 00:24:45.000  -74.370509258  163.307877705  1011.0930   6  11   0.0757   0.0839   0.2989  -0.0390   0.1149  -0.0862   4.00    0.0
2018/11/10 00:25:00.000  -74.370509225  163.307877794  1011.1199   6  11   0.0750   0.0831   0.2962  -0.0382   0.1136  -0.0843   4.00    0.0
2018/11/10 00:25:15.000  -74.370509336  163.307877828  1011.1553   6  11   0.0757   0.0840   0.3011  -0.0390   0.1154  -0.0865   4.00    0.0
2018/11/10 00:25:30.000  -74.370509276  163.307877417  1011.1166   6  11   0.0773   0.0862   0.3097  -0.0410   0.1194  -0.0907   3.00    0.0
2018/11/10 00:25:45.000  -74.370509305  163.307876770  1011.1024   6  11   0.0796   0.0889   0.3206  -0.0434   0.1239  -0.0960   3.00    0.0
2018/11/10 00:26:00.000  -74.370509400  163.307876962  1011.1676   6  11   0.0825   0.0922   0.3342  -0.0460   0.1296  -0.1027   3.00    0.0
2018/11/10 00:26:15.000  -74.370509356  163.307876703  1011.1500   6  11   0.0861   0.0963   0.3506  -0.0486   0.1356  -0.1106   3.00    0.0
2018/11/10 00:26:30.000  -74.370509145  163.307876131  1011.0601   6  11   0.1034   0.1089   0.4253  -0.0682   0.1689  -0.1578   2.00    0.0
2018/11/10 00:26:45.000  -74.370508886  163.307875168  1010.9231   6  11   0.1085   0.1152   0.4518  -0.0744   0.1820  -0.1690   2.00    0.0
2018/11/10 00:27:00.000  -74.370509217  163.307875916  1010.9721   6  11   0.1062   0.1163   0.4486  -0.0699   0.1798  -0.1610   2.00    0.0
2018/11/10 00:27:15.000  -74.370509131  163.307875113  1010.9372   6  11   0.1285   0.1507   0.5891  -0.1056   0.2584  -0.2282   3.00    0.0
2018/11/10 00:27:30.000  -74.370509236  163.307876634  1010.9989   6  11   0.1335   0.1567   0.6165  -0.1097   0.2709  -0.2386   3.00    0.0
2018/11/10 00:27:45.000  -74.370509339  163.307877082  1011.0946   6  11   0.1250   0.1391   0.5586  -0.0948   0.2368  -0.2148   4.00    0.0
2018/11/10 00:28:00.000  -74.370508966  163.307875877  1010.8559   6  11   0.1276   0.1384   0.5719  -0.0984   0.2419  -0.2250   4.00    0.0
2018/11/10 00:28:15.000  -74.370509141  163.307877071  1011.0155   6  11   0.1221   0.1431   0.5632  -0.0992   0.2477  -0.2172   5.00    0.0
2018/11/10 00:28:30.000  -74.370509278  163.307877027  1011.0612   6  11   0.1165   0.1345   0.5331  -0.0936   0.2318  -0.2061   3.00    0.0
2018/11/10 00:28:45.000  -74.370509457  163.307879997  1011.2707   6  11   0.1137   0.1227   0.5141  -0.0897   0.2181  -0.2007   2.00    0.0
2018/11/10 00:29:00.000  -74.370509876  163.307881277  1011.4451   6  11   0.1124   0.1157   0.5109  -0.0874   0.2131  -0.2006   2.00    0.0
2018/11/10 00:29:15.000  -74.370509883  163.307881102  1011.4810   6  11   0.1176   0.1182   0.5342  -0.0937   0.2238  -0.2150   2.00    0.0
2018/11/10 00:29:30.000  -74.370509615  163.307880185  1011.3580   6  11   0.1010   0.0995   0.4474  -0.0706   0.1776  -0.1709   1.00    0.0
2018/11/10 00:29:45.000  -74.370509673  163.307880584  1011.4083   6  11   0.0958   0.0973   0.4305  -0.0679   0.1725  -0.1605   1.00    0.0
2018/11/10 00:30:00.000  -74.370509669  163.307880929  1011.4330   6  11   0.0948   0.0967   0.4278  -0.0673   0.1716  -0.1586   1.00    0.0
2018/11/10 00:30:15.000  -74.370509727  163.307881432  1011.3705   6  11   0.0951   0.0972   0.4313  -0.0677   0.1728  -0.1594   3.00    0.0
2018/11/10 00:30:30.000  -74.370509718  163.307881165  1011.3509   6  11   0.0958   0.0984   0.4365  -0.0682   0.1744  -0.1607   3.00    0.0
2018/11/10 00:30:45.000  -74.370509747  163.307880814  1011.3692   6  11   0.0970   0.1002   0.4419  -0.0688   0.1763  -0.1619   2.00    0.0
2018/11/10 00:31:00.000  -74.370509764  163.307880060  1011.3485   6  11   0.0986   0.1030   0.4483  -0.0695   0.1788  -0.1631   2.00    0.0
2018/11/10 00:31:15.000  -74.370509751  163.307879578  1011.3766   6  11   0.1008   0.1065   0.4556  -0.0699   0.1817  -0.1645   3.00    0.0
2018/11/10 00:31:30.000  -74.370509833  163.307879085  1011.4304   6  11   0.1032   0.1085   0.4636  -0.0712   0.1837  -0.1664   3.00    0.0
2018/11/10 00:31:45.000  -74.370509892  163.307878082  1011.4315   6  11   0.1057   0.1119   0.4752  -0.0729   0.1872  -0.1685   3.00    0.0
2018/11/10 00:32:00.000  -74.370509848  163.307877612  1011.3462   6  11   0.1086   0.1160   0.4965  -0.0745   0.1927  -0.1721   0.00    0.0
2018/11/10 00:32:15.000  -74.370509746  163.307877082  1011.3737   6  11   0.1119   0.1212   0.5104  -0.0764   0.1987  -0.1750   0.00    0.0
2018/11/10 00:32:30.000  -74.370509502  163.307876468  1011.4112   6  11   0.1159   0.1284   0.5280  -0.0790   0.2053  -0.1788   0.00    0.0
2018/11/10 00:32:45.000  -74.370509502  163.307878018  1011.1849   6  11   0.1137   0.1271   0.5184  -0.0789   0.2062  -0.1791   0.00    0.0
2018/11/10 00:33:00.000  -74.370509572  163.307878721  1011.3385   6  11   0.1062   0.1150   0.4805  -0.0681   0.1848  -0.1623   0.00    0.0
2018/11/10 00:33:15.000  -74.370509576  163.307879734  1011.3583   6  11   0.1019   0.1066   0.4592  -0.0635   0.1726  -0.1556   0.00    0.0
2018/11/10 00:33:30.000  -74.370509502  163.307879772  1011.3723   6  11   0.0988   0.1023   0.4434  -0.0612   0.1660  -0.1516   1.00    0.0
2018/11/10 00:33:45.000  -74.370509417  163.307880045  1011.3750   6  11   0.0959   0.0966   0.4295  -0.0592   0.1590  -0.1488   3.00    0.0
2018/11/10 00:34:00.000  -74.370509452  163.307879975  1011.3753   6  11   0.0935   0.0931   0.4192  -0.0577   0.1541  -0.1460   4.00    0.0
2018/11/10 00:34:15.000  -74.370509535  163.307880372  1011.4323   6  11   0.0917   0.0906   0.4111  -0.0562   0.1503  -0.1434   3.00    0.0
2018/11/10 00:34:30.000  -74.370509482  163.307880420  1011.4026   6  11   0.0904   0.0873   0.4039  -0.0548   0.1458  -0.1412   3.00    0.0
2018/11/10 00:34:45.000  -74.370509539  163.307880334  1011.3622   6  11   0.0897   0.0859   0.3997  -0.0543   0.1437  -0.1404   5.00    0.0
2018/11/10 00:35:00.000  -74.370509573  163.307880627  1011.3867   6  11   0.0887   0.0843   0.3947  -0.0526   0.1402  -0.1378   5.00    0.0
2018/11/10 00:35:15.000  -74.370509469  163.307879960  1011.2922   6  11   0.0890   0.0849   0.3968  -0.0529   0.1405  -0.1382   5.00    0.0
2018/11/10 00:35:30.000  -74.370509352  163.307879707  1011.2771   6  11   0.0899   0.0863   0.4004  -0.0536   0.1418  -0.1391   5.00    0.0
2018/11/10 00:35:45.000  -74.370509336  163.307879651  1011.2632   6  11   0.0912   0.0886   0.4065  -0.0547   0.1437  -0.1403   5.00    0.0
2018/11/10 00:36:00.000  -74.370509230  163.307879296  1011.1735   6  11   0.0933   0.0922   0.4183  -0.0569   0.1481  -0.1432   0.00    0.0
2018/11/10 00:36:15.000  -74.370509149  163.307878797  1011.1768   6  11   0.0961   0.0978   0.4297  -0.0605   0.1556  -0.1476   0.00    0.0
2018/11/10 00:36:30.000  -74.370509081  163.307878591  1011.1732   6  11   0.0984   0.1019   0.4367  -0.0621   0.1573  -0.1481   0.00    0.0
2018/11/10 00:36:45.000  -74.370509305  163.307880897  1011.2048   6  11   0.1000   0.1041   0.4459  -0.0608   0.1603  -0.1503   1.00    0.0
2018/11/10 00:37:00.000  -74.370509399  163.307881431  1011.3275   6  11   0.1000   0.1019   0.4354  -0.0544   0.1490  -0.1414   2.00    0.0
2018/11/10 00:37:15.000  -74.370509286  163.307881282  1011.1308   6  11   0.1040   0.1053   0.4553  -0.0553   0.1537  -0.1461   0.00    0.0
2018/11/10 00:37:30.000  -74.370509287  163.307880603  1011.0472   6  11   0.1077   0.1105   0.4693  -0.0567   0.1621  -0.1490   0.00    0.0
2018/11/10 00:37:45.000  -74.370509260  163.307880480  1011.0795   6  11   0.1052   0.1048   0.4586  -0.0560   0.1569  -0.1497   1.00    0.0
2018/11/10 00:38:00.000  -74.370509292  163.307880783  1011.1322   6  11   0.1057   0.1010   0.4571  -0.0575   0.1554  -0.1560   1.00    0.0
2018/11/10 00:38:15.000  -74.370509453  163.307881082  1011.2458   6  10   0.1137   0.0980   0.4956  -0.0623   0.1615  -0.1843   3.00    0.0
2018/11/10 00:38:30.000  -74.370509581  163.307880981  1011.3487   6  10   0.1067   0.0934   0.4717  -0.0574   0.1525  -0.1712   3.00    0.0
2018/11/10 00:38:45.000  -74.370509838  163.307881328  1011.4474   6  10   0.1004   0.0893   0.4504  -0.0528   0.1442  -0.1593   3.00    0.0
2018/11/10 00:39:00.000  -74.370509891  163.307881186  1011.4638   6  10   0.0949   0.0858   0.4322  -0.0486   0.1370  -0.1487   4.00    0.0
2018/11/10 00:39:15.000  -74.370509978  163.307881621  1011.5456   6  10   0.0904   0.0829   0.4180  -0.0449   0.1308  -0.1404   4.00    0.0
2018/11/10 00:39:30.000  -74.370510130  163.307881878  1011.6451   6  10   0.0866   0.0808   0.4072  -0.0422   0.1266  -0.1332   4.00    0.0
2018/11/10 00:39:45.000  -74.370510155  163.307881786  1011.6611   6  10   0.0840   0.0793   0.3965  -0.0406   0.1240  -0.1274   4.00    0.0
2018/11/10 00:40:00.000  -74.370510154  163.307881859  1011.6528   6  10   0.0827   0.0786   0.3926  -0.0392   0.1232  -0.1245   2.00    0.0
2018/11/10 00:40:15.000  -74.370510215  163.307881580  1011.6861   6  10   0.0838   0.0791   0.3952  -0.0395   0.1237  -0.1266   3.00    0.0
2018/11/10 00:40:30.000  -74.370510111  163.307881396  1011.6233   6  10   0.0868   0.0807   0.4023  -0.0401   0.1254  -0.1318   3.00    0.0
2018/11/10 00:40:45.000  -74.370509802  163.307880198  1011.4707   6  10   0.0914   0.0832   0.4134  -0.0406   0.1283  -0.1388   3.00    0.0
2018/11/10 00:41:00.000  -74.370509850  163.307879834  1011.4825   6  10   0.0980   0.0871   0.4292  -0.0400   0.1315  -0.1493   3.00    0.0
2018/11/10 00:41:15.000  -74.370509524  163.307880503  1011.4328   6  10   0.1080   0.0966   0.4480  -0.0281   0.1361  -0.1597   3.00    0.0
2018/11/10 00:41:30.000  -74.370509705  163.307879959  1011.4987   6  10   0.1143   0.0995   0.4755  -0.0344   0.1395  -0.1757   3.00    0.0
2018/11/10 00:41:45.000  -74.370508916  163.307881967  1011.1645   6   9   0.1197   0.1051   0.4937  -0.0392   0.1536  -0.1805   3.00    0.0
2018/11/10 00:42:00.000  -74.370509008  163.307881743  1011.3047   6   9   0.1262   0.1086   0.5247  -0.0470   0.1637  -0.1922   3.00    0.0
2018/11/10 00:42:15.000  -74.370509077  163.307881529  1011.3482   6   9   0.1364   0.1116   0.5679  -0.0538   0.1732  -0.1998   2.00    0.0
2018/11/10 00:42:30.000  -74.370509469  163.307880386  1011.2115   6   9   0.1555   0.1177   0.6250  -0.0461   0.1895  -0.1950   2.00    0.0
2018/11/10 00:42:45.000  -74.370509546  163.307879973  1011.1219   6   9   0.1407   0.1133   0.5785  -0.0424   0.1781  -0.1873   2.00    0.0
2018/11/10 00:43:00.000  -74.370509468  163.307879891  1011.2841   6   9   0.1277   0.1083   0.5404  -0.0447   0.1691  -0.1767   2.00    0.0
2018/11/10 00:43:15.000  -74.370509456  163.307879432  1011.2635   6   9   0.1198   0.1026   0.5094  -0.0440   0.1580  -0.1644   2.00    0.0
2018/11/10 00:43:30.000  -74.370509520  163.307880644  1011.3855   6   9   0.1080   0.0938   0.4763  -0.0528   0.1472  -0.1587   2.00    0.0
2018/11/10 00:43:45.000  -74.370509750  163.307884581  1011.8173   6   9   0.1018   0.0858   0.4614  -0.0444   0.1417  -0.1445   1.00    0.0
2018/11/10 00:44:00.000  -74.370509549  163.307884883  1011.9702   6   9   0.0902   0.0718   0.4478  -0.0542   0.1264  -0.1421   1.00    0.0
2018/11/10 00:44:15.000  -74.370509479  163.307884422  1011.2364   6   9   0.0850   0.0663   0.3836  -0.0522   0.1032  -0.1371   0.00    0.0
2018/11/10 00:44:30.000  -74.370509532  163.307884357  1011.1833   6   9   0.0784   0.0623   0.3518  -0.0529   0.0942  -0.1360   0.00    0.0
2018/11/10 00:44:45.000  -74.370509522  163.307883971  1011.1601   6  10   0.0722   0.0608   0.3283  -0.0521   0.0903  -0.1238   0.00    0.0
2018/11/10 00:45:00.000  -74.370509532  163.307883679  1011.1323   6  10   0.0714   0.0603   0.3256  -0.0516   0.0890  -0.1232   0.00    0.0
2018/11/10 00:45:15.000  -74.370509513  163.307883512  1011.1442   6  10   0.0725   0.0614   0.3282  -0.0515   0.0894  -0.1241   0.00    0.0
2018/11/10 00:45:30.000  -74.370509597  163.307882873  1011.1785   6  10   0.0750   0.0652   0.3347  -0.0519   0.0930  -0.1260   0.00    0.0
2018/11/10 00:45:45.000  -74.370509780  163.307884010  1011.2667   6  10   0.0789   0.0658   0.3432  -0.0499   0.0942  -0.1274   0.00    0.0
2018/11/10 00:46:00.000  -74.370510280  163.307886164  1011.5229   6  10   0.0782   0.0596   0.3305  -0.0430   0.0746  -0.1109   0.00    0.0
2018/11/10 00:46:15.000  -74.370509936  163.307884749  1011.4401   6  10   0.0855   0.0650   0.3718  -0.0463   0.0849  -0.1238   0.00    0.0
2018/11/10 00:46:30.000  -74.370509730  163.307884402  1011.4390   6  10   0.0931   0.0709   0.4140  -0.0498   0.0953  -0.1367   2.00    0.0
2018/11/10 00:46:45.000  -74.370509420  163.307883169  1011.3747   6  10   0.1007   0.0771   0.4579  -0.0534   0.1058  -0.1501   2.00    0.0
2018/11/10 00:47:00.000  -74.370509356  163.307882594  1011.2781   6  10   0.1087   0.0836   0.5052  -0.0571   0.1167  -0.1643   2.00    0.0
2018/11/10 00:47:15.000  -74.370509309  163.307881894  1011.2788   6  10   0.1173   0.0906   0.5592  -0.0610   0.1286  -0.1803   3.00    0.0
2018/11/10 00:47:30.000  -74.370508997  163.307880781  1011.2979   6  10   0.1276   0.0992   0.6267  -0.0649   0.1439  -0.1995   3.00    0.0
2018/11/10 00:47:45.000  -74.370508988  163.307879909  1011.1857   6  10   0.1017   0.0952   0.4203  -0.0624   0.1132  -0.1261   0.00    0.0
2018/11/10 00:48:00.000  -74.370508993  163.307881342  1011.2121   6  10   0.1000   0.0918   0.3953  -0.0643   0.1018  -0.1141   0.00    0.0
2018/11/10 00:48:15.000  -74.370509849  163.307883679  1011.4000   6  10   0.0918   0.0843   0.3931  -0.0588   0.0888  -0.1034   0.00    0.0
2018/11/10 00:48:30.000  -74.370510262  163.307884982  1011.1561   6  10   0.0813   0.0762   0.3014  -0.0522   0.0946  -0.1121   0.00    0.0
2018/11/10 00:48:45.000  -74.370510124  163.307885052  1011.1772   6  10   0.0780   0.0696   0.2784  -0.0496   0.0863  -0.1067   0.00    0.0
2018/11/10 00:49:00.000  -74.370510487  163.307886894  1011.2699   6  10   0.0665   0.0565   0.2533  -0.0372   0.0690  -0.0934   0.00    0.0
2018/11/10 00:49:15.000  -74.370510309  163.307886379  1011.3010   6  10   0.0642   0.0517   0.2356  -0.0352   0.0613  -0.0884   0.00    0.0
2018/11/10 00:49:30.000  -74.370510433  163.307886371  1011.3055   6  10   0.0569   0.0478   0.2209  -0.0319   0.0551  -0.0838   0.00    0.0
2018/11/10 00:49:45.000  -74.370510307  163.307886319  1011.2514   6  10   0.0562   0.0460   0.2132  -0.0319   0.0525  -0.0829   1.00    0.0
2018/11/10 00:50:00.000  -74.370510172  163.307886511  1011.1696   6  10   0.0524   0.0432   0.2112  -0.0279   0.0485  -0.0811   2.00    0.0
2018/11/10 00:50:15.000  -74.370509963  163.307886054  1011.1096   6  10   0.0547   0.0454   0.2218  -0.0295   0.0521  -0.0857   2.00    0.0
2018/11/10 00:50:30.000  -74.370509869  163.307886411  1011.0955   6  10   0.0584   0.0481   0.2361  -0.0310   0.0563  -0.0908   2.00    0.0
2018/11/10 00:50:45.000  -74.370509784  163.307886037  1011.0320   6  10   0.0611   0.0525   0.2523  -0.0329   0.0637  -0.0980   2.00    0.0
2018/11/10 00:51:00.000  -74.370509511  163.307885028  1010.9451   6  10   0.0660   0.0582   0.2710  -0.0365   0.0718  -0.1045   2.00    0.0
2018/11/10 00:51:15.000  -74.370509292  163.307884185  1010.8974   6  10   0.0718   0.0660   0.2917  -0.0419   0.0824  -0.1122   2.00    0.0
2018/11/10 00:51:30.000  -74.370509038  163.307883270  1010.8045   6  10   0.0777   0.0731   0.3129  -0.0466   0.0919  -0.1197   2.00    0.0
2018/11/10 00:51:45.000  -74.370509043  163.307883356  1010.7958   6  10   0.0820   0.0745   0.3321  -0.0460   0.0949  -0.1246   2.00    0.0
2018/11/10 00:52:00.000  -74.370508703  163.307882285  1010.7344   6  10   0.0877   0.0801   0.3537  -0.0493   0.1027  -0.1318   2.00    0.0
2018/11/10 00:52:15.000  -74.370508473  163.307880961  1010.6705   6  10   0.0938   0.0868   0.3759  -0.0537   0.1115  -0.1397   2.00    0.0
2018/11/10 00:52:30.000  -74.370508027  163.307879211  1010.5149   6  10   0.1008   0.0964   0.3994  -0.0607   0.1232  -0.1491   2.00    0.0
2018/11/10 00:52:45.000  -74.370508673  163.307882587  1010.6329   6  10   0.0929   0.0839   0.3746  -0.0508   0.1069  -0.1383   3.00    0.0
2018/11/10 00:53:00.000  -74.370508725  163.307882673  1010.6938   6  10   0.0870   0.0775   0.3524  -0.0465   0.0976  -0.1310   3.00    0.0
2018/11/10 00:53:15.000  -74.370508808  163.307882648  1010.7380   6  10   0.0817   0.0722   0.3316  -0.0433   0.0894  -0.1246   4.00    0.0
2018/11/10 00:53:30.000  -74.370509017  163.307883081  1010.7251   6  10   0.0770   0.0679   0.3126  -0.0409   0.0821  -0.1193   4.00    0.0
2018/11/10 00:53:45.000  -74.370509013  163.307882710  1010.6534   6  10   0.0735   0.0656   0.2975  -0.0404   0.0774  -0.1164   5.00    0.0
2018/11/10 00:54:00.000  -74.370509292  163.307883867  1010.7204   6  10   0.0709   0.0608   0.2895  -0.0372   0.0700  -0.1164   5.00    0.0
2018/11/10 00:54:15.000  -74.370509715  163.307884673  1010.8594   6  10   0.0594   0.0519   0.2407  -0.0280   0.0530  -0.0917   4.00    0.0
2018/11/10 00:54:30.000  -74.370509725  163.307885139  1010.9144   6  10   0.0556   0.0482   0.2248  -0.0264   0.0458  -0.0864   4.00    0.0
2018/11/10 00:54:45.000  -74.370509879  163.307885860  1011.0264   6  10   0.0533   0.0444   0.2127  -0.0261   0.0398  -0.0828   4.00    0.0
2018/11/10 00:55:00.000  -74.370510254  163.307886462  1011.1978   6  10   0.0488   0.0428   0.1932  -0.0233   0.0315  -0.0718   4.00    0.0
2018/11/10 00:55:15.000  -74.370510142  163.307885977  1011.2044   6  10   0.0512   0.0457   0.1959  -0.0262   0.0366  -0.0738   4.00    0.0
2018/11/10 00:55:30.000  -74.370509915  163.307884730  1011.2131   6  10   0.0546   0.0507   0.2052  -0.0302   0.0451  -0.0781   3.00    0.0
2018/11/10 00:55:45.000  -74.370509628  163.307883461  1011.2117   6  10   0.0600   0.0570   0.2178  -0.0353   0.0548  -0.0841   3.00    0.0
2018/11/10 00:56:00.000  -74.370509323  163.307882550  1011.1981   6  10   0.0682   0.0649   0.2348  -0.0423   0.0669  -0.0935   3.00    0.0
2018/11/10 00:56:15.000  -74.370509430  163.307882748  1011.2820   6  10   0.0735   0.0740   0.2545  -0.0485   0.0799  -0.1016   3.00    0.0
2018/11/10 00:56:30.000  -74.370509102  163.307881923  1011.2457   6  10   0.0802   0.0813   0.2732  -0.0529   0.0888  -0.1093   3.00    0.0
2018/11/10 00:56:45.000  -74.370508503  163.307879186  1011.0507   6  10   0.0903   0.0929   0.2965  -0.0606   0.1027  -0.1215   3.00    0.0
2018/11/10 00:57:00.000  -74.370509099  163.307883292  1011.2168   6  10   0.1044   0.1022   0.3263  -0.0744   0.1199  -0.1410   3.00    0.0
2018/11/10 00:57:15.000  -74.370509139  163.307883389  1011.2365   6  10   0.1087   0.1027   0.3449  -0.0731   0.1210  -0.1460   3.00    0.0
2018/11/10 00:57:30.000  -74.370508752  163.307881152  1011.1244   6  10   0.1111   0.1087   0.3642  -0.0754   0.1270  -0.1500   3.00    0.0
2018/11/10 00:57:45.000  -74.370508580  163.307880597  1011.0671   6  10   0.1107   0.1075   0.3471  -0.0775   0.1265  -0.1490   4.00    0.0
2018/11/10 00:58:00.000  -74.370509649  163.307883308  1011.2513   6  10   0.0893   0.0936   0.3126  -0.0557   0.1016  -0.1222   4.00    0.0
2018/11/10 00:58:15.000  -74.370509953  163.307884536  1011.2957   6  10   0.0802   0.0920   0.2880  -0.0507   0.0930  -0.1098   4.00    0.0
2018/11/10 00:58:30.000  -74.370510272  163.307887048  1011.3621   6  10   0.0703   0.0669   0.2605  -0.0312   0.0616  -0.0949   4.00    0.0
2018/11/10 00:58:45.000  -74.370510282  163.307887195  1011.2912   6  10   0.0645   0.0555   0.2418  -0.0285   0.0492  -0.0883   4.00    0.0
2018/11/10 00:59:00.000  -74.370510355  163.307887148  1011.2621   6  10   0.0594   0.0500   0.2256  -0.0249   0.0399  -0.0825   4.00    0.0
2018/11/10 00:59:15.000  -74.370510488  163.307887624  1011.2854   6  10   0.0552   0.0455   0.2122  -0.0220   0.0310  -0.0779   4.00    0.0
2018/11/10 00:59:30.000  -74.370510593  163.307887576  1011.2527   6  10   0.0519   0.0420   0.2023  -0.0197   0.0226  -0.0745   4.00    0.0
2018/11/10 00:59:45.000  -74.370510611  163.307887518  1011.2678   6  10   0.0499   0.0397   0.1970  -0.0184   0.0159  -0.0726   5.00    0.0
2018/11/10 01:00:00.000  -74.370510691  163.307887507  1011.3411   6  10   0.0495   0.0390   0.1991  -0.0186   0.0150  -0.0724   5.00    0.0
2018/11/10 01:00:15.000  -74.370510576  163.307887627  1011.2797   6  10   0.0518   0.0407   0.1904  -0.0207   0.0158  -0.0734   0.00    0.0
2018/11/10 01:00:30.000  -74.370510399  163.307887165  1011.2513   6  10   0.0556   0.0441   0.1985  -0.0244   0.0263  -0.0777   0.00    0.0
2018/11/10 01:00:45.000  -74.370510196  163.307886246  1011.2345   6  10   0.0605   0.0487   0.2106  -0.0286   0.0360  -0.0832   1.00    0.0
2018/11/10 01:01:00.000  -74.370509861  163.307885268  1011.1535   6  10   0.0664   0.0544   0.2257  -0.0336   0.0458  -0.0899   1.00    0.0
2018/11/10 01:01:15.000  -74.370509374  163.307883640  1011.0298   6  10   0.0739   0.0621   0.2439  -0.0406   0.0577  -0.0988   4.00    0.0
2018/11/10 01:01:30.000  -74.370509078  163.307883229  1011.0191   6  10   0.0858   0.0723   0.2677  -0.0519   0.0742  -0.1136   3.00    0.0
2018/11/10 01:01:45.000  -74.370509822  163.307885094  1011.1785   6  10   0.0975   0.0784   0.2960  -0.0592   0.0864  -0.1302   4.00    0.0
2018/11/10 01:02:00.000  -74.370509544  163.307884790  1011.0788   6  10   0.1033   0.0824   0.3163  -0.0610   0.0911  -0.1378   4.00    0.0
2018/11/10 01:02:15.000  -74.370510088  163.307886406  1011.2328   6  10   0.1003   0.0799   0.3278  -0.0520   0.0821  -0.1331   4.00    0.0
2018/11/10 01:02:30.000  -74.370509506  163.307884893  1011.1478   6  10   0.1079   0.0838   0.3486  -0.0538   0.0855  -0.1418   4.00    0.0
2018/11/10 01:02:45.000  -74.370510186  163.307885431  1011.2991   6  10   0.0884   0.0779   0.3141  -0.0431   0.0699  -0.1156   4.00    0.0
2018/11/10 01:03:00.000  -74.370510058  163.307884276  1011.2494   6  10   0.0828   0.0761   0.2929  -0.0436   0.0675  -0.1083   4.00    0.0
2018/11/10 01:03:15.000  -74.370510589  163.307886320  1011.2849   6  10   0.0723   0.0632   0.2663  -0.0281   0.0420  -0.0932   4.00    0.0
2018/11/10 01:03:30.000  -74.370510570  163.307886083  1011.2549   6  10   0.0661   0.0576   0.2464  -0.0229   0.0291  -0.0855   4.00    0.0
2018/11/10 01:03:45.000  -74.370510465  163.307886404  1011.2505   6  10   0.0607   0.0527   0.2288  -0.0180   0.0100  -0.0793   4.00    0.0
2018/11/10 01:04:00.000  -74.370510669  163.307887309  1011.2954   6  10   0.0566   0.0485   0.2157  -0.0118  -0.0250  -0.0759   4.00    0.0
2018/11/10 01:04:15.000  -74.370510937  163.307887467  1011.3513   6  10   0.0496   0.0443   0.1934  -0.0110  -0.0274  -0.0639   3.00    0.0
2018/11/10 01:04:30.000  -74.370511023  163.307887757  1011.3720   6  10   0.0456   0.0411   0.1804  -0.0070  -0.0324  -0.0585   4.00    0.0
2018/11/10 01:04:45.000  -74.370510997  163.307887515  1011.3856   6  10   0.0428   0.0391   0.1723  -0.0016  -0.0356  -0.0550   4.00    0.0
2018/11/10 01:05:00.000  -74.370510931  163.307887575  1011.3655   6  10   0.0419   0.0383   0.1701   0.0039  -0.0367  -0.0537   4.00    0.0
2018/11/10 01:05:15.000  -74.370510840  163.307887627  1011.3868   6  10   0.0437   0.0396   0.1772  -0.0008  -0.0357  -0.0565   4.00    0.0
2018/11/10 01:05:30.000  -74.370510757  163.307887107  1011.3775   6  11   0.0448   0.0421   0.1813   0.0039  -0.0360  -0.0544   4.00    0.0
2018/11/10 01:05:45.000  -74.370510637  163.307886313  1011.3572   6  11   0.0482   0.0458   0.1932   0.0036  -0.0350  -0.0567   4.00    0.0
2018/11/10 01:06:00.000  -74.370510531  163.307885790  1011.3091   6  11   0.0507   0.0487   0.2012  -0.0131  -0.0206  -0.0530   4.00    0.0
2018/11/10 01:06:15.000  -74.370510359  163.307885183  1011.2118   6  11   0.0564   0.0532   0.2213  -0.0151  -0.0131  -0.0586   4.00    0.0
2018/11/10 01:06:30.000  -74.370510368  163.307884163  1011.2468   6  11   0.0582   0.0587   0.2434  -0.0184   0.0120  -0.0611   4.00    0.0
2018/11/10 01:06:45.000  -74.370510215  163.307884103  1011.2351   6  11   0.0639   0.0633   0.2692  -0.0221   0.0112  -0.0662   4.00    0.0
2018/11/10 01:07:00.000  -74.370510116  163.307883763  1011.2297   6  11   0.0698   0.0686   0.3046  -0.0253  -0.0117  -0.0709   4.00    0.0
2018/11/10 01:07:15.000  -74.370509706  163.307882747  1011.0650   6  11   0.0782   0.0750   0.3440  -0.0316   0.0161  -0.0870   0.00    0.0
2018/11/10 01:07:30.000  -74.370510453  163.307885085  1011.5641   6  11   0.0742   0.0768   0.3322  -0.0176  -0.0380  -0.0572   0.00    0.0
2018/11/10 01:07:45.000  -74.370510448  163.307885606  1011.5265   6  11   0.0687   0.0725   0.3372  -0.0148  -0.0407  -0.0479   0.00    0.0
2018/11/10 01:08:00.000  -74.370510589  163.307886314  1011.4796   6  11   0.0636   0.0649   0.2596  -0.0095  -0.0441  -0.0470   0.00    0.0
2018/11/10 01:08:15.000  -74.370510717  163.307886510  1011.5224   6  11   0.0587   0.0600   0.2372  -0.0066  -0.0424  -0.0450   0.00    0.0
2018/11/10 01:08:30.000  -74.370510801  163.307886554  1011.5564   6  11   0.0540   0.0557   0.2211  -0.0042  -0.0419  -0.0418   0.00    0.0
2018/11/10 01:08:45.000  -74.370510896  163.307887062  1011.5703   6  11   0.0497   0.0518   0.2108  -0.0018  -0.0417  -0.0381   0.00    0.0
2018/11/10 01:09:00.000  -74.370510969  163.307887236  1011.5844   6  11   0.0456   0.0487   0.2123  -0.0017  -0.0415  -0.0334   1.00    0.0
2018/11/10 01:09:15.000  -74.370511108  163.307887773  1011.5201   6  11   0.0420   0.0445   0.1722   0.0053  -0.0445  -0.0328   0.00    0.0
2018/11/10 01:09:30.000  -74.370511204  163.307888010  1011.5477   6  11   0.0390   0.0418   0.1686   0.0059  -0.0447  -0.0300   0.00    0.0
2018/11/10 01:09:45.000  -74.370511185  163.307887906  1011.4313   6  12   0.0371   0.0398   0.1388   0.0066  -0.0452  -0.0306   0.00    0.0
2018/11/10 01:10:00.000  -74.370511179  163.307887578  1011.4164   6  12   0.0363   0.0393   0.1386   0.0068  -0.0448  -0.0302   0.00    0.0
2018/11/10 01:10:15.000  -74.370511146  163.307887514  1011.4071   6  12   0.0374   0.0403   0.1458   0.0055  -0.0454  -0.0328   0.00    0.0
2018/11/10 01:10:30.000  -74.370511123  163.307887733  1011.4407   6  12   0.0400   0.0422   0.1585  -0.0017  -0.0462  -0.0372   2.00    0.0
2018/11/10 01:10:45.000  -74.370510974  163.307887671  1011.4070   6  12   0.0439   0.0448   0.1772  -0.0075  -0.0472  -0.0438   3.00    0.0
2018/11/10 01:11:00.000  -74.370510717  163.307887067  1011.3918   6  12   0.0497   0.0480   0.2079  -0.0124  -0.0487  -0.0545   3.00    0.0
2018/11/10 01:11:15.000  -74.370510605  163.307886707  1011.3758   6  12   0.0552   0.0522   0.2497  -0.0149  -0.0573  -0.0650   0.00    0.0
2018/11/10 01:11:30.000  -74.370510523  163.307886628  1011.3948   6  12   0.0580   0.0557   0.2142  -0.0167  -0.0515  -0.0618   0.00    0.0
2018/11/10 01:11:45.000  -74.370510166  163.307885707  1011.3049   6  12   0.0653   0.0602   0.2315  -0.0212  -0.0474  -0.0736   0.00    0.0
2018/11/10 01:12:00.000  -74.370510526  163.307886507  1011.4540   6  12   0.0645   0.0636   0.2329  -0.0185  -0.0538  -0.0637   0.00    0.0
2018/11/10 01:12:15.000  -74.370510304  163.307886230  1011.4305   6  12   0.0686   0.0684   0.2470  -0.0204  -0.0551  -0.0668   1.00    0.0
2018/11/10 01:12:30.000  -74.370510160  163.307886231  1011.3790   6  12   0.0729   0.0722   0.2613  -0.0214  -0.0597  -0.0701   3.00    0.0
2018/11/10 01:12:45.000  -74.370510158  163.307885767  1011.3907   6  12   0.0689   0.0687   0.2470  -0.0215  -0.0549  -0.0670   4.00    0.0
2018/11/10 01:13:00.000  -74.370510157  163.307885593  1011.4137   6  12   0.0653   0.0641   0.2308  -0.0212  -0.0555  -0.0630   4.00    0.0
2018/11/10 01:13:15.000  -74.370510311  163.307886147  1011.3924   6  12   0.0623   0.0609   0.2175  -0.0223  -0.0528  -0.0611   3.00    0.0
2018/11/10 01:13:30.000  -74.370510363  163.307886612  1011.3219   6  12   0.0590   0.0544   0.2077  -0.0164  -0.0492  -0.0631   4.00    0.0
2018/11/10 01:13:45.000  -74.370510880  163.307886773  1011.4419   6  12   0.0499   0.0503   0.1844  -0.0093  -0.0503  -0.0463   4.00    0.0
2018/11/10 01:14:00.000  -74.370510846  163.307886828  1011.4832   6  12   0.0461   0.0472   0.1718  -0.0081  -0.0483  -0.0424   3.00    0.0
2018/11/10 01:14:15.000  -74.370510885  163.307886540  1011.4792   6  12   0.0433   0.0450   0.1617  -0.0089  -0.0463  -0.0400   4.00    0.0
2018/11/10 01:14:30.000  -74.370510918  163.307886390  1011.4701   6  12   0.0414   0.0428   0.1548  -0.0088  -0.0440  -0.0395   3.00    0.0
2018/11/10 01:14:45.000  -74.370511134  163.307886948  1011.4415   6  12   0.0375   0.0399   0.1494   0.0074  -0.0430  -0.0359   2.00    0.0
2018/11/10 01:15:00.000  -74.370511199  163.307886935  1011.4156   6  12   0.0361   0.0397   0.1495   0.0082  -0.0420  -0.0339   2.00    0.0
2018/11/10 01:15:15.000  -74.370511153  163.307886672  1011.4048   6  12   0.0377   0.0413   0.1589   0.0074  -0.0412  -0.0379   2.00    0.0
2018/11/10 01:15:30.000  -74.370511204  163.307886001  1011.4570   6  12   0.0383   0.0438   0.1657   0.0024  -0.0402  -0.0328   2.00    0.0
2018/11/10 01:15:45.000  -74.370511113  163.307885205  1011.4105   6  12   0.0414   0.0484   0.1854  -0.0088  -0.0386  -0.0364   4.00    0.0
2018/11/10 01:16:00.000  -74.370510971  163.307884842  1011.3180   6  12   0.0450   0.0545   0.2108  -0.0135  -0.0390  -0.0401   4.00    0.0
2018/11/10 01:16:15.000  -74.370510994  163.307885375  1011.2915   6  12   0.0481   0.0552   0.2427  -0.0074  -0.0386  -0.0432   4.00    0.0
2018/11/10 01:16:30.000  -74.370510849  163.307885726  1011.3447   6  12   0.0521   0.0583   0.2967  -0.0051  -0.0563  -0.0521   0.00    0.0
2018/11/10 01:16:45.000  -74.370510743  163.307885237  1011.3147   6  12   0.0564   0.0623   0.3057  -0.0066  -0.0574  -0.0567   0.00    0.0
2018/11/10 01:17:00.000  -74.370510677  163.307885278  1011.3331   6  12   0.0607   0.0663   0.3226   0.0017  -0.0640  -0.0603   0.00    0.0
2018/11/10 01:17:15.000  -74.370510468  163.307883367  1011.3965   6  12   0.0653   0.0721   0.3479   0.0072  -0.0700  -0.0652   2.00    0.0
2018/11/10 01:17:30.000  -74.370510348  163.307882946  1011.4383   6  12   0.0703   0.0801   0.3845   0.0145  -0.0790  -0.0706   3.00    0.0
2018/11/10 01:17:45.000  -74.370510460  163.307882999  1011.5989   6  12   0.0662   0.0848   0.3030   0.0202  -0.0871  -0.0693   0.00    0.0
2018/11/10 01:18:00.000  -74.370510683  163.307885821  1011.6337   6  12   0.0610   0.0674   0.2613   0.0126  -0.0762  -0.0598   0.00    0.0
2018/11/10 01:18:15.000  -74.370510777  163.307885782  1011.6479   6  12   0.0565   0.0611   0.2376   0.0105  -0.0693  -0.0544   0.00    0.0
2018/11/10 01:18:30.000  -74.370510853  163.307886510  1011.6810   6  12   0.0516   0.0541   0.2145  -0.0057  -0.0601  -0.0468   1.00    0.0
2018/11/10 01:18:45.000  -74.370511038  163.307887112  1011.7078   6  12   0.0475   0.0499   0.1965  -0.0054  -0.0562  -0.0424   2.00    0.0
2018/11/10 01:19:00.000  -74.370511018  163.307886762  1011.7569   6  12   0.0438   0.0464   0.1811  -0.0043  -0.0531  -0.0384   3.00    0.0
2018/11/10 01:19:15.000  -74.370511070  163.307886322  1011.7436   6  12   0.0406   0.0434   0.1685  -0.0034  -0.0508  -0.0349   3.00    0.0
2018/11/10 01:19:30.000  -74.370511195  163.307886619  1011.7365   6  12   0.0381   0.0412   0.1597  -0.0040  -0.0493  -0.0316   3.00    0.0
2018/11/10 01:19:45.000  -74.370511231  163.307886666  1011.7374   6  12   0.0361   0.0392   0.1566   0.0034  -0.0478  -0.0300   4.00    0.0
2018/11/10 01:20:00.000  -74.370511311  163.307886897  1011.6603   6  12   0.0355   0.0385   0.1465   0.0027  -0.0460  -0.0301   0.00    0.0
2018/11/10 01:20:15.000  -74.370511109  163.307886168  1011.6466   6  12   0.0368   0.0394   0.1519  -0.0036  -0.0467  -0.0321   0.00    0.0
2018/11/10 01:20:30.000  -74.370511082  163.307885458  1011.6658   6  12   0.0373   0.0416   0.1575  -0.0058  -0.0497  -0.0268   0.00    0.0
2018/11/10 01:20:45.000  -74.370511064  163.307885209  1011.6564   6  12   0.0401   0.0444   0.1702  -0.0076  -0.0531  -0.0293   2.00    0.0
2018/11/10 01:21:00.000  -74.370510929  163.307884349  1011.6957   6  12   0.0437   0.0481   0.1840  -0.0107  -0.0567  -0.0319   4.00    0.0
2018/11/10 01:21:15.000  -74.370510854  163.307884029  1011.6914   6  12   0.0474   0.0520   0.2002  -0.0121  -0.0615  -0.0349   5.00    0.0
2018/11/10 01:21:30.000  -74.370510733  163.307883304  1011.6972   6  12   0.0517   0.0565   0.2161  -0.0149  -0.0659  -0.0378   6.00    0.0
2018/11/10 01:21:45.000  -74.370510695  163.307883202  1011.6213   6  12   0.0562   0.0622   0.2363  -0.0180  -0.0738  -0.0395   5.00    0.0
2018/11/10 01:22:00.000  -74.370510663  163.307884286  1011.5564   6  12   0.0602   0.0650   0.2537  -0.0153  -0.0764  -0.0460   5.00    0.0
2018/11/10 01:22:15.000  -74.370510474  163.307884047  1011.5971   6  12   0.0650   0.0696   0.2723  -0.0134  -0.0804  -0.0517   7.00    0.0
2018/11/10 01:22:30.000  -74.370510364  163.307883695  1011.6028   6  12   0.0698   0.0762   0.2974  -0.0113  -0.0896  -0.0576   6.00    0.0
2018/11/10 01:22:45.000  -74.370510252  163.307883343  1011.6565   6  12   0.0656   0.0720   0.2973  -0.0189  -0.0870  -0.0503   6.00    0.0
2018/11/10 01:23:00.000  -74.370510486  163.307884826  1011.6103   6  12   0.0609   0.0707   0.3028  -0.0170  -0.0985  -0.0396   0.00    0.0
2018/11/10 01:23:15.000  -74.370510470  163.307884537  1011.6674   6  12   0.0568   0.0677   0.2939  -0.0181  -0.0958  -0.0319   0.00    0.0
2018/11/10 01:23:30.000  -74.370510670  163.307884803  1011.6016   6  12   0.0529   0.0647   0.2424  -0.0194  -0.0845  -0.0341   0.00    0.0
2018/11/10 01:23:45.000  -74.370510950  163.307885396  1011.5436   6  12   0.0474   0.0543   0.2202  -0.0120  -0.0713  -0.0329   0.00    0.0
2018/11/10 01:24:00.000  -74.370511089  163.307885406  1011.5454   6  12   0.0432   0.0480   0.2093   0.0045  -0.0620  -0.0338   1.00    0.0
2018/11/10 01:24:15.000  -74.370511124  163.307885477  1011.6185   6  12   0.0397   0.0438   0.1934  -0.0016  -0.0574  -0.0303   0.00    0.0
2018/11/10 01:24:30.000  -74.370511204  163.307885518  1011.6307   6  12   0.0371   0.0414   0.1775  -0.0022  -0.0541  -0.0270   0.00    0.0
2018/11/10 01:24:45.000  -74.370511308  163.307886152  1011.6112   6  12   0.0352   0.0395   0.1652   0.0048  -0.0506  -0.0273   0.00    0.0
2018/11/10 01:25:00.000  -74.370511304  163.307886722  1011.6600   6  12   0.0344   0.0385   0.1596   0.0073  -0.0483  -0.0292   0.00    0.0
2018/11/10 01:25:15.000  -74.370511262  163.307886532  1011.6719   6  12   0.0351   0.0394   0.1677   0.0066  -0.0504  -0.0298   0.00    0.0
2018/11/10 01:25:30.000  -74.370511189  163.307886308  1011.6161   6  12   0.0369   0.0416   0.1822   0.0057  -0.0544  -0.0309   0.00    0.0
2018/11/10 01:25:45.000  -74.370511106  163.307886479  1011.4831   6  12   0.0395   0.0446   0.2004   0.0039  -0.0597  -0.0322   0.00    0.0
2018/11/10 01:26:00.000  -74.370511000  163.307886612  1011.3501   6  12   0.0428   0.0477   0.1959   0.0028  -0.0589  -0.0367   0.00    0.0
2018/11/10 01:26:15.000  -74.370510803  163.307886444  1011.3604   6  12   0.0467   0.0526   0.2046  -0.0058  -0.0628  -0.0386   1.00    0.0
2018/11/10 01:26:30.000  -74.370510768  163.307887031  1011.2731   6  12   0.0505   0.0586   0.2224  -0.0020  -0.0722  -0.0425   1.00    0.0
2018/11/10 01:26:45.000  -74.370510556  163.307887009  1011.2906   6  12   0.0546   0.0594   0.2315  -0.0098  -0.0705  -0.0442   3.00    0.0
2018/11/10 01:27:00.000  -74.370510441  163.307886595  1011.3054   6  12   0.0591   0.0644   0.2465  -0.0146  -0.0762  -0.0454   6.00    0.0
2018/11/10 01:27:15.000  -74.370510554  163.307887885  1011.1967   6  12   0.0630   0.0672   0.2603  -0.0120  -0.0785  -0.0512   6.00    0.0
2018/11/10 01:27:30.000  -74.370510416  163.307886952  1011.2154   6  12   0.0674   0.0705   0.2729  -0.0113  -0.0803  -0.0562   7.00    0.0
2018/11/10 01:27:45.000  -74.370510422  163.307886860  1011.2133   6  12   0.0631   0.0665   0.2583  -0.0109  -0.0762  -0.0523   8.00    0.0
2018/11/10 01:28:00.000  -74.370510622  163.307887189  1011.2336   6  12   0.0588   0.0629   0.2448  -0.0108  -0.0731  -0.0477   8.00    0.0
2018/11/10 01:28:15.000  -74.370510704  163.307886851  1011.2872   6  12   0.0549   0.0605   0.2337  -0.0126  -0.0723  -0.0417   7.00    0.0
2018/11/10 01:28:30.000  -74.370510838  163.307887808  1011.2366   6  12   0.0504   0.0550   0.2201   0.0036  -0.0653  -0.0412   7.00    0.0
2018/11/10 01:28:45.000  -74.370510989  163.307887817  1011.2973   6  12   0.0465   0.0515   0.2104   0.0059  -0.0621  -0.0379   6.00    0.0
2018/11/10 01:29:00.000  -74.370511122  163.307887536  1011.3023   6  12   0.0429   0.0480   0.2064   0.0039  -0.0597  -0.0328   6.00    0.0
2018/11/10 01:29:15.000  -74.370511326  163.307887674  1011.3888   6  12   0.0397   0.0444   0.1834  -0.0051  -0.0551  -0.0321   0.00    0.0
2018/11/10 01:29:30.000  -74.370511374  163.307887468  1011.3931   6  12   0.0371   0.0421   0.1730  -0.0040  -0.0514  -0.0302   0.00    0.0
2018/11/10 01:29:45.000  -74.370511328  163.307887568  1011.4471   6  12   0.0353   0.0401   0.1664   0.0035  -0.0488  -0.0288   1.00    0.0
2018/11/10 01:30:00.000  -74.370511353  163.307888052  1011.4507   6  12   0.0344   0.0381   0.1643   0.0064  -0.0475  -0.0276   4.00    0.0
2018/11/10 01:30:15.000  -74.370511282  163.307887998  1011.5039   6  12   0.0355   0.0388   0.1696   0.0041  -0.0489  -0.0266   6.00    0.0
2018/11/10 01:30:30.000  -74.370511231  163.307887998  1011.5405   6  12   0.0383   0.0415   0.1843  -0.0061  -0.0542  -0.0251   0.00    0.0
2018/11/10 01:30:45.000  -74.370511362  163.307888508  1011.4550   6  12   0.0384   0.0431   0.2010   0.0083  -0.0575  -0.0265   0.00    0.0
2018/11/10 01:31:00.000  -74.370511246  163.307888239  1011.4462   6  12   0.0417   0.0460   0.2146   0.0089  -0.0596  -0.0296   0.00    0.0
2018/11/10 01:31:15.000  -74.370511128  163.307888116  1011.5032   6  12   0.0452   0.0477   0.2189   0.0058  -0.0617  -0.0355   0.00    0.0
2018/11/10 01:31:30.000  -74.370510899  163.307887469  1011.4805   6  12   0.0491   0.0510   0.2269   0.0037  -0.0628  -0.0385   0.00    0.0
2018/11/10 01:31:45.000  -74.370510714  163.307886852  1011.4801   6  12   0.0533   0.0547   0.2416  -0.0020  -0.0658  -0.0414   0.00    0.0
2018/11/10 01:32:00.000  -74.370510664  163.307886905  1011.4273   6  12   0.0576   0.0587   0.2653  -0.0051  -0.0711  -0.0433   4.00    0.0
2018/11/10 01:32:15.000  -74.370510638  163.307887024  1011.4754   6  12   0.0620   0.0636   0.3130  -0.0068  -0.0838  -0.0461   0.00    0.0
2018/11/10 01:32:30.000  -74.370510552  163.307886898  1011.4628   6  12   0.0664   0.0676   0.3129  -0.0065  -0.0845  -0.0528   0.00    0.0
2018/11/10 01:32:45.000  -74.370510610  163.307887020  1011.4431   6  12   0.0619   0.0631   0.2967  -0.0061  -0.0789  -0.0460   0.00    0.0
2018/11/10 01:33:00.000  -74.370510631  163.307886816  1011.4061   6  12   0.0576   0.0593   0.2887  -0.0057  -0.0760  -0.0428   0.00    0.0
2018/11/10 01:33:15.000  -74.370510696  163.307886766  1011.3997   6  12   0.0534   0.0555   0.2415  -0.0060  -0.0651  -0.0440   0.00    0.0
2018/11/10 01:33:30.000  -74.370510833  163.307887062  1011.4050   6  12   0.0491   0.0507   0.2227   0.0038  -0.0599  -0.0401   0.00    0.0
2018/11/10 01:33:45.000  -74.370510936  163.307887289  1011.4273   6  12   0.0453   0.0471   0.2103   0.0048  -0.0562  -0.0363   0.00    0.0
2018/11/10 01:34:00.000  -74.370511154  163.307887895  1011.3756   6  12   0.0419   0.0443   0.2049   0.0037  -0.0529  -0.0330   3.00    0.0
2018/11/10 01:34:15.000  -74.370511308  163.307888271  1011.4376   6  12   0.0389   0.0416   0.1977   0.0049  -0.0512  -0.0317   0.00    0.0
2018/11/10 01:34:30.000  -74.370511354  163.307888153  1011.4048   6  12   0.0370   0.0397   0.1893   0.0036  -0.0467  -0.0319   0.00    0.0
2018/11/10 01:34:45.000  -74.370511592  163.307888497  1011.5894   6  12   0.0328   0.0372   0.1692   0.0090  -0.0513  -0.0239   0.00    0.0
2018/11/10 01:35:00.000  -74.370511784  163.307888894  1011.5482   6  12   0.0317   0.0366   0.1670   0.0098  -0.0506  -0.0216   0.00    0.0
2018/11/10 01:35:15.000  -74.370511762  163.307888549  1011.5574   6  12   0.0330   0.0384   0.1679   0.0085  -0.0505  -0.0226   0.00    0.0
2018/11/10 01:35:30.000  -74.370511589  163.307888335  1011.5036   6  12   0.0353   0.0413   0.1732   0.0079  -0.0504  -0.0228   0.00    0.0
2018/11/10 01:35:45.000  -74.370511487  163.307887487  1011.4975   6  12   0.0386   0.0453   0.1836   0.0055  -0.0512  -0.0250   0.00    0.0
2018/11/10 01:36:00.000  -74.370511297  163.307887397  1011.4232   6  12   0.0425   0.0492   0.2013  -0.0087  -0.0517  -0.0278   1.00    0.0
2018/11/10 01:36:15.000  -74.370511233  163.307886783  1011.4815   6  12   0.0460   0.0533   0.1946  -0.0105  -0.0540  -0.0324   0.00    0.0
2018/11/10 01:36:30.000  -74.370511200  163.307886385  1011.4701   6  12   0.0504   0.0580   0.2041  -0.0137  -0.0557  -0.0360   0.00    0.0
2018/11/10 01:36:45.000  -74.370511045  163.307885552  1011.4409   6  12   0.0557   0.0644   0.2192  -0.0195  -0.0602  -0.0393   0.00    0.0
2018/11/10 01:37:00.000  -74.370511153  163.307887113  1011.3311   6  12   0.0602   0.0684   0.2292  -0.0187  -0.0593  -0.0483   0.00    0.0
2018/11/10 01:37:15.000  -74.370510944  163.307886007  1011.2952   6  12   0.0651   0.0734   0.2419  -0.0183  -0.0584  -0.0546   1.00    0.0
2018/11/10 01:37:30.000  -74.370510922  163.307886261  1011.3587   6  12   0.0704   0.0810   0.2568  -0.0173  -0.0593  -0.0609   2.00    0.0
2018/11/10 01:37:45.000  -74.370510883  163.307885445  1011.3398   6  12   0.0655   0.0767   0.2410  -0.0155  -0.0559  -0.0567   3.00    0.0
2018/11/10 01:38:00.000  -74.370511030  163.307885778  1011.3751   6  12   0.0603   0.0701   0.2225  -0.0160  -0.0581  -0.0504   3.00    0.0
2018/11/10 01:38:15.000  -74.370511280  163.307887818  1011.3434   6  12   0.0546   0.0590   0.2080   0.0094  -0.0571  -0.0437   3.00    0.0
2018/11/10 01:38:30.000  -74.370511524  163.307888394  1011.3754   6  12   0.0494   0.0511   0.1931   0.0099  -0.0558  -0.0367   2.00    0.0
2018/11/10 01:38:45.000  -74.370511538  163.307888454  1011.3977   6  12   0.0454   0.0466   0.1821   0.0110  -0.0523  -0.0321   2.00    0.0
2018/11/10 01:39:00.000  -74.370511396  163.307888271  1011.3982   6  12   0.0421   0.0435   0.1740   0.0129  -0.0488  -0.0280   2.00    0.0
2018/11/10 01:39:15.000  -74.370511453  163.307888719  1011.4668   6  12   0.0394   0.0393   0.1656   0.0139  -0.0501  -0.0197   2.00    0.0
2018/11/10 01:39:30.000  -74.370511524  163.307888776  1011.4464   6  11   0.0354   0.0344   0.1410   0.0108  -0.0462  -0.0247   0.00    0.0
2018/11/10 01:39:45.000  -74.370511559  163.307889034  1011.4741   6  11   0.0331   0.0323   0.1346   0.0110  -0.0452  -0.0247   0.00    0.0
2018/11/10 01:40:00.000  -74.370511633  163.307889380  1011.4269   6  11   0.0322   0.0316   0.1335   0.0115  -0.0453  -0.0255   0.00    0.0
2018/11/10 01:40:15.000  -74.370511599  163.307889825  1011.3618   6  11   0.0334   0.0333   0.1403   0.0122  -0.0477  -0.0277   0.00    0.0
2018/11/10 01:40:30.000  -74.370511550  163.307889526  1011.3344   6  11   0.0361   0.0366   0.1506   0.0129  -0.0512  -0.0301   2.00    0.0
2018/11/10 01:40:45.000  -74.370511480  163.307888765  1011.3665   6  11   0.0398   0.0410   0.1625   0.0136  -0.0553  -0.0316   3.00    0.0
2018/11/10 01:41:00.000  -74.370511358  163.307888234  1011.4084   6  11   0.0444   0.0463   0.1772   0.0127  -0.0614  -0.0306   3.00    0.0
2018/11/10 01:41:15.000  -74.370511203  163.307888035  1011.3556   6  10   0.0492   0.0539   0.1985   0.0109  -0.0717  -0.0280   3.00    0.0
2018/11/10 01:41:30.000  -74.370511085  163.307887880  1011.3635   6  10   0.0544   0.0619   0.2174   0.0118  -0.0806  -0.0279   3.00    0.0
2018/11/10 01:41:45.000  -74.370510971  163.307887452  1011.3491   6  10   0.0599   0.0711   0.2393   0.0150  -0.0924  -0.0301   3.00    0.0
2018/11/10 01:42:00.000  -74.370510993  163.307887599  1011.2977   6  10   0.0655   0.0737   0.2606   0.0121  -0.0982  -0.0314   4.00    0.0
2018/11/10 01:42:15.000  -74.370510801  163.307888732  1011.2142   6  10   0.0722   0.0755   0.2906   0.0138  -0.1080  -0.0434   4.00    0.0
2018/11/10 01:42:30.000  -74.370510941  163.307887219  1011.3916   6   9   0.0834   0.0883   0.3660   0.0351  -0.1427  -0.0872   4.00    0.0
2018/11/10 01:42:45.000  -74.370510763  163.307887849  1011.3356   6   9   0.0769   0.0808   0.3367   0.0318  -0.1304  -0.0792   4.00    0.0
2018/11/10 01:43:00.000  -74.370510680  163.307888256  1011.2398   6   9   0.0705   0.0738   0.3088   0.0288  -0.1185  -0.0723   4.00    0.0
2018/11/10 01:43:15.000  -74.370510730  163.307888416  1011.2215   6   9   0.0643   0.0669   0.2816   0.0260  -0.1070  -0.0656   4.00    0.0
2018/11/10 01:43:30.000  -74.370510876  163.307888794  1011.1732   6   9   0.0583   0.0602   0.2555   0.0234  -0.0958  -0.0592   5.00    0.0
2018/11/10 01:43:45.000  -74.370510988  163.307888661  1011.1697   6   9   0.0525   0.0537   0.2307   0.0209  -0.0851  -0.0532   5.00    0.0
2018/11/10 01:44:00.000  -74.370511163  163.307888439  1011.1755   6   9   0.0470   0.0476   0.2079   0.0187  -0.0752  -0.0477   4.00    0.0
2018/11/10 01:44:15.000  -74.370511245  163.307889045  1011.2109   6   9   0.0421   0.0421   0.1881   0.0169  -0.0663  -0.0430   4.00    0.0
2018/11/10 01:44:30.000  -74.370511269  163.307889263  1011.1829   6   9   0.0378   0.0374   0.1726   0.0155  -0.0592  -0.0392   4.00    0.0
