% program   : RTKLIB ver.2.4.3
% inp file  : _by_type/_obs/shirase/20181108.18o
% inp file  : _by_type/_sp3+clk/igs20264.clk
% inp file  : _by_type/_sp3+clk/igs20264.sp3
% inp file  : _by_type/_nav/shirase/20181108.18n
% obs start : 2018/11/08 00:00:00.0 GPST (week2026 345600.0s)
% obs end   : 2018/11/08 23:59:45.0 GPST (week2026 431985.0s)
% pos mode  : ppp-kinematic
% solution  : combined
% elev mask : 15.0 deg
% dynamics  : off
% tidecorr  : on
% tropo opt : est ztd+grad
% ephemeris : precise
% navi sys  : gps glonass
% antenna1  :                       ( 0.0000  0.0000  0.0000)
%
% (lat/lon/height=WGS84/ellipsoidal,Q=1:fix,2:float,3:sbas,4:dgps,5:single,6:ppp,ns=# of satellites)
%  GPST                  latitude(deg) longitude(deg)  height(m)   Q  ns   sdn(m)   sde(m)   sdu(m)  sdne(m)  sdeu(m)  sdun(m) age(s)  ratio
2018/11/08 00:00:00.000  -74.525916540  163.457830781    26.1693   6   9   0.0210   0.0213   0.0646  -0.0082   0.0113  -0.0183   0.00    0.0
2018/11/08 00:00:15.000  -74.525916556  163.457830442    26.1901   6   9   0.0240   0.0246   0.0770  -0.0104   0.0165  -0.0232   0.00    0.0
2018/11/08 00:00:30.000  -74.525916577  163.457830785    26.2121   6   9   0.0297   0.0307   0.0987  -0.0134   0.0239  -0.0310   0.00    0.0
2018/11/08 00:00:45.000  -74.525916613  163.457830475    26.2150   6   9   0.0367   0.0382   0.1246  -0.0170   0.0322  -0.0398   0.00    0.0
2018/11/08 00:01:00.000  -74.525916629  163.457830305    26.1918   6   9   0.0444   0.0465   0.1528  -0.0208   0.0408  -0.0490   0.00    0.0
2018/11/08 00:01:15.000  -74.525916673  163.457830239    26.2080   6   9   0.0525   0.0551   0.1822  -0.0247   0.0495  -0.0585   0.00    0.0
2018/11/08 00:01:30.000  -74.525916641  163.457830151    26.1811   6   9   0.0607   0.0639   0.2121  -0.0286   0.0583  -0.0681   1.00    0.0
2018/11/08 00:01:45.000  -74.525916655  163.457830225    26.1705   6   9   0.0690   0.0726   0.2422  -0.0325   0.0670  -0.0777   1.00    0.0
2018/11/08 00:02:00.000  -74.525916719  163.457830147    26.2144   6   9   0.0773   0.0813   0.2723  -0.0363   0.0755  -0.0872   2.00    0.0
2018/11/08 00:02:15.000  -74.525916633  163.457829805    26.1656   6   9   0.0854   0.0898   0.3020  -0.0400   0.0839  -0.0966   4.00    0.0
2018/11/08 00:02:30.000  -74.525916572  163.457829187    26.1346   6   9   0.0934   0.0980   0.3312  -0.0435   0.0920  -0.1058   3.00    0.0
2018/11/08 00:02:45.000  -74.525916545  163.457829486    26.1523   6   9   0.0849   0.0890   0.3015  -0.0393   0.0835  -0.0957   3.00    0.0
2018/11/08 00:03:00.000  -74.525916550  163.457829880    26.1799   6   9   0.0766   0.0803   0.2727  -0.0356   0.0757  -0.0866   3.00    0.0
2018/11/08 00:03:15.000  -74.525916535  163.457829481    26.1020   6   9   0.0683   0.0717   0.2437  -0.0319   0.0678  -0.0773   4.00    0.0
2018/11/08 00:03:30.000  -74.525916639  163.457829431    26.1183   6   9   0.0600   0.0630   0.2144  -0.0282   0.0597  -0.0680   3.00    0.0
2018/11/08 00:03:45.000  -74.525916648  163.457829778    26.1506   6   9   0.0519   0.0545   0.1851  -0.0244   0.0514  -0.0586   3.00    0.0
2018/11/08 00:04:00.000  -74.525916630  163.457830007    26.1679   6   9   0.0439   0.0460   0.1560  -0.0207   0.0430  -0.0493   3.00    0.0
2018/11/08 00:04:15.000  -74.525916644  163.457830441    26.2068   6   9   0.0363   0.0379   0.1277  -0.0170   0.0345  -0.0401   3.00    0.0
2018/11/08 00:04:30.000  -74.525916687  163.457830396    26.2167   6   9   0.0294   0.0304   0.1011  -0.0136   0.0263  -0.0313   3.00    0.0
2018/11/08 00:04:45.000  -74.525916607  163.457830573    26.1914   6   9   0.0239   0.0245   0.0786  -0.0108   0.0190  -0.0237   3.00    0.0
2018/11/08 00:05:00.000  -74.525916603  163.457830723    26.1860   6   9   0.0212   0.0214   0.0659  -0.0091   0.0142  -0.0190   3.00    0.0
2018/11/08 00:05:15.000  -74.525916645  163.457830987    26.2419   6   9   0.0238   0.0245   0.0786  -0.0109   0.0193  -0.0237   3.00    0.0
2018/11/08 00:05:30.000  -74.525916550  163.457830931    26.2698   6   9   0.0293   0.0304   0.1012  -0.0138   0.0269  -0.0312   2.00    0.0
2018/11/08 00:05:45.000  -74.525916431  163.457831333    26.2993   6   9   0.0360   0.0378   0.1278  -0.0171   0.0353  -0.0396   2.00    0.0
2018/11/08 00:06:00.000  -74.525916377  163.457831188    26.3149   6   9   0.0433   0.0458   0.1559  -0.0205   0.0439  -0.0480   3.00    0.0
2018/11/08 00:06:15.000  -74.525916420  163.457830831    26.2861   6   9   0.0507   0.0540   0.1841  -0.0239   0.0523  -0.0562   3.00    0.0
2018/11/08 00:06:30.000  -74.525916468  163.457829977    26.2371   6   9   0.0582   0.0622   0.2120  -0.0272   0.0604  -0.0640   2.00    0.0
2018/11/08 00:06:45.000  -74.525916437  163.457829215    26.1972   6   9   0.0655   0.0702   0.2394  -0.0303   0.0682  -0.0715   2.00    0.0
2018/11/08 00:07:00.000  -74.525916432  163.457829104    26.1720   6   9   0.0727   0.0780   0.2662  -0.0333   0.0758  -0.0786   3.00    0.0
2018/11/08 00:07:15.000  -74.525916458  163.457828045    26.0807   6   9   0.0797   0.0856   0.2924  -0.0361   0.0833  -0.0856   3.00    0.0
2018/11/08 00:07:30.000  -74.525916517  163.457827451    26.0522   6   9   0.0865   0.0930   0.3182  -0.0390   0.0906  -0.0924   2.00    0.0
2018/11/08 00:07:45.000  -74.525916486  163.457827699    26.0088   6  10   0.0774   0.0840   0.2643  -0.0404   0.0966  -0.0707   2.00    0.0
2018/11/08 00:08:00.000  -74.525916405  163.457827812    26.0069   6  10   0.0703   0.0765   0.2409  -0.0371   0.0885  -0.0649   3.00    0.0
2018/11/08 00:08:15.000  -74.525916435  163.457828265    26.0410   6  10   0.0632   0.0689   0.2175  -0.0337   0.0801  -0.0592   3.00    0.0
2018/11/08 00:08:30.000  -74.525916396  163.457828740    26.0325   6  10   0.0561   0.0611   0.1936  -0.0302   0.0713  -0.0533   3.00    0.0
2018/11/08 00:08:45.000  -74.525916406  163.457829285    26.0224   6  10   0.0489   0.0533   0.1692  -0.0266   0.0622  -0.0471   3.00    0.0
2018/11/08 00:09:00.000  -74.525916447  163.457830101    26.0799   6  10   0.0418   0.0454   0.1445  -0.0229   0.0527  -0.0407   2.00    0.0
2018/11/08 00:09:15.000  -74.525916508  163.457829977    26.0769   6  10   0.0349   0.0377   0.1198  -0.0191   0.0429  -0.0340   2.00    0.0
2018/11/08 00:09:30.000  -74.525916526  163.457830250    26.0987   6  10   0.0285   0.0305   0.0963  -0.0154   0.0331  -0.0273   4.00    0.0
2018/11/08 00:09:45.000  -74.525916557  163.457830587    26.1303   6  10   0.0234   0.0246   0.0761  -0.0122   0.0242  -0.0213   4.00    0.0
2018/11/08 00:10:00.000  -74.525916597  163.457830654    26.1307   6  10   0.0207   0.0215   0.0644  -0.0102   0.0184  -0.0178   2.00    0.0
2018/11/08 00:10:15.000  -74.525916612  163.457831072    26.1588   6  10   0.0233   0.0247   0.0760  -0.0122   0.0243  -0.0212   4.00    0.0
2018/11/08 00:10:30.000  -74.525916563  163.457831093    26.1384   6  10   0.0282   0.0305   0.0960  -0.0153   0.0331  -0.0267   4.00    0.0
2018/11/08 00:10:45.000  -74.525916510  163.457830852    26.1242   6  10   0.0343   0.0375   0.1191  -0.0186   0.0426  -0.0325   4.00    0.0
2018/11/08 00:11:00.000  -74.525916443  163.457830673    26.0994   6  10   0.0408   0.0449   0.1432  -0.0219   0.0521  -0.0380   4.00    0.0
2018/11/08 00:11:15.000  -74.525916393  163.457830729    26.0569   6  10   0.0474   0.0525   0.1675  -0.0251   0.0612  -0.0431   4.00    0.0
2018/11/08 00:11:30.000  -74.525916424  163.457830678    26.0755   6  10   0.0541   0.0599   0.1915  -0.0281   0.0701  -0.0480   3.00    0.0
2018/11/08 00:11:45.000  -74.525916361  163.457829981    26.0312   6  10   0.0606   0.0673   0.2153  -0.0312   0.0787  -0.0529   3.00    0.0
2018/11/08 00:12:00.000  -74.525916379  163.457829471    26.0656   6  10   0.0671   0.0745   0.2390  -0.0342   0.0874  -0.0579   2.00    0.0
2018/11/08 00:12:15.000  -74.525916419  163.457829517    26.1117   6  10   0.0734   0.0816   0.2626  -0.0373   0.0960  -0.0632   4.00    0.0
2018/11/08 00:12:30.000  -74.525916444  163.457829426    26.1527   6  10   0.0797   0.0886   0.2862  -0.0405   0.1047  -0.0688   4.00    0.0
2018/11/08 00:12:45.000  -74.525916455  163.457829784    26.2000   6  10   0.0735   0.0817   0.2643  -0.0376   0.0970  -0.0642   4.00    0.0
2018/11/08 00:13:00.000  -74.525916567  163.457829815    26.1796   6  10   0.0671   0.0746   0.2418  -0.0345   0.0888  -0.0593   4.00    0.0
2018/11/08 00:13:15.000  -74.525916632  163.457830052    26.1891   6  10   0.0606   0.0673   0.2189  -0.0315   0.0805  -0.0544   4.00    0.0
2018/11/08 00:13:30.000  -74.525916630  163.457829977    26.1751   6  10   0.0540   0.0600   0.1955  -0.0284   0.0720  -0.0495   4.00    0.0
2018/11/08 00:13:45.000  -74.525916654  163.457830484    26.1844   6  10   0.0474   0.0525   0.1716  -0.0253   0.0633  -0.0445   4.00    0.0
2018/11/08 00:14:00.000  -74.525916659  163.457830519    26.1668   6  10   0.0408   0.0451   0.1473  -0.0221   0.0542  -0.0392   4.00    0.0
2018/11/08 00:14:15.000  -74.525916630  163.457830647    26.1547   6  10   0.0343   0.0377   0.1228  -0.0189   0.0448  -0.0335   4.00    0.0
2018/11/08 00:14:30.000  -74.525916577  163.457830527    26.1168   6  10   0.0283   0.0308   0.0989  -0.0157   0.0353  -0.0276   4.00    0.0
2018/11/08 00:14:45.000  -74.525916622  163.457830483    26.1283   6  10   0.0234   0.0250   0.0781  -0.0126   0.0263  -0.0219   4.00    0.0
2018/11/08 00:15:00.000  -74.525916684  163.457830632    26.1307   6  10   0.0209   0.0218   0.0659  -0.0106   0.0205  -0.0181   4.00    0.0
2018/11/08 00:15:15.000  -74.525916589  163.457830504    26.0705   6  10   0.0232   0.0248   0.0771  -0.0127   0.0258  -0.0215   4.00    0.0
2018/11/08 00:15:30.000  -74.525916542  163.457830751    26.0711   6  10   0.0278   0.0305   0.0972  -0.0152   0.0344  -0.0261   4.00    0.0
2018/11/08 00:15:45.000  -74.525916445  163.457830267    26.0440   6  10   0.0335   0.0372   0.1201  -0.0180   0.0435  -0.0309   4.00    0.0
2018/11/08 00:16:00.000  -74.525916353  163.457829857    26.0109   6  10   0.0397   0.0444   0.1440  -0.0209   0.0526  -0.0355   4.00    0.0
2018/11/08 00:16:15.000  -74.525916315  163.457829248    26.0163   6  10   0.0460   0.0517   0.1682  -0.0237   0.0617  -0.0402   4.00    0.0
2018/11/08 00:16:30.000  -74.525916374  163.457828743    26.0305   6  10   0.0524   0.0589   0.1927  -0.0267   0.0708  -0.0452   4.00    0.0
2018/11/08 00:16:45.000  -74.525916446  163.457828465    26.0210   6  10   0.0588   0.0661   0.2173  -0.0299   0.0801  -0.0508   4.00    0.0
2018/11/08 00:17:00.000  -74.525916473  163.457828574    26.0258   6  10   0.0651   0.0732   0.2421  -0.0332   0.0895  -0.0568   4.00    0.0
2018/11/08 00:17:15.000  -74.525916484  163.457828416    26.0294   6  10   0.0714   0.0803   0.2670  -0.0366   0.0991  -0.0634   4.00    0.0
2018/11/08 00:17:30.000  -74.525916499  163.457827991    25.9706   6  10   0.0777   0.0872   0.2920  -0.0402   0.1088  -0.0704   4.00    0.0
2018/11/08 00:17:45.000  -74.525916499  163.457828692    26.0137   6  10   0.0713   0.0801   0.2677  -0.0365   0.0990  -0.0637   4.00    0.0
2018/11/08 00:18:00.000  -74.525916526  163.457828856    26.0009   6  10   0.0650   0.0730   0.2438  -0.0332   0.0898  -0.0576   4.00    0.0
2018/11/08 00:18:15.000  -74.525916597  163.457828737    25.9813   6  10   0.0586   0.0659   0.2197  -0.0299   0.0807  -0.0518   4.00    0.0
2018/11/08 00:18:30.000  -74.525916618  163.457829368    26.0377   6  10   0.0522   0.0587   0.1954  -0.0267   0.0716  -0.0463   4.00    0.0
2018/11/08 00:18:45.000  -74.525916633  163.457829631    26.0532   6  10   0.0458   0.0514   0.1709  -0.0236   0.0625  -0.0410   4.00    0.0
2018/11/08 00:19:00.000  -74.525916543  163.457829820    26.0542   6  10   0.0394   0.0441   0.1464  -0.0207   0.0533  -0.0360   4.00    0.0
2018/11/08 00:19:15.000  -74.525916528  163.457829455    26.0479   6  10   0.0332   0.0370   0.1221  -0.0178   0.0440  -0.0310   4.00    0.0
2018/11/08 00:19:30.000  -74.525916537  163.457829611    26.0505   6  10   0.0276   0.0303   0.0985  -0.0150   0.0348  -0.0260   4.00    0.0
2018/11/08 00:19:45.000  -74.525916676  163.457830426    26.1305   6  10   0.0229   0.0248   0.0780  -0.0125   0.0264  -0.0212   4.00    0.0
2018/11/08 00:20:00.000  -74.525916747  163.457830707    26.1415   6  10   0.0205   0.0220   0.0662  -0.0108   0.0209  -0.0180   4.00    0.0
2018/11/08 00:20:15.000  -74.525916790  163.457830393    26.1356   6  10   0.0227   0.0251   0.0772  -0.0123   0.0257  -0.0205   4.00    0.0
2018/11/08 00:20:30.000  -74.525916769  163.457829389    26.0842   6  10   0.0272   0.0308   0.0967  -0.0145   0.0335  -0.0243   4.00    0.0
2018/11/08 00:20:45.000  -74.525916770  163.457828559    25.9991   6  10   0.0327   0.0376   0.1195  -0.0170   0.0422  -0.0286   4.00    0.0
2018/11/08 00:21:00.000  -74.525916831  163.457828553    26.0003   6  10   0.0387   0.0449   0.1437  -0.0198   0.0514  -0.0333   4.00    0.0
2018/11/08 00:21:15.000  -74.525916888  163.457828815    26.0314   6  10   0.0450   0.0524   0.1688  -0.0228   0.0607  -0.0387   4.00    0.0
2018/11/08 00:21:30.000  -74.525916933  163.457828778    26.0533   6  11   0.0492   0.0600   0.1852  -0.0257   0.0709  -0.0535   4.00    0.0
2018/11/08 00:21:45.000  -74.525916932  163.457828816    26.0618   6  11   0.0553   0.0681   0.2096  -0.0292   0.0805  -0.0612   4.00    0.0
2018/11/08 00:22:00.000  -74.525916935  163.457828456    26.0813   6  11   0.0614   0.0777   0.2345  -0.0331   0.0895  -0.0693   4.00    0.0
2018/11/08 00:22:15.000  -74.525916951  163.457828281    26.0776   6  11   0.0675   0.0837   0.2593  -0.0369   0.1009  -0.0778   3.00    0.0
2018/11/08 00:22:30.000  -74.525916884  163.457827931    26.0815   6  11   0.0736   0.0931   0.2846  -0.0411   0.1101  -0.0864   3.00    0.0
2018/11/08 00:22:45.000  -74.525916954  163.457828427    26.0685   6  11   0.0676   0.0801   0.2614  -0.0369   0.1036  -0.0788   3.00    0.0
2018/11/08 00:23:00.000  -74.525916990  163.457828476    26.0469   6  11   0.0614   0.0725   0.2372  -0.0331   0.0937  -0.0707   3.00    0.0
2018/11/08 00:23:15.000  -74.525916934  163.457828277    26.0127   6  11   0.0553   0.0652   0.2130  -0.0295   0.0837  -0.0627   3.00    0.0
2018/11/08 00:23:30.000  -74.525916902  163.457828838    26.0201   6  11   0.0492   0.0579   0.1888  -0.0261   0.0739  -0.0550   3.00    0.0
2018/11/08 00:23:45.000  -74.525916908  163.457829411    26.0620   6  11   0.0431   0.0507   0.1647  -0.0228   0.0641  -0.0476   4.00    0.0
2018/11/08 00:24:00.000  -74.525916821  163.457829592    26.0628   6  11   0.0372   0.0435   0.1410  -0.0198   0.0544  -0.0406   4.00    0.0
2018/11/08 00:24:15.000  -74.525916743  163.457829858    26.0478   6  11   0.0316   0.0364   0.1179  -0.0170   0.0450  -0.0339   3.00    0.0
2018/11/08 00:24:30.000  -74.525916752  163.457830184    26.0548   6  11   0.0265   0.0298   0.0961  -0.0145   0.0360  -0.0277   3.00    0.0
2018/11/08 00:24:45.000  -74.525916740  163.457830244    26.0642   6  11   0.0223   0.0244   0.0774  -0.0125   0.0278  -0.0223   3.00    0.0
2018/11/08 00:25:00.000  -74.525916751  163.457830383    26.1006   6  11   0.0203   0.0214   0.0662  -0.0110   0.0225  -0.0187   3.00    0.0
2018/11/08 00:25:15.000  -74.525916712  163.457830067    26.0942   6  11   0.0223   0.0244   0.0767  -0.0125   0.0275  -0.0217   3.00    0.0
2018/11/08 00:25:30.000  -74.525916671  163.457829767    26.0659   6  11   0.0264   0.0299   0.0948  -0.0146   0.0354  -0.0267   3.00    0.0
2018/11/08 00:25:45.000  -74.525916652  163.457829438    26.0527   6  11   0.0316   0.0364   0.1164  -0.0172   0.0444  -0.0328   3.00    0.0
2018/11/08 00:26:00.000  -74.525916578  163.457828850    26.0113   6  11   0.0373   0.0435   0.1398  -0.0203   0.0540  -0.0396   5.00    0.0
2018/11/08 00:26:15.000  -74.525916658  163.457828704    26.0256   6  11   0.0433   0.0508   0.1643  -0.0238   0.0640  -0.0471   5.00    0.0
2018/11/08 00:26:30.000  -74.525916579  163.457827531    25.9759   6  11   0.0497   0.0583   0.1894  -0.0278   0.0743  -0.0551   5.00    0.0
2018/11/08 00:26:45.000  -74.525916503  163.457827004    25.9645   6  11   0.0567   0.0663   0.2148  -0.0332   0.0849  -0.0638   5.00    0.0
2018/11/08 00:27:00.000  -74.525916622  163.457827744    26.0008   6  11   0.0614   0.0722   0.2420  -0.0346   0.0966  -0.0736   5.00    0.0
2018/11/08 00:27:15.000  -74.525916530  163.457827212    25.9635   6  11   0.0671   0.0788   0.2670  -0.0378   0.1064  -0.0816   5.00    0.0
2018/11/08 00:27:30.000  -74.525916485  163.457826848    25.9526   6  11   0.0730   0.0857   0.2926  -0.0415   0.1167  -0.0904   5.00    0.0
2018/11/08 00:27:45.000  -74.525916567  163.457827128    25.9685   6  11   0.0669   0.0785   0.2670  -0.0373   0.1059  -0.0813   5.00    0.0
2018/11/08 00:28:00.000  -74.525916547  163.457827299    25.9762   6  11   0.0607   0.0714   0.2416  -0.0333   0.0954  -0.0724   5.00    0.0
2018/11/08 00:28:15.000  -74.525916579  163.457827493    26.0030   6  11   0.0546   0.0643   0.2162  -0.0294   0.0849  -0.0638   6.00    0.0
2018/11/08 00:28:30.000  -74.525916674  163.457827593    26.0738   6  11   0.0485   0.0571   0.1910  -0.0257   0.0746  -0.0555   6.00    0.0
2018/11/08 00:28:45.000  -74.525916698  163.457827945    26.0643   6  11   0.0424   0.0499   0.1660  -0.0222   0.0643  -0.0475   6.00    0.0
2018/11/08 00:29:00.000  -74.525916703  163.457828410    26.0667   6  11   0.0366   0.0428   0.1415  -0.0190   0.0543  -0.0401   6.00    0.0
2018/11/08 00:29:15.000  -74.525916746  163.457829201    26.0909   6  11   0.0309   0.0358   0.1179  -0.0161   0.0447  -0.0332   6.00    0.0
2018/11/08 00:29:30.000  -74.525916820  163.457829556    26.0655   6  11   0.0259   0.0293   0.0960  -0.0137   0.0356  -0.0270   6.00    0.0
2018/11/08 00:29:45.000  -74.525916866  163.457830381    26.1101   6  11   0.0219   0.0239   0.0778  -0.0117   0.0277  -0.0219   6.00    0.0
2018/11/08 00:30:00.000  -74.525916828  163.457830345    26.0902   6  11   0.0198   0.0211   0.0673  -0.0105   0.0228  -0.0187   6.00    0.0
2018/11/08 00:30:15.000  -74.525916880  163.457830518    26.1134   6  11   0.0217   0.0237   0.0770  -0.0115   0.0272  -0.0213   6.00    0.0
2018/11/08 00:30:30.000  -74.525916903  163.457830383    26.1149   6  11   0.0257   0.0290   0.0947  -0.0133   0.0349  -0.0260   6.00    0.0
2018/11/08 00:30:45.000  -74.525916876  163.457829735    26.1097   6  11   0.0306   0.0354   0.1162  -0.0157   0.0438  -0.0320   6.00    0.0
2018/11/08 00:31:00.000  -74.525916822  163.457829197    26.0905   6  11   0.0362   0.0423   0.1397  -0.0185   0.0534  -0.0390   6.00    0.0
2018/11/08 00:31:15.000  -74.525916750  163.457828562    26.0579   6  11   0.0419   0.0493   0.1642  -0.0216   0.0634  -0.0465   6.00    0.0
2018/11/08 00:31:30.000  -74.525916746  163.457828341    26.0554   6  11   0.0478   0.0563   0.1892  -0.0250   0.0736  -0.0546   6.00    1.0
2018/11/08 00:31:45.000  -74.525916719  163.457828003    26.0134   6  11   0.0538   0.0633   0.2146  -0.0286   0.0839  -0.0630   6.00    0.0
2018/11/08 00:32:00.000  -74.525916816  163.457828325    26.0441   6  11   0.0597   0.0702   0.2400  -0.0323   0.0943  -0.0716   6.00    0.0
2018/11/08 00:32:15.000  -74.525916877  163.457828063    26.0465   6  11   0.0656   0.0771   0.2656  -0.0361   0.1047  -0.0805   6.00    0.0
2018/11/08 00:32:30.000  -74.525916848  163.457827820    26.0016   6  11   0.0715   0.0839   0.2911  -0.0400   0.1151  -0.0895   6.00    0.0
2018/11/08 00:32:45.000  -74.525916791  163.457827697    25.9700   6  11   0.0655   0.0773   0.2654  -0.0361   0.1045  -0.0805   6.00    0.0
2018/11/08 00:33:00.000  -74.525916836  163.457828313    26.0056   6  11   0.0595   0.0703   0.2397  -0.0322   0.0940  -0.0715   6.00    1.0
2018/11/08 00:33:15.000  -74.525916858  163.457828821    26.0068   6  11   0.0535   0.0633   0.2142  -0.0284   0.0835  -0.0627   6.00    0.0
2018/11/08 00:33:30.000  -74.525916770  163.457828948    25.9313   6  11   0.0475   0.0562   0.1888  -0.0248   0.0731  -0.0543   6.00    0.0
2018/11/08 00:33:45.000  -74.525916827  163.457829277    25.9586   6  11   0.0416   0.0492   0.1639  -0.0213   0.0629  -0.0462   6.00    0.0
2018/11/08 00:34:00.000  -74.525916870  163.457829178    25.9845   6  11   0.0359   0.0422   0.1396  -0.0182   0.0529  -0.0387   6.00    0.0
2018/11/08 00:34:15.000  -74.525916859  163.457829377    26.0096   6  11   0.0304   0.0354   0.1164  -0.0154   0.0434  -0.0319   6.00    0.0
2018/11/08 00:34:30.000  -74.525917139  163.457830724    26.1730   1  11   0.0306   0.0309   0.1191  -0.0189   0.0479  -0.0426   4.00    1.0
2018/11/08 00:34:45.000  -74.525916912  163.457830192    26.1051   6  11   0.0216   0.0237   0.0779  -0.0112   0.0270  -0.0212   6.00    0.0
2018/11/08 00:35:00.000  -74.525916826  163.457830173    26.0739   6  11   0.0195   0.0208   0.0682  -0.0100   0.0222  -0.0180   6.00    0.0
2018/11/08 00:35:15.000  -74.525916962  163.457831192    26.1811   1  11   0.0259   0.0242   0.0964  -0.0156   0.0385  -0.0350   4.00    1.0
2018/11/08 00:35:30.000  -74.525917046  163.457831030    26.2120   1  11   0.0311   0.0313   0.1209  -0.0193   0.0484  -0.0428   4.00    1.0
2018/11/08 00:35:45.000  -74.525916825  163.457829414    26.1034   6  11   0.0307   0.0350   0.1158  -0.0151   0.0422  -0.0297   6.00    0.0
2018/11/08 00:36:00.000  -74.525916861  163.457829232    26.1159   6  11   0.0365   0.0417   0.1389  -0.0179   0.0514  -0.0355   6.00    0.0
2018/11/08 00:36:15.000  -74.525916831  163.457828871    26.1045   6  11   0.0430   0.0485   0.1640  -0.0210   0.0608  -0.0404   6.00    0.0
2018/11/08 00:36:30.000  -74.525916855  163.457828900    26.1105   6  11   0.0470   0.0553   0.1849  -0.0240   0.0708  -0.0527   5.00    0.0
2018/11/08 00:36:45.000  -74.525916845  163.457828846    26.1110   6  11   0.0527   0.0620   0.2091  -0.0274   0.0807  -0.0608   5.00    0.0
2018/11/08 00:37:00.000  -74.525916925  163.457828740    26.1319   6  11   0.0585   0.0687   0.2335  -0.0309   0.0906  -0.0692   5.00    0.0
2018/11/08 00:37:15.000  -74.525916991  163.457828545    26.1317   6  11   0.0642   0.0754   0.2579  -0.0345   0.1004  -0.0776   5.00    0.0
2018/11/08 00:37:30.000  -74.525917102  163.457828799    26.2028   6  11   0.0700   0.0820   0.2822  -0.0381   0.1102  -0.0861   5.00    0.0
2018/11/08 00:37:45.000  -74.525917193  163.457829051    26.2034   6  11   0.0639   0.0749   0.2565  -0.0341   0.0997  -0.0768   5.00    0.0
2018/11/08 00:38:00.000  -74.525917175  163.457829273    26.1943   6  11   0.0580   0.0681   0.2314  -0.0303   0.0894  -0.0680   5.00    0.0
2018/11/08 00:38:15.000  -74.525917201  163.457829615    26.2101   6  11   0.0522   0.0613   0.2066  -0.0267   0.0793  -0.0595   5.00    0.0
2018/11/08 00:38:30.000  -74.525917221  163.457829885    26.2022   6  11   0.0464   0.0544   0.1821  -0.0232   0.0693  -0.0514   5.00    0.0
2018/11/08 00:38:45.000  -74.525917239  163.457829890    26.1991   6  11   0.0406   0.0476   0.1582  -0.0199   0.0595  -0.0437   5.00    0.0
2018/11/08 00:39:00.000  -74.525917243  163.457830043    26.2057   6  11   0.0351   0.0408   0.1350  -0.0169   0.0500  -0.0366   6.00    0.0
2018/11/08 00:39:15.000  -74.525917219  163.457830178    26.2120   6  11   0.0298   0.0342   0.1132  -0.0143   0.0409  -0.0303   6.00    0.0
2018/11/08 00:39:30.000  -74.525917457  163.457831525    26.3387   1  11   0.0308   0.0309   0.1200  -0.0190   0.0478  -0.0437   4.00    1.0
2018/11/08 00:39:45.000  -74.525917266  163.457831285    26.2677   1  11   0.0261   0.0245   0.0984  -0.0159   0.0390  -0.0367   4.00    1.0
2018/11/08 00:40:00.000  -74.525917128  163.457831121    26.2258   1  11   0.0236   0.0211   0.0868  -0.0141   0.0344  -0.0329   4.00    1.0
2018/11/08 00:40:15.000  -74.525916845  163.457830097    26.1183   6  11   0.0213   0.0229   0.0789  -0.0104   0.0250  -0.0200   6.00    0.0
2018/11/08 00:40:30.000  -74.525916908  163.457830057    26.1279   6  11   0.0251   0.0278   0.0948  -0.0121   0.0314  -0.0241   6.00    0.0
2018/11/08 00:40:45.000  -74.525916861  163.457829902    26.1138   6  11   0.0298   0.0338   0.1142  -0.0141   0.0391  -0.0292   6.00    0.0
2018/11/08 00:41:00.000  -74.525916851  163.457829663    26.0945   6  11   0.0350   0.0402   0.1355  -0.0165   0.0476  -0.0350   6.00    0.0
2018/11/08 00:41:15.000  -74.525916882  163.457829462    26.1088   6  11   0.0403   0.0467   0.1578  -0.0193   0.0563  -0.0415   6.00    0.0
2018/11/08 00:41:30.000  -74.525916879  163.457829042    26.1210   6  11   0.0458   0.0532   0.1809  -0.0223   0.0652  -0.0484   6.00    0.0
2018/11/08 00:41:45.000  -74.525916817  163.457828497    26.0914   6  11   0.0513   0.0597   0.2046  -0.0255   0.0741  -0.0555   6.00    0.0
2018/11/08 00:42:00.000  -74.525916940  163.457828682    26.1374   6  11   0.0569   0.0662   0.2296  -0.0288   0.0828  -0.0625   6.00    0.0
2018/11/08 00:42:15.000  -74.525917071  163.457828627    26.1746   6  11   0.0626   0.0727   0.2587  -0.0322   0.0909  -0.0685   6.00    0.0
2018/11/08 00:42:30.000  -74.525917073  163.457828442    26.1451   6  11   0.0682   0.0791   0.2949  -0.0355   0.0996  -0.0758   0.00    0.0
2018/11/08 00:42:45.000  -74.525917023  163.457827978    26.0742   6  11   0.0623   0.0723   0.2513  -0.0315   0.0927  -0.0725   0.00    0.0
2018/11/08 00:43:00.000  -74.525917022  163.457827899    26.0460   6  11   0.0566   0.0657   0.2241  -0.0280   0.0832  -0.0643   0.00    0.0
2018/11/08 00:43:15.000  -74.525917076  163.457828342    26.0743   6  11   0.0510   0.0591   0.1995  -0.0246   0.0738  -0.0564   0.00    0.0
2018/11/08 00:43:30.000  -74.525917097  163.457829240    26.1256   6  11   0.0454   0.0526   0.1761  -0.0213   0.0646  -0.0489   2.00    0.0
2018/11/08 00:43:45.000  -74.525917031  163.457829218    26.1089   6  11   0.0400   0.0461   0.1535  -0.0183   0.0556  -0.0419   6.00    0.0
2018/11/08 00:44:00.000  -74.525916909  163.457829278    26.0886   6  11   0.0347   0.0396   0.1321  -0.0156   0.0470  -0.0357   6.00    0.0
2018/11/08 00:44:15.000  -74.525916841  163.457829390    26.0541   6  11   0.0297   0.0333   0.1121  -0.0133   0.0388  -0.0303   6.00    0.0
2018/11/08 00:44:30.000  -74.525916839  163.457829538    26.0427   6  11   0.0252   0.0274   0.0945  -0.0115   0.0315  -0.0260   6.00    0.0
2018/11/08 00:44:45.000  -74.525916902  163.457829880    26.0923   6  11   0.0216   0.0225   0.0804  -0.0101   0.0256  -0.0226   6.00    0.0
2018/11/08 00:45:00.000  -74.525916825  163.457829834    26.0779   6  11   0.0197   0.0201   0.0730  -0.0089   0.0223  -0.0203   6.00    0.0
2018/11/08 00:45:15.000  -74.525916769  163.457830174    26.0998   6  11   0.0220   0.0224   0.0825  -0.0102   0.0256  -0.0242   5.00    0.0
2018/11/08 00:45:30.000  -74.525916733  163.457830063    26.0796   6  11   0.0264   0.0272   0.0997  -0.0118   0.0316  -0.0305   5.00    0.0
2018/11/08 00:45:45.000  -74.525916683  163.457829504    26.0217   6  11   0.0320   0.0330   0.1214  -0.0140   0.0393  -0.0388   6.00    0.0
2018/11/08 00:46:00.000  -74.525916701  163.457828996    26.0184   6  11   0.0391   0.0391   0.1485  -0.0172   0.0483  -0.0505   6.00    0.0
2018/11/08 00:46:15.000  -74.525916566  163.457827685    25.9454   6  10   0.0593   0.0488   0.2334  -0.0330   0.0778  -0.0978   5.00    0.0
2018/11/08 00:46:30.000  -74.525916577  163.457827406    25.9123   6  10   0.0689   0.0557   0.2713  -0.0388   0.0908  -0.1152   5.00    0.0
2018/11/08 00:46:45.000  -74.525916636  163.457827285    25.9205   6  10   0.0786   0.0626   0.3093  -0.0446   0.1037  -0.1328   5.00    0.0
2018/11/08 00:47:00.000  -74.525916464  163.457826922    25.8505   6  10   0.0883   0.0694   0.3473  -0.0504   0.1165  -0.1503   5.00    0.0
2018/11/08 00:47:15.000  -74.525916579  163.457826986    25.8817   6  10   0.0980   0.0763   0.3851  -0.0561   0.1292  -0.1678   5.00    0.0
2018/11/08 00:47:30.000  -74.525916630  163.457826954    25.9122   6  10   0.1077   0.0831   0.4228  -0.0618   0.1417  -0.1853   5.00    0.0
2018/11/08 00:47:45.000  -74.525916577  163.457826396    25.8164   6  10   0.0979   0.0760   0.3837  -0.0556   0.1281  -0.1673   5.00    0.0
2018/11/08 00:48:00.000  -74.525916685  163.457826778    25.8679   6  10   0.0879   0.0688   0.3442  -0.0494   0.1143  -0.1491   5.00    0.0
2018/11/08 00:48:15.000  -74.525916807  163.457826878    25.9500   6  10   0.0781   0.0617   0.3051  -0.0433   0.1007  -0.1311   5.00    0.0
2018/11/08 00:48:30.000  -74.525916743  163.457827197    25.9582   6  10   0.0683   0.0547   0.2665  -0.0373   0.0873  -0.1133   5.00    0.0
2018/11/08 00:48:45.000  -74.525916782  163.457827732    25.9935   6  10   0.0586   0.0477   0.2286  -0.0314   0.0742  -0.0958   5.00    0.0
2018/11/08 00:49:00.000  -74.525916699  163.457827758    25.9503   6  10   0.0492   0.0408   0.1917  -0.0258   0.0613  -0.0787   5.00    0.0
2018/11/08 00:49:15.000  -74.525916786  163.457828480    25.9968   6  10   0.0401   0.0341   0.1563  -0.0206   0.0490  -0.0622   5.00    0.0
2018/11/08 00:49:30.000  -74.525916746  163.457828736    25.9804   6  10   0.0317   0.0278   0.1237  -0.0158   0.0375  -0.0468   5.00    0.0
2018/11/08 00:49:45.000  -74.525916855  163.457829365    26.0566   6  10   0.0247   0.0227   0.0964  -0.0120   0.0279  -0.0334   5.00    0.0
2018/11/08 00:50:00.000  -74.525916896  163.457829872    26.0870   6  10   0.0210   0.0201   0.0816  -0.0098   0.0224  -0.0254   5.00    0.0
2018/11/08 00:50:15.000  -74.525916908  163.457830145    26.0923   6   9   0.0249   0.0226   0.0996  -0.0119   0.0272  -0.0338   5.00    0.0
2018/11/08 00:50:30.000  -74.525916793  163.457830119    26.0457   6   9   0.0319   0.0276   0.1314  -0.0155   0.0360  -0.0478   5.00    0.0
2018/11/08 00:50:45.000  -74.525916548  163.457829609    25.9856   6   9   0.0404   0.0336   0.1692  -0.0199   0.0465  -0.0642   5.00    0.0
2018/11/08 00:51:00.000  -74.525916622  163.457829774    26.0726   6   9   0.0495   0.0399   0.2095  -0.0247   0.0577  -0.0816   5.00    0.0
2018/11/08 00:51:15.000  -74.525916716  163.457829520    26.1078   6   9   0.0588   0.0463   0.2510  -0.0296   0.0691  -0.0994   5.00    0.0
2018/11/08 00:51:30.000  -74.525916804  163.457829488    26.1297   6   9   0.0683   0.0528   0.2929  -0.0346   0.0805  -0.1175   5.00    0.0
2018/11/08 00:51:45.000  -74.525916734  163.457829025    26.1017   6   9   0.0779   0.0591   0.3351  -0.0396   0.0919  -0.1356   5.00    0.0
2018/11/08 00:52:00.000  -74.525916682  163.457828835    26.0508   6   9   0.0874   0.0655   0.3773  -0.0446   0.1031  -0.1537   5.00    0.0
2018/11/08 00:52:15.000  -74.525916763  163.457828947    26.0566   6   9   0.0970   0.0719   0.4194  -0.0496   0.1141  -0.1717   5.00    0.0
2018/11/08 00:52:30.000  -74.525916675  163.457828622    26.0067   6   9   0.1065   0.0782   0.4614  -0.0545   0.1249  -0.1896   5.00    0.0
2018/11/08 00:52:45.000  -74.525916648  163.457828545    26.0132   6   9   0.0966   0.0716   0.4171  -0.0487   0.1121  -0.1706   5.00    0.0
2018/11/08 00:53:00.000  -74.525916732  163.457828760    26.0644   6   9   0.0868   0.0649   0.3736  -0.0431   0.0996  -0.1518   5.00    0.0
2018/11/08 00:53:15.000  -74.525916607  163.457828710    26.0550   6  10   0.0620   0.0580   0.2422  -0.0342   0.0800  -0.0860   5.00    0.0
2018/11/08 00:53:30.000  -74.525916624  163.457829206    26.0758   6  10   0.0537   0.0514   0.2056  -0.0290   0.0681  -0.0696   5.00    0.0
2018/11/08 00:53:45.000  -74.525916583  163.457829515    26.0576   6  10   0.0468   0.0449   0.1754  -0.0246   0.0575  -0.0566   5.00    0.0
2018/11/08 00:54:00.000  -74.525916530  163.457829761    26.0695   6  10   0.0414   0.0386   0.1485  -0.0210   0.0474  -0.0444   5.00    0.0
2018/11/08 00:54:15.000  -74.525916619  163.457830030    26.0650   6  10   0.0326   0.0324   0.1221  -0.0164   0.0388  -0.0375   4.00    0.0
2018/11/08 00:54:30.000  -74.525916966  163.457831372    26.1648   1  10   0.0323   0.0287   0.1226  -0.0183   0.0430  -0.0438   3.00    1.0
2018/11/08 00:54:45.000  -74.525917127  163.457831227    26.1744   1  10   0.0264   0.0224   0.0984  -0.0142   0.0346  -0.0351   3.00    1.0
2018/11/08 00:55:00.000  -74.525917136  163.457830698    26.1440   1  10   0.0233   0.0192   0.0844  -0.0118   0.0301  -0.0294   3.00    1.0
2018/11/08 00:55:15.000  -74.525917107  163.457830317    26.0958   1  10   0.0268   0.0223   0.0981  -0.0144   0.0341  -0.0345   3.00    1.0
2018/11/08 00:55:30.000  -74.525917165  163.457830357    26.1496   1  10   0.0333   0.0287   0.1224  -0.0185   0.0419  -0.0428   3.00    1.0
2018/11/08 00:55:45.000  -74.525916733  163.457829286    26.1209   6  10   0.0322   0.0319   0.1150  -0.0152   0.0355  -0.0318   4.00    0.0
2018/11/08 00:56:00.000  -74.525916706  163.457829215    26.1089   6  10   0.0393   0.0377   0.1376  -0.0189   0.0432  -0.0384   4.00    0.0
2018/11/08 00:56:15.000  -74.525916820  163.457829191    26.0843   6  10   0.0436   0.0437   0.1600  -0.0220   0.0520  -0.0496   4.00    0.0
2018/11/08 00:56:30.000  -74.525916852  163.457829476    26.0846   6  10   0.0495   0.0497   0.1841  -0.0253   0.0604  -0.0582   4.00    0.0
2018/11/08 00:56:45.000  -74.525916894  163.457829455    26.1095   6  10   0.0556   0.0557   0.2088  -0.0290   0.0688  -0.0671   4.00    0.0
2018/11/08 00:57:00.000  -74.525916919  163.457829162    26.1122   6  10   0.0619   0.0617   0.2339  -0.0328   0.0772  -0.0762   4.00    0.0
2018/11/08 00:57:15.000  -74.525916974  163.457828975    26.0932   6  10   0.0684   0.0677   0.2592  -0.0366   0.0857  -0.0854   4.00    0.0
2018/11/08 00:57:30.000  -74.525916952  163.457828956    26.1007   6  10   0.0748   0.0737   0.2848  -0.0405   0.0941  -0.0946   4.00    0.0
2018/11/08 00:57:45.000  -74.525916995  163.457829276    26.1140   6  10   0.0682   0.0675   0.2594  -0.0363   0.0849  -0.0853   4.00    0.0
2018/11/08 00:58:00.000  -74.525917018  163.457828644    26.0818   6  10   0.0617   0.0612   0.2340  -0.0322   0.0759  -0.0761   4.00    0.0
2018/11/08 00:58:15.000  -74.525917016  163.457828638    26.0691   6  10   0.0552   0.0550   0.2089  -0.0281   0.0669  -0.0670   5.00    0.0
2018/11/08 00:58:30.000  -74.525917009  163.457828697    26.0926   6  10   0.0488   0.0489   0.1839  -0.0242   0.0581  -0.0580   5.00    0.0
2018/11/08 00:58:45.000  -74.525916946  163.457828675    26.0712   6  10   0.0425   0.0429   0.1594  -0.0204   0.0495  -0.0491   5.00    0.0
2018/11/08 00:59:00.000  -74.525916970  163.457828903    26.0973   6  10   0.0364   0.0369   0.1354  -0.0167   0.0412  -0.0405   5.00    0.0
2018/11/08 00:59:15.000  -74.525916993  163.457829190    26.1033   6  10   0.0305   0.0312   0.1124  -0.0134   0.0333  -0.0324   6.00    0.0
2018/11/08 00:59:30.000  -74.525917232  163.457830549    26.1855   1  10   0.0298   0.0297   0.1175  -0.0164   0.0386  -0.0443   3.00    1.0
2018/11/08 00:59:45.000  -74.525917290  163.457830975    26.1852   1  10   0.0233   0.0243   0.0916  -0.0127   0.0306  -0.0358   3.00    1.0
2018/11/08 01:00:00.000  -74.525917236  163.457830831    26.1663   1  10   0.0201   0.0220   0.0766  -0.0108   0.0265  -0.0311   3.00    1.0
2018/11/08 01:00:15.000  -74.525917209  163.457830560    26.1388   1  10   0.0236   0.0260   0.0927  -0.0134   0.0322  -0.0364   3.00    1.0
2018/11/08 01:00:30.000  -74.525917212  163.457830552    26.1444   1  10   0.0302   0.0332   0.1199  -0.0178   0.0422  -0.0454   3.00    1.0
2018/11/08 01:00:45.000  -74.525916794  163.457828711    26.0633   6  10   0.0303   0.0340   0.1118  -0.0134   0.0357  -0.0328   6.00    0.0
2018/11/08 01:01:00.000  -74.525916799  163.457828768    26.1141   6  10   0.0361   0.0401   0.1350  -0.0167   0.0438  -0.0412   6.00    0.0
2018/11/08 01:01:15.000  -74.525916745  163.457828619    26.1130   6  10   0.0422   0.0432   0.1586  -0.0199   0.0495  -0.0498   6.00    0.0
2018/11/08 01:01:30.000  -74.525916736  163.457828637    26.1369   6  10   0.0483   0.0489   0.1832  -0.0232   0.0571  -0.0586   6.00    0.0
2018/11/08 01:01:45.000  -74.525916715  163.457828562    26.1717   6  10   0.0547   0.0548   0.2085  -0.0266   0.0649  -0.0675   5.00    0.0
2018/11/08 01:02:00.000  -74.525916727  163.457828462    26.1323   6  10   0.0611   0.0609   0.2344  -0.0300   0.0732  -0.0765   5.00    0.0
2018/11/08 01:02:15.000  -74.525916786  163.457828892    26.1603   6  10   0.0676   0.0678   0.2615  -0.0332   0.0828  -0.0853   5.00    0.0
2018/11/08 01:02:30.000  -74.525916763  163.457828910    26.1903   6  10   0.0741   0.0724   0.2871  -0.0374   0.0889  -0.0950   4.00    0.0
2018/11/08 01:02:45.000  -74.525916696  163.457828987    26.1662   6  10   0.0676   0.0657   0.2592  -0.0337   0.0789  -0.0856   4.00    0.0
2018/11/08 01:03:00.000  -74.525916712  163.457829384    26.1780   6  10   0.0611   0.0595   0.2330  -0.0300   0.0701  -0.0765   5.00    0.0
2018/11/08 01:03:15.000  -74.525916732  163.457829167    26.1627   6  10   0.0548   0.0536   0.2072  -0.0266   0.0619  -0.0675   5.00    0.0
2018/11/08 01:03:30.000  -74.525916783  163.457829167    26.1634   6  10   0.0486   0.0480   0.1820  -0.0235   0.0542  -0.0588   5.00    0.0
2018/11/08 01:03:45.000  -74.525916836  163.457828918    26.1160   6  10   0.0429   0.0432   0.1578  -0.0217   0.0479  -0.0509   5.00    0.0
2018/11/08 01:04:00.000  -74.525916915  163.457828803    26.0951   6  10   0.0366   0.0357   0.1335  -0.0167   0.0384  -0.0421   5.00    0.0
2018/11/08 01:04:15.000  -74.525916870  163.457828567    26.0599   6  10   0.0304   0.0296   0.1091  -0.0127   0.0297  -0.0325   6.00    0.0
2018/11/08 01:04:30.000  -74.525917154  163.457829375    26.0913   1  10   0.0289   0.0266   0.1126  -0.0139   0.0316  -0.0417   5.00    1.0
2018/11/08 01:04:45.000  -74.525917175  163.457829901    26.1165   1  10   0.0225   0.0209   0.0863  -0.0101   0.0242  -0.0333   5.00    1.0
2018/11/08 01:05:00.000  -74.525917092  163.457830279    26.1268   1  10   0.0191   0.0181   0.0718  -0.0080   0.0203  -0.0285   5.00    1.0
2018/11/08 01:05:15.000  -74.525917166  163.457830789    26.1586   1  10   0.0227   0.0207   0.0877  -0.0096   0.0234  -0.0341   5.00    1.0
2018/11/08 01:05:30.000  -74.525917286  163.457831072    26.2028   1  10   0.0297   0.0264   0.1161  -0.0130   0.0298  -0.0439   5.00    1.0
2018/11/08 01:05:45.000  -74.525916962  163.457830121    26.1949   6  10   0.0302   0.0290   0.1081  -0.0107   0.0254  -0.0322   6.00    0.0
2018/11/08 01:06:00.000  -74.525916955  163.457829776    26.2165   6  10   0.0360   0.0345   0.1314  -0.0135   0.0318  -0.0407   6.00    0.0
2018/11/08 01:06:15.000  -74.525916952  163.457829477    26.2451   6  10   0.0420   0.0400   0.1556  -0.0166   0.0385  -0.0494   6.00    0.0
2018/11/08 01:06:30.000  -74.525916934  163.457829178    26.2752   6  10   0.0482   0.0456   0.1803  -0.0197   0.0452  -0.0583   6.00    0.0
2018/11/08 01:06:45.000  -74.525916840  163.457829375    26.3004   6  10   0.0545   0.0511   0.2053  -0.0230   0.0518  -0.0672   6.00    0.0
2018/11/08 01:07:00.000  -74.525916768  163.457829539    26.3180   6  10   0.0609   0.0567   0.2305  -0.0262   0.0583  -0.0761   5.00    0.0
2018/11/08 01:07:15.000  -74.525916724  163.457829021    26.3033   6  10   0.0673   0.0622   0.2558  -0.0294   0.0647  -0.0850   5.00    0.0
2018/11/08 01:07:30.000  -74.525916715  163.457828861    26.3116   6  10   0.0738   0.0678   0.2812  -0.0326   0.0710  -0.0939   5.00    0.0
2018/11/08 01:07:45.000  -74.525916659  163.457828548    26.3351   6  10   0.0674   0.0622   0.2563  -0.0291   0.0634  -0.0853   5.00    0.0
2018/11/08 01:08:00.000  -74.525916744  163.457828601    26.3540   6  10   0.0611   0.0565   0.2313  -0.0254   0.0556  -0.0768   5.00    0.0
2018/11/08 01:08:15.000  -74.525916709  163.457828357    26.3357   6  10   0.0549   0.0509   0.2070  -0.0216   0.0475  -0.0686   6.00    0.0
2018/11/08 01:08:30.000  -74.525916830  163.457829282    26.3131   6  10   0.0491   0.0455   0.1840  -0.0174   0.0389  -0.0612   6.00    0.0
2018/11/08 01:08:45.000  -74.525916856  163.457829671    26.2636   6  10   0.0440   0.0403   0.1645  -0.0117   0.0275  -0.0562   5.00    0.0
2018/11/08 01:09:00.000  -74.525916972  163.457829761    26.3115   6  10   0.0374   0.0341   0.1400  -0.0124   0.0278  -0.0466   6.00    0.0
2018/11/08 01:09:15.000  -74.525916924  163.457829461    26.2558   6  10   0.0310   0.0288   0.1121  -0.0091   0.0205  -0.0355   5.00    0.0
2018/11/08 01:09:30.000  -74.525917152  163.457829923    26.2608   1  10   0.0317   0.0264   0.1249  -0.0089   0.0197  -0.0494   5.00    1.0
2018/11/08 01:09:45.000  -74.525916936  163.457829406    26.1703   1  10   0.0180   0.0176   0.0618  -0.0063   0.0169  -0.0201   5.00    1.0
2018/11/08 01:10:00.000  -74.525916867  163.457829458    26.0517   1  10   0.0150   0.0139   0.0487  -0.0056   0.0147  -0.0156   5.00    1.0
2018/11/08 01:10:15.000  -74.525916827  163.457829380    26.0229   1  10   0.0175   0.0162   0.0588  -0.0067   0.0165  -0.0183   5.00    1.0
2018/11/08 01:10:30.000  -74.525916717  163.457829081    25.9909   1  10   0.0225   0.0204   0.0775  -0.0085   0.0206  -0.0237   5.00    1.0
2018/11/08 01:10:45.000  -74.525916969  163.457829603    26.0342   1  10   0.0361   0.0313   0.1382  -0.0156   0.0316  -0.0491   6.00    2.0
2018/11/08 01:11:00.000  -74.525916537  163.457828889    26.0114   6  10   0.0351   0.0335   0.1252  -0.0121   0.0258  -0.0372   5.00    1.0
2018/11/08 01:11:15.000  -74.525916477  163.457828625    26.0093   6  10   0.0410   0.0388   0.1487  -0.0148   0.0313  -0.0456   5.00    1.0
2018/11/08 01:11:30.000  -74.525916466  163.457828711    26.0499   6  10   0.0471   0.0442   0.1728  -0.0176   0.0366  -0.0541   5.00    1.0
2018/11/08 01:11:45.000  -74.525916492  163.457828851    26.1205   6  10   0.0533   0.0495   0.1971  -0.0204   0.0419  -0.0626   5.00    1.0
2018/11/08 01:12:00.000  -74.525916462  163.457829000    26.1292   6  10   0.0595   0.0549   0.2216  -0.0232   0.0470  -0.0712   5.00    1.0
2018/11/08 01:12:15.000  -74.525916454  163.457829180    26.1354   6  10   0.0659   0.0603   0.2461  -0.0260   0.0520  -0.0797   5.00    1.0
2018/11/08 01:12:30.000  -74.525916446  163.457829510    26.1235   6  10   0.0722   0.0656   0.2707  -0.0288   0.0567  -0.0881   6.00    1.0
2018/11/08 01:12:45.000  -74.525916447  163.457829643    26.1322   6  10   0.0658   0.0600   0.2455  -0.0255   0.0502  -0.0794   6.00    1.0
2018/11/08 01:13:00.000  -74.525916400  163.457829652    26.1210   6  10   0.0594   0.0545   0.2202  -0.0224   0.0440  -0.0706   6.00    1.0
2018/11/08 01:13:15.000  -74.525916446  163.457829806    26.1267   6  10   0.0530   0.0491   0.1953  -0.0193   0.0380  -0.0618   6.00    1.0
2018/11/08 01:13:30.000  -74.525916432  163.457829533    26.0932   6  10   0.0468   0.0437   0.1706  -0.0162   0.0319  -0.0531   6.00    1.0
2018/11/08 01:13:45.000  -74.525916497  163.457830008    26.1073   6  10   0.0407   0.0384   0.1464  -0.0132   0.0260  -0.0445   6.00    1.0
2018/11/08 01:14:00.000  -74.525916555  163.457829774    26.0936   6  10   0.0348   0.0331   0.1230  -0.0103   0.0200  -0.0362   6.00    1.0
2018/11/08 01:14:15.000  -74.525916678  163.457829677    26.0235   1  11   0.0291   0.0298   0.1077   0.0037  -0.0123  -0.0242   6.00    3.0
2018/11/08 01:14:30.000  -74.525916582  163.457828968    26.0120   1  11   0.0199   0.0197   0.0660   0.0034   0.0083  -0.0126   6.00    1.0
2018/11/08 01:14:45.000  -74.525916704  163.457829184    26.0248   1  11   0.0158   0.0167   0.0513   0.0039   0.0062  -0.0114   5.00    1.0
2018/11/08 01:15:00.000  -74.525916855  163.457829382    26.0361   1  11   0.0131   0.0143   0.0408   0.0010   0.0081  -0.0084   5.00    1.0
2018/11/08 01:15:15.000  -74.525916862  163.457829405    26.0364   1  11   0.0151   0.0161   0.0481  -0.0009   0.0093  -0.0081   5.00    1.0
2018/11/08 01:15:30.000  -74.525916809  163.457829300    26.0701   1  11   0.0192   0.0197   0.0621  -0.0006   0.0101  -0.0070   5.00    1.0
2018/11/08 01:15:45.000  -74.525916768  163.457828605    26.0840   1  11   0.0237   0.0239   0.0786   0.0014   0.0100  -0.0070   5.00    1.0
2018/11/08 01:16:00.000  -74.525917103  163.457829096    26.1230   1  11   0.0353   0.0366   0.1306  -0.0034  -0.0143  -0.0250   7.00    2.0
2018/11/08 01:16:15.000  -74.525916842  163.457828323    26.1446   6  11   0.0341   0.0365   0.1172   0.0051  -0.0139  -0.0091   5.00    1.0
2018/11/08 01:16:30.000  -74.525916831  163.457828401    26.1108   6  11   0.0389   0.0415   0.1356   0.0057  -0.0170  -0.0135   5.00    1.0
2018/11/08 01:16:45.000  -74.525916797  163.457828513    26.0974   6  11   0.0437   0.0465   0.1544   0.0061  -0.0201  -0.0177   6.00    1.0
2018/11/08 01:17:00.000  -74.525916775  163.457828771    26.0521   6  11   0.0486   0.0515   0.1735   0.0064  -0.0233  -0.0217   7.00    1.0
2018/11/08 01:17:15.000  -74.525916767  163.457829064    26.0434   6  11   0.0537   0.0566   0.1929   0.0067  -0.0266  -0.0257   7.00    1.0
2018/11/08 01:17:30.000  -74.525916878  163.457828940    26.0461   6  11   0.0587   0.0617   0.2124   0.0068  -0.0300  -0.0297   7.00    1.0
2018/11/08 01:17:45.000  -74.525916977  163.457829255    26.0827   6  12   0.0528   0.0547   0.1868  -0.0108  -0.0397  -0.0344   7.00    1.0
2018/11/08 01:18:00.000  -74.525917015  163.457829430    26.0490   6  12   0.0478   0.0495   0.1670  -0.0102  -0.0375  -0.0313   7.00    1.0
2018/11/08 01:18:15.000  -74.525916997  163.457829441    26.0599   6  12   0.0429   0.0446   0.1486  -0.0090  -0.0339  -0.0271   7.00    1.0
2018/11/08 01:18:30.000  -74.525917006  163.457829687    26.0527   6  12   0.0382   0.0398   0.1306  -0.0078  -0.0299  -0.0227   7.00    1.0
2018/11/08 01:18:45.000  -74.525916922  163.457830096    26.0328   6  12   0.0335   0.0351   0.1130  -0.0067  -0.0257  -0.0180   7.00    1.0
2018/11/08 01:19:00.000  -74.525917200  163.457830503    25.9973   1  12   0.0347   0.0343   0.1255  -0.0097  -0.0282  -0.0303   8.00    3.0
2018/11/08 01:19:15.000  -74.525916831  163.457829699    25.9434   1  12   0.0232   0.0226   0.0751  -0.0056  -0.0111  -0.0119   7.00    1.0
2018/11/08 01:19:30.000  -74.525916780  163.457829372    25.9650   1  12   0.0187   0.0183   0.0589  -0.0046  -0.0058  -0.0090   7.00    1.0
2018/11/08 01:19:45.000  -74.525916815  163.457829099    26.0061   1  12   0.0149   0.0146   0.0450  -0.0034   0.0039  -0.0073   7.00    1.0
2018/11/08 01:20:00.000  -74.525916856  163.457829437    26.0126   1  12   0.0126   0.0123   0.0371  -0.0022   0.0058  -0.0068   7.00    1.0
2018/11/08 01:20:15.000  -74.525916764  163.457829418    25.9924   1  12   0.0147   0.0144   0.0447  -0.0036   0.0030  -0.0069   7.00    1.0
2018/11/08 01:20:30.000  -74.525916644  163.457829929    25.9878   1  12   0.0186   0.0182   0.0585  -0.0043  -0.0067  -0.0085   7.00    1.0
2018/11/08 01:20:45.000  -74.525916539  163.457829955    25.9598   1  12   0.0230   0.0225   0.0748  -0.0053  -0.0122  -0.0115   7.00    1.0
2018/11/08 01:21:00.000  -74.525916784  163.457830267    25.9576   1  12   0.0346   0.0343   0.1266  -0.0092  -0.0295  -0.0305   8.00    3.0
2018/11/08 01:21:15.000  -74.525916491  163.457829648    25.9730   6  12   0.0333   0.0347   0.1133  -0.0063  -0.0273  -0.0186   8.00    1.0
2018/11/08 01:21:30.000  -74.525916535  163.457829869    25.9793   6  12   0.0380   0.0393   0.1314  -0.0073  -0.0321  -0.0239   8.00    1.0
2018/11/08 01:21:45.000  -74.525916542  163.457829730    25.9602   6  12   0.0427   0.0441   0.1499  -0.0085  -0.0370  -0.0290   8.00    1.0
2018/11/08 01:22:00.000  -74.525916468  163.457829353    25.9141   6  12   0.0476   0.0488   0.1687  -0.0098  -0.0420  -0.0341   8.00    1.0
2018/11/08 01:22:15.000  -74.525916340  163.457829055    25.9397   6  12   0.0525   0.0536   0.1877  -0.0111  -0.0470  -0.0391   8.00    1.0
2018/11/08 01:22:30.000  -74.525916339  163.457828855    25.9582   6  12   0.0575   0.0585   0.2069  -0.0124  -0.0520  -0.0442   8.00    1.0
2018/11/08 01:22:45.000  -74.525916449  163.457829200    26.0106   6  12   0.0525   0.0535   0.1882  -0.0104  -0.0474  -0.0395   8.00    1.0
2018/11/08 01:23:00.000  -74.525916518  163.457829324    26.0411   6  12   0.0475   0.0487   0.1695  -0.0089  -0.0427  -0.0346   8.00    1.0
2018/11/08 01:23:15.000  -74.525916560  163.457829382    26.0464   6  12   0.0427   0.0440   0.1509  -0.0075  -0.0379  -0.0296   8.00    1.0
2018/11/08 01:23:30.000  -74.525916610  163.457829445    26.0531   6  12   0.0379   0.0392   0.1325  -0.0063  -0.0332  -0.0245   8.00    1.0
2018/11/08 01:23:45.000  -74.525916588  163.457829545    26.0469   6  12   0.0332   0.0345   0.1143  -0.0052  -0.0285  -0.0193   8.00    1.0
2018/11/08 01:24:00.000  -74.525916965  163.457829782    26.0328   1  12   0.0345   0.0342   0.1280  -0.0078  -0.0315  -0.0309   8.00    3.0
2018/11/08 01:24:15.000  -74.525916663  163.457829240    26.0103   1  12   0.0229   0.0223   0.0752  -0.0044  -0.0143  -0.0119   8.00    1.0
2018/11/08 01:24:30.000  -74.525916755  163.457829195    25.9749   1  12   0.0184   0.0180   0.0584  -0.0037  -0.0096  -0.0083   8.00    1.0
2018/11/08 01:24:45.000  -74.525916799  163.457829236    25.9758   1  12   0.0147   0.0145   0.0441  -0.0024  -0.0046  -0.0060   8.00    1.0
2018/11/08 01:25:00.000  -74.525916823  163.457829350    25.9958   1  12   0.0127   0.0124   0.0362  -0.0019   0.0018  -0.0057   8.00    1.0
2018/11/08 01:25:15.000  -74.525916820  163.457829311    26.0091   1  12   0.0146   0.0144   0.0439  -0.0029  -0.0053  -0.0060   8.00    1.0
2018/11/08 01:25:30.000  -74.525916793  163.457829234    25.9987   1  12   0.0184   0.0180   0.0582  -0.0036  -0.0100  -0.0082   8.00    1.0
2018/11/08 01:25:45.000  -74.525916696  163.457828821    25.9930   1  12   0.0228   0.0223   0.0752  -0.0041  -0.0151  -0.0118   8.00    1.0
2018/11/08 01:26:00.000  -74.525916912  163.457829279    26.0186   1  12   0.0345   0.0342   0.1285  -0.0072  -0.0325  -0.0310   8.00    3.0
2018/11/08 01:26:15.000  -74.525916442  163.457828908    25.9722   6  12   0.0331   0.0341   0.1148  -0.0044  -0.0294  -0.0197   8.00    1.0
2018/11/08 01:26:30.000  -74.525916379  163.457828736    25.9684   6  12   0.0378   0.0387   0.1334  -0.0054  -0.0344  -0.0252   8.00    1.0
2018/11/08 01:26:45.000  -74.525916383  163.457828444    25.9737   6  12   0.0426   0.0435   0.1524  -0.0064  -0.0395  -0.0305   8.00    1.0
2018/11/08 01:27:00.000  -74.525916410  163.457828362    25.9676   6  12   0.0474   0.0482   0.1716  -0.0075  -0.0447  -0.0357   8.00    1.0
2018/11/08 01:27:15.000  -74.525916432  163.457828352    26.0176   6  12   0.0524   0.0531   0.1910  -0.0087  -0.0499  -0.0408   8.00    1.0
2018/11/08 01:27:30.000  -74.525916430  163.457828092    26.0108   6  12   0.0574   0.0579   0.2105  -0.0098  -0.0552  -0.0460   8.00    1.0
2018/11/08 01:27:45.000  -74.525916440  163.457827943    26.0308   6  12   0.0525   0.0531   0.1921  -0.0086  -0.0503  -0.0409   8.00    1.0
2018/11/08 01:28:00.000  -74.525916410  163.457827940    26.0114   6  12   0.0475   0.0483   0.1729  -0.0073  -0.0453  -0.0358   8.00    1.0
2018/11/08 01:28:15.000  -74.525916448  163.457828549    25.9891   6  12   0.0426   0.0435   0.1537  -0.0060  -0.0403  -0.0307   8.00    1.0
2018/11/08 01:28:30.000  -74.525916480  163.457828368    25.9796   6  12   0.0378   0.0388   0.1347  -0.0049  -0.0353  -0.0254   8.00    1.0
2018/11/08 01:28:45.000  -74.525916465  163.457828582    25.9728   6  12   0.0332   0.0341   0.1161  -0.0038  -0.0303  -0.0199   8.00    1.0
2018/11/08 01:29:00.000  -74.525916816  163.457828603    25.9975   1  12   0.0346   0.0343   0.1303  -0.0067  -0.0340  -0.0310   8.00    3.0
2018/11/08 01:29:15.000  -74.525916452  163.457828507    25.9795   1  12   0.0228   0.0224   0.0763  -0.0036  -0.0166  -0.0118   8.00    1.0
2018/11/08 01:29:30.000  -74.525916539  163.457828781    25.9692   1  12   0.0184   0.0181   0.0591  -0.0030  -0.0118  -0.0080   8.00    1.0
2018/11/08 01:29:45.000  -74.525916636  163.457828864    26.0015   1  12   0.0160   0.0149   0.0450   0.0046  -0.0057   0.0038   8.00    1.0
2018/11/08 01:30:00.000  -74.525916761  163.457829171    26.0018   1  12   0.0164   0.0136   0.0391  -0.0038  -0.0079   0.0112   8.00    1.0
2018/11/08 01:30:15.000  -74.525916787  163.457829255    26.0191   1  12   0.0178   0.0155   0.0466  -0.0034  -0.0095   0.0106   8.00    1.0
2018/11/08 01:30:30.000  -74.525916755  163.457828851    26.0233   1  12   0.0206   0.0187   0.0604  -0.0036  -0.0133   0.0078   8.00    1.0
2018/11/08 01:30:45.000  -74.525917107  163.457829010    26.0415   1  12   0.0306   0.0288   0.1060  -0.0062  -0.0293  -0.0203   8.00    1.0
2018/11/08 01:31:00.000  -74.525917093  163.457828837    26.0333   1  12   0.0368   0.0353   0.1316  -0.0074  -0.0362  -0.0274   8.00    1.0
2018/11/08 01:31:15.000  -74.525916648  163.457828577    26.0226   6  12   0.0330   0.0337   0.1158  -0.0032  -0.0308  -0.0202   8.00    0.0
2018/11/08 01:31:30.000  -74.525916655  163.457828837    25.9941   6  12   0.0377   0.0383   0.1345  -0.0039  -0.0360  -0.0257   8.00    0.0
2018/11/08 01:31:45.000  -74.525916602  163.457829111    25.9591   6  12   0.0425   0.0430   0.1535  -0.0049  -0.0412  -0.0310   8.00    0.0
2018/11/08 01:32:00.000  -74.525916603  163.457829388    25.9367   6  12   0.0474   0.0478   0.1727  -0.0058  -0.0465  -0.0362   8.00    0.0
2018/11/08 01:32:15.000  -74.525916618  163.457829366    25.9361   6  12   0.0524   0.0526   0.1920  -0.0068  -0.0519  -0.0414   8.00    0.0
2018/11/08 01:32:30.000  -74.525916547  163.457829532    25.9625   6  12   0.0574   0.0575   0.2113  -0.0078  -0.0572  -0.0464   8.00    0.0
2018/11/08 01:32:45.000  -74.525916501  163.457829459    25.9890   6  12   0.0525   0.0526   0.1915  -0.0064  -0.0520  -0.0415   8.00    0.0
2018/11/08 01:33:00.000  -74.525916545  163.457829196    26.0090   6  12   0.0475   0.0477   0.1722  -0.0052  -0.0468  -0.0364   8.00    0.0
2018/11/08 01:33:15.000  -74.525916648  163.457829602    26.0208   6  12   0.0426   0.0429   0.1529  -0.0041  -0.0416  -0.0311   8.00    0.0
2018/11/08 01:33:30.000  -74.525916627  163.457829679    26.0112   6  12   0.0378   0.0382   0.1339  -0.0029  -0.0365  -0.0258   8.00    0.0
2018/11/08 01:33:45.000  -74.525916646  163.457829648    26.0031   6  12   0.0331   0.0336   0.1152  -0.0019  -0.0314  -0.0203   8.00    0.0
2018/11/08 01:34:00.000  -74.525917052  163.457829562    26.0238   1  12   0.0370   0.0353   0.1308  -0.0065  -0.0371  -0.0275   8.00    1.0
2018/11/08 01:34:15.000  -74.525917042  163.457829204    26.0362   1  12   0.0308   0.0289   0.1053  -0.0052  -0.0304  -0.0203   8.00    1.0
2018/11/08 01:34:30.000  -74.525917046  163.457828980    26.0376   1  12   0.0253   0.0232   0.0819  -0.0044  -0.0243  -0.0129   8.00    1.0
2018/11/08 01:34:45.000  -74.525917110  163.457829118    26.0189   1  12   0.0212   0.0185   0.0625  -0.0035  -0.0193  -0.0044   8.00    1.0
2018/11/08 01:35:00.000  -74.525917012  163.457829226    26.0104   1  12   0.0194   0.0164   0.0521  -0.0009  -0.0167   0.0063   8.00    1.0
2018/11/08 01:35:15.000  -74.525916965  163.457828998    26.0235   1  12   0.0214   0.0184   0.0626  -0.0032  -0.0194  -0.0047   8.00    1.0
2018/11/08 01:35:30.000  -74.525916598  163.457828810    25.9636   1  12   0.0206   0.0187   0.0601  -0.0028  -0.0149   0.0074   8.00    1.0
2018/11/08 01:35:45.000  -74.525916538  163.457828491    25.9885   1  12   0.0244   0.0227   0.0764  -0.0027  -0.0193  -0.0065   8.00    1.0
2018/11/08 01:36:00.000  -74.525916992  163.457828830    26.0330   1  12   0.0372   0.0353   0.1303  -0.0057  -0.0376  -0.0275   8.00    1.0
2018/11/08 01:36:15.000  -74.525916581  163.457828591    25.9938   6  12   0.0331   0.0331   0.1144   0.0011  -0.0317  -0.0203   8.00    1.0
2018/11/08 01:36:30.000  -74.525916602  163.457828456    26.0051   6  12   0.0377   0.0377   0.1326  -0.0012  -0.0368  -0.0257   8.00    1.0
2018/11/08 01:36:45.000  -74.525916575  163.457828030    26.0192   6  12   0.0425   0.0424   0.1511  -0.0024  -0.0420  -0.0309   8.00    1.0
2018/11/08 01:37:00.000  -74.525916559  163.457828137    26.0211   6  12   0.0474   0.0472   0.1697  -0.0034  -0.0473  -0.0360   8.00    1.0
2018/11/08 01:37:15.000  -74.525916593  163.457828255    26.0148   6  12   0.0524   0.0520   0.1885  -0.0043  -0.0526  -0.0410   8.00    1.0
2018/11/08 01:37:30.000  -74.525916613  163.457828385    25.9836   6  12   0.0574   0.0569   0.2072  -0.0052  -0.0580  -0.0459   8.00    1.0
2018/11/08 01:37:45.000  -74.525916571  163.457828230    26.0059   6  12   0.0525   0.0521   0.1885  -0.0042  -0.0528  -0.0408   8.00    1.0
2018/11/08 01:38:00.000  -74.525916655  163.457828241    26.0204   6  12   0.0476   0.0472   0.1694  -0.0030  -0.0475  -0.0357   8.00    1.0
2018/11/08 01:38:15.000  -74.525916609  163.457828482    26.0265   6  12   0.0427   0.0424   0.1506  -0.0015  -0.0423  -0.0306   8.00    1.0
2018/11/08 01:38:30.000  -74.525916641  163.457828290    25.9950   6  12   0.0379   0.0377   0.1320   0.0016  -0.0371  -0.0253   8.00    1.0
2018/11/08 01:38:45.000  -74.525916579  163.457828489    25.9717   6  12   0.0332   0.0331   0.1139   0.0023  -0.0321  -0.0200   8.00    1.0
2018/11/08 01:39:00.000  -74.525917101  163.457829279    26.0030   1  12   0.0374   0.0354   0.1297  -0.0048  -0.0384  -0.0272   8.00    1.0
2018/11/08 01:39:15.000  -74.525916840  163.457829225    25.9723   1  12   0.0245   0.0228   0.0765  -0.0016  -0.0201  -0.0063   8.00    1.0
2018/11/08 01:39:30.000  -74.525916877  163.457829179    25.9694   1  12   0.0208   0.0188   0.0607  -0.0020  -0.0160   0.0072   8.00    1.0
2018/11/08 01:39:45.000  -74.525916848  163.457829121    25.9791   1  12   0.0179   0.0156   0.0477  -0.0019  -0.0128   0.0100   8.00    1.0
2018/11/08 01:40:00.000  -74.525916752  163.457829099    25.9687   1  12   0.0167   0.0139   0.0406  -0.0014  -0.0110   0.0108   8.00    1.0
2018/11/08 01:40:15.000  -74.525916581  163.457829174    25.9447   1  12   0.0182   0.0155   0.0481  -0.0013  -0.0133   0.0093   8.00    1.0
2018/11/08 01:40:30.000  -74.525916431  163.457828580    25.9747   1  12   0.0212   0.0188   0.0615   0.0018  -0.0169   0.0023   8.00    1.0
2018/11/08 01:40:45.000  -74.525916385  163.457828425    25.9736   1  12   0.0253   0.0228   0.0778   0.0035  -0.0214  -0.0119   8.00    1.0
2018/11/08 01:41:00.000  -74.525915870  163.457827797    25.9562   1  12   0.0449   0.0423   0.1358   0.0093  -0.0282   0.0179   8.00    1.0
2018/11/08 01:41:15.000  -74.525916229  163.457828312    25.9243   6  12   0.0358   0.0333   0.1190   0.0093  -0.0356  -0.0302   8.00    1.0
2018/11/08 01:41:30.000  -74.525916225  163.457828288    25.9202   6  12   0.0452   0.0385   0.1501   0.0156  -0.0458  -0.0497   7.00    0.0
2018/11/08 01:41:45.000  -74.525916400  163.457828381    25.9710   6  12   0.0456   0.0424   0.1566   0.0100  -0.0458  -0.0418   7.00    0.0
2018/11/08 01:42:00.000  -74.525916312  163.457828903    25.9413   6  12   0.0494   0.0470   0.1706   0.0083  -0.0496  -0.0421   7.00    0.0
2018/11/08 01:42:15.000  -74.525916292  163.457829176    25.9070   6  12   0.0538   0.0517   0.1868   0.0073  -0.0542  -0.0448   7.00    0.0
2018/11/08 01:42:30.000  -74.525916266  163.457828909    25.9144   6  12   0.0586   0.0566   0.2037   0.0065  -0.0591  -0.0482   7.00    0.0
2018/11/08 01:42:45.000  -74.525916349  163.457828444    25.8929   6  12   0.0534   0.0516   0.1849   0.0062  -0.0537  -0.0429   7.00    0.0
2018/11/08 01:43:00.000  -74.525916453  163.457828459    25.8913   6  12   0.0483   0.0468   0.1663   0.0059  -0.0483  -0.0377   7.00    0.0
2018/11/08 01:43:15.000  -74.525916547  163.457828786    25.9165   6  12   0.0433   0.0420   0.1481   0.0057  -0.0431  -0.0324   7.00    0.0
2018/11/08 01:43:30.000  -74.525916639  163.457828932    25.9231   6  12   0.0384   0.0373   0.1302   0.0054  -0.0380  -0.0271   7.00    0.0
2018/11/08 01:43:45.000  -74.525916618  163.457828809    25.9462   6  12   0.0337   0.0327   0.1128   0.0050  -0.0330  -0.0218   7.00    0.0
2018/11/08 01:44:00.000  -74.525917059  163.457828809    26.0400   1  12   0.0375   0.0355   0.1266  -0.0038  -0.0390  -0.0250   8.00    1.0
2018/11/08 01:44:15.000  -74.525917066  163.457828730    26.0570   1  12   0.0314   0.0293   0.1037  -0.0030  -0.0328  -0.0182   7.00    1.0
2018/11/08 01:44:30.000  -74.525917111  163.457828669    26.0644   1  12   0.0261   0.0237   0.0829  -0.0017  -0.0273  -0.0111   7.00    1.0
