% program   : RTKLIB ver.2.4.3
% inp file  : _by_type/_obs/shirase/20181109.18o
% inp file  : _by_type/_sp3+clk/igs20265.clk
% inp file  : _by_type/_sp3+clk/igs20265.sp3
% inp file  : _by_type/_nav/shirase/20181109.18n
% obs start : 2018/11/09 00:00:00.0 GPST (week2026 432000.0s)
% obs end   : 2018/11/09 23:59:45.0 GPST (week2026 518385.0s)
% pos mode  : ppp-kinematic
% solution  : combined
% elev mask : 15.0 deg
% dynamics  : off
% tidecorr  : on
% tropo opt : est ztd+grad
% ephemeris : precise
% navi sys  : gps glonass
% antenna1  :                       ( 0.0000  0.0000  0.0000)
%
% (lat/lon/height=WGS84/ellipsoidal,Q=1:fix,2:float,3:sbas,4:dgps,5:single,6:ppp,ns=# of satellites)
%  GPST                  latitude(deg) longitude(deg)  height(m)   Q  ns   sdn(m)   sde(m)   sdu(m)  sdne(m)  sdeu(m)  sdun(m) age(s)  ratio
2018/11/09 00:00:00.000  -74.525918905  163.457834218    26.2624   6   9   0.0203   0.0191   0.0643  -0.0081   0.0138  -0.0183   0.00    0.0
2018/11/09 00:00:15.000  -74.525918900  163.457834655    26.2762   6   9   0.0234   0.0226   0.0781  -0.0103   0.0189  -0.0232   0.00    0.0
2018/11/09 00:00:30.000  -74.525918781  163.457834628    26.2256   6   9   0.0292   0.0292   0.1017  -0.0134   0.0269  -0.0313   0.00    0.0
2018/11/09 00:00:45.000  -74.525918685  163.457834708    26.2365   6   9   0.0363   0.0373   0.1299  -0.0172   0.0359  -0.0406   0.00    0.0
2018/11/09 00:01:00.000  -74.525918637  163.457834742    26.2573   6   9   0.0442   0.0459   0.1603  -0.0213   0.0454  -0.0505   0.00    0.0
2018/11/09 00:01:15.000  -74.525918681  163.457834729    26.2820   6   9   0.0524   0.0548   0.1919  -0.0254   0.0551  -0.0607   0.00    0.0
2018/11/09 00:01:30.000  -74.525918720  163.457834118    26.3086   6   9   0.0608   0.0638   0.2239  -0.0296   0.0648  -0.0709   0.00    0.0
2018/11/09 00:01:45.000  -74.525918700  163.457834095    26.2712   6   9   0.0692   0.0728   0.2560  -0.0337   0.0745  -0.0811   1.00    0.0
2018/11/09 00:02:00.000  -74.525918716  163.457833349    26.2347   6   9   0.0775   0.0816   0.2879  -0.0377   0.0840  -0.0912   1.00    0.0
2018/11/09 00:02:15.000  -74.525918660  163.457832543    26.2361   6   9   0.0858   0.0902   0.3193  -0.0416   0.0933  -0.1011   2.00    0.0
2018/11/09 00:02:30.000  -74.525918598  163.457831641    26.1990   6   9   0.0938   0.0987   0.3501  -0.0453   0.1023  -0.1107   3.00    0.0
2018/11/09 00:02:45.000  -74.525918686  163.457831641    26.1664   6   9   0.0852   0.0897   0.3185  -0.0413   0.0935  -0.1006   2.00    0.0
2018/11/09 00:03:00.000  -74.525918802  163.457831923    26.1504   6   9   0.0768   0.0809   0.2878  -0.0375   0.0848  -0.0909   2.00    0.0
2018/11/09 00:03:15.000  -74.525918745  163.457832225    26.1171   6   9   0.0684   0.0720   0.2568  -0.0335   0.0759  -0.0810   3.00    0.0
2018/11/09 00:03:30.000  -74.525918726  163.457832332    26.0905   6   9   0.0601   0.0632   0.2256  -0.0296   0.0668  -0.0711   3.00    0.0
2018/11/09 00:03:45.000  -74.525918770  163.457832367    26.0851   6  10   0.0500   0.0536   0.1726  -0.0279   0.0643  -0.0502   3.00    0.0
2018/11/09 00:04:00.000  -74.525918948  163.457833201    26.1651   6  10   0.0422   0.0450   0.1457  -0.0235   0.0536  -0.0422   3.00    0.0
2018/11/09 00:04:15.000  -74.525919041  163.457834083    26.2296   6  10   0.0348   0.0367   0.1194  -0.0191   0.0429  -0.0344   3.00    0.0
2018/11/09 00:04:30.000  -74.525919017  163.457834328    26.2515   6  10   0.0281   0.0289   0.0949  -0.0150   0.0326  -0.0269   3.00    0.0
2018/11/09 00:04:45.000  -74.525918905  163.457833987    26.2262   6  10   0.0226   0.0226   0.0741  -0.0115   0.0236  -0.0204   3.00    0.0
2018/11/09 00:05:00.000  -74.525918911  163.457834064    26.2336   6  10   0.0199   0.0191   0.0622  -0.0091   0.0182  -0.0164   3.00    0.0
2018/11/09 00:05:15.000  -74.525918964  163.457834433    26.2653   6  10   0.0226   0.0226   0.0742  -0.0114   0.0237  -0.0205   3.00    0.0
2018/11/09 00:05:30.000  -74.525918953  163.457834332    26.2331   6  10   0.0280   0.0290   0.0952  -0.0150   0.0331  -0.0269   3.00    0.0
2018/11/09 00:05:45.000  -74.525918947  163.457834429    26.2615   6  10   0.0346   0.0366   0.1201  -0.0190   0.0434  -0.0342   3.00    0.0
2018/11/09 00:06:00.000  -74.525918986  163.457834277    26.2482   6  10   0.0417   0.0448   0.1464  -0.0231   0.0540  -0.0415   3.00    0.0
2018/11/09 00:06:15.000  -74.525918939  163.457833805    26.2092   6  10   0.0491   0.0530   0.1730  -0.0271   0.0643  -0.0486   3.00    0.0
2018/11/09 00:06:30.000  -74.525918984  163.457833421    26.1750   6  10   0.0564   0.0612   0.1994  -0.0309   0.0743  -0.0554   3.00    0.0
2018/11/09 00:06:45.000  -74.525918961  163.457832969    26.1428   6  10   0.0636   0.0691   0.2253  -0.0345   0.0838  -0.0619   3.00    0.0
2018/11/09 00:07:00.000  -74.525918984  163.457832921    26.1186   6  10   0.0707   0.0769   0.2508  -0.0380   0.0931  -0.0681   3.00    0.0
2018/11/09 00:07:15.000  -74.525919041  163.457832606    26.1297   6  10   0.0776   0.0845   0.2757  -0.0413   0.1021  -0.0742   3.00    0.0
2018/11/09 00:07:30.000  -74.525918903  163.457832180    26.1211   6  10   0.0843   0.0918   0.3002  -0.0446   0.1108  -0.0802   3.00    0.0
2018/11/09 00:07:45.000  -74.525918976  163.457832977    26.1722   6  10   0.0774   0.0843   0.2777  -0.0413   0.1027  -0.0749   3.00    0.0
2018/11/09 00:08:00.000  -74.525919038  163.457833089    26.1717   6  10   0.0704   0.0767   0.2539  -0.0379   0.0941  -0.0691   3.00    0.0
2018/11/09 00:08:15.000  -74.525919095  163.457833108    26.1561   6  10   0.0632   0.0689   0.2294  -0.0345   0.0852  -0.0631   3.00    0.0
2018/11/09 00:08:30.000  -74.525919046  163.457832894    26.1460   6  10   0.0560   0.0610   0.2041  -0.0309   0.0760  -0.0567   3.00    0.0
2018/11/09 00:08:45.000  -74.525919046  163.457832933    26.1145   6  10   0.0488   0.0529   0.1781  -0.0271   0.0663  -0.0500   3.00    0.0
2018/11/09 00:09:00.000  -74.525918992  163.457833200    26.1472   6  10   0.0415   0.0448   0.1516  -0.0232   0.0563  -0.0430   3.00    0.0
2018/11/09 00:09:15.000  -74.525918923  163.457833329    26.1608   6  10   0.0344   0.0368   0.1250  -0.0193   0.0459  -0.0356   3.00    0.0
2018/11/09 00:09:30.000  -74.525918917  163.457833693    26.2081   6  10   0.0279   0.0292   0.0994  -0.0154   0.0356  -0.0283   3.00    0.0
2018/11/09 00:09:45.000  -74.525918854  163.457833569    26.1772   6  10   0.0226   0.0228   0.0773  -0.0119   0.0263  -0.0217   3.00    0.0
2018/11/09 00:10:00.000  -74.525918931  163.457833939    26.2272   6  10   0.0199   0.0194   0.0643  -0.0101   0.0204  -0.0175   3.00    0.0
2018/11/09 00:10:15.000  -74.525919072  163.457833802    26.2385   6  10   0.0226   0.0229   0.0771  -0.0119   0.0264  -0.0215   3.00    0.0
2018/11/09 00:10:30.000  -74.525919231  163.457833352    26.2216   6  10   0.0276   0.0291   0.0988  -0.0153   0.0354  -0.0276   3.00    0.0
2018/11/09 00:10:45.000  -74.525919330  163.457833106    26.2706   6  10   0.0339   0.0365   0.1236  -0.0187   0.0453  -0.0340   3.00    0.0
2018/11/09 00:11:00.000  -74.525919219  163.457833005    26.2697   6  10   0.0405   0.0442   0.1491  -0.0221   0.0551  -0.0400   3.00    0.0
2018/11/09 00:11:15.000  -74.525919155  163.457833076    26.2737   6  10   0.0473   0.0520   0.1745  -0.0254   0.0645  -0.0458   2.00    0.0
2018/11/09 00:11:30.000  -74.525919095  163.457832771    26.2316   6  10   0.0541   0.0596   0.1997  -0.0286   0.0738  -0.0513   2.00    0.0
2018/11/09 00:11:45.000  -74.525919112  163.457833146    26.2298   6  10   0.0607   0.0671   0.2246  -0.0317   0.0829  -0.0568   2.00    0.0
2018/11/09 00:12:00.000  -74.525918954  163.457832187    26.1311   6  10   0.0673   0.0745   0.2494  -0.0349   0.0920  -0.0625   2.00    0.0
2018/11/09 00:12:15.000  -74.525918966  163.457831843    26.0584   6  10   0.0738   0.0818   0.2742  -0.0382   0.1012  -0.0685   3.00    0.0
2018/11/09 00:12:30.000  -74.525918969  163.457831508    26.0640   6  10   0.0801   0.0889   0.2989  -0.0415   0.1105  -0.0749   3.00    0.0
2018/11/09 00:12:45.000  -74.525918968  163.457832092    26.0598   6  10   0.0738   0.0817   0.2754  -0.0383   0.1018  -0.0690   3.00    0.0
2018/11/09 00:13:00.000  -74.525918939  163.457832030    26.0387   6  10   0.0672   0.0744   0.2516  -0.0351   0.0931  -0.0634   3.00    0.0
2018/11/09 00:13:15.000  -74.525919044  163.457832476    26.0928   6  10   0.0606   0.0670   0.2275  -0.0319   0.0842  -0.0578   3.00    0.0
2018/11/09 00:13:30.000  -74.525919136  163.457832706    26.1148   6  10   0.0539   0.0595   0.2029  -0.0287   0.0752  -0.0522   3.00    0.0
2018/11/09 00:13:45.000  -74.525919070  163.457832897    26.1199   6  10   0.0472   0.0518   0.1779  -0.0254   0.0661  -0.0466   3.00    0.0
2018/11/09 00:14:00.000  -74.525918989  163.457833201    26.1072   6  10   0.0404   0.0442   0.1523  -0.0221   0.0566  -0.0408   3.00    0.0
2018/11/09 00:14:15.000  -74.525918980  163.457833345    26.1478   6  10   0.0338   0.0365   0.1265  -0.0188   0.0469  -0.0346   3.00    0.0
2018/11/09 00:14:30.000  -74.525918981  163.457833503    26.1613   6  10   0.0277   0.0292   0.1013  -0.0154   0.0371  -0.0282   3.00    0.0
2018/11/09 00:14:45.000  -74.525919005  163.457833720    26.1763   6  10   0.0227   0.0231   0.0790  -0.0124   0.0281  -0.0221   3.00    0.0
2018/11/09 00:15:00.000  -74.525919023  163.457833963    26.2131   6  10   0.0199   0.0197   0.0659  -0.0103   0.0223  -0.0184   3.00    0.0
2018/11/09 00:15:15.000  -74.525918992  163.457834211    26.2097   6  10   0.0225   0.0228   0.0774  -0.0120   0.0274  -0.0212   3.00    0.0
2018/11/09 00:15:30.000  -74.525918875  163.457834018    26.1528   6  10   0.0272   0.0288   0.0988  -0.0149   0.0360  -0.0264   3.00    0.0
2018/11/09 00:15:45.000  -74.525918758  163.457833502    26.1046   6  10   0.0331   0.0359   0.1228  -0.0178   0.0452  -0.0317   3.00    0.0
2018/11/09 00:16:00.000  -74.525918689  163.457833159    26.1083   6  10   0.0394   0.0433   0.1477  -0.0207   0.0545  -0.0369   4.00    0.0
2018/11/09 00:16:15.000  -74.525918743  163.457833419    26.1567   6  10   0.0459   0.0508   0.1729  -0.0237   0.0638  -0.0423   3.00    0.0
2018/11/09 00:16:30.000  -74.525918825  163.457833575    26.2069   6  10   0.0524   0.0582   0.1983  -0.0269   0.0733  -0.0480   3.00    0.0
2018/11/09 00:16:45.000  -74.525918829  163.457833117    26.1902   6  10   0.0589   0.0656   0.2240  -0.0302   0.0830  -0.0543   4.00    0.0
2018/11/09 00:17:00.000  -74.525918935  163.457833435    26.2368   6  10   0.0654   0.0729   0.2498  -0.0336   0.0928  -0.0610   4.00    0.0
2018/11/09 00:17:15.000  -74.525919069  163.457833502    26.2437   6  11   0.0689   0.0800   0.2628  -0.0368   0.1033  -0.0794   3.00    0.0
2018/11/09 00:17:30.000  -74.525919026  163.457833070    26.2040   6  11   0.0750   0.0871   0.2870  -0.0405   0.1133  -0.0878   3.00    0.0
2018/11/09 00:17:45.000  -74.525918998  163.457833339    26.1949   6  11   0.0687   0.0801   0.2628  -0.0369   0.1036  -0.0797   3.00    0.0
2018/11/09 00:18:00.000  -74.525919001  163.457834146    26.2222   6  11   0.0625   0.0729   0.2389  -0.0334   0.0940  -0.0721   3.00    0.0
2018/11/09 00:18:15.000  -74.525919070  163.457834593    26.2685   6  11   0.0562   0.0656   0.2149  -0.0299   0.0844  -0.0646   3.00    0.0
2018/11/09 00:18:30.000  -74.525919124  163.457834658    26.2590   6  11   0.0500   0.0582   0.1909  -0.0266   0.0748  -0.0572   3.00    0.0
2018/11/09 00:18:45.000  -74.525919136  163.457834742    26.2760   6  11   0.0438   0.0507   0.1669  -0.0234   0.0652  -0.0500   3.00    0.0
2018/11/09 00:19:00.000  -74.525919139  163.457834481    26.2589   6  11   0.0376   0.0433   0.1430  -0.0204   0.0557  -0.0429   3.00    0.0
2018/11/09 00:19:15.000  -74.525919030  163.457833980    26.2171   6  11   0.0317   0.0359   0.1194  -0.0175   0.0462  -0.0359   3.00    0.0
2018/11/09 00:19:30.000  -74.525919068  163.457834109    26.2345   6  11   0.0263   0.0289   0.0965  -0.0146   0.0368  -0.0290   3.00    0.0
2018/11/09 00:19:45.000  -74.525919106  163.457833948    26.2071   6  11   0.0219   0.0230   0.0764  -0.0121   0.0282  -0.0226   3.00    0.0
2018/11/09 00:20:00.000  -74.525919079  163.457833952    26.1954   6  11   0.0195   0.0197   0.0645  -0.0105   0.0226  -0.0187   3.00    0.0
2018/11/09 00:20:15.000  -74.525919091  163.457834334    26.2219   6  11   0.0216   0.0228   0.0755  -0.0120   0.0277  -0.0219   3.00    0.0
2018/11/09 00:20:30.000  -74.525919146  163.457834727    26.2282   6  11   0.0259   0.0286   0.0944  -0.0140   0.0358  -0.0274   3.00    0.0
2018/11/09 00:20:45.000  -74.525919172  163.457834302    26.1904   6  11   0.0311   0.0354   0.1164  -0.0166   0.0447  -0.0337   3.00    0.0
2018/11/09 00:21:00.000  -74.525919253  163.457834270    26.2051   6  11   0.0369   0.0426   0.1398  -0.0193   0.0540  -0.0405   3.00    0.0
2018/11/09 00:21:15.000  -74.525919302  163.457834085    26.2224   6  11   0.0429   0.0499   0.1640  -0.0224   0.0637  -0.0477   3.00    0.0
2018/11/09 00:21:30.000  -74.525919306  163.457833497    26.2403   6  11   0.0490   0.0572   0.1889  -0.0257   0.0736  -0.0553   3.00    0.0
2018/11/09 00:21:45.000  -74.525919279  163.457832780    26.2280   6  11   0.0552   0.0645   0.2141  -0.0292   0.0838  -0.0634   3.00    0.0
2018/11/09 00:22:00.000  -74.525919310  163.457832900    26.2523   6  11   0.0613   0.0716   0.2396  -0.0328   0.0941  -0.0718   3.00    0.0
2018/11/09 00:22:15.000  -74.525919327  163.457833334    26.2610   6  11   0.0674   0.0787   0.2653  -0.0366   0.1045  -0.0804   4.00    0.0
2018/11/09 00:22:30.000  -74.525919219  163.457832683    26.2023   6  11   0.0735   0.0857   0.2910  -0.0405   0.1150  -0.0893   4.00    0.0
2018/11/09 00:22:45.000  -74.525919079  163.457833123    26.1781   6  11   0.0674   0.0786   0.2652  -0.0364   0.1042  -0.0803   4.00    0.0
2018/11/09 00:23:00.000  -74.525919000  163.457833237    26.1588   6  11   0.0612   0.0714   0.2400  -0.0326   0.0939  -0.0717   4.00    0.0
2018/11/09 00:23:15.000  -74.525918980  163.457834261    26.2054   6  11   0.0550   0.0642   0.2149  -0.0289   0.0836  -0.0634   4.00    0.0
2018/11/09 00:23:30.000  -74.525918842  163.457834579    26.1843   6  11   0.0488   0.0570   0.1898  -0.0253   0.0735  -0.0554   4.00    0.0
2018/11/09 00:23:45.000  -74.525918907  163.457834811    26.1675   6  11   0.0427   0.0496   0.1649  -0.0220   0.0635  -0.0477   4.00    0.0
2018/11/09 00:24:00.000  -74.525918945  163.457834384    26.1571   6  11   0.0366   0.0423   0.1405  -0.0189   0.0538  -0.0403   4.00    0.0
2018/11/09 00:24:15.000  -74.525919024  163.457834544    26.2030   6  11   0.0309   0.0351   0.1167  -0.0161   0.0443  -0.0334   5.00    0.0
2018/11/09 00:24:30.000  -74.525918965  163.457834742    26.1860   1  11   0.0266   0.0306   0.1111  -0.0160   0.0443  -0.0388   7.00    1.0
2018/11/09 00:24:45.000  -74.525919018  163.457834200    26.1758   1  11   0.0207   0.0237   0.0859  -0.0117   0.0336  -0.0301   7.00    1.0
2018/11/09 00:25:00.000  -74.525919005  163.457833863    26.1657   1  11   0.0177   0.0204   0.0725  -0.0089   0.0277  -0.0257   7.00    1.0
2018/11/09 00:25:15.000  -74.525919139  163.457834136    26.2258   1  11   0.0208   0.0244   0.0863  -0.0118   0.0338  -0.0305   7.00    1.0
2018/11/09 00:25:30.000  -74.525919119  163.457833909    26.2425   1  11   0.0268   0.0319   0.1118  -0.0165   0.0447  -0.0393   7.00    1.0
2018/11/09 00:25:45.000  -74.525919235  163.457833496    26.2755   6  11   0.0305   0.0361   0.1141  -0.0157   0.0426  -0.0318   5.00    0.0
2018/11/09 00:26:00.000  -74.525919137  163.457833039    26.2562   6  11   0.0362   0.0436   0.1376  -0.0186   0.0518  -0.0386   5.00    0.0
2018/11/09 00:26:15.000  -74.525918999  163.457832143    26.1636   6  11   0.0421   0.0516   0.1622  -0.0219   0.0614  -0.0460   5.00    0.0
2018/11/09 00:26:30.000  -74.525919059  163.457831716    26.1780   6  11   0.0481   0.0611   0.1874  -0.0259   0.0709  -0.0539   5.00    0.0
2018/11/09 00:26:45.000  -74.525919013  163.457831873    26.1835   6  11   0.0542   0.0657   0.2130  -0.0291   0.0827  -0.0625   4.00    0.0
2018/11/09 00:27:00.000  -74.525919080  163.457832383    26.2554   6  11   0.0602   0.0726   0.2385  -0.0327   0.0928  -0.0710   4.00    0.0
2018/11/09 00:27:15.000  -74.525919098  163.457832389    26.2647   6  11   0.0662   0.0799   0.2642  -0.0365   0.1031  -0.0797   4.00    0.0
2018/11/09 00:27:30.000  -74.525919066  163.457831865    26.2427   6  11   0.0722   0.0875   0.2898  -0.0406   0.1135  -0.0886   4.00    0.0
2018/11/09 00:27:45.000  -74.525919138  163.457832322    26.2884   6  11   0.0664   0.0836   0.2648  -0.0377   0.1026  -0.0800   4.00    0.0
2018/11/09 00:28:00.000  -74.525919135  163.457832745    26.2688   6  11   0.0602   0.0710   0.2391  -0.0323   0.0936  -0.0714   4.00    0.0
2018/11/09 00:28:15.000  -74.525919190  163.457833390    26.2873   6  11   0.0541   0.0632   0.2134  -0.0282   0.0829  -0.0627   4.00    0.0
2018/11/09 00:28:30.000  -74.525919193  163.457833518    26.2567   6  11   0.0480   0.0559   0.1880  -0.0245   0.0725  -0.0543   4.00    0.0
2018/11/09 00:28:45.000  -74.525919239  163.457834631    26.2534   6  11   0.0419   0.0486   0.1629  -0.0210   0.0624  -0.0464   4.00    0.0
2018/11/09 00:29:00.000  -74.525919187  163.457834835    26.2363   6  11   0.0360   0.0413   0.1383  -0.0178   0.0525  -0.0389   4.00    0.0
2018/11/09 00:29:15.000  -74.525919098  163.457834299    26.1874   6  11   0.0304   0.0342   0.1148  -0.0150   0.0432  -0.0321   5.00    0.0
2018/11/09 00:29:30.000  -74.525919127  163.457834712    26.2161   1  11   0.0270   0.0305   0.1139  -0.0165   0.0454  -0.0405   7.00    1.0
2018/11/09 00:29:45.000  -74.525919057  163.457833829    26.1401   1  11   0.0214   0.0236   0.0892  -0.0124   0.0351  -0.0324   7.00    1.0
2018/11/09 00:30:00.000  -74.525919023  163.457833665    26.1740   1  11   0.0184   0.0201   0.0761  -0.0101   0.0295  -0.0280   7.00    1.0
2018/11/09 00:30:15.000  -74.525918978  163.457833560    26.1758   1  11   0.0215   0.0237   0.0897  -0.0126   0.0353  -0.0328   7.00    1.0
2018/11/09 00:30:30.000  -74.525918967  163.457833269    26.1640   1  11   0.0272   0.0305   0.1146  -0.0167   0.0456  -0.0412   7.00    1.0
2018/11/09 00:30:45.000  -74.525918989  163.457832338    26.1431   6  11   0.0301   0.0337   0.1126  -0.0145   0.0421  -0.0311   5.00    0.0
2018/11/09 00:31:00.000  -74.525918921  163.457831884    26.1504   6  11   0.0356   0.0406   0.1355  -0.0171   0.0512  -0.0377   5.00    0.0
2018/11/09 00:31:15.000  -74.525919051  163.457832659    26.1885   6  11   0.0414   0.0475   0.1595  -0.0201   0.0607  -0.0449   5.00    0.0
2018/11/09 00:31:30.000  -74.525919234  163.457833177    26.2164   6  11   0.0472   0.0545   0.1840  -0.0233   0.0704  -0.0527   5.00    0.0
2018/11/09 00:31:45.000  -74.525919249  163.457832792    26.2053   6  11   0.0531   0.0613   0.2086  -0.0267   0.0803  -0.0607   5.00    0.0
2018/11/09 00:32:00.000  -74.525919276  163.457832352    26.1426   6  11   0.0590   0.0681   0.2334  -0.0303   0.0902  -0.0690   5.00    0.0
2018/11/09 00:32:15.000  -74.525919325  163.457832624    26.1891   6  11   0.0648   0.0749   0.2581  -0.0339   0.1002  -0.0774   5.00    0.0
2018/11/09 00:32:30.000  -74.525919203  163.457831906    26.1250   6  11   0.0706   0.0816   0.2828  -0.0376   0.1101  -0.0860   5.00    0.0
2018/11/09 00:32:45.000  -74.525919134  163.457831896    26.1101   6  11   0.0647   0.0748   0.2578  -0.0339   0.1000  -0.0770   5.00    0.0
2018/11/09 00:33:00.000  -74.525919068  163.457831984    26.0700   6  11   0.0587   0.0679   0.2325  -0.0301   0.0897  -0.0682   5.00    0.0
2018/11/09 00:33:15.000  -74.525918987  163.457832116    26.0699   6  11   0.0528   0.0610   0.2073  -0.0264   0.0795  -0.0597   5.00    0.0
2018/11/09 00:33:30.000  -74.525918952  163.457831944    26.0497   6  11   0.0469   0.0541   0.1825  -0.0229   0.0694  -0.0515   5.00    0.0
2018/11/09 00:33:45.000  -74.525918957  163.457832259    26.1062   6  11   0.0410   0.0471   0.1581  -0.0196   0.0596  -0.0438   5.00    0.0
2018/11/09 00:34:00.000  -74.525919041  163.457832966    26.1729   6  11   0.0353   0.0402   0.1344  -0.0166   0.0502  -0.0367   5.00    0.0
2018/11/09 00:34:15.000  -74.525919072  163.457832874    26.1378   6  11   0.0299   0.0334   0.1119  -0.0141   0.0412  -0.0304   5.00    0.0
2018/11/09 00:34:30.000  -74.525919056  163.457833120    26.1273   1  11   0.0275   0.0305   0.1155  -0.0169   0.0454  -0.0419   7.00    1.0
2018/11/09 00:34:45.000  -74.525919130  163.457833429    26.1659   1  11   0.0221   0.0238   0.0925  -0.0134   0.0360  -0.0346   7.00    1.0
2018/11/09 00:35:00.000  -74.525919127  163.457833692    26.2001   1  11   0.0191   0.0204   0.0799  -0.0112   0.0307  -0.0307   7.00    1.0
2018/11/09 00:35:15.000  -74.525919037  163.457833724    26.2156   1  11   0.0224   0.0239   0.0936  -0.0136   0.0363  -0.0354   7.00    1.0
2018/11/09 00:35:30.000  -74.525919084  163.457833784    26.2413   1  11   0.0280   0.0305   0.1169  -0.0172   0.0457  -0.0431   7.00    1.0
2018/11/09 00:35:45.000  -74.525919075  163.457833322    26.2839   6  11   0.0298   0.0329   0.1101  -0.0136   0.0401  -0.0300   5.00    0.0
2018/11/09 00:36:00.000  -74.525919058  163.457832657    26.2491   6  11   0.0351   0.0395   0.1315  -0.0160   0.0485  -0.0360   5.00    0.0
2018/11/09 00:36:15.000  -74.525919064  163.457832385    26.2516   6  11   0.0406   0.0461   0.1540  -0.0187   0.0574  -0.0426   5.00    0.0
2018/11/09 00:36:30.000  -74.525919284  163.457832811    26.3422   6  11   0.0462   0.0527   0.1768  -0.0217   0.0665  -0.0497   5.00    0.0
2018/11/09 00:36:45.000  -74.525919389  163.457833111    26.3315   6  11   0.0518   0.0593   0.1999  -0.0248   0.0757  -0.0572   5.00    0.0
2018/11/09 00:37:00.000  -74.525919266  163.457832977    26.2868   6  11   0.0575   0.0659   0.2230  -0.0281   0.0849  -0.0648   5.00    0.0
2018/11/09 00:37:15.000  -74.525919204  163.457832818    26.2625   6  11   0.0631   0.0724   0.2461  -0.0314   0.0941  -0.0726   5.00    0.0
2018/11/09 00:37:30.000  -74.525919133  163.457832986    26.2602   6  11   0.0687   0.0788   0.2691  -0.0348   0.1033  -0.0805   5.00    0.0
2018/11/09 00:37:45.000  -74.525919069  163.457832812    26.2204   6  11   0.0630   0.0720   0.2446  -0.0309   0.0933  -0.0722   5.00    0.0
2018/11/09 00:38:00.000  -74.525918963  163.457832369    26.1584   6  11   0.0572   0.0653   0.2206  -0.0274   0.0835  -0.0639   5.00    0.0
2018/11/09 00:38:15.000  -74.525918960  163.457832945    26.1997   6  11   0.0515   0.0587   0.1968  -0.0239   0.0739  -0.0560   5.00    0.0
2018/11/09 00:38:30.000  -74.525919022  163.457833394    26.2435   6  11   0.0458   0.0520   0.1735  -0.0206   0.0645  -0.0484   5.00    0.0
2018/11/09 00:38:45.000  -74.525919089  163.457833617    26.2832   6  11   0.0402   0.0453   0.1508  -0.0175   0.0553  -0.0413   5.00    0.0
2018/11/09 00:39:00.000  -74.525919132  163.457833711    26.3018   6  11   0.0347   0.0387   0.1288  -0.0148   0.0465  -0.0349   5.00    0.0
2018/11/09 00:39:15.000  -74.525919107  163.457833472    26.2629   6  11   0.0296   0.0322   0.1082  -0.0126   0.0382  -0.0294   5.00    0.0
2018/11/09 00:39:30.000  -74.525919201  163.457833669    26.2864   1  11   0.0279   0.0298   0.1150  -0.0166   0.0440  -0.0426   6.00    2.0
2018/11/09 00:39:45.000  -74.525919263  163.457833749    26.2779   1  11   0.0225   0.0236   0.0942  -0.0134   0.0357  -0.0360   6.00    2.0
2018/11/09 00:40:00.000  -74.525919319  163.457833851    26.2753   1  11   0.0195   0.0204   0.0830  -0.0117   0.0312  -0.0325   6.00    2.0
2018/11/09 00:40:15.000  -74.525919311  163.457834066    26.2277   1  11   0.0242   0.0237   0.1010  -0.0145   0.0371  -0.0403   6.00    2.0
2018/11/09 00:40:30.000  -74.525919280  163.457833977    26.2143   1  11   0.0318   0.0302   0.1307  -0.0190   0.0476  -0.0526   6.00    2.0
2018/11/09 00:40:45.000  -74.525919168  163.457834113    26.1869   6  11   0.0312   0.0317   0.1129  -0.0127   0.0377  -0.0351   5.00    0.0
2018/11/09 00:41:00.000  -74.525919128  163.457833933    26.1717   6  11   0.0370   0.0380   0.1350  -0.0152   0.0458  -0.0428   5.00    0.0
2018/11/09 00:41:15.000  -74.525919147  163.457833545    26.2028   6  11   0.0431   0.0444   0.1586  -0.0182   0.0546  -0.0515   5.00    0.0
2018/11/09 00:41:30.000  -74.525919196  163.457833465    26.2296   6  11   0.0496   0.0508   0.1838  -0.0217   0.0638  -0.0614   5.00    0.0
2018/11/09 00:41:45.000  -74.525919188  163.457833436    26.2379   6  11   0.0568   0.0573   0.2115  -0.0257   0.0736  -0.0732   5.00    0.0
2018/11/09 00:42:00.000  -74.525919193  163.457833080    26.2328   6  11   0.0654   0.0638   0.2448  -0.0306   0.0847  -0.0891   5.00    0.0
2018/11/09 00:42:15.000  -74.525918804  163.457832151    26.0601   6  10   0.0986   0.0761   0.3851  -0.0563   0.1301  -0.1684   4.00    0.0
2018/11/09 00:42:30.000  -74.525918803  163.457832237    26.0669   6  10   0.1084   0.0830   0.4235  -0.0622   0.1430  -0.1861   4.00    0.0
2018/11/09 00:42:45.000  -74.525918938  163.457832257    26.0977   6  10   0.0985   0.0758   0.3836  -0.0558   0.1288  -0.1677   4.00    0.0
2018/11/09 00:43:00.000  -74.525919092  163.457832793    26.1118   6  10   0.0885   0.0685   0.3436  -0.0495   0.1148  -0.1495   4.00    0.0
2018/11/09 00:43:15.000  -74.525919135  163.457832755    26.1210   6  10   0.0786   0.0613   0.3040  -0.0433   0.1010  -0.1314   4.00    0.0
2018/11/09 00:43:30.000  -74.525919158  163.457832422    26.1335   6  10   0.0688   0.0542   0.2649  -0.0371   0.0873  -0.1134   4.00    0.0
2018/11/09 00:43:45.000  -74.525919225  163.457832242    26.1408   6  10   0.0590   0.0470   0.2263  -0.0312   0.0739  -0.0958   4.00    0.0
2018/11/09 00:44:00.000  -74.525919378  163.457832623    26.2315   6  10   0.0494   0.0400   0.1887  -0.0254   0.0609  -0.0785   4.00    0.0
2018/11/09 00:44:15.000  -74.525919355  163.457832613    26.2287   6  10   0.0401   0.0330   0.1525  -0.0200   0.0483  -0.0619   4.00    0.0
2018/11/09 00:44:30.000  -74.525919384  163.457833210    26.2687   6  10   0.0315   0.0265   0.1190  -0.0151   0.0367  -0.0463   4.00    0.0
2018/11/09 00:44:45.000  -74.525919339  163.457833548    26.2362   1  10   0.0285   0.0237   0.1188  -0.0162   0.0393  -0.0506   6.00    2.0
2018/11/09 00:45:00.000  -74.525919360  163.457833882    26.2593   1  10   0.0223   0.0202   0.0943  -0.0127   0.0320  -0.0392   6.00    2.0
2018/11/09 00:45:15.000  -74.525919304  163.457833166    26.2331   1  10   0.0284   0.0235   0.1197  -0.0160   0.0386  -0.0504   6.00    2.0
2018/11/09 00:45:30.000  -74.525919027  163.457832221    26.0932   6  10   0.0312   0.0261   0.1199  -0.0146   0.0351  -0.0457   4.00    0.0
2018/11/09 00:45:45.000  -74.525919025  163.457832537    26.0935   6  10   0.0396   0.0324   0.1553  -0.0191   0.0455  -0.0612   4.00    0.0
2018/11/09 00:46:00.000  -74.525919030  163.457832753    26.1353   6  10   0.0487   0.0390   0.1970  -0.0240   0.0562  -0.0781   4.00    0.0
2018/11/09 00:46:15.000  -74.525919222  163.457832669    26.2232   6   9   0.0593   0.0456   0.2499  -0.0295   0.0692  -0.1004   4.00    0.0
2018/11/09 00:46:30.000  -74.525919307  163.457832603    26.2173   6   9   0.0689   0.0522   0.2926  -0.0347   0.0811  -0.1187   4.00    0.0
2018/11/09 00:46:45.000  -74.525919149  163.457831842    26.1698   6   9   0.0786   0.0587   0.3356  -0.0400   0.0929  -0.1371   4.00    0.0
2018/11/09 00:47:00.000  -74.525919084  163.457831865    26.1125   6   9   0.0883   0.0652   0.3785  -0.0452   0.1045  -0.1554   4.00    0.0
2018/11/09 00:47:15.000  -74.525919023  163.457831807    26.0720   6   9   0.0980   0.0717   0.4214  -0.0503   0.1160  -0.1737   4.00    0.0
2018/11/09 00:47:30.000  -74.525919047  163.457831333    26.0392   6   9   0.1076   0.0782   0.4642  -0.0554   0.1273  -0.1919   4.00    0.0
2018/11/09 00:47:45.000  -74.525919117  163.457831464    26.0735   6   9   0.0974   0.0711   0.4184  -0.0492   0.1137  -0.1722   4.00    0.0
2018/11/09 00:48:00.000  -74.525919208  163.457831738    26.0899   6   9   0.0874   0.0643   0.3745  -0.0435   0.1008  -0.1533   4.00    0.0
2018/11/09 00:48:15.000  -74.525919285  163.457831985    26.1465   6   9   0.0776   0.0575   0.3308  -0.0378   0.0881  -0.1345   4.00    0.0
2018/11/09 00:48:30.000  -74.525919450  163.457832507    26.2504   6   9   0.0678   0.0509   0.2873  -0.0323   0.0757  -0.1159   4.00    0.0
2018/11/09 00:48:45.000  -74.525919563  163.457832787    26.3332   6   9   0.0581   0.0442   0.2444  -0.0269   0.0636  -0.0974   4.00    0.0
2018/11/09 00:49:00.000  -74.525919523  163.457832868    26.3028   6  10   0.0485   0.0377   0.2020  -0.0218   0.0518  -0.0792   4.00    0.0
2018/11/09 00:49:15.000  -74.525919465  163.457833073    26.2799   6  10   0.0340   0.0313   0.1294  -0.0168   0.0402  -0.0437   4.00    0.0
2018/11/09 00:49:30.000  -74.525919423  163.457833644    26.2648   1  10   0.0300   0.0285   0.1223  -0.0170   0.0409  -0.0459   6.00    2.0
2018/11/09 00:49:45.000  -74.525919333  163.457833474    26.2134   1  10   0.0234   0.0222   0.0974  -0.0128   0.0320  -0.0374   6.00    2.0
2018/11/09 00:50:00.000  -74.525919393  163.457833818    26.2387   1  10   0.0200   0.0193   0.0833  -0.0105   0.0273  -0.0327   6.00    2.0
2018/11/09 00:50:15.000  -74.525919355  163.457833904    26.2077   1  10   0.0270   0.0223   0.1168  -0.0135   0.0332  -0.0476   6.00    2.0
2018/11/09 00:50:30.000  -74.525919349  163.457833447    26.1553   6  10   0.0303   0.0249   0.1203  -0.0121   0.0293  -0.0443   4.00    0.0
2018/11/09 00:50:45.000  -74.525919380  163.457833333    26.1458   6  10   0.0387   0.0308   0.1575  -0.0159   0.0383  -0.0603   4.00    0.0
2018/11/09 00:51:00.000  -74.525919388  163.457833110    26.1586   6  10   0.0475   0.0368   0.1967  -0.0200   0.0479  -0.0771   4.00    0.0
2018/11/09 00:51:15.000  -74.525919402  163.457833709    26.1878   6  10   0.0464   0.0430   0.1800  -0.0236   0.0565  -0.0625   4.00    0.0
2018/11/09 00:51:30.000  -74.525919431  163.457833721    26.2069   6  10   0.0516   0.0488   0.1974  -0.0262   0.0627  -0.0671   4.00    0.0
2018/11/09 00:51:45.000  -74.525919442  163.457833622    26.2520   6  10   0.0574   0.0549   0.2184  -0.0295   0.0702  -0.0737   4.00    0.0
2018/11/09 00:52:00.000  -74.525919362  163.457832883    26.2262   6  10   0.0635   0.0609   0.2413  -0.0331   0.0783  -0.0814   4.00    0.0
2018/11/09 00:52:15.000  -74.525919369  163.457832763    26.1988   6  10   0.0697   0.0670   0.2651  -0.0368   0.0865  -0.0896   4.00    0.0
2018/11/09 00:52:30.000  -74.525919373  163.457832656    26.1884   6  10   0.0761   0.0731   0.2897  -0.0406   0.0949  -0.0981   5.00    0.0
2018/11/09 00:52:45.000  -74.525919520  163.457832746    26.1815   6  10   0.0696   0.0672   0.2644  -0.0367   0.0861  -0.0889   4.00    0.0
2018/11/09 00:53:00.000  -74.525919469  163.457832832    26.1760   6  10   0.0630   0.0608   0.2387  -0.0326   0.0768  -0.0795   4.00    0.0
2018/11/09 00:53:15.000  -74.525919348  163.457832368    26.1487   6  10   0.0565   0.0546   0.2129  -0.0285   0.0677  -0.0702   4.00    0.0
2018/11/09 00:53:30.000  -74.525919351  163.457832416    26.1579   6  10   0.0500   0.0483   0.1873  -0.0245   0.0587  -0.0608   4.00    0.0
2018/11/09 00:53:45.000  -74.525919433  163.457832912    26.1793   6  10   0.0436   0.0421   0.1619  -0.0207   0.0498  -0.0515   4.00    0.0
2018/11/09 00:54:00.000  -74.525919527  163.457833317    26.1842   6  10   0.0373   0.0360   0.1368  -0.0170   0.0412  -0.0423   4.00    0.0
2018/11/09 00:54:15.000  -74.525919557  163.457833427    26.1752   6  10   0.0311   0.0300   0.1124  -0.0135   0.0329  -0.0334   4.00    0.0
2018/11/09 00:54:30.000  -74.525919517  163.457833464    26.2121   1  10   0.0282   0.0278   0.1128  -0.0153   0.0364  -0.0400   7.00    2.0
2018/11/09 00:54:45.000  -74.525919479  163.457833584    26.2081   1  10   0.0213   0.0217   0.0854  -0.0110   0.0278  -0.0306   7.00    2.0
2018/11/09 00:55:00.000  -74.525919344  163.457833630    26.2084   1  10   0.0173   0.0183   0.0687  -0.0090   0.0232  -0.0249   7.00    2.0
2018/11/09 00:55:15.000  -74.525919356  163.457833514    26.2178   1  10   0.0212   0.0216   0.0849  -0.0108   0.0274  -0.0303   7.00    2.0
2018/11/09 00:55:30.000  -74.525919293  163.457832749    26.1973   1  10   0.0280   0.0275   0.1119  -0.0149   0.0355  -0.0396   7.00    2.0
2018/11/09 00:55:45.000  -74.525919443  163.457833179    26.1820   6  10   0.0303   0.0295   0.1073  -0.0125   0.0307  -0.0310   4.00    0.0
2018/11/09 00:56:00.000  -74.525919476  163.457833320    26.2011   6  10   0.0362   0.0352   0.1307  -0.0157   0.0383  -0.0395   4.00    0.0
2018/11/09 00:56:15.000  -74.525919498  163.457833060    26.1617   6  10   0.0424   0.0411   0.1552  -0.0191   0.0461  -0.0484   5.00    0.0
2018/11/09 00:56:30.000  -74.525919488  163.457832772    26.1096   6  10   0.0486   0.0470   0.1802  -0.0226   0.0541  -0.0575   5.00    0.0
2018/11/09 00:56:45.000  -74.525919469  163.457833051    26.0688   6  10   0.0550   0.0528   0.2056  -0.0263   0.0620  -0.0667   5.00    0.0
2018/11/09 00:57:00.000  -74.525919545  163.457833540    26.0816   6  10   0.0614   0.0587   0.2313  -0.0299   0.0699  -0.0759   5.00    0.0
2018/11/09 00:57:15.000  -74.525919555  163.457833203    26.0798   6  10   0.0679   0.0646   0.2572  -0.0336   0.0777  -0.0851   5.00    0.0
2018/11/09 00:57:30.000  -74.525919524  163.457833322    26.0853   6  10   0.0744   0.0704   0.2831  -0.0372   0.0854  -0.0944   5.00    0.0
2018/11/09 00:57:45.000  -74.525919601  163.457833201    26.0602   6  10   0.0677   0.0641   0.2563  -0.0330   0.0764  -0.0849   5.00    0.0
2018/11/09 00:58:00.000  -74.525919515  163.457833034    26.0560   6  10   0.0612   0.0581   0.2303  -0.0291   0.0678  -0.0755   5.00    0.0
2018/11/09 00:58:15.000  -74.525919635  163.457833168    26.1060   6  10   0.0547   0.0520   0.2044  -0.0253   0.0594  -0.0662   5.00    0.0
2018/11/09 00:58:30.000  -74.525919612  163.457833217    26.1265   6  10   0.0483   0.0461   0.1788  -0.0215   0.0510  -0.0569   5.00    0.0
2018/11/09 00:58:45.000  -74.525919523  163.457833136    26.1241   6  10   0.0420   0.0402   0.1534  -0.0178   0.0429  -0.0477   5.00    0.0
2018/11/09 00:59:00.000  -74.525919500  163.457833067    26.1230   6  10   0.0358   0.0344   0.1285  -0.0143   0.0349  -0.0386   5.00    0.0
2018/11/09 00:59:15.000  -74.525919438  163.457832868    26.1129   6  10   0.0298   0.0287   0.1045  -0.0111   0.0274  -0.0298   5.00    0.0
2018/11/09 00:59:30.000  -74.525919421  163.457832694    26.1496   1  10   0.0280   0.0266   0.1098  -0.0138   0.0322  -0.0392   7.00    1.0
2018/11/09 00:59:45.000  -74.525919322  163.457832523    26.1487   1  10   0.0213   0.0209   0.0827  -0.0101   0.0247  -0.0303   7.00    1.0
2018/11/09 01:00:00.000  -74.525919398  163.457833504    26.2172   1  10   0.0180   0.0179   0.0674  -0.0085   0.0209  -0.0254   7.00    1.0
2018/11/09 01:00:15.000  -74.525919432  163.457833913    26.2633   1  10   0.0212   0.0206   0.0819  -0.0100   0.0241  -0.0300   7.00    1.0
2018/11/09 01:00:30.000  -74.525919448  163.457834052    26.2627   1  10   0.0278   0.0263   0.1085  -0.0134   0.0311  -0.0387   7.00    1.0
2018/11/09 01:00:45.000  -74.525919490  163.457833842    26.2290   1  10   0.0359   0.0332   0.1402  -0.0177   0.0396  -0.0492   7.00    1.0
2018/11/09 01:01:00.000  -74.525919498  163.457833550    26.1474   6  10   0.0353   0.0337   0.1263  -0.0133   0.0329  -0.0382   5.00    0.0
2018/11/09 01:01:15.000  -74.525919528  163.457833640    26.1481   6  10   0.0414   0.0393   0.1509  -0.0165   0.0398  -0.0472   5.00    0.0
2018/11/09 01:01:30.000  -74.525919519  163.457834028    26.1200   6  10   0.0477   0.0449   0.1760  -0.0197   0.0467  -0.0562   5.00    0.0
2018/11/09 01:01:45.000  -74.525919596  163.457834517    26.1317   6  10   0.0540   0.0505   0.2014  -0.0231   0.0536  -0.0653   5.00    0.0
2018/11/09 01:02:00.000  -74.525919520  163.457834480    26.0874   6  10   0.0604   0.0561   0.2270  -0.0264   0.0603  -0.0743   5.00    0.0
2018/11/09 01:02:15.000  -74.525919423  163.457834539    26.1144   6  10   0.0669   0.0617   0.2526  -0.0297   0.0669  -0.0834   5.00    0.0
2018/11/09 01:02:30.000  -74.525919349  163.457834363    26.0957   6  10   0.0733   0.0674   0.2783  -0.0330   0.0735  -0.0924   5.00    0.0
2018/11/09 01:02:45.000  -74.525919343  163.457834103    26.0813   6  10   0.0670   0.0615   0.2532  -0.0293   0.0657  -0.0836   5.00    0.0
2018/11/09 01:03:00.000  -74.525919405  163.457833888    26.0643   6  10   0.0605   0.0557   0.2271  -0.0257   0.0581  -0.0743   5.00    0.0
2018/11/09 01:03:15.000  -74.525919372  163.457833928    26.0959   6  10   0.0540   0.0500   0.2012  -0.0221   0.0507  -0.0651   5.00    0.0
2018/11/09 01:03:30.000  -74.525919459  163.457834054    26.1249   6  10   0.0476   0.0443   0.1755  -0.0186   0.0434  -0.0558   5.00    0.0
2018/11/09 01:03:45.000  -74.525919441  163.457833770    26.1432   6  10   0.0413   0.0387   0.1501  -0.0153   0.0362  -0.0466   5.00    0.0
2018/11/09 01:04:00.000  -74.525919407  163.457833734    26.1387   6  10   0.0352   0.0332   0.1252  -0.0121   0.0293  -0.0376   5.00    0.0
2018/11/09 01:04:15.000  -74.525919455  163.457833056    26.1867   1  10   0.0358   0.0325   0.1384  -0.0163   0.0351  -0.0481   7.00    1.0
2018/11/09 01:04:30.000  -74.525919511  163.457833047    26.1635   1  10   0.0277   0.0256   0.1061  -0.0123   0.0271  -0.0374   7.00    1.0
2018/11/09 01:04:45.000  -74.525919422  163.457833176    26.1848   1  10   0.0210   0.0202   0.0786  -0.0089   0.0208  -0.0284   7.00    1.0
2018/11/09 01:05:00.000  -74.525919355  163.457833309    26.1937   1  10   0.0177   0.0175   0.0629  -0.0075   0.0178  -0.0236   7.00    1.0
2018/11/09 01:05:15.000  -74.525919392  163.457833436    26.2161   1  10   0.0209   0.0201   0.0780  -0.0088   0.0204  -0.0281   7.00    1.0
2018/11/09 01:05:30.000  -74.525919387  163.457833275    26.2750   1  10   0.0275   0.0255   0.1049  -0.0118   0.0260  -0.0368   7.00    1.0
2018/11/09 01:05:45.000  -74.525919438  163.457833348    26.3389   1  10   0.0355   0.0321   0.1365  -0.0156   0.0329  -0.0472   7.00    1.0
2018/11/09 01:06:00.000  -74.525919367  163.457833845    26.3401   6  10   0.0348   0.0326   0.1229  -0.0109   0.0270  -0.0369   5.00    0.0
2018/11/09 01:06:15.000  -74.525919392  163.457833944    26.3913   6  10   0.0408   0.0379   0.1471  -0.0137   0.0326  -0.0457   5.00    0.0
2018/11/09 01:06:30.000  -74.525919359  163.457834489    26.4570   6  10   0.0470   0.0433   0.1718  -0.0166   0.0382  -0.0545   5.00    0.0
2018/11/09 01:06:45.000  -74.525919298  163.457834600    26.4454   6  10   0.0533   0.0487   0.1967  -0.0195   0.0437  -0.0632   5.00    0.0
2018/11/09 01:07:00.000  -74.525919321  163.457834575    26.4137   6  10   0.0596   0.0541   0.2216  -0.0225   0.0490  -0.0719   5.00    0.0
2018/11/09 01:07:15.000  -74.525919275  163.457834242    26.3405   6  10   0.0660   0.0595   0.2466  -0.0254   0.0542  -0.0806   5.00    0.0
2018/11/09 01:07:30.000  -74.525919328  163.457834127    26.2402   6  10   0.0724   0.0650   0.2715  -0.0283   0.0592  -0.0891   5.00    0.0
2018/11/09 01:07:45.000  -74.525919331  163.457834571    26.1894   6  10   0.0658   0.0594   0.2458  -0.0252   0.0529  -0.0801   5.00    0.0
2018/11/09 01:08:00.000  -74.525919378  163.457834695    26.1699   6  10   0.0593   0.0538   0.2202  -0.0219   0.0465  -0.0711   5.00    0.0
2018/11/09 01:08:15.000  -74.525919326  163.457834335    26.1587   6  10   0.0529   0.0483   0.1947  -0.0187   0.0404  -0.0622   5.00    0.0
2018/11/09 01:08:30.000  -74.525919360  163.457834424    26.1731   6  10   0.0466   0.0428   0.1695  -0.0155   0.0343  -0.0532   5.00    0.0
2018/11/09 01:08:45.000  -74.525919293  163.457833996    26.1373   6  10   0.0404   0.0374   0.1446  -0.0125   0.0285  -0.0443   5.00    0.0
2018/11/09 01:09:00.000  -74.525919291  163.457833816    26.1356   6  10   0.0344   0.0321   0.1202  -0.0096   0.0228  -0.0355   5.00    0.0
2018/11/09 01:09:15.000  -74.525919331  163.457832796    26.1988   1  10   0.0350   0.0316   0.1328  -0.0142   0.0278  -0.0453   7.00    1.0
2018/11/09 01:09:30.000  -74.525919273  163.457832455    26.1874   1  10   0.0271   0.0250   0.1012  -0.0107   0.0217  -0.0350   7.00    1.0
2018/11/09 01:09:45.000  -74.525919305  163.457832792    26.1840   1  10   0.0205   0.0197   0.0744  -0.0081   0.0170  -0.0264   7.00    1.0
2018/11/09 01:10:00.000  -74.525919258  163.457833134    26.1434   1  11   0.0154   0.0170   0.0538  -0.0044   0.0123  -0.0170   8.00    1.0
2018/11/09 01:10:15.000  -74.525919289  163.457833264    26.1259   1  11   0.0178   0.0193   0.0645  -0.0045   0.0112  -0.0181   8.00    1.0
2018/11/09 01:10:30.000  -74.525919253  163.457833338    26.0932   1  11   0.0228   0.0241   0.0837  -0.0048   0.0097  -0.0199   8.00    1.0
2018/11/09 01:10:45.000  -74.525919213  163.457833172    26.0594   1  11   0.0289   0.0302   0.1066  -0.0051   0.0052  -0.0221   8.00    1.0
2018/11/09 01:11:00.000  -74.525919229  163.457833027    26.0328   1  11   0.0355   0.0370   0.1314  -0.0054  -0.0085  -0.0247   8.00    1.0
2018/11/09 01:11:15.000  -74.525919182  163.457833276    26.0233   6  11   0.0339   0.0357   0.1145   0.0084  -0.0119  -0.0101   5.00    0.0
2018/11/09 01:11:30.000  -74.525919207  163.457833119    26.0427   6  11   0.0386   0.0406   0.1330   0.0092  -0.0150  -0.0139   5.00    0.0
2018/11/09 01:11:45.000  -74.525919259  163.457833304    26.0300   6  11   0.0435   0.0456   0.1520   0.0097  -0.0181  -0.0177   5.00    0.0
2018/11/09 01:12:00.000  -74.525919345  163.457833664    26.0270   6  11   0.0484   0.0507   0.1712   0.0100  -0.0212  -0.0214   5.00    0.0
2018/11/09 01:12:15.000  -74.525919361  163.457834431    25.9840   6  11   0.0535   0.0558   0.1906   0.0103  -0.0245  -0.0252   5.00    0.0
2018/11/09 01:12:30.000  -74.525919307  163.457834347    26.0228   6  11   0.0585   0.0610   0.2102   0.0105  -0.0278  -0.0289   5.00    0.0
2018/11/09 01:12:45.000  -74.525919330  163.457834290    26.0525   6  11   0.0535   0.0559   0.1918   0.0101  -0.0255  -0.0263   5.00    0.0
2018/11/09 01:13:00.000  -74.525919303  163.457834156    26.0647   6  11   0.0485   0.0507   0.1726   0.0100  -0.0232  -0.0230   6.00    0.0
2018/11/09 01:13:15.000  -74.525919327  163.457833644    26.0734   6  11   0.0435   0.0456   0.1535   0.0098  -0.0208  -0.0196   6.00    0.0
2018/11/09 01:13:30.000  -74.525919333  163.457833189    26.0663   6  11   0.0386   0.0406   0.1345   0.0093  -0.0183  -0.0161   6.00    0.0
2018/11/09 01:13:45.000  -74.525919310  163.457833745    26.1142   6  12   0.0331   0.0341   0.1120   0.0025  -0.0232  -0.0187   6.00    0.0
2018/11/09 01:14:00.000  -74.525919356  163.457833078    26.1762   1  12   0.0348   0.0352   0.1265  -0.0100  -0.0267  -0.0310   9.00    1.0
2018/11/09 01:14:15.000  -74.525919310  163.457833058    26.1744   1  12   0.0283   0.0289   0.1027  -0.0081  -0.0198  -0.0260   9.00    1.0
2018/11/09 01:14:30.000  -74.525919291  163.457833324    26.1881   1  12   0.0223   0.0232   0.0805  -0.0065  -0.0126  -0.0216   9.00    1.0
2018/11/09 01:14:45.000  -74.525919279  163.457833298    26.1792   1  12   0.0175   0.0188   0.0617  -0.0052  -0.0038  -0.0181   9.00    1.0
2018/11/09 01:15:00.000  -74.525919323  163.457833156    26.1388   1  12   0.0150   0.0164   0.0508  -0.0046   0.0062  -0.0163   9.00    1.0
2018/11/09 01:15:15.000  -74.525919330  163.457833312    26.1054   1  12   0.0174   0.0188   0.0615  -0.0052  -0.0053  -0.0179   9.00    1.0
2018/11/09 01:15:30.000  -74.525919416  163.457833710    26.0907   1  12   0.0223   0.0232   0.0805  -0.0064  -0.0136  -0.0213   9.00    1.0
2018/11/09 01:15:45.000  -74.525919453  163.457833810    26.1046   1  12   0.0281   0.0289   0.1031  -0.0079  -0.0210  -0.0259   9.00    1.0
2018/11/09 01:16:00.000  -74.525919525  163.457834044    26.1145   1  12   0.0347   0.0352   0.1276  -0.0096  -0.0283  -0.0311   9.00    1.0
2018/11/09 01:16:15.000  -74.525919482  163.457834660    26.0826   6  12   0.0328   0.0336   0.1106   0.0036  -0.0258  -0.0201   6.00    0.0
2018/11/09 01:16:30.000  -74.525919498  163.457834791    26.0869   6  12   0.0375   0.0382   0.1289   0.0021  -0.0307  -0.0251   6.00    0.0
2018/11/09 01:16:45.000  -74.525919535  163.457835002    26.1048   6  12   0.0423   0.0430   0.1475  -0.0032  -0.0356  -0.0301   6.00    0.0
2018/11/09 01:17:00.000  -74.525919577  163.457835039    26.1041   6  12   0.0472   0.0478   0.1664  -0.0055  -0.0406  -0.0350   6.00    0.0
2018/11/09 01:17:15.000  -74.525919580  163.457835214    26.0853   6  12   0.0521   0.0526   0.1855  -0.0074  -0.0456  -0.0399   6.00    0.0
2018/11/09 01:17:30.000  -74.525919505  163.457835200    26.0645   6  12   0.0571   0.0575   0.2048  -0.0092  -0.0507  -0.0448   6.00    0.0
2018/11/09 01:17:45.000  -74.525919540  163.457835076    26.1010   6  12   0.0522   0.0527   0.1859  -0.0077  -0.0459  -0.0401   6.00    0.0
2018/11/09 01:18:00.000  -74.525919500  163.457834781    26.1289   6  12   0.0473   0.0478   0.1672  -0.0056  -0.0412  -0.0354   7.00    0.0
2018/11/09 01:18:15.000  -74.525919509  163.457834704    26.0958   6  12   0.0424   0.0430   0.1485  -0.0030  -0.0365  -0.0306   7.00    0.0
2018/11/09 01:18:30.000  -74.525919537  163.457835061    26.0981   6  12   0.0376   0.0383   0.1299   0.0025  -0.0317  -0.0257   7.00    0.0
2018/11/09 01:18:45.000  -74.525919548  163.457835032    26.0938   6  12   0.0329   0.0336   0.1116   0.0039  -0.0270  -0.0207   7.00    0.0
2018/11/09 01:19:00.000  -74.525919668  163.457834516    26.1092   1  12   0.0348   0.0353   0.1288  -0.0093  -0.0302  -0.0314   9.00    1.0
2018/11/09 01:19:15.000  -74.525919644  163.457834463    26.1289   1  12   0.0283   0.0290   0.1037  -0.0076  -0.0232  -0.0258   9.00    1.0
2018/11/09 01:19:30.000  -74.525919498  163.457834078    26.1182   1  12   0.0223   0.0233   0.0803  -0.0063  -0.0162  -0.0209   9.00    1.0
2018/11/09 01:19:45.000  -74.525919389  163.457833538    26.1320   1  12   0.0173   0.0189   0.0605  -0.0050  -0.0095  -0.0171   9.00    1.0
2018/11/09 01:20:00.000  -74.525919334  163.457833090    26.1143   1  12   0.0147   0.0167   0.0495  -0.0050  -0.0046  -0.0153   9.00    1.0
2018/11/09 01:20:15.000  -74.525919258  163.457833573    26.1111   1  12   0.0175   0.0187   0.0604  -0.0052  -0.0100  -0.0170   9.00    1.0
2018/11/09 01:20:30.000  -74.525919223  163.457833528    26.1338   1  12   0.0222   0.0232   0.0802  -0.0060  -0.0168  -0.0207   9.00    1.0
2018/11/09 01:20:45.000  -74.525919292  163.457833508    26.1477   1  12   0.0282   0.0289   0.1039  -0.0074  -0.0240  -0.0258   9.00    1.0
2018/11/09 01:21:00.000  -74.525919237  163.457832932    26.1837   1  12   0.0348   0.0353   0.1294  -0.0089  -0.0314  -0.0315   9.00    1.0
2018/11/09 01:21:15.000  -74.525918991  163.457833123    26.1424   6  12   0.0327   0.0332   0.1123   0.0048  -0.0278  -0.0212   7.00    0.0
2018/11/09 01:21:30.000  -74.525918986  163.457834106    26.0954   6  12   0.0374   0.0378   0.1312   0.0042  -0.0329  -0.0265   7.00    0.0
2018/11/09 01:21:45.000  -74.525918944  163.457833870    26.0724   6  12   0.0423   0.0426   0.1504   0.0027  -0.0381  -0.0316   7.00    0.0
2018/11/09 01:22:00.000  -74.525918922  163.457834177    26.0322   6  12   0.0472   0.0474   0.1698  -0.0027  -0.0434  -0.0367   7.00    0.0
2018/11/09 01:22:15.000  -74.525918879  163.457833808    26.0077   6  12   0.0522   0.0522   0.1893  -0.0050  -0.0487  -0.0417   7.00    0.0
2018/11/09 01:22:30.000  -74.525918828  163.457834228    25.9958   6  12   0.0572   0.0571   0.2090  -0.0068  -0.0540  -0.0468   7.00    0.0
2018/11/09 01:22:45.000  -74.525918961  163.457834723    25.9650   6  12   0.0522   0.0523   0.1900  -0.0040  -0.0489  -0.0418   7.00    0.0
2018/11/09 01:23:00.000  -74.525918987  163.457834321    26.0004   6  12   0.0472   0.0474   0.1707   0.0020  -0.0438  -0.0369   7.00    0.0
2018/11/09 01:23:15.000  -74.525919032  163.457834058    26.0346   6  12   0.0423   0.0426   0.1514   0.0043  -0.0388  -0.0318   7.00    0.0
2018/11/09 01:23:30.000  -74.525919067  163.457833604    26.0163   6  12   0.0375   0.0378   0.1322   0.0053  -0.0337  -0.0267   7.00    0.0
2018/11/09 01:23:45.000  -74.525919058  163.457833325    26.0357   6  12   0.0327   0.0332   0.1133   0.0057  -0.0287  -0.0215   7.00    0.0
2018/11/09 01:24:00.000  -74.525919135  163.457832638    26.0805   1  12   0.0349   0.0354   0.1308  -0.0079  -0.0329  -0.0317   9.00    1.0
2018/11/09 01:24:15.000  -74.525919140  163.457832719    26.1024   1  12   0.0283   0.0291   0.1049  -0.0067  -0.0257  -0.0258   9.00    1.0
2018/11/09 01:24:30.000  -74.525919197  163.457832757    26.1242   1  12   0.0222   0.0234   0.0808  -0.0055  -0.0188  -0.0206   9.00    1.0
2018/11/09 01:24:45.000  -74.525919216  163.457832859    26.1123   1  12   0.0175   0.0189   0.0605  -0.0044  -0.0127  -0.0166   9.00    1.0
2018/11/09 01:25:00.000  -74.525919291  163.457832926    26.1067   1  12   0.0152   0.0166   0.0491  -0.0046  -0.0092  -0.0148   9.00    1.0
2018/11/09 01:25:15.000  -74.525919248  163.457833369    26.0848   1  12   0.0175   0.0190   0.0604  -0.0049  -0.0131  -0.0165   9.00    1.0
2018/11/09 01:25:30.000  -74.525919037  163.457833914    26.0288   6  12   0.0199   0.0199   0.0603   0.0046  -0.0146  -0.0012   7.00    0.0
2018/11/09 01:25:45.000  -74.525919086  163.457834279    25.9908   6  12   0.0237   0.0239   0.0768   0.0054  -0.0192  -0.0105   7.00    0.0
2018/11/09 01:26:00.000  -74.525919110  163.457834253    25.9789   6  12   0.0280   0.0283   0.0947   0.0059  -0.0242  -0.0164   7.00    0.0
2018/11/09 01:26:15.000  -74.525919174  163.457834285    25.9796   6  12   0.0326   0.0328   0.1133   0.0061  -0.0293  -0.0218   7.00    0.0
2018/11/09 01:26:30.000  -74.525919179  163.457833596    25.9755   6  12   0.0373   0.0374   0.1324   0.0059  -0.0346  -0.0271   7.00    0.0
2018/11/09 01:26:45.000  -74.525919155  163.457833630    25.9850   6  12   0.0422   0.0422   0.1516   0.0055  -0.0399  -0.0323   7.00    0.0
2018/11/09 01:27:00.000  -74.525919216  163.457833702    26.0283   6  12   0.0471   0.0470   0.1711   0.0046  -0.0453  -0.0374   7.00    0.0
2018/11/09 01:27:15.000  -74.525919209  163.457833453    26.0018   6  12   0.0521   0.0519   0.1906   0.0032  -0.0507  -0.0425   7.00    0.0
2018/11/09 01:27:30.000  -74.525919164  163.457833324    25.9923   6  12   0.0571   0.0568   0.2101  -0.0017  -0.0561  -0.0475   7.00    0.0
2018/11/09 01:27:45.000  -74.525919090  163.457833664    25.9488   6  12   0.0521   0.0519   0.1901   0.0034  -0.0509  -0.0427   7.00    0.0
2018/11/09 01:28:00.000  -74.525919142  163.457833539    25.9600   6  12   0.0471   0.0470   0.1705   0.0050  -0.0457  -0.0376   7.00    0.0
2018/11/09 01:28:15.000  -74.525919163  163.457833156    25.9491   6  12   0.0422   0.0422   0.1510   0.0058  -0.0404  -0.0325   7.00    0.0
2018/11/09 01:28:30.000  -74.525919110  163.457832839    25.9624   6  12   0.0373   0.0374   0.1317   0.0063  -0.0352  -0.0274   7.00    0.0
2018/11/09 01:28:45.000  -74.525919094  163.457832415    25.9212   6  12   0.0326   0.0328   0.1127   0.0064  -0.0300  -0.0221   7.00    0.0
2018/11/09 01:29:00.000  -74.525919174  163.457832465    25.9160   6  12   0.0280   0.0282   0.0942   0.0062  -0.0250  -0.0167   7.00    0.0
2018/11/09 01:29:15.000  -74.525919160  163.457832536    25.9449   6  12   0.0237   0.0239   0.0764   0.0057  -0.0201  -0.0108   7.00    0.0
2018/11/09 01:29:30.000  -74.525919224  163.457832507    25.9714   6  12   0.0199   0.0199   0.0601   0.0050  -0.0157  -0.0025   7.00    0.0
2018/11/09 01:29:45.000  -74.525919217  163.457832977    26.0131   6  12   0.0170   0.0165   0.0467   0.0040  -0.0118   0.0075   7.00    0.0
2018/11/09 01:30:00.000  -74.525919302  163.457832892    26.1117   1  12   0.0155   0.0171   0.0493  -0.0044  -0.0112  -0.0148   9.00    1.0
2018/11/09 01:30:15.000  -74.525919233  163.457833225    26.0974   6  12   0.0169   0.0167   0.0469   0.0044  -0.0120   0.0074   7.00    0.0
2018/11/09 01:30:30.000  -74.525919222  163.457833320    26.0852   6  12   0.0198   0.0197   0.0601   0.0050  -0.0159  -0.0033   7.00    0.0
2018/11/09 01:30:45.000  -74.525919208  163.457833193    26.0855   6  12   0.0237   0.0236   0.0762   0.0058  -0.0204  -0.0110   7.00    0.0
2018/11/09 01:31:00.000  -74.525919205  163.457832997    26.1053   6  12   0.0280   0.0279   0.0938   0.0063  -0.0253  -0.0168   7.00    0.0
2018/11/09 01:31:15.000  -74.525919207  163.457832721    26.1258   6  12   0.0325   0.0324   0.1120   0.0066  -0.0304  -0.0221   7.00    0.0
2018/11/09 01:31:30.000  -74.525919247  163.457832738    26.0885   6  12   0.0372   0.0370   0.1307   0.0066  -0.0357  -0.0273   7.00    0.0
2018/11/09 01:31:45.000  -74.525919249  163.457832627    26.0728   6  12   0.0421   0.0418   0.1495   0.0064  -0.0410  -0.0324   7.00    0.0
2018/11/09 01:32:00.000  -74.525919417  163.457832669    26.0707   6  12   0.0470   0.0466   0.1685   0.0060  -0.0464  -0.0374   7.00    0.0
2018/11/09 01:32:15.000  -74.525919434  163.457832875    26.0723   6  12   0.0520   0.0515   0.1875   0.0055  -0.0518  -0.0423   7.00    0.0
2018/11/09 01:32:30.000  -74.525919362  163.457832854    26.0629   6  12   0.0571   0.0564   0.2065   0.0048  -0.0572  -0.0472   7.00    0.0
2018/11/09 01:32:45.000  -74.525919453  163.457832750    26.0875   6  12   0.0522   0.0514   0.1874   0.0059  -0.0518  -0.0426   7.00    0.0
2018/11/09 01:33:00.000  -74.525919413  163.457833004    26.0809   6  12   0.0472   0.0466   0.1681   0.0065  -0.0465  -0.0376   7.00    0.0
2018/11/09 01:33:15.000  -74.525919400  163.457832239    26.1300   6  12   0.0422   0.0417   0.1490   0.0069  -0.0412  -0.0325   7.00    0.0
2018/11/09 01:33:30.000  -74.525919337  163.457832100    26.1569   6  12   0.0374   0.0370   0.1300   0.0070  -0.0359  -0.0274   7.00    0.0
2018/11/09 01:33:45.000  -74.525919302  163.457832432    26.1571   6  12   0.0326   0.0323   0.1114   0.0069  -0.0307  -0.0223   7.00    0.0
2018/11/09 01:34:00.000  -74.525919336  163.457832305    26.1523   1  12   0.0354   0.0355   0.1288  -0.0056  -0.0363  -0.0323   9.00    1.0
2018/11/09 01:34:15.000  -74.525919261  163.457832258    26.1407   1  12   0.0289   0.0293   0.1039  -0.0049  -0.0294  -0.0265   9.00    1.0
2018/11/09 01:34:30.000  -74.525919223  163.457832328    26.1296   1  12   0.0230   0.0237   0.0809  -0.0044  -0.0229  -0.0214   9.00    1.0
2018/11/09 01:34:45.000  -74.525919317  163.457832448    26.1254   1  12   0.0182   0.0194   0.0618  -0.0039  -0.0174  -0.0174   9.00    1.0
2018/11/09 01:35:00.000  -74.525918911  163.457833555    26.0298   1  12   0.0306   0.0217   0.0604   0.0196   0.0194   0.0248   7.00    1.0
2018/11/09 01:35:15.000  -74.525918922  163.457833379    26.0591   1  12   0.0318   0.0233   0.0694   0.0193   0.0166   0.0235   7.00    1.0
2018/11/09 01:35:30.000  -74.525919217  163.457832663    26.1288   1  12   0.0187   0.0172   0.0584   0.0062  -0.0143  -0.0128   7.00    1.0
2018/11/09 01:35:45.000  -74.525919236  163.457832574    26.1737   1  12   0.0230   0.0212   0.0747   0.0072  -0.0192  -0.0166   7.00    1.0
2018/11/09 01:36:00.000  -74.525919181  163.457832683    26.1891   1  12   0.0276   0.0256   0.0920   0.0078  -0.0244  -0.0210   7.00    1.0
2018/11/09 01:36:15.000  -74.525919173  163.457832749    26.1896   6  12   0.0330   0.0321   0.1111   0.0078  -0.0315  -0.0238   7.00    1.0
2018/11/09 01:36:30.000  -74.525919120  163.457833015    26.1934   6  12   0.0378   0.0367   0.1291   0.0081  -0.0367  -0.0288   7.00    1.0
2018/11/09 01:36:45.000  -74.525919080  163.457833152    26.1619   6  12   0.0426   0.0414   0.1472   0.0083  -0.0419  -0.0337   7.00    1.0
2018/11/09 01:37:00.000  -74.525919070  163.457833431    26.1508   6  12   0.0476   0.0462   0.1654   0.0083  -0.0471  -0.0385   7.00    1.0
2018/11/09 01:37:15.000  -74.525919109  163.457833400    26.1896   6  12   0.0526   0.0511   0.1836   0.0084  -0.0524  -0.0433   7.00    1.0
2018/11/09 01:37:30.000  -74.525919103  163.457833273    26.2161   6  12   0.0576   0.0560   0.2018   0.0083  -0.0577  -0.0480   7.00    1.0
2018/11/09 01:37:45.000  -74.525919202  163.457833373    26.1865   6  12   0.0528   0.0512   0.1836   0.0087  -0.0528  -0.0433   7.00    1.0
2018/11/09 01:38:00.000  -74.525919170  163.457833215    26.1915   6  12   0.0480   0.0463   0.1653   0.0091  -0.0478  -0.0391   7.00    1.0
2018/11/09 01:38:15.000  -74.525919178  163.457833208    26.1770   6  12   0.0433   0.0416   0.1475   0.0096  -0.0429  -0.0353   7.00    1.0
2018/11/09 01:38:30.000  -74.525919062  163.457833216    26.1250   6  12   0.0390   0.0370   0.1306   0.0102  -0.0383  -0.0322   7.00    1.0
2018/11/09 01:38:45.000  -74.525918981  163.457833294    26.0872   6  12   0.0354   0.0326   0.1155   0.0115  -0.0348  -0.0312   7.00    1.0
2018/11/09 01:39:00.000  -74.525919234  163.457832632    26.1761   1  12   0.0358   0.0357   0.1265  -0.0046  -0.0374  -0.0312   9.00    1.0
2018/11/09 01:39:15.000  -74.525919128  163.457833239    26.1102   1  12   0.0235   0.0214   0.0769   0.0078  -0.0207  -0.0189   7.00    1.0
2018/11/09 01:39:30.000  -74.525919144  163.457833190    26.1155   1  12   0.0190   0.0174   0.0602   0.0066  -0.0157  -0.0141   7.00    1.0
2018/11/09 01:39:45.000  -74.525919191  163.457833310    26.0974   1  12   0.0154   0.0141   0.0465   0.0054  -0.0116  -0.0110   7.00    1.0
2018/11/09 01:40:00.000  -74.525918989  163.457833761    26.0084   1  12   0.0306   0.0220   0.0614   0.0197   0.0165   0.0203   7.00    1.0
2018/11/09 01:40:15.000  -74.525918921  163.457833690    26.0174   1  12   0.0319   0.0236   0.0702   0.0194   0.0131   0.0192   7.00    1.0
2018/11/09 01:40:30.000  -74.525919240  163.457833271    26.0618   6  12   0.0206   0.0197   0.0623   0.0063  -0.0188  -0.0068   7.00    0.0
2018/11/09 01:40:45.000  -74.525919301  163.457833408    26.0886   6  12   0.0245   0.0234   0.0767   0.0072  -0.0229  -0.0124   7.00    0.0
2018/11/09 01:41:00.000  -74.525919280  163.457833575    26.0565   6  12   0.0288   0.0276   0.0924   0.0078  -0.0274  -0.0173   7.00    0.0
2018/11/09 01:41:15.000  -74.525919201  163.457833641    26.0513   6  12   0.0333   0.0320   0.1086   0.0082  -0.0321  -0.0221   7.00    0.0
2018/11/09 01:41:30.000  -74.525919146  163.457833575    26.0551   6  12   0.0380   0.0365   0.1253   0.0085  -0.0369  -0.0266   7.00    0.0
2018/11/09 01:41:45.000  -74.525919062  163.457833971    26.0286   6  12   0.0428   0.0412   0.1422   0.0087  -0.0418  -0.0311   7.00    0.0
2018/11/09 01:42:00.000  -74.525919085  163.457834139    26.0543   6  12   0.0477   0.0460   0.1592   0.0089  -0.0468  -0.0355   7.00    0.0
2018/11/09 01:42:15.000  -74.525919073  163.457834234    26.0518   6  12   0.0526   0.0508   0.1762   0.0090  -0.0518  -0.0399   7.00    0.0
2018/11/09 01:42:30.000  -74.525919102  163.457834133    26.0626   6  12   0.0576   0.0556   0.1932   0.0090  -0.0569  -0.0442   7.00    0.0
2018/11/09 01:42:45.000  -74.525919168  163.457833726    26.0849   6  12   0.0529   0.0509   0.1760   0.0094  -0.0517  -0.0400   7.00    0.0
2018/11/09 01:43:00.000  -74.525919054  163.457833420    26.1158   6  12   0.0480   0.0461   0.1586   0.0095  -0.0467  -0.0355   7.00    0.0
2018/11/09 01:43:15.000  -74.525919084  163.457833382    26.1599   6  12   0.0432   0.0413   0.1415   0.0096  -0.0417  -0.0311   7.00    0.0
2018/11/09 01:43:30.000  -74.525919110  163.457833688    26.1700   6  12   0.0387   0.0367   0.1250   0.0097  -0.0369  -0.0266   7.00    0.0
2018/11/09 01:43:45.000  -74.525919131  163.457833630    26.1638   6  12   0.0344   0.0323   0.1092   0.0099  -0.0323  -0.0222   7.00    0.0
2018/11/09 01:44:00.000  -74.525919223  163.457834031    26.1260   6  12   0.0307   0.0281   0.0951   0.0105  -0.0279  -0.0171   7.00    0.0
2018/11/09 01:44:15.000  -74.525919024  163.457834656    26.0451   1  11   0.0404   0.0327   0.1088   0.0201  -0.0182   0.0174   6.00    1.0
2018/11/09 01:44:30.000  -74.525919023  163.457834307    26.0143   1  11   0.0383   0.0285   0.1006   0.0219  -0.0193  -0.0180   6.00    1.0
