% program   : RTKLIB ver.2.4.3
% inp file  : _by_type/_obs/base/20181111.18o
% inp file  : _by_type/_sp3+clk/igs20270.clk
% inp file  : _by_type/_sp3+clk/igs20270.sp3
% inp file  : _by_type/_nav/base/20181111.18n
% obs start : 2018/11/11 00:00:00.0 GPST (week2027      0.0s)
% obs end   : 2018/11/11 23:59:45.0 GPST (week2027  86385.0s)
% pos mode  : ppp-kinematic
% solution  : combined
% elev mask : 15.0 deg
% dynamics  : off
% tidecorr  : on
% tropo opt : est ztd+grad
% ephemeris : precise
% navi sys  : gps glonass
% antenna1  :                       ( 0.0000  0.0000  0.0000)
%
% (lat/lon/height=WGS84/ellipsoidal,Q=1:fix,2:float,3:sbas,4:dgps,5:single,6:ppp,ns=# of satellites)
%  GPST                  latitude(deg) longitude(deg)  height(m)   Q  ns   sdn(m)   sde(m)   sdu(m)  sdne(m)  sdeu(m)  sdun(m) age(s)  ratio
2018/11/11 00:00:00.000  -74.370508829  163.307884025  1012.3674   6  10   0.0280   0.0280   0.0671  -0.0179   0.0219  -0.0173   0.00    0.0
2018/11/11 00:00:15.000  -74.370508760  163.307883270  1012.3317   6  10   0.0307   0.0312   0.0800  -0.0197   0.0279  -0.0218   0.00    0.0
2018/11/11 00:00:30.000  -74.370508786  163.307883191  1012.3266   6  10   0.0362   0.0380   0.1030  -0.0242   0.0384  -0.0299   0.00    0.0
2018/11/11 00:00:45.000  -74.370508817  163.307883524  1012.3206   6  10   0.0401   0.0420   0.1304  -0.0236   0.0481  -0.0369   0.00    0.0
2018/11/11 00:01:00.000  -74.370508741  163.307883394  1012.2968   6  10   0.0472   0.0501   0.1605  -0.0279   0.0605  -0.0466   0.00    0.0
2018/11/11 00:01:15.000  -74.370508760  163.307883282  1012.2919   6  10   0.0548   0.0586   0.1919  -0.0325   0.0732  -0.0566   1.00    0.0
2018/11/11 00:01:30.000  -74.370508746  163.307883269  1012.2874   6  10   0.0626   0.0674   0.2237  -0.0372   0.0859  -0.0666   1.00    0.0
2018/11/11 00:01:45.000  -74.370508774  163.307883189  1012.2895   6  10   0.0706   0.0762   0.2556  -0.0419   0.0984  -0.0765   2.00    0.0
2018/11/11 00:02:00.000  -74.370508787  163.307882801  1012.2169   6  10   0.0786   0.0849   0.2873  -0.0465   0.1107  -0.0863   2.00    0.0
2018/11/11 00:02:15.000  -74.370508832  163.307882592  1012.2051   6  10   0.0865   0.0935   0.3186  -0.0511   0.1227  -0.0960   5.00    0.0
2018/11/11 00:02:30.000  -74.370508886  163.307882439  1012.2139   6  10   0.0942   0.1018   0.3491  -0.0555   0.1343  -0.1054   4.00    0.0
2018/11/11 00:02:45.000  -74.370508915  163.307882358  1012.2388   6  10   0.0860   0.0930   0.3184  -0.0509   0.1226  -0.0960   4.00    0.0
2018/11/11 00:03:00.000  -74.370508823  163.307882409  1012.2185   6  10   0.0779   0.0843   0.2880  -0.0463   0.1109  -0.0867   5.00    0.0
2018/11/11 00:03:15.000  -74.370508826  163.307881816  1012.1786   6  10   0.0699   0.0756   0.2572  -0.0417   0.0990  -0.0772   5.00    0.0
2018/11/11 00:03:30.000  -74.370508896  163.307882588  1012.2677   6  10   0.0621   0.0669   0.2263  -0.0371   0.0869  -0.0677   5.00    0.0
2018/11/11 00:03:45.000  -74.370509004  163.307882894  1012.3069   6  10   0.0544   0.0584   0.1953  -0.0326   0.0748  -0.0580   5.00    0.0
2018/11/11 00:04:00.000  -74.370509023  163.307883412  1012.3446   6  10   0.0470   0.0500   0.1645  -0.0281   0.0626  -0.0483   6.00    0.0
2018/11/11 00:04:15.000  -74.370508925  163.307883315  1012.2938   6  10   0.0401   0.0422   0.1345  -0.0240   0.0505  -0.0387   5.00    0.0
2018/11/11 00:04:30.000  -74.370508909  163.307883817  1012.3098   6  10   0.0341   0.0352   0.1064  -0.0203   0.0391  -0.0294   5.00    0.0
2018/11/11 00:04:45.000  -74.370508895  163.307883796  1012.3142   6  10   0.0296   0.0297   0.0829  -0.0173   0.0292  -0.0210   5.00    0.0
2018/11/11 00:05:00.000  -74.370508802  163.307883680  1012.3069   6  10   0.0276   0.0273   0.0700  -0.0156   0.0234  -0.0151   5.00    0.0
2018/11/11 00:05:15.000  -74.370508834  163.307883658  1012.3134   6  10   0.0303   0.0313   0.0858  -0.0163   0.0328  -0.0185   5.00    0.0
2018/11/11 00:05:30.000  -74.370508920  163.307883665  1012.3460   6  10   0.0342   0.0349   0.1063  -0.0212   0.0388  -0.0305   4.00    0.0
2018/11/11 00:05:45.000  -74.370508969  163.307883840  1012.3744   6  10   0.0401   0.0419   0.1348  -0.0247   0.0505  -0.0395   4.00    0.0
2018/11/11 00:06:00.000  -74.370508941  163.307883697  1012.3436   6  10   0.0468   0.0496   0.1648  -0.0285   0.0625  -0.0487   4.00    0.0
2018/11/11 00:06:15.000  -74.370508969  163.307883350  1012.3182   6  10   0.0538   0.0576   0.1950  -0.0325   0.0743  -0.0577   4.00    0.0
2018/11/11 00:06:30.000  -74.370508943  163.307883265  1012.3090   6  10   0.0610   0.0656   0.2249  -0.0363   0.0856  -0.0664   4.00    0.0
2018/11/11 00:06:45.000  -74.370508820  163.307883186  1012.2776   6  10   0.0681   0.0734   0.2541  -0.0401   0.0966  -0.0747   4.00    0.0
2018/11/11 00:07:00.000  -74.370508798  163.307883693  1012.2871   6  10   0.0752   0.0812   0.2825  -0.0438   0.1072  -0.0828   4.00    0.0
2018/11/11 00:07:15.000  -74.370508821  163.307882774  1012.2119   6  10   0.0821   0.0887   0.3103  -0.0473   0.1174  -0.0906   4.00    0.0
2018/11/11 00:07:30.000  -74.370508868  163.307882098  1012.1248   6  10   0.0889   0.0960   0.3374  -0.0508   0.1274  -0.0983   4.00    0.0
2018/11/11 00:07:45.000  -74.370508922  163.307882729  1012.1825   6  10   0.0820   0.0883   0.3111  -0.0472   0.1173  -0.0911   4.00    0.0
2018/11/11 00:08:00.000  -74.370508982  163.307883285  1012.2173   6  10   0.0749   0.0806   0.2840  -0.0435   0.1073  -0.0835   4.00    0.0
2018/11/11 00:08:15.000  -74.370509000  163.307883003  1012.2178   6  10   0.0678   0.0728   0.2562  -0.0398   0.0969  -0.0756   4.00    0.0
2018/11/11 00:08:30.000  -74.370508936  163.307882806  1012.2105   6  10   0.0607   0.0649   0.2275  -0.0361   0.0861  -0.0674   4.00    0.0
2018/11/11 00:08:45.000  -74.370508884  163.307882722  1012.2008   6  10   0.0536   0.0570   0.1981  -0.0322   0.0750  -0.0589   4.00    0.0
2018/11/11 00:09:00.000  -74.370508896  163.307882701  1012.2240   6  10   0.0467   0.0492   0.1681  -0.0284   0.0635  -0.0500   4.00    0.0
2018/11/11 00:09:15.000  -74.370508878  163.307882669  1012.1902   6  10   0.0402   0.0417   0.1382  -0.0248   0.0518  -0.0410   4.00    0.0
2018/11/11 00:09:30.000  -74.370508854  163.307882966  1012.2358   6  10   0.0345   0.0348   0.1095  -0.0215   0.0403  -0.0322   4.00    0.0
2018/11/11 00:09:45.000  -74.370508883  163.307883446  1012.3064   6  11   0.0299   0.0295   0.0831  -0.0189   0.0299  -0.0254   4.00    0.0
2018/11/11 00:10:00.000  -74.370508898  163.307883840  1012.3363   6  11   0.0280   0.0270   0.0702  -0.0176   0.0238  -0.0199   4.00    0.0
2018/11/11 00:10:15.000  -74.370508860  163.307883417  1012.2820   6  11   0.0301   0.0297   0.0831  -0.0192   0.0300  -0.0254   4.00    0.0
2018/11/11 00:10:30.000  -74.370509005  163.307883447  1012.2896   6  11   0.0341   0.0350   0.1054  -0.0217   0.0398  -0.0338   4.00    0.0
2018/11/11 00:10:45.000  -74.370509056  163.307883098  1012.2846   6  11   0.0392   0.0414   0.1310  -0.0245   0.0506  -0.0428   4.00    0.0
2018/11/11 00:11:00.000  -74.370509076  163.307883076  1012.2789   6  11   0.0449   0.0485   0.1573  -0.0275   0.0613  -0.0516   4.00    0.0
2018/11/11 00:11:15.000  -74.370509104  163.307882410  1012.2552   6  11   0.0508   0.0558   0.1834  -0.0305   0.0717  -0.0601   4.00    0.0
2018/11/11 00:11:30.000  -74.370509240  163.307883032  1012.3199   6  11   0.0569   0.0631   0.2092  -0.0335   0.0818  -0.0683   4.00    0.0
2018/11/11 00:11:45.000  -74.370509150  163.307882329  1012.2557   6  11   0.0630   0.0704   0.2347  -0.0365   0.0917  -0.0764   4.00    0.0
2018/11/11 00:12:00.000  -74.370509223  163.307882194  1012.2575   6  11   0.0692   0.0775   0.2599  -0.0397   0.1016  -0.0844   4.00    0.0
2018/11/11 00:12:15.000  -74.370509305  163.307881865  1012.2837   6  11   0.0753   0.0846   0.2851  -0.0429   0.1114  -0.0925   4.00    0.0
2018/11/11 00:12:30.000  -74.370509336  163.307881567  1012.2842   6  11   0.0813   0.0916   0.3102  -0.0462   0.1213  -0.1007   4.00    0.0
2018/11/11 00:12:45.000  -74.370509245  163.307881603  1012.2934   6  11   0.0749   0.0843   0.2844  -0.0424   0.1108  -0.0919   4.00    0.0
2018/11/11 00:13:00.000  -74.370509336  163.307882393  1012.3560   6  11   0.0686   0.0770   0.2596  -0.0391   0.1010  -0.0839   4.00    0.0
2018/11/11 00:13:15.000  -74.370509251  163.307882831  1012.3700   6  11   0.0624   0.0698   0.2346  -0.0359   0.0911  -0.0758   4.00    0.0
2018/11/11 00:13:30.000  -74.370509224  163.307883434  1012.3902   6  11   0.0562   0.0624   0.2091  -0.0327   0.0811  -0.0676   4.00    0.0
2018/11/11 00:13:45.000  -74.370509118  163.307883232  1012.3454   6  11   0.0502   0.0551   0.1833  -0.0297   0.0710  -0.0593   4.00    0.0
2018/11/11 00:14:00.000  -74.370509155  163.307883602  1012.3700   6  11   0.0443   0.0479   0.1571  -0.0267   0.0606  -0.0508   4.00    0.0
2018/11/11 00:14:15.000  -74.370509151  163.307883768  1012.3768   6  11   0.0387   0.0409   0.1309  -0.0238   0.0500  -0.0421   4.00    0.0
2018/11/11 00:14:30.000  -74.370509127  163.307883857  1012.4011   6  11   0.0338   0.0346   0.1056  -0.0213   0.0395  -0.0335   4.00    0.0
2018/11/11 00:14:45.000  -74.370509077  163.307883841  1012.3732   6  11   0.0301   0.0296   0.0840  -0.0192   0.0303  -0.0257   4.00    0.0
2018/11/11 00:15:00.000  -74.370509027  163.307883727  1012.3550   6  11   0.0283   0.0274   0.0723  -0.0183   0.0250  -0.0211   5.00    0.0
2018/11/11 00:15:15.000  -74.370508969  163.307883639  1012.3233   6  11   0.0299   0.0296   0.0829  -0.0191   0.0299  -0.0249   5.00    0.0
2018/11/11 00:15:30.000  -74.370508996  163.307883302  1012.2884   6  11   0.0334   0.0343   0.1030  -0.0209   0.0382  -0.0316   5.00    0.0
2018/11/11 00:15:45.000  -74.370508892  163.307882380  1012.2262   6  11   0.0379   0.0403   0.1260  -0.0228   0.0475  -0.0387   5.00    0.0
2018/11/11 00:16:00.000  -74.370509025  163.307882381  1012.2638   6  11   0.0431   0.0468   0.1499  -0.0251   0.0569  -0.0460   5.00    0.0
2018/11/11 00:16:15.000  -74.370509026  163.307881947  1012.2229   6  11   0.0486   0.0536   0.1742  -0.0275   0.0665  -0.0534   6.00    0.0
2018/11/11 00:16:30.000  -74.370508991  163.307881646  1012.2014   6  11   0.0543   0.0606   0.1989  -0.0302   0.0761  -0.0611   6.00    0.0
2018/11/11 00:16:45.000  -74.370509216  163.307881661  1012.2416   6  11   0.0601   0.0675   0.2238  -0.0331   0.0860  -0.0689   6.00    0.0
2018/11/11 00:17:00.000  -74.370509411  163.307881726  1012.2767   6  11   0.0660   0.0745   0.2489  -0.0363   0.0959  -0.0771   6.00    0.0
2018/11/11 00:17:15.000  -74.370509589  163.307881657  1012.3096   6  11   0.0720   0.0814   0.2741  -0.0396   0.1060  -0.0854   6.00    0.0
2018/11/11 00:17:30.000  -74.370509713  163.307881599  1012.3464   6  11   0.0779   0.0883   0.2994  -0.0431   0.1162  -0.0940   6.00    0.0
2018/11/11 00:17:45.000  -74.370509640  163.307882080  1012.3621   6  11   0.0720   0.0815   0.2752  -0.0399   0.1066  -0.0860   6.00    0.0
2018/11/11 00:18:00.000  -74.370509484  163.307882022  1012.3108   6  11   0.0659   0.0744   0.2500  -0.0364   0.0964  -0.0775   6.00    0.0
2018/11/11 00:18:15.000  -74.370509315  163.307882329  1012.2883   6  11   0.0599   0.0674   0.2248  -0.0331   0.0863  -0.0693   6.00    0.0
2018/11/11 00:18:30.000  -74.370509170  163.307882318  1012.2622   6  11   0.0540   0.0603   0.1998  -0.0301   0.0763  -0.0612   6.00    0.0
2018/11/11 00:18:45.000  -74.370509130  163.307882368  1012.2467   6  11   0.0483   0.0533   0.1750  -0.0272   0.0665  -0.0534   6.00    0.0
2018/11/11 00:19:00.000  -74.370509114  163.307882915  1012.2332   6  11   0.0428   0.0465   0.1504  -0.0247   0.0568  -0.0458   6.00    0.0
2018/11/11 00:19:15.000  -74.370509102  163.307883075  1012.2294   6  11   0.0376   0.0399   0.1264  -0.0224   0.0473  -0.0384   6.00    0.0
2018/11/11 00:19:30.000  -74.370509063  163.307883628  1012.2766   6  11   0.0333   0.0341   0.1036  -0.0205   0.0381  -0.0312   6.00    0.0
2018/11/11 00:19:45.000  -74.370509045  163.307883782  1012.3175   6  11   0.0299   0.0294   0.0840  -0.0188   0.0299  -0.0247   6.00    0.0
2018/11/11 00:20:00.000  -74.370509245  163.307884599  1012.4097   1  11   0.0245   0.0192   0.0791  -0.0100   0.0299  -0.0253   7.00    2.0
2018/11/11 00:20:15.000  -74.370509265  163.307884645  1012.4447   1  11   0.0272   0.0231   0.0931  -0.0128   0.0361  -0.0312   7.00    2.0
2018/11/11 00:20:30.000  -74.370509226  163.307885023  1012.4396   1  11   0.0323   0.0303   0.1181  -0.0171   0.0467  -0.0408   7.00    2.0
2018/11/11 00:20:45.000  -74.370509047  163.307883622  1012.2934   6  11   0.0371   0.0393   0.1218  -0.0214   0.0448  -0.0356   6.00    0.0
2018/11/11 00:21:00.000  -74.370509178  163.307883748  1012.3429   6  11   0.0420   0.0455   0.1443  -0.0233   0.0537  -0.0423   6.00    0.0
2018/11/11 00:21:15.000  -74.370509076  163.307882532  1012.2462   6  11   0.0473   0.0520   0.1678  -0.0256   0.0630  -0.0496   6.00    0.0
2018/11/11 00:21:30.000  -74.370509180  163.307882554  1012.2741   6  11   0.0529   0.0587   0.1919  -0.0283   0.0725  -0.0572   6.00    0.0
2018/11/11 00:21:45.000  -74.370509225  163.307882434  1012.2842   6  11   0.0585   0.0654   0.2163  -0.0312   0.0823  -0.0652   6.00    0.0
2018/11/11 00:22:00.000  -74.370509270  163.307881856  1012.2738   6  11   0.0643   0.0722   0.2410  -0.0344   0.0922  -0.0734   6.00    0.0
2018/11/11 00:22:15.000  -74.370509383  163.307881911  1012.2896   6  11   0.0700   0.0789   0.2658  -0.0377   0.1022  -0.0818   6.00    0.0
2018/11/11 00:22:30.000  -74.370509287  163.307881465  1012.2334   6  11   0.0758   0.0855   0.2906  -0.0412   0.1122  -0.0903   6.00    0.0
2018/11/11 00:22:45.000  -74.370509221  163.307881598  1012.2094   6  11   0.0702   0.0788   0.2664  -0.0376   0.1021  -0.0823   6.00    0.0
2018/11/11 00:23:00.000  -74.370509269  163.307881821  1012.2211   6  11   0.0643   0.0719   0.2412  -0.0341   0.0918  -0.0736   6.00    0.0
2018/11/11 00:23:15.000  -74.370509252  163.307881860  1012.2063   6  11   0.0584   0.0650   0.2162  -0.0308   0.0816  -0.0652   6.00    0.0
2018/11/11 00:23:30.000  -74.370509081  163.307881397  1012.1516   6  11   0.0527   0.0582   0.1916  -0.0277   0.0716  -0.0571   6.00    0.0
2018/11/11 00:23:45.000  -74.370509115  163.307881257  1012.1723   6  11   0.0472   0.0515   0.1674  -0.0249   0.0619  -0.0493   6.00    0.0
2018/11/11 00:24:00.000  -74.370509103  163.307881443  1012.1774   6  11   0.0419   0.0449   0.1440  -0.0225   0.0525  -0.0420   6.00    0.0
2018/11/11 00:24:15.000  -74.370508976  163.307881727  1012.1727   6  11   0.0370   0.0387   0.1217  -0.0205   0.0436  -0.0353   6.00    0.0
2018/11/11 00:24:30.000  -74.370509256  163.307884439  1012.3687   1  11   0.0382   0.0370   0.1213  -0.0263   0.0488  -0.0440   6.00    1.0
2018/11/11 00:24:45.000  -74.370509266  163.307884185  1012.3642   1  11   0.0340   0.0317   0.0981  -0.0239   0.0394  -0.0355   5.00    1.0
2018/11/11 00:25:00.000  -74.370509420  163.307884456  1012.4274   1  11   0.0322   0.0292   0.0860  -0.0225   0.0348  -0.0307   6.00    1.0
2018/11/11 00:25:15.000  -74.370509613  163.307884716  1012.4858   1  11   0.0349   0.0326   0.1027  -0.0241   0.0412  -0.0384   6.00    1.0
2018/11/11 00:25:30.000  -74.370509744  163.307884666  1012.5251   1  11   0.0403   0.0388   0.1315  -0.0272   0.0523  -0.0504   6.00    1.0
2018/11/11 00:25:45.000  -74.370509326  163.307881996  1012.2648   6  11   0.0379   0.0392   0.1233  -0.0190   0.0429  -0.0371   6.00    0.0
2018/11/11 00:26:00.000  -74.370509447  163.307881946  1012.2868   6  11   0.0432   0.0456   0.1457  -0.0206   0.0520  -0.0447   6.00    0.0
2018/11/11 00:26:15.000  -74.370509533  163.307881887  1012.3360   6  11   0.0488   0.0525   0.1693  -0.0226   0.0616  -0.0526   6.00    0.0
2018/11/11 00:26:30.000  -74.370509635  163.307881334  1012.3111   6  11   0.0546   0.0599   0.1935  -0.0245   0.0718  -0.0607   6.00    0.0
2018/11/11 00:26:45.000  -74.370509634  163.307880195  1012.2089   6  11   0.0608   0.0690   0.2186  -0.0252   0.0834  -0.0684   6.00    0.0
2018/11/11 00:27:00.000  -74.370509652  163.307881512  1012.2675   6  11   0.0658   0.0711   0.2426  -0.0334   0.0904  -0.0790   6.00    0.0
2018/11/11 00:27:15.000  -74.370509716  163.307881458  1012.2361   6  11   0.0717   0.0770   0.2670  -0.0369   0.0995  -0.0880   6.00    0.0
2018/11/11 00:27:30.000  -74.370509769  163.307882103  1012.2608   6  11   0.0777   0.0833   0.2918  -0.0404   0.1090  -0.0972   6.00    0.0
2018/11/11 00:27:45.000  -74.370509623  163.307882293  1012.2617   6  11   0.0726   0.0764   0.2693  -0.0371   0.0990  -0.0905   6.00    0.0
2018/11/11 00:28:00.000  -74.370509444  163.307881740  1012.1889   6  11   0.0685   0.0697   0.2508  -0.0344   0.0898  -0.0869   6.00    0.0
2018/11/11 00:28:15.000  -74.370509374  163.307881986  1012.2016   6  11   0.0657   0.0631   0.2374  -0.0323   0.0816  -0.0870   7.00    0.0
2018/11/11 00:28:30.000  -74.370509347  163.307882336  1012.2432   6  11   0.0725   0.0606   0.2730  -0.0419   0.0943  -0.1148   6.00    0.0
2018/11/11 00:28:45.000  -74.370509395  163.307882675  1012.2728   6  11   0.0498   0.0517   0.1794  -0.0284   0.0671  -0.0602   6.00    0.0
2018/11/11 00:29:00.000  -74.370509260  163.307882746  1012.2635   6  11   0.0429   0.0445   0.1479  -0.0239   0.0541  -0.0467   6.00    0.0
2018/11/11 00:29:15.000  -74.370509120  163.307882623  1012.2417   6  11   0.0374   0.0381   0.1223  -0.0208   0.0435  -0.0369   6.00    0.0
2018/11/11 00:29:30.000  -74.370509344  163.307884842  1012.4190   1  11   0.0382   0.0372   0.1197  -0.0261   0.0480  -0.0429   7.00    1.0
2018/11/11 00:29:45.000  -74.370509367  163.307884532  1012.4152   1  11   0.0344   0.0322   0.0988  -0.0240   0.0397  -0.0355   7.00    1.0
2018/11/11 00:30:00.000  -74.370509309  163.307884620  1012.4065   1  11   0.0325   0.0299   0.0879  -0.0228   0.0355  -0.0312   7.00    1.0
2018/11/11 00:30:15.000  -74.370509298  163.307884817  1012.4156   1  11   0.0353   0.0326   0.1041  -0.0242   0.0411  -0.0388   7.00    1.0
2018/11/11 00:30:30.000  -74.370509315  163.307885033  1012.4215   1  11   0.0409   0.0383   0.1330  -0.0272   0.0514  -0.0514   7.00    1.0
2018/11/11 00:30:45.000  -74.370509158  163.307882588  1012.2500   6  11   0.0372   0.0372   0.1196  -0.0178   0.0388  -0.0353   6.00    0.0
2018/11/11 00:31:00.000  -74.370509191  163.307882015  1012.2144   6  11   0.0424   0.0430   0.1412  -0.0195   0.0471  -0.0433   5.00    0.0
2018/11/11 00:31:15.000  -74.370509301  163.307881740  1012.2299   6  11   0.0481   0.0491   0.1643  -0.0219   0.0559  -0.0521   5.00    0.0
2018/11/11 00:31:30.000  -74.370509323  163.307881780  1012.2439   6  11   0.0542   0.0553   0.1887  -0.0247   0.0651  -0.0617   5.00    0.0
2018/11/11 00:31:45.000  -74.370509365  163.307881362  1012.2395   6  11   0.0607   0.0616   0.2149  -0.0280   0.0747  -0.0725   5.00    0.0
2018/11/11 00:32:00.000  -74.370509443  163.307881639  1012.2505   6  11   0.0679   0.0679   0.2439  -0.0320   0.0850  -0.0855   5.00    0.0
2018/11/11 00:32:15.000  -74.370509464  163.307881296  1012.2195   6  11   0.0769   0.0744   0.2796  -0.0371   0.0967  -0.1031   5.00    0.0
2018/11/11 00:32:30.000  -74.370509486  163.307881432  1012.2384   6  11   0.0994   0.0853   0.3794  -0.0565   0.1328  -0.1583   5.00    0.0
2018/11/11 00:32:45.000  -74.370509474  163.307881651  1012.2725   6  11   0.0939   0.0784   0.3541  -0.0517   0.1209  -0.1497   5.00    0.0
2018/11/11 00:33:00.000  -74.370509613  163.307881634  1012.3894   6  11   0.0923   0.0736   0.3492  -0.0517   0.1182  -0.1515   5.00    0.0
2018/11/11 00:33:15.000  -74.370509758  163.307881567  1012.4396   6  11   0.0825   0.0672   0.3094  -0.0450   0.1043  -0.1331   5.00    0.0
2018/11/11 00:33:30.000  -74.370509598  163.307881171  1012.3923   6  11   0.0614   0.0610   0.2219  -0.0301   0.0796  -0.0837   5.00    0.0
2018/11/11 00:33:45.000  -74.370509422  163.307882165  1012.3796   6  11   0.0538   0.0498   0.1918  -0.0284   0.0649  -0.0724   5.00    0.0
2018/11/11 00:34:00.000  -74.370509273  163.307881725  1012.2949   6  11   0.0494   0.0429   0.1738  -0.0253   0.0547  -0.0675   5.00    0.0
2018/11/11 00:34:15.000  -74.370509095  163.307882080  1012.2577   6  10   0.0448   0.0375   0.1564  -0.0243   0.0488  -0.0620   5.00    0.0
2018/11/11 00:34:30.000  -74.370509016  163.307882416  1012.2412   6  10   0.0369   0.0317   0.1228  -0.0201   0.0363  -0.0454   5.00    0.0
2018/11/11 00:34:45.000  -74.370509314  163.307884321  1012.3568   1  10   0.0383   0.0319   0.1216  -0.0257   0.0429  -0.0492   5.00    1.0
2018/11/11 00:35:00.000  -74.370509391  163.307884540  1012.3938   1  10   0.0340   0.0291   0.0993  -0.0235   0.0359  -0.0375   5.00    1.0
2018/11/11 00:35:15.000  -74.370509572  163.307884772  1012.4495   1  10   0.0383   0.0318   0.1221  -0.0255   0.0424  -0.0490   5.00    1.0
2018/11/11 00:35:30.000  -74.370509274  163.307882747  1012.3215   6  10   0.0366   0.0313   0.1225  -0.0197   0.0349  -0.0445   5.00    0.0
2018/11/11 00:35:45.000  -74.370509416  163.307882498  1012.3641   6  10   0.0444   0.0368   0.1559  -0.0235   0.0464  -0.0609   5.00    0.0
2018/11/11 00:36:00.000  -74.370509755  163.307882802  1012.5221   6  10   0.0530   0.0429   0.1918  -0.0280   0.0586  -0.0779   5.00    0.0
2018/11/11 00:36:15.000  -74.370509759  163.307882226  1012.5048   6  10   0.0621   0.0493   0.2289  -0.0329   0.0709  -0.0952   5.00    0.0
2018/11/11 00:36:30.000  -74.370509683  163.307881449  1012.4650   6  10   0.0714   0.0557   0.2667  -0.0380   0.0832  -0.1126   5.00    0.0
2018/11/11 00:36:45.000  -74.370509679  163.307880829  1012.4052   6  10   0.0808   0.0622   0.3051  -0.0432   0.0955  -0.1302   5.00    0.0
2018/11/11 00:37:00.000  -74.370509770  163.307881017  1012.4423   6  10   0.0903   0.0688   0.3445  -0.0485   0.1076  -0.1478   5.00    0.0
2018/11/11 00:37:15.000  -74.370509824  163.307880793  1012.4467   6  10   0.0999   0.0753   0.3860  -0.0538   0.1195  -0.1658   5.00    0.0
2018/11/11 00:37:30.000  -74.370509866  163.307880685  1012.4606   6  10   0.1096   0.0818   0.4353  -0.0591   0.1311  -0.1851   5.00    0.0
2018/11/11 00:37:45.000  -74.370509988  163.307881135  1012.5022   6   9   0.1016   0.0749   0.4225  -0.0533   0.1189  -0.1752   5.00    0.0
2018/11/11 00:38:00.000  -74.370509837  163.307880887  1012.3897   6   9   0.0917   0.0680   0.3785  -0.0474   0.1054  -0.1559   5.00    0.0
2018/11/11 00:38:15.000  -74.370509908  163.307881209  1012.4145   6   9   0.0817   0.0613   0.3346  -0.0417   0.0921  -0.1368   5.00    0.0
2018/11/11 00:38:30.000  -74.370509802  163.307881420  1012.3937   6   9   0.0720   0.0546   0.2911  -0.0362   0.0790  -0.1177   5.00    0.0
2018/11/11 00:38:45.000  -74.370509744  163.307881506  1012.3752   6   9   0.0623   0.0481   0.2480  -0.0309   0.0661  -0.0987   5.00    0.0
2018/11/11 00:39:00.000  -74.370509642  163.307881759  1012.3678   6   9   0.0530   0.0418   0.2057  -0.0260   0.0535  -0.0800   5.00    0.0
2018/11/11 00:39:15.000  -74.370509536  163.307881902  1012.3537   6   9   0.0441   0.0358   0.1649  -0.0216   0.0413  -0.0616   5.00    0.0
2018/11/11 00:39:30.000  -74.370509472  163.307882330  1012.3436   6   9   0.0363   0.0303   0.1271  -0.0180   0.0299  -0.0437   5.00    0.0
2018/11/11 00:39:45.000  -74.370509526  163.307884068  1012.3797   1   9   0.0375   0.0306   0.1234  -0.0237   0.0378  -0.0463   5.00    1.0
2018/11/11 00:40:00.000  -74.370509433  163.307884124  1012.3070   1   9   0.0333   0.0281   0.0985  -0.0218   0.0318  -0.0336   5.00    1.0
2018/11/11 00:40:15.000  -74.370509375  163.307884234  1012.2397   1   9   0.0374   0.0304   0.1224  -0.0234   0.0371  -0.0455   5.00    1.0
2018/11/11 00:40:30.000  -74.370509073  163.307882106  1012.0719   6   9   0.0360   0.0300   0.1255  -0.0175   0.0287  -0.0429   5.00    0.0
2018/11/11 00:40:45.000  -74.370509183  163.307881525  1012.0609   6  10   0.0382   0.0351   0.1294  -0.0205   0.0387  -0.0398   5.00    0.0
2018/11/11 00:41:00.000  -74.370509268  163.307881235  1012.0605   6  10   0.0429   0.0404   0.1464  -0.0223   0.0451  -0.0446   5.00    0.0
2018/11/11 00:41:15.000  -74.370509343  163.307881217  1012.1036   6  10   0.0483   0.0460   0.1669  -0.0250   0.0528  -0.0516   5.00    0.0
2018/11/11 00:41:30.000  -74.370509296  163.307880675  1012.0825   6  10   0.0540   0.0519   0.1892  -0.0281   0.0612  -0.0595   5.00    0.0
2018/11/11 00:41:45.000  -74.370509353  163.307880650  1012.0703   6  10   0.0600   0.0579   0.2125  -0.0316   0.0699  -0.0680   5.00    0.0
2018/11/11 00:42:00.000  -74.370509365  163.307880012  1012.0057   6  10   0.0661   0.0639   0.2366  -0.0352   0.0787  -0.0769   5.00    0.0
2018/11/11 00:42:15.000  -74.370509336  163.307879559  1011.9847   6  10   0.0724   0.0700   0.2612  -0.0390   0.0876  -0.0859   5.00    0.0
2018/11/11 00:42:30.000  -74.370509373  163.307879446  1012.0111   6  10   0.0787   0.0761   0.2861  -0.0428   0.0965  -0.0951   5.00    0.0
2018/11/11 00:42:45.000  -74.370509412  163.307879571  1012.0196   6  10   0.0722   0.0698   0.2609  -0.0387   0.0869  -0.0857   5.00    0.0
2018/11/11 00:43:00.000  -74.370509452  163.307879750  1012.0353   6  10   0.0659   0.0635   0.2359  -0.0347   0.0774  -0.0764   5.00    0.0
2018/11/11 00:43:15.000  -74.370509498  163.307880321  1012.0726   6  10   0.0596   0.0572   0.2111  -0.0308   0.0680  -0.0670   5.00    0.0
2018/11/11 00:43:30.000  -74.370509368  163.307880634  1012.0957   6  10   0.0535   0.0511   0.1865  -0.0270   0.0586  -0.0577   5.00    0.0
2018/11/11 00:43:45.000  -74.370509349  163.307880752  1012.1105   6  10   0.0474   0.0451   0.1622  -0.0235   0.0493  -0.0483   5.00    0.0
2018/11/11 00:44:00.000  -74.370509216  163.307880794  1012.1342   6  10   0.0416   0.0393   0.1384  -0.0203   0.0401  -0.0389   5.00    0.0
2018/11/11 00:44:15.000  -74.370509154  163.307881405  1012.2148   6  10   0.0361   0.0337   0.1156  -0.0175   0.0311  -0.0294   5.00    0.0
2018/11/11 00:44:30.000  -74.370509350  163.307883559  1012.2303   1  10   0.0375   0.0310   0.1205  -0.0202   0.0438  -0.0437   6.00    1.0
2018/11/11 00:44:45.000  -74.370509028  163.307881664  1012.1657   6  10   0.0275   0.0251   0.0769  -0.0135   0.0138  -0.0056   5.00    0.0
2018/11/11 00:45:00.000  -74.370509064  163.307882105  1012.1715   6  10   0.0256   0.0231   0.0674  -0.0127   0.0072   0.0116   5.00    0.0
2018/11/11 00:45:15.000  -74.370509082  163.307882178  1012.1643   6  10   0.0272   0.0247   0.0757  -0.0134   0.0126   0.0028   5.00    0.0
2018/11/11 00:45:30.000  -74.370509303  163.307884291  1012.1424   1  10   0.0374   0.0309   0.1197  -0.0201   0.0433  -0.0432   6.00    1.0
2018/11/11 00:45:45.000  -74.370508992  163.307881656  1012.1246   6  10   0.0355   0.0332   0.1116  -0.0167   0.0290  -0.0270   6.00    0.0
2018/11/11 00:46:00.000  -74.370508938  163.307881220  1012.1222   6  10   0.0407   0.0384   0.1339  -0.0192   0.0375  -0.0366   6.00    0.0
2018/11/11 00:46:15.000  -74.370508943  163.307881003  1012.1356   6  10   0.0464   0.0440   0.1575  -0.0222   0.0461  -0.0462   6.00    0.0
2018/11/11 00:46:30.000  -74.370508877  163.307880814  1012.1385   6  10   0.0524   0.0496   0.1819  -0.0254   0.0546  -0.0558   6.00    0.0
2018/11/11 00:46:45.000  -74.370508921  163.307880741  1012.1374   6  10   0.0585   0.0554   0.2069  -0.0288   0.0631  -0.0653   6.00    0.0
2018/11/11 00:47:00.000  -74.370508869  163.307880073  1012.0952   6  10   0.0647   0.0612   0.2323  -0.0324   0.0715  -0.0749   6.00    0.0
2018/11/11 00:47:15.000  -74.370508862  163.307879568  1012.0370   6  10   0.0710   0.0670   0.2578  -0.0360   0.0798  -0.0844   6.00    0.0
2018/11/11 00:47:30.000  -74.370508901  163.307879554  1012.0473   6  10   0.0774   0.0728   0.2836  -0.0396   0.0880  -0.0940   6.00    0.0
2018/11/11 00:47:45.000  -74.370508909  163.307879925  1012.0870   6  10   0.0709   0.0668   0.2573  -0.0358   0.0790  -0.0840   6.00    0.0
2018/11/11 00:48:00.000  -74.370508822  163.307880067  1012.1035   6  10   0.0645   0.0607   0.2317  -0.0319   0.0700  -0.0743   6.00    0.0
2018/11/11 00:48:15.000  -74.370508849  163.307880500  1012.0925   6  10   0.0583   0.0548   0.2062  -0.0282   0.0611  -0.0647   6.00    0.0
2018/11/11 00:48:30.000  -74.370508826  163.307880516  1012.0841   6  10   0.0521   0.0489   0.1811  -0.0247   0.0522  -0.0550   6.00    0.0
2018/11/11 00:48:45.000  -74.370508854  163.307880909  1012.0984   6  10   0.0462   0.0432   0.1564  -0.0213   0.0434  -0.0453   6.00    0.0
2018/11/11 00:49:00.000  -74.370508870  163.307881475  1012.1382   6  10   0.0404   0.0377   0.1324  -0.0184   0.0347  -0.0354   6.00    0.0
2018/11/11 00:49:15.000  -74.370508846  163.307881802  1012.1215   6  10   0.0351   0.0325   0.1096  -0.0158   0.0261  -0.0253   6.00    0.0
2018/11/11 00:49:30.000  -74.370509258  163.307883952  1012.1359   1  10   0.0378   0.0332   0.1126  -0.0223   0.0331  -0.0309   6.00    1.0
2018/11/11 00:49:45.000  -74.370509228  163.307883538  1012.1385   1  10   0.0331   0.0286   0.0871  -0.0200   0.0250  -0.0177   6.00    1.0
2018/11/11 00:50:00.000  -74.370509343  163.307883612  1012.2015   1  10   0.0309   0.0265   0.0736  -0.0190   0.0208  -0.0051   6.00    1.0
2018/11/11 00:50:15.000  -74.370509293  163.307883232  1012.2014   1  10   0.0331   0.0285   0.0866  -0.0199   0.0245  -0.0169   6.00    1.0
2018/11/11 00:50:30.000  -74.370509274  163.307883273  1012.1883   1  10   0.0378   0.0330   0.1117  -0.0220   0.0320  -0.0300   6.00    1.0
2018/11/11 00:50:45.000  -74.370508797  163.307880627  1012.2258   6  10   0.0348   0.0320   0.1080  -0.0151   0.0249  -0.0250   6.00    0.0
2018/11/11 00:51:00.000  -74.370508797  163.307880285  1012.2226   6  10   0.0400   0.0369   0.1305  -0.0174   0.0329  -0.0352   6.00    0.0
2018/11/11 00:51:15.000  -74.370508799  163.307880075  1012.1721   6  10   0.0456   0.0422   0.1543  -0.0201   0.0407  -0.0450   6.00    0.0
2018/11/11 00:51:30.000  -74.370508758  163.307879682  1012.0936   6  10   0.0514   0.0476   0.1789  -0.0230   0.0483  -0.0546   6.00    0.0
2018/11/11 00:51:45.000  -74.370508838  163.307879943  1012.1044   6  10   0.0575   0.0530   0.2040  -0.0261   0.0559  -0.0642   6.00    0.0
2018/11/11 00:52:00.000  -74.370508937  163.307879853  1012.1201   6  10   0.0637   0.0585   0.2293  -0.0294   0.0632  -0.0737   6.00    0.0
2018/11/11 00:52:15.000  -74.370508939  163.307879995  1012.1329   6  10   0.0699   0.0641   0.2548  -0.0326   0.0705  -0.0832   6.00    0.0
2018/11/11 00:52:30.000  -74.370508981  163.307879705  1012.1712   6  10   0.0763   0.0697   0.2804  -0.0359   0.0776  -0.0925   6.00    0.0
2018/11/11 00:52:45.000  -74.370509002  163.307879785  1012.2166   6  10   0.0699   0.0639   0.2552  -0.0322   0.0693  -0.0831   6.00    0.0
2018/11/11 00:53:00.000  -74.370508959  163.307880102  1012.2354   6  10   0.0636   0.0581   0.2294  -0.0286   0.0611  -0.0735   6.00    0.0
2018/11/11 00:53:15.000  -74.370508931  163.307880298  1012.2785   6  10   0.0573   0.0525   0.2037  -0.0252   0.0531  -0.0638   6.00    0.0
2018/11/11 00:53:30.000  -74.370508884  163.307880367  1012.2549   6  10   0.0512   0.0469   0.1784  -0.0219   0.0451  -0.0541   6.00    0.0
2018/11/11 00:53:45.000  -74.370508926  163.307880610  1012.2755   6  10   0.0453   0.0415   0.1536  -0.0189   0.0372  -0.0443   6.00    0.0
2018/11/11 00:54:00.000  -74.370508952  163.307880528  1012.2603   6  10   0.0397   0.0363   0.1295  -0.0162   0.0293  -0.0342   6.00    0.0
2018/11/11 00:54:15.000  -74.370509065  163.307881126  1012.2500   6  10   0.0345   0.0313   0.1066  -0.0140   0.0213  -0.0236   6.00    0.0
2018/11/11 00:54:30.000  -74.370509441  163.307883182  1012.1812   1  10   0.0378   0.0322   0.1094  -0.0209   0.0277  -0.0270   6.00    1.0
2018/11/11 00:54:45.000  -74.370509436  163.307883262  1012.1731   1  10   0.0332   0.0278   0.0836  -0.0191   0.0204  -0.0111   6.00    1.0
2018/11/11 00:55:00.000  -74.370509399  163.307883375  1012.1687   1  10   0.0312   0.0259   0.0700  -0.0183   0.0166   0.0119   6.00    1.0
2018/11/11 00:55:15.000  -74.370509330  163.307883529  1012.1668   1  10   0.0333   0.0277   0.0831  -0.0190   0.0198  -0.0099   6.00    1.0
2018/11/11 00:55:30.000  -74.370509377  163.307883681  1012.1748   1  10   0.0379   0.0319   0.1085  -0.0208   0.0264  -0.0260   6.00    1.0
2018/11/11 00:55:45.000  -74.370509012  163.307881386  1012.2470   6  10   0.0341   0.0308   0.1052  -0.0131   0.0201  -0.0233   7.00    0.0
2018/11/11 00:56:00.000  -74.370509019  163.307881228  1012.2685   6  10   0.0392   0.0355   0.1275  -0.0150   0.0272  -0.0337   7.00    0.0
2018/11/11 00:56:15.000  -74.370508961  163.307880800  1012.2729   6  10   0.0447   0.0405   0.1511  -0.0174   0.0339  -0.0435   7.00    0.0
2018/11/11 00:56:30.000  -74.370509021  163.307880733  1012.2604   6  10   0.0505   0.0456   0.1754  -0.0200   0.0404  -0.0530   7.00    0.0
2018/11/11 00:56:45.000  -74.370509058  163.307880478  1012.2363   6  10   0.0565   0.0509   0.2000  -0.0227   0.0466  -0.0624   7.00    0.0
2018/11/11 00:57:00.000  -74.370509147  163.307880464  1012.2290   6  10   0.0626   0.0562   0.2249  -0.0256   0.0527  -0.0716   7.00    0.0
2018/11/11 00:57:15.000  -74.370509192  163.307880389  1012.2150   6  10   0.0688   0.0615   0.2498  -0.0285   0.0586  -0.0807   7.00    0.0
2018/11/11 00:57:30.000  -74.370509173  163.307880389  1012.2162   6  10   0.0751   0.0669   0.2749  -0.0314   0.0643  -0.0897   7.00    0.0
2018/11/11 00:57:45.000  -74.370509191  163.307880837  1012.2137   6  10   0.0688   0.0614   0.2490  -0.0282   0.0573  -0.0804   7.00    0.0
2018/11/11 00:58:00.000  -74.370509220  163.307881145  1012.2062   6  10   0.0625   0.0559   0.2234  -0.0250   0.0503  -0.0710   7.00    0.0
2018/11/11 00:58:15.000  -74.370509177  163.307881171  1012.2109   6  10   0.0563   0.0505   0.1981  -0.0219   0.0434  -0.0615   7.00    0.0
2018/11/11 00:58:30.000  -74.370509063  163.307880844  1012.2203   6  10   0.0503   0.0451   0.1732  -0.0189   0.0365  -0.0519   7.00    0.0
2018/11/11 00:58:45.000  -74.370509131  163.307880853  1012.2118   6  10   0.0445   0.0400   0.1487  -0.0163   0.0297  -0.0422   7.00    0.0
2018/11/11 00:59:00.000  -74.370509051  163.307880980  1012.1986   6  10   0.0389   0.0350   0.1250  -0.0139   0.0229  -0.0323   7.00    0.0
2018/11/11 00:59:15.000  -74.370509470  163.307883334  1012.1489   1  10   0.0441   0.0370   0.1355  -0.0222   0.0292  -0.0370   6.00    1.0
2018/11/11 00:59:30.000  -74.370509467  163.307883397  1012.1416   1  10   0.0380   0.0314   0.1049  -0.0198   0.0217  -0.0223   6.00    1.0
2018/11/11 00:59:45.000  -74.370509408  163.307883178  1012.1569   1  10   0.0335   0.0272   0.0797  -0.0183   0.0154   0.0070   6.00    1.0
2018/11/11 01:00:00.000  -74.370509359  163.307883127  1012.1448   1  10   0.0315   0.0252   0.0669  -0.0176   0.0119   0.0165   6.00    1.0
2018/11/11 01:00:15.000  -74.370509353  163.307883118  1012.1892   1  10   0.0336   0.0271   0.0792  -0.0182   0.0146   0.0088   6.00    1.0
2018/11/11 01:00:30.000  -74.370509368  163.307883166  1012.1883   1  10   0.0380   0.0312   0.1038  -0.0196   0.0202  -0.0210   6.00    1.0
2018/11/11 01:00:45.000  -74.370509391  163.307883088  1012.1679   1  10   0.0441   0.0367   0.1338  -0.0217   0.0265  -0.0354   6.00    1.0
2018/11/11 01:01:00.000  -74.370508989  163.307880652  1012.2075   6  10   0.0385   0.0343   0.1228  -0.0127   0.0202  -0.0313   7.00    0.0
2018/11/11 01:01:15.000  -74.370508921  163.307880405  1012.2267   6  10   0.0439   0.0391   0.1457  -0.0146   0.0256  -0.0409   7.00    0.0
2018/11/11 01:01:30.000  -74.370508939  163.307880670  1012.2410   6  11   0.0479   0.0437   0.1618  -0.0146   0.0258  -0.0434   7.00    0.0
2018/11/11 01:01:45.000  -74.370508884  163.307880332  1012.2127   6  11   0.0527   0.0485   0.1800  -0.0153   0.0266  -0.0479   7.00    0.0
2018/11/11 01:02:00.000  -74.370508974  163.307880298  1012.1796   6  11   0.0569   0.0533   0.1971  -0.0152   0.0258  -0.0497   7.00    0.0
2018/11/11 01:02:15.000  -74.370508954  163.307880501  1012.1558   6  11   0.0603   0.0579   0.2090  -0.0131   0.0183  -0.0466   7.00    0.0
2018/11/11 01:02:30.000  -74.370508944  163.307880115  1012.1587   6  11   0.0647   0.0629   0.2257  -0.0126   0.0129  -0.0479   7.00    0.0
2018/11/11 01:02:45.000  -74.370508936  163.307879714  1012.1820   6  11   0.0603   0.0579   0.2093  -0.0127   0.0155  -0.0464   7.00    0.0
2018/11/11 01:03:00.000  -74.370508780  163.307879853  1012.1718   6  11   0.0569   0.0531   0.1961  -0.0143   0.0214  -0.0490   7.00    0.0
2018/11/11 01:03:15.000  -74.370508809  163.307879798  1012.1745   6  11   0.0552   0.0488   0.1915  -0.0181   0.0315  -0.0578   7.00    0.0
2018/11/11 01:03:30.000  -74.370508785  163.307880006  1012.1469   6  11   0.0493   0.0437   0.1673  -0.0156   0.0260  -0.0486   7.00    0.0
2018/11/11 01:03:45.000  -74.370508804  163.307880060  1012.1795   6  11   0.0402   0.0381   0.1294  -0.0078  -0.0021  -0.0221   7.00    0.0
2018/11/11 01:04:00.000  -74.370509161  163.307882485  1012.0551   1  11   0.0450   0.0413   0.1353  -0.0169  -0.0146   0.0098   6.00    1.0
2018/11/11 01:04:15.000  -74.370509193  163.307882317  1012.0476   1  11   0.0399   0.0354   0.1110  -0.0167  -0.0112   0.0159   6.00    1.0
2018/11/11 01:04:30.000  -74.370509173  163.307882489  1012.0245   1  11   0.0357   0.0303   0.0888  -0.0167  -0.0079   0.0196   6.00    1.0
2018/11/11 01:04:45.000  -74.370509223  163.307882716  1012.0794   1  11   0.0328   0.0265   0.0707  -0.0166  -0.0054   0.0219   6.00    1.0
2018/11/11 01:05:00.000  -74.370509305  163.307882845  1012.1328   1  11   0.0317   0.0248   0.0613  -0.0167  -0.0048   0.0230   6.00    1.0
2018/11/11 01:05:15.000  -74.370509366  163.307882665  1012.1822   1  11   0.0332   0.0265   0.0721  -0.0167  -0.0046   0.0210   6.00    1.0
2018/11/11 01:05:30.000  -74.370509389  163.307882409  1012.1488   1  12   0.0365   0.0293   0.0883  -0.0178  -0.0157   0.0127   7.00    1.0
2018/11/11 01:05:45.000  -74.370509384  163.307882211  1012.1456   1  12   0.0413   0.0340   0.1110  -0.0188  -0.0210  -0.0153   7.00    1.0
2018/11/11 01:06:00.000  -74.370509361  163.307882205  1012.0880   1  12   0.0471   0.0396   0.1363  -0.0202  -0.0266  -0.0285   7.00    1.0
2018/11/11 01:06:15.000  -74.370508875  163.307879870  1012.1221   6  12   0.0384   0.0356   0.1166  -0.0080  -0.0260  -0.0189   6.00    0.0
2018/11/11 01:06:30.000  -74.370508751  163.307879895  1012.1393   6  12   0.0433   0.0400   0.1353  -0.0093  -0.0299  -0.0277   6.00    0.0
2018/11/11 01:06:45.000  -74.370508724  163.307879656  1012.1034   6  12   0.0492   0.0446   0.1567  -0.0116  -0.0332  -0.0388   6.00    0.0
2018/11/11 01:07:00.000  -74.370508837  163.307879803  1012.1019   6  12   0.0540   0.0493   0.1770  -0.0138  -0.0364  -0.0456   0.00    0.0
2018/11/11 01:07:15.000  -74.370508882  163.307879936  1012.0718   6  12   0.0572   0.0539   0.1913  -0.0134  -0.0429  -0.0451   0.00    0.0
2018/11/11 01:07:30.000  -74.370508959  163.307879524  1012.0867   6  12   0.0613   0.0586   0.2082  -0.0140  -0.0483  -0.0477   0.00    0.0
2018/11/11 01:07:45.000  -74.370509010  163.307879511  1012.1458   6  12   0.0563   0.0538   0.1896  -0.0121  -0.0442  -0.0420   2.00    0.0
2018/11/11 01:08:00.000  -74.370509067  163.307879686  1012.1760   6  12   0.0514   0.0491   0.1711  -0.0105  -0.0400  -0.0361   4.00    0.0
2018/11/11 01:08:15.000  -74.370509000  163.307880102  1012.1801   6  12   0.0467   0.0445   0.1527  -0.0091  -0.0358  -0.0300   3.00    0.0
2018/11/11 01:08:30.000  -74.370508940  163.307879947  1012.1525   6  12   0.0421   0.0399   0.1346  -0.0079  -0.0316  -0.0236   3.00    0.0
2018/11/11 01:08:45.000  -74.370508887  163.307879712  1012.1445   6  12   0.0378   0.0355   0.1169  -0.0070  -0.0275  -0.0164   3.00    0.0
2018/11/11 01:09:00.000  -74.370508882  163.307879767  1012.1254   6  12   0.0337   0.0313   0.0999  -0.0066  -0.0236  -0.0057   3.00    0.0
2018/11/11 01:09:15.000  -74.370508887  163.307880107  1012.1160   6  12   0.0300   0.0274   0.0838  -0.0067  -0.0200   0.0125   4.00    0.0
2018/11/11 01:09:30.000  -74.370508920  163.307880575  1012.1357   6  12   0.0270   0.0240   0.0696  -0.0068  -0.0170   0.0172   5.00    0.0
2018/11/11 01:09:45.000  -74.370508832  163.307880725  1012.1572   6  12   0.0248   0.0214   0.0584  -0.0071  -0.0150   0.0198   5.00    0.0
2018/11/11 01:10:00.000  -74.370508791  163.307880880  1012.1658   6  12   0.0239   0.0202   0.0529  -0.0069  -0.0142   0.0210   5.00    0.0
2018/11/11 01:10:15.000  -74.370508595  163.307877541  1012.2143   1  12   0.0323   0.0256   0.0770  -0.0178  -0.0314   0.0255   4.00    1.0
2018/11/11 01:10:30.000  -74.370508777  163.307880933  1012.1440   6  12   0.0267   0.0237   0.0687  -0.0063  -0.0175   0.0181   4.00    0.0
2018/11/11 01:10:45.000  -74.370508808  163.307880775  1012.1204   6  12   0.0296   0.0270   0.0828  -0.0057  -0.0208   0.0146   3.00    0.0
2018/11/11 01:11:00.000  -74.370508843  163.307880688  1012.1002   6  12   0.0331   0.0309   0.0989  -0.0052  -0.0248   0.0072   4.00    0.0
2018/11/11 01:11:15.000  -74.370508875  163.307880297  1012.0836   6  12   0.0371   0.0351   0.1161  -0.0052  -0.0292  -0.0125   4.00    0.0
2018/11/11 01:11:30.000  -74.370508880  163.307879992  1012.0484   6  12   0.0413   0.0394   0.1342  -0.0057  -0.0338  -0.0204   5.00    0.0
2018/11/11 01:11:45.000  -74.370508847  163.307880035  1012.0812   6  12   0.0457   0.0440   0.1527  -0.0065  -0.0386  -0.0269   5.00    0.0
2018/11/11 01:12:00.000  -74.370508873  163.307880379  1012.1141   6  12   0.0503   0.0486   0.1716  -0.0075  -0.0435  -0.0329   5.00    0.0
2018/11/11 01:12:15.000  -74.370508832  163.307880256  1012.1602   6  12   0.0550   0.0533   0.1906  -0.0086  -0.0485  -0.0386   6.00    0.0
2018/11/11 01:12:30.000  -74.370508830  163.307880269  1012.1939   6  12   0.0598   0.0581   0.2099  -0.0098  -0.0536  -0.0441   6.00    0.0
2018/11/11 01:12:45.000  -74.370508857  163.307880202  1012.2447   6  12   0.0550   0.0532   0.1902  -0.0083  -0.0484  -0.0387   6.00    0.0
2018/11/11 01:13:00.000  -74.370508892  163.307879926  1012.2562   6  12   0.0503   0.0485   0.1714  -0.0070  -0.0436  -0.0331   6.00    0.0
2018/11/11 01:13:15.000  -74.370508963  163.307879971  1012.2902   6  12   0.0457   0.0439   0.1527  -0.0058  -0.0389  -0.0272   6.00    0.0
2018/11/11 01:13:30.000  -74.370508984  163.307880381  1012.3084   6  12   0.0413   0.0394   0.1343  -0.0049  -0.0343  -0.0208   6.00    0.0
2018/11/11 01:13:45.000  -74.370508945  163.307880518  1012.2729   6  12   0.0370   0.0350   0.1163  -0.0045  -0.0299  -0.0130   6.00    0.0
2018/11/11 01:14:00.000  -74.370508848  163.307880511  1012.2437   6  12   0.0331   0.0309   0.0990  -0.0046  -0.0257   0.0069   6.00    0.0
2018/11/11 01:14:15.000  -74.370508829  163.307880523  1012.2098   6  12   0.0295   0.0271   0.0829  -0.0053  -0.0220   0.0148   7.00    0.0
2018/11/11 01:14:30.000  -74.370508869  163.307880705  1012.1823   6  12   0.0266   0.0241   0.0688  -0.0062  -0.0193   0.0186   7.00    0.0
2018/11/11 01:14:45.000  -74.370508929  163.307880979  1012.1677   6  12   0.0247   0.0215   0.0584  -0.0074  -0.0173   0.0213   7.00    0.0
2018/11/11 01:15:00.000  -74.370508853  163.307880961  1012.1857   6  12   0.0238   0.0203   0.0534  -0.0072  -0.0162   0.0218   7.00    0.0
2018/11/11 01:15:15.000  -74.370508824  163.307880873  1012.1753   6  12   0.0246   0.0213   0.0584  -0.0071  -0.0172   0.0212   7.00    0.0
2018/11/11 01:15:30.000  -74.370508823  163.307881165  1012.1818   6  12   0.0267   0.0237   0.0694  -0.0065  -0.0196   0.0193   7.00    0.0
2018/11/11 01:15:45.000  -74.370508790  163.307881230  1012.1852   6  12   0.0296   0.0270   0.0838  -0.0058  -0.0229   0.0158   7.00    0.0
2018/11/11 01:16:00.000  -74.370508815  163.307881305  1012.1945   6  12   0.0331   0.0308   0.1001  -0.0053  -0.0269   0.0087   8.00    0.0
2018/11/11 01:16:15.000  -74.370508844  163.307881410  1012.1729   6  12   0.0370   0.0349   0.1176  -0.0050  -0.0314  -0.0121   8.00    0.0
2018/11/11 01:16:30.000  -74.370508881  163.307881071  1012.1452   6  12   0.0412   0.0392   0.1358  -0.0052  -0.0361  -0.0205   8.00    0.0
2018/11/11 01:16:45.000  -74.370508869  163.307880563  1012.1254   6  12   0.0456   0.0438   0.1545  -0.0057  -0.0410  -0.0273   8.00    0.0
2018/11/11 01:17:00.000  -74.370508866  163.307880747  1012.0816   6  12   0.0502   0.0484   0.1734  -0.0064  -0.0460  -0.0335   8.00    0.0
2018/11/11 01:17:15.000  -74.370508856  163.307880863  1012.0837   6  12   0.0549   0.0531   0.1925  -0.0072  -0.0511  -0.0393   8.00    0.0
2018/11/11 01:17:30.000  -74.370508912  163.307880846  1012.1171   6  12   0.0597   0.0579   0.2118  -0.0081  -0.0563  -0.0449   8.00    0.0
2018/11/11 01:17:45.000  -74.370509034  163.307880485  1012.1008   6  12   0.0551   0.0533   0.1933  -0.0070  -0.0518  -0.0394   8.00    0.0
2018/11/11 01:18:00.000  -74.370509017  163.307880395  1012.0985   6  12   0.0504   0.0486   0.1742  -0.0059  -0.0469  -0.0335   8.00    0.0
2018/11/11 01:18:15.000  -74.370509069  163.307880494  1012.1502   6  12   0.0458   0.0439   0.1553  -0.0051  -0.0420  -0.0274   8.00    0.0
2018/11/11 01:18:30.000  -74.370509157  163.307880557  1012.1579   6  12   0.0414   0.0394   0.1368  -0.0045  -0.0372  -0.0206   8.00    1.0
2018/11/11 01:18:45.000  -74.370509082  163.307880573  1012.1784   6  12   0.0371   0.0351   0.1187  -0.0043  -0.0326  -0.0121   8.00    1.0
2018/11/11 01:19:00.000  -74.370508687  163.307878195  1012.2553   1  12   0.0497   0.0405   0.1356   0.0261  -0.0188   0.0147   8.00    1.0
2018/11/11 01:19:15.000  -74.370509014  163.307880968  1012.1973   6  12   0.0297   0.0271   0.0852  -0.0052  -0.0243   0.0161   8.00    0.0
2018/11/11 01:19:30.000  -74.370508960  163.307881405  1012.1830   6  12   0.0268   0.0239   0.0711  -0.0059  -0.0210   0.0197   8.00    0.0
2018/11/11 01:19:45.000  -74.370508840  163.307881210  1012.1906   6  12   0.0248   0.0214   0.0603  -0.0065  -0.0187   0.0217   8.00    0.0
2018/11/11 01:20:00.000  -74.370508828  163.307881091  1012.1387   6  12   0.0240   0.0203   0.0554  -0.0068  -0.0178   0.0224   8.00    0.0
2018/11/11 01:20:15.000  -74.370509674  163.307882817  1012.0456   1  12   0.0353   0.0270   0.0760  -0.0157  -0.0309   0.0280   6.00    1.0
2018/11/11 01:20:30.000  -74.370508884  163.307880822  1012.1597   6  12   0.0278   0.0241   0.0730  -0.0032  -0.0221   0.0187   8.00    0.0
2018/11/11 01:20:45.000  -74.370508902  163.307880892  1012.1590   6  12   0.0318   0.0274   0.0908   0.0037  -0.0257   0.0093   7.00    0.0
2018/11/11 01:21:00.000  -74.370508814  163.307880902  1012.1683   6  12   0.0349   0.0309   0.1059   0.0011  -0.0303  -0.0050   6.00    0.0
2018/11/11 01:21:15.000  -74.370508744  163.307880847  1012.1912   6  12   0.0386   0.0351   0.1224   0.0033  -0.0348  -0.0171   6.00    0.0
2018/11/11 01:21:30.000  -74.370508705  163.307880494  1012.1910   6  12   0.0428   0.0394   0.1401   0.0044  -0.0396  -0.0248   6.00    0.0
2018/11/11 01:21:45.000  -74.370508659  163.307880382  1012.1808   6  12   0.0473   0.0439   0.1585   0.0052  -0.0447  -0.0317   6.00    0.0
2018/11/11 01:22:00.000  -74.370508658  163.307880482  1012.1733   6  12   0.0521   0.0486   0.1774   0.0061  -0.0500  -0.0383   6.00    0.0
2018/11/11 01:22:15.000  -74.370508649  163.307880129  1012.2142   6  12   0.0571   0.0534   0.1968   0.0072  -0.0554  -0.0451   6.00    0.0
2018/11/11 01:22:30.000  -74.370508617  163.307880060  1012.2543   6  12   0.0625   0.0582   0.2169   0.0089  -0.0612  -0.0525   6.00    0.0
2018/11/11 01:22:45.000  -74.370508656  163.307879860  1012.2666   6  12   0.0595   0.0537   0.2012   0.0126  -0.0578  -0.0527   6.00    0.0
2018/11/11 01:23:00.000  -74.370508757  163.307879709  1012.2593   6  12   0.0538   0.0486   0.1825   0.0090  -0.0514  -0.0459   6.00    0.0
2018/11/11 01:23:15.000  -74.370508645  163.307880268  1012.2209   6  12   0.0478   0.0439   0.1603   0.0062  -0.0453  -0.0351   6.00    0.0
2018/11/11 01:23:30.000  -74.370508699  163.307880328  1012.2070   6  12   0.0428   0.0394   0.1408   0.0048  -0.0401  -0.0268   7.00    0.0
2018/11/11 01:23:45.000  -74.370508772  163.307880485  1012.2249   6  12   0.0383   0.0350   0.1225   0.0036  -0.0353  -0.0187   7.00    0.0
2018/11/11 01:24:00.000  -74.370508863  163.307880405  1012.2249   6  12   0.0343   0.0309   0.1054   0.0022  -0.0309  -0.0084   7.00    0.0
2018/11/11 01:24:15.000  -74.370508829  163.307880313  1012.2123   6  12   0.0308   0.0272   0.0897  -0.0016  -0.0271   0.0116   7.00    0.0
2018/11/11 01:24:30.000  -74.370508845  163.307880396  1012.1561   6  12   0.0282   0.0242   0.0762  -0.0022  -0.0242   0.0163   7.00    0.0
2018/11/11 01:24:45.000  -74.370508878  163.307880803  1012.1466   6  12   0.0259   0.0217   0.0665  -0.0048  -0.0216   0.0190   7.00    0.0
2018/11/11 01:25:00.000  -74.370508908  163.307881003  1012.1552   6  12   0.0244   0.0206   0.0608  -0.0064  -0.0202   0.0214   7.00    0.0
2018/11/11 01:25:15.000  -74.370509024  163.307880893  1012.1749   6  12   0.0253   0.0217   0.0654  -0.0062  -0.0215   0.0212   7.00    0.0
2018/11/11 01:25:30.000  -74.370509041  163.307880237  1012.1871   6  12   0.0274   0.0241   0.0762  -0.0054  -0.0242   0.0191   7.00    0.0
2018/11/11 01:25:45.000  -74.370509068  163.307880093  1012.1807   6  12   0.0304   0.0274   0.0900  -0.0048  -0.0275   0.0148   7.00    0.0
2018/11/11 01:26:00.000  -74.370509092  163.307880069  1012.1342   6  12   0.0341   0.0313   0.1057  -0.0044  -0.0314   0.0035   7.00    0.0
2018/11/11 01:26:15.000  -74.370509079  163.307879820  1012.1088   6  12   0.0382   0.0356   0.1223  -0.0050  -0.0356  -0.0159   7.00    0.0
2018/11/11 01:26:30.000  -74.370509035  163.307879738  1012.0840   6  12   0.0427   0.0405   0.1397  -0.0075  -0.0397  -0.0243   7.00    0.0
2018/11/11 01:26:45.000  -74.370509125  163.307880361  1012.1288   6  12   0.0475   0.0448   0.1576  -0.0082  -0.0441  -0.0317   6.00    0.0
2018/11/11 01:27:00.000  -74.370509083  163.307880455  1012.1460   6  12   0.0517   0.0489   0.1752  -0.0045  -0.0498  -0.0368   6.00    0.0
2018/11/11 01:27:15.000  -74.370509070  163.307880834  1012.0954   6  12   0.0563   0.0534   0.1932   0.0011  -0.0551  -0.0423   6.00    0.0
2018/11/11 01:27:30.000  -74.370509276  163.307880011  1012.1215   6  12   0.0611   0.0581   0.2113   0.0040  -0.0604  -0.0478   6.00    0.0
2018/11/11 01:27:45.000  -74.370509203  163.307879607  1012.1708   6  12   0.0567   0.0533   0.1936   0.0061  -0.0558  -0.0436   6.00    0.0
2018/11/11 01:28:00.000  -74.370509172  163.307879686  1012.1862   6  12   0.0525   0.0487   0.1768   0.0081  -0.0515  -0.0403   6.00    0.0
2018/11/11 01:28:15.000  -74.370509113  163.307879914  1012.1868   6  12   0.0494   0.0443   0.1620   0.0111  -0.0483  -0.0396   6.00    0.0
2018/11/11 01:28:30.000  -74.370509063  163.307880258  1012.1548   6  12   0.0440   0.0395   0.1469   0.0074  -0.0426  -0.0338   6.00    0.0
2018/11/11 01:28:45.000  -74.370508966  163.307880351  1012.1453   6  12   0.0386   0.0350   0.1267   0.0043  -0.0368  -0.0223   6.00    0.0
2018/11/11 01:29:00.000  -74.370509574  163.307882701  1012.0055   1  12   0.0443   0.0375   0.1288  -0.0057  -0.0281  -0.0330   8.00    1.0
2018/11/11 01:29:15.000  -74.370508935  163.307880470  1012.1404   6  12   0.0304   0.0272   0.0943  -0.0028  -0.0283   0.0112   7.00    0.0
2018/11/11 01:29:30.000  -74.370508965  163.307880552  1012.1055   6  12   0.0273   0.0240   0.0810  -0.0042  -0.0252   0.0175   7.00    0.0
2018/11/11 01:29:45.000  -74.370508962  163.307880416  1012.1432   6  12   0.0251   0.0217   0.0706  -0.0051  -0.0230   0.0207   7.00    0.0
2018/11/11 01:30:00.000  -74.370508855  163.307880676  1012.1410   6  12   0.0240   0.0206   0.0656  -0.0053  -0.0222   0.0221   7.00    0.0
2018/11/11 01:30:15.000  -74.370508727  163.307880255  1012.1432   6  12   0.0249   0.0216   0.0711  -0.0051  -0.0237   0.0220   7.00    0.0
2018/11/11 01:30:30.000  -74.370508854  163.307880441  1012.1609   6  12   0.0270   0.0240   0.0822  -0.0043  -0.0265   0.0208   7.00    0.0
2018/11/11 01:30:45.000  -74.370508969  163.307880342  1012.1384   6  12   0.0299   0.0272   0.0957  -0.0033  -0.0300   0.0184   7.00    0.0
2018/11/11 01:31:00.000  -74.370508947  163.307880421  1012.0732   6  12   0.0333   0.0308   0.1105  -0.0023  -0.0340   0.0142   7.00    0.0
2018/11/11 01:31:15.000  -74.370508878  163.307880340  1012.0682   6  12   0.0372   0.0348   0.1259  -0.0012  -0.0382   0.0043   7.00    0.0
2018/11/11 01:31:30.000  -74.370508820  163.307880802  1012.0539   6  12   0.0413   0.0391   0.1417   0.0012  -0.0426  -0.0144   7.00    0.0
2018/11/11 01:31:45.000  -74.370508752  163.307880568  1012.0629   6  12   0.0457   0.0435   0.1578   0.0018  -0.0472  -0.0218   7.00    0.0
2018/11/11 01:32:00.000  -74.370508671  163.307880567  1012.0286   6  12   0.0503   0.0480   0.1741   0.0022  -0.0518  -0.0280   7.00    0.0
2018/11/11 01:32:15.000  -74.370508640  163.307880972  1012.0141   6  12   0.0550   0.0527   0.1906   0.0024  -0.0565  -0.0336   7.00    0.0
2018/11/11 01:32:30.000  -74.370508611  163.307880749  1012.0212   6  12   0.0598   0.0574   0.2071   0.0026  -0.0613  -0.0389   7.00    0.0
2018/11/11 01:32:45.000  -74.370508688  163.307880469  1012.0268   6  12   0.0550   0.0529   0.1903   0.0024  -0.0565  -0.0332   7.00    1.0
2018/11/11 01:33:00.000  -74.370508807  163.307881072  1012.0156   6  12   0.0503   0.0482   0.1735   0.0024  -0.0518  -0.0271   7.00    1.0
2018/11/11 01:33:15.000  -74.370508893  163.307880968  1012.0285   6  12   0.0458   0.0437   0.1571   0.0022  -0.0472  -0.0204   7.00    1.0
2018/11/11 01:33:30.000  -74.370509004  163.307880918  1012.0669   6  12   0.0414   0.0393   0.1412   0.0018  -0.0428  -0.0120   7.00    1.0
2018/11/11 01:33:45.000  -74.370509041  163.307880504  1012.0949   6  12   0.0373   0.0350   0.1259   0.0008  -0.0386   0.0092   7.00    0.0
2018/11/11 01:34:00.000  -74.370508942  163.307880277  1012.1139   6  12   0.0334   0.0310   0.1113  -0.0019  -0.0346   0.0163   8.00    0.0
2018/11/11 01:34:15.000  -74.370508921  163.307880352  1012.1124   6  12   0.0300   0.0274   0.0977  -0.0029  -0.0311   0.0201   8.00    0.0
2018/11/11 01:34:30.000  -74.370508897  163.307880492  1012.1121   6  12   0.0272   0.0244   0.0856  -0.0038  -0.0281   0.0224   8.00    0.0
2018/11/11 01:34:45.000  -74.370508850  163.307880905  1012.0777   6  12   0.0252   0.0221   0.0760  -0.0046  -0.0260   0.0238   8.00    0.0
2018/11/11 01:35:00.000  -74.370508807  163.307880965  1012.0871   6  12   0.0243   0.0210   0.0713  -0.0050  -0.0251   0.0244   8.00    0.0
2018/11/11 01:35:15.000  -74.370508722  163.307880854  1012.0931   6  12   0.0255   0.0224   0.0769  -0.0038  -0.0266   0.0242   8.00    0.0
2018/11/11 01:35:30.000  -74.370508798  163.307880860  1012.0278   6  11   0.0281   0.0248   0.0888  -0.0012  -0.0296   0.0243   7.00    0.0
2018/11/11 01:35:45.000  -74.370508887  163.307880449  1012.0295   6  11   0.0315   0.0282   0.1028   0.0039  -0.0333   0.0237   7.00    0.0
2018/11/11 01:36:00.000  -74.370509020  163.307880206  1012.0093   6  11   0.0355   0.0321   0.1182   0.0058  -0.0375   0.0227   7.00    0.0
2018/11/11 01:36:15.000  -74.370509054  163.307880298  1012.0053   6  11   0.0399   0.0364   0.1344   0.0072  -0.0421   0.0215   7.00    0.0
2018/11/11 01:36:30.000  -74.370508935  163.307880744  1011.9925   6  11   0.0448   0.0410   0.1514   0.0083  -0.0471   0.0201   7.00    0.0
2018/11/11 01:36:45.000  -74.370508858  163.307880731  1012.0194   6  11   0.0499   0.0460   0.1692   0.0086  -0.0528   0.0193   7.00    0.0
2018/11/11 01:37:00.000  -74.370508694  163.307880852  1012.0451   6  11   0.0555   0.0518   0.1889   0.0059  -0.0603   0.0219   7.00    0.0
2018/11/11 01:37:15.000  -74.370508908  163.307881548  1012.0002   6  10   0.0631   0.0636   0.2383  -0.0206  -0.0878   0.0489   6.00    0.0
2018/11/11 01:37:30.000  -74.370508909  163.307881462  1012.0023   6  10   0.0689   0.0696   0.2599  -0.0228  -0.0961   0.0526   6.00    0.0
2018/11/11 01:37:45.000  -74.370508872  163.307881738  1012.0224   6  10   0.0635   0.0639   0.2400  -0.0195  -0.0891   0.0469   6.00    0.0
2018/11/11 01:38:00.000  -74.370508941  163.307881401  1012.0160   6  10   0.0584   0.0585   0.2214  -0.0156  -0.0827   0.0406   6.00    0.0
2018/11/11 01:38:15.000  -74.370508862  163.307880967  1012.0226   6  10   0.0538   0.0537   0.2049  -0.0088  -0.0776   0.0310   6.00    0.0
2018/11/11 01:38:30.000  -74.370508980  163.307880871  1012.0016   6   9   0.0517   0.0526   0.2237   0.0188  -0.0872  -0.0386   6.00    0.0
2018/11/11 01:38:45.000  -74.370509028  163.307880797  1011.9815   6   9   0.0456   0.0461   0.1955   0.0160  -0.0757  -0.0293   6.00    0.0
2018/11/11 01:39:00.000  -74.370508981  163.307880888  1011.9729   6   9   0.0398   0.0398   0.1680   0.0131  -0.0645  -0.0186   6.00    0.0
2018/11/11 01:39:15.000  -74.370509039  163.307880782  1012.0296   6   9   0.0345   0.0339   0.1417   0.0102  -0.0537   0.0065   6.00    0.0
2018/11/11 01:39:30.000  -74.370508929  163.307881000  1012.0631   6   9   0.0301   0.0288   0.1173   0.0074  -0.0440   0.0176   6.00    0.0
2018/11/11 01:39:45.000  -74.370508772  163.307880943  1012.0766   6   9   0.0269   0.0249   0.0973   0.0051  -0.0363   0.0214   6.00    0.0
2018/11/11 01:40:00.000  -74.370508681  163.307880966  1012.0789   6   9   0.0257   0.0233   0.0877   0.0044  -0.0330   0.0226   6.00    0.0
2018/11/11 01:40:15.000  -74.370508698  163.307881199  1012.0651   6   9   0.0274   0.0256   0.0983   0.0071  -0.0373   0.0207   6.00    0.0
2018/11/11 01:40:30.000  -74.370508354  163.307879244  1012.1370   1   9   0.0396   0.0385   0.1381   0.0120  -0.0607  -0.0179   6.00    1.0
2018/11/11 01:40:45.000  -74.370508667  163.307881607  1012.0096   6   9   0.0357   0.0360   0.1459   0.0138  -0.0574  -0.0103   6.00    1.0
2018/11/11 01:41:00.000  -74.370508603  163.307881609  1012.0090   6   9   0.0413   0.0427   0.1742   0.0173  -0.0696  -0.0242   6.00    1.0
2018/11/11 01:41:15.000  -74.370508612  163.307881836  1011.9872   6   9   0.0473   0.0498   0.2038   0.0210  -0.0825  -0.0349   6.00    1.0
2018/11/11 01:41:30.000  -74.370508626  163.307882212  1011.9419   6   9   0.0538   0.0574   0.2343   0.0250  -0.0959  -0.0450   6.00    1.0
2018/11/11 01:41:45.000  -74.370508580  163.307882183  1011.9307   6   9   0.0605   0.0655   0.2658   0.0294  -0.1099  -0.0551   6.00    1.0
2018/11/11 01:42:00.000  -74.370508710  163.307881865  1011.9507   6   9   0.0676   0.0744   0.2986   0.0344  -0.1250  -0.0657   6.00    1.0
2018/11/11 01:42:15.000  -74.370508635  163.307882043  1011.8980   6   9   0.0753   0.0851   0.3342   0.0411  -0.1426  -0.0782   6.00    1.0
2018/11/11 01:42:30.000  -74.370508585  163.307882209  1011.9019   6   9   0.0853   0.1013   0.3801   0.0537  -0.1691  -0.0986   5.00    1.0
2018/11/11 01:42:45.000  -74.370508552  163.307882087  1011.9072   6   9   0.0779   0.0927   0.3482   0.0488  -0.1547  -0.0889   4.00    1.0
2018/11/11 01:43:00.000  -74.370508596  163.307882113  1011.9189   6   9   0.0685   0.0786   0.3084   0.0377  -0.1327  -0.0710   4.00    1.0
2018/11/11 01:43:15.000  -74.370508659  163.307882055  1011.9212   6   9   0.0614   0.0695   0.2750   0.0326  -0.1172  -0.0602   4.00    1.0
2018/11/11 01:43:30.000  -74.370508872  163.307881774  1011.9563   6   9   0.0553   0.0634   0.2465   0.0302  -0.1061  -0.0530   4.00    1.0
2018/11/11 01:43:45.000  -74.370508795  163.307881976  1011.9208   6   9   0.0493   0.0567   0.2188   0.0268  -0.0946  -0.0450   5.00    1.0
2018/11/11 01:44:00.000  -74.370508846  163.307881053  1011.9826   6   9   0.0443   0.0483   0.1885   0.0227  -0.0803  -0.0361   5.00    1.0
2018/11/11 01:44:15.000  -74.370508673  163.307881497  1012.0091   6   9   0.0370   0.0363   0.1554   0.0099  -0.0615  -0.0141   4.00    1.0
2018/11/11 01:44:30.000  -74.370508605  163.307881541  1012.0560   6   9   0.0310   0.0296   0.1296   0.0033  -0.0495   0.0124   4.00    1.0
