% program   : RTKLIB ver.2.4.3
% inp file  : _by_type/_obs/tuati/20181108.18o
% inp file  : _by_type/_sp3+clk/igs20264.clk
% inp file  : _by_type/_sp3+clk/igs20264.sp3
% inp file  : _by_type/_nav/tuati/20181108.18n
% obs start : 2018/11/08 00:00:00.0 GPST (week2026 345600.0s)
% obs end   : 2018/11/08 23:59:30.0 GPST (week2026 431970.0s)
% pos mode  : ppp-kinematic
% solution  : combined
% elev mask : 15.0 deg
% dynamics  : off
% tidecorr  : on
% tropo opt : est ztd+grad
% ephemeris : precise
% navi sys  : gps glonass
% antenna1  :                       ( 0.0000  0.0000  0.0000)
%
% (lat/lon/height=WGS84/ellipsoidal,Q=1:fix,2:float,3:sbas,4:dgps,5:single,6:ppp,ns=# of satellites)
%  GPST                  latitude(deg) longitude(deg)  height(m)   Q  ns   sdn(m)   sde(m)   sdu(m)  sdne(m)  sdeu(m)  sdun(m) age(s)  ratio
2018/11/08 00:00:00.000  -74.425540897  163.418472181    64.7464   6   9   0.0292   0.0277   0.0786  -0.0109  -0.0014  -0.0158   0.00    0.0
2018/11/08 00:00:30.000  -74.425540888  163.418472346    64.7796   6   9   0.0367   0.0355   0.1081  -0.0147   0.0213  -0.0310   0.00    0.0
2018/11/08 00:01:00.000  -74.425540928  163.418471677    64.7693   6   9   0.0506   0.0500   0.1594  -0.0209   0.0392  -0.0504   0.00    0.0
2018/11/08 00:01:30.000  -74.425540951  163.418471664    64.7847   6   9   0.0670   0.0668   0.2179  -0.0278   0.0570  -0.0711   0.00    0.0
2018/11/08 00:02:00.000  -74.425540930  163.418471199    64.8100   6   9   0.0850   0.0844   0.2791  -0.0344   0.0744  -0.0928   0.00    0.0
2018/11/08 00:02:30.000  -74.425540890  163.418470682    64.8061   6   9   0.1061   0.1021   0.3420  -0.0382   0.0900  -0.1176   0.00    0.0
2018/11/08 00:03:00.000  -74.425540881  163.418471475    64.8090   6   9   0.0801   0.0832   0.2791  -0.0377   0.0771  -0.0881   0.00    0.0
2018/11/08 00:03:30.000  -74.425541009  163.418471090    64.7196   6   9   0.0639   0.0659   0.2206  -0.0302   0.0605  -0.0688   1.00    0.0
2018/11/08 00:04:00.000  -74.425540943  163.418471237    64.7405   6   9   0.0486   0.0494   0.1629  -0.0229   0.0433  -0.0493   2.00    0.0
2018/11/08 00:04:30.000  -74.425541004  163.418471677    64.7938   6   9   0.0358   0.0351   0.1105  -0.0166   0.0263  -0.0303   2.00    0.0
2018/11/08 00:05:00.000  -74.425540940  163.418471931    64.7621   6   9   0.0294   0.0277   0.0803  -0.0133   0.0139  -0.0161   2.00    0.0
2018/11/08 00:05:30.000  -74.425540853  163.418472011    64.8450   6   9   0.0364   0.0360   0.1119  -0.0182   0.0285  -0.0312   2.00    0.0
2018/11/08 00:06:00.000  -74.425540686  163.418472468    64.9107   6   9   0.0493   0.0507   0.1658  -0.0253   0.0471  -0.0506   3.00    0.0
2018/11/08 00:06:30.000  -74.425540831  163.418471670    64.8628   6   9   0.0641   0.0670   0.2246  -0.0326   0.0656  -0.0697   3.00    0.0
2018/11/08 00:07:00.000  -74.425540672  163.418470836    64.7945   6   9   0.0791   0.0835   0.2833  -0.0395   0.0833  -0.0877   3.00    0.0
2018/11/08 00:07:30.000  -74.425540794  163.418469987    64.7643   6   9   0.0938   0.0995   0.3401  -0.0460   0.1001  -0.1045   3.00    0.0
2018/11/08 00:08:00.000  -74.425540742  163.418469662    64.6704   6  10   0.0770   0.0825   0.2563  -0.0438   0.0965  -0.0740   3.00    0.0
2018/11/08 00:08:30.000  -74.425540783  163.418470580    64.6567   6  10   0.0632   0.0673   0.2066  -0.0373   0.0783  -0.0609   3.00    0.0
2018/11/08 00:09:00.000  -74.425540830  163.418471479    64.6818   6  10   0.0513   0.0539   0.1578  -0.0329   0.0610  -0.0494   4.00    0.0
2018/11/08 00:09:30.000  -74.425540904  163.418471543    64.6684   6  10   0.0352   0.0351   0.1076  -0.0177   0.0338  -0.0258   5.00    0.0
2018/11/08 00:10:00.000  -74.425541010  163.418471927    64.6865   6  10   0.0292   0.0275   0.0818  -0.0129   0.0197  -0.0121   5.00    0.0
2018/11/08 00:10:30.000  -74.425540991  163.418472485    64.7327   6  10   0.0353   0.0353   0.1145  -0.0175   0.0353  -0.0220   4.00    0.0
2018/11/08 00:11:00.000  -74.425540868  163.418472113    64.6883   6  10   0.0472   0.0491   0.1714  -0.0241   0.0568  -0.0306   4.00    0.0
2018/11/08 00:11:30.000  -74.425540813  163.418472574    64.7042   6  10   0.0595   0.0643   0.2017  -0.0316   0.0743  -0.0524   0.00    0.0
2018/11/08 00:12:00.000  -74.425540666  163.418471410    64.6673   6  10   0.0727   0.0795   0.2512  -0.0381   0.0929  -0.0638   0.00    0.0
2018/11/08 00:12:30.000  -74.425540680  163.418471005    64.7510   6  10   0.0858   0.0943   0.2996  -0.0444   0.1109  -0.0748   0.00    0.0
2018/11/08 00:13:00.000  -74.425540943  163.418471682    64.8091   6  10   0.0728   0.0796   0.2540  -0.0384   0.0944  -0.0651   0.00    0.0
2018/11/08 00:13:30.000  -74.425541005  163.418471816    64.7953   6  10   0.0596   0.0644   0.2059  -0.0318   0.0764  -0.0540   2.00    0.0
2018/11/08 00:14:00.000  -74.425541122  163.418472246    64.7567   6  10   0.0466   0.0493   0.1558  -0.0250   0.0570  -0.0413   3.00    0.0
2018/11/08 00:14:30.000  -74.425540984  163.418472107    64.6832   6  10   0.0354   0.0356   0.1066  -0.0181   0.0365  -0.0270   3.00    0.0
2018/11/08 00:15:00.000  -74.425541086  163.418472138    64.6990   6  10   0.0295   0.0279   0.0751  -0.0135   0.0212  -0.0152   3.00    0.0
2018/11/08 00:15:30.000  -74.425541034  163.418472360    64.6491   6  10   0.0353   0.0355   0.1062  -0.0180   0.0363  -0.0266   4.00    0.0
2018/11/08 00:16:00.000  -74.425540754  163.418471585    64.5855   6  10   0.0460   0.0489   0.1545  -0.0240   0.0561  -0.0392   3.00    0.0
2018/11/08 00:16:30.000  -74.425540759  163.418470638    64.6064   6  10   0.0583   0.0635   0.2045  -0.0301   0.0752  -0.0505   4.00    0.0
2018/11/08 00:17:00.000  -74.425540750  163.418470054    64.5843   6  10   0.0710   0.0783   0.2544  -0.0362   0.0938  -0.0618   3.00    0.0
2018/11/08 00:17:30.000  -74.425540656  163.418469713    64.5677   6  10   0.0838   0.0927   0.3045  -0.0426   0.1125  -0.0741   5.00    0.0
2018/11/08 00:18:00.000  -74.425540857  163.418470641    64.5834   6  10   0.0709   0.0780   0.2562  -0.0361   0.0940  -0.0624   3.00    0.0
2018/11/08 00:18:30.000  -74.425541049  163.418471130    64.6268   6  10   0.0581   0.0633   0.2075  -0.0299   0.0759  -0.0514   4.00    0.0
2018/11/08 00:19:00.000  -74.425541001  163.418471540    64.6525   6  10   0.0458   0.0488   0.1576  -0.0238   0.0570  -0.0398   5.00    0.0
2018/11/08 00:19:30.000  -74.425541105  163.418471102    64.6260   6  10   0.0352   0.0356   0.1087  -0.0178   0.0374  -0.0272   4.00    0.0
2018/11/08 00:20:00.000  -74.425541262  163.418471807    64.7069   6  10   0.0296   0.0285   0.0776  -0.0135   0.0230  -0.0170   4.00    0.0
2018/11/08 00:20:30.000  -74.425541329  163.418470864    64.6588   6  10   0.0350   0.0366   0.1081  -0.0175   0.0364  -0.0263   4.00    0.0
2018/11/08 00:21:00.000  -74.425541339  163.418470005    64.5771   6  10   0.0452   0.0507   0.1555  -0.0229   0.0544  -0.0372   4.00    0.0
2018/11/08 00:21:30.000  -74.425541338  163.418470349    64.6646   6  10   0.0571   0.0678   0.2062  -0.0288   0.0718  -0.0484   4.00    0.0
2018/11/08 00:22:00.000  -74.425541261  163.418470090    64.6515   6  11   0.0670   0.0841   0.2458  -0.0349   0.0920  -0.0722   3.00    0.0
2018/11/08 00:22:30.000  -74.425541230  163.418470416    64.6835   6  11   0.0791   0.0919   0.2945  -0.0413   0.1152  -0.0884   3.00    0.0
2018/11/08 00:23:00.000  -74.425541256  163.418470087    64.6357   6  11   0.0670   0.0771   0.2481  -0.0347   0.0966  -0.0734   3.00    0.0
2018/11/08 00:23:30.000  -74.425541307  163.418470554    64.6330   6  11   0.0550   0.0625   0.2004  -0.0283   0.0774  -0.0585   3.00    0.0
2018/11/08 00:24:00.000  -74.425541240  163.418471218    64.6579   6  11   0.0439   0.0481   0.1535  -0.0225   0.0585  -0.0441   3.00    0.0
2018/11/08 00:24:30.000  -74.425541293  163.418471635    64.6636   6  11   0.0345   0.0353   0.1093  -0.0174   0.0400  -0.0300   4.00    0.0
2018/11/08 00:25:00.000  -74.425541260  163.418471678    64.6965   6  11   0.0298   0.0280   0.0808  -0.0140   0.0266  -0.0198   4.00    0.0
2018/11/08 00:25:30.000  -74.425541108  163.418470944    64.6318   6  11   0.0349   0.0357   0.1094  -0.0180   0.0401  -0.0298   3.00    0.0
2018/11/08 00:26:00.000  -74.425540978  163.418470064    64.5819   6  11   0.0448   0.0492   0.1531  -0.0246   0.0585  -0.0435   3.00    0.0
2018/11/08 00:26:30.000  -74.425540900  163.418468905    64.5450   6  11   0.0568   0.0643   0.2024  -0.0324   0.0790  -0.0597   3.00    0.0
2018/11/08 00:27:00.000  -74.425540857  163.418469174    64.5863   6  11   0.0693   0.0793   0.2526  -0.0402   0.0995  -0.0761   3.00    0.0
2018/11/08 00:27:30.000  -74.425540853  163.418468753    64.5417   6  11   0.0788   0.0912   0.3035  -0.0429   0.1196  -0.0926   2.00    0.0
2018/11/08 00:28:00.000  -74.425540867  163.418468760    64.5317   6  11   0.0663   0.0763   0.2526  -0.0345   0.0982  -0.0746   2.00    0.0
2018/11/08 00:28:30.000  -74.425541076  163.418469062    64.6092   6  11   0.0543   0.0617   0.2031  -0.0275   0.0779  -0.0584   4.00    0.0
2018/11/08 00:29:00.000  -74.425541137  163.418469550    64.6053   6  11   0.0432   0.0474   0.1553  -0.0213   0.0584  -0.0433   4.00    0.0
2018/11/08 00:29:30.000  -74.425541273  163.418470225    64.5921   6  11   0.0341   0.0348   0.1122  -0.0162   0.0404  -0.0299   4.00    0.0
2018/11/08 00:30:00.000  -74.425541279  163.418471245    64.6332   6  11   0.0294   0.0278   0.0861  -0.0129   0.0283  -0.0207   4.00    0.0
2018/11/08 00:30:30.000  -74.425541321  163.418471192    64.6230   6  11   0.0342   0.0346   0.1133  -0.0158   0.0399  -0.0279   4.00    0.0
2018/11/08 00:31:00.000  -74.425541213  163.418470455    64.6061   6  11   0.0441   0.0470   0.1577  -0.0207   0.0571  -0.0373   4.00    0.0
2018/11/08 00:31:30.000  -74.425541093  163.418469740    64.5607   6  11   0.0539   0.0608   0.2022  -0.0263   0.0764  -0.0555   4.00    0.0
2018/11/08 00:32:00.000  -74.425541066  163.418469660    64.5194   6  11   0.0654   0.0749   0.2514  -0.0330   0.0963  -0.0716   4.00    0.0
2018/11/08 00:32:30.000  -74.425540969  163.418469302    64.4954   6  11   0.0770   0.0889   0.3015  -0.0401   0.1166  -0.0886   4.00    0.0
2018/11/08 00:33:00.000  -74.425541065  163.418469950    64.5002   6  11   0.0653   0.0750   0.2514  -0.0328   0.0960  -0.0712   4.00    0.0
2018/11/08 00:33:30.000  -74.425541061  163.418470264    64.4379   6  11   0.0539   0.0608   0.2027  -0.0260   0.0758  -0.0543   4.00    0.0
2018/11/08 00:34:00.000  -74.425541209  163.418470161    64.4627   6  11   0.0438   0.0469   0.1577  -0.0203   0.0566  -0.0374   4.00    0.0
2018/11/08 00:34:30.000  -74.425541379  163.418470554    64.5683   6  11   0.0342   0.0346   0.1156  -0.0154   0.0398  -0.0276   4.00    0.0
2018/11/08 00:35:00.000  -74.425541260  163.418470955    64.5668   6  11   0.0290   0.0276   0.0905  -0.0120   0.0289  -0.0213   4.00    0.0
2018/11/08 00:35:30.000  -74.425541582  163.418471363    64.6633   1  11   0.0386   0.0380   0.1374  -0.0240   0.0552  -0.0457   5.00    1.0
2018/11/08 00:36:00.000  -74.425541206  163.418470241    64.5943   6  11   0.0421   0.0463   0.1531  -0.0191   0.0552  -0.0409   4.00    0.0
2018/11/08 00:36:30.000  -74.425541133  163.418470154    64.6079   6  11   0.0526   0.0597   0.1977  -0.0246   0.0734  -0.0547   4.00    0.0
2018/11/08 00:37:00.000  -74.425541207  163.418469985    64.6165   6  11   0.0637   0.0734   0.2447  -0.0310   0.0924  -0.0699   4.00    0.0
2018/11/08 00:37:30.000  -74.425541238  163.418470510    64.7368   6  11   0.0750   0.0868   0.2924  -0.0378   0.1116  -0.0860   4.00    0.0
2018/11/08 00:38:00.000  -74.425541423  163.418470848    64.7046   6  11   0.0633   0.0727   0.2429  -0.0304   0.0913  -0.0687   4.00    0.0
2018/11/08 00:38:30.000  -74.425541519  163.418471103    64.6985   6  11   0.0520   0.0589   0.1958  -0.0237   0.0718  -0.0532   4.00    0.0
2018/11/08 00:39:00.000  -74.425541577  163.418470967    64.6902   6  11   0.0417   0.0455   0.1522  -0.0181   0.0537  -0.0397   4.00    0.0
2018/11/08 00:39:30.000  -74.425541548  163.418470964    64.6772   6  11   0.0332   0.0337   0.1162  -0.0137   0.0380  -0.0287   4.00    0.0
2018/11/08 00:40:00.000  -74.425541257  163.418470677    64.5732   6  11   0.0287   0.0272   0.0957  -0.0105   0.0277  -0.0199   4.00    0.0
2018/11/08 00:40:30.000  -74.425541297  163.418470856    64.5924   6  11   0.0333   0.0334   0.1191  -0.0134   0.0361  -0.0270   4.00    0.0
2018/11/08 00:41:00.000  -74.425541153  163.418470713    64.5645   6  11   0.0418   0.0449   0.1568  -0.0176   0.0499  -0.0368   4.00    0.0
2018/11/08 00:41:30.000  -74.425541086  163.418469969    64.6157   6  11   0.0520   0.0579   0.2033  -0.0232   0.0652  -0.0471   4.00    0.0
2018/11/08 00:42:00.000  -74.425541038  163.418469780    64.6279   6  11   0.0627   0.0710   0.2575  -0.0292   0.0832  -0.0617   0.00    0.0
2018/11/08 00:42:30.000  -74.425541139  163.418469895    64.6550   6  11   0.0735   0.0838   0.3069  -0.0353   0.1006  -0.0758   0.00    0.0
2018/11/08 00:43:00.000  -74.425541145  163.418469524    64.5738   6  11   0.0623   0.0704   0.2476  -0.0281   0.0842  -0.0643   0.00    0.0
2018/11/08 00:43:30.000  -74.425541254  163.418470255    64.6177   6  11   0.0518   0.0573   0.2079  -0.0223   0.0644  -0.0469   0.00    0.0
2018/11/08 00:44:00.000  -74.425541157  163.418470138    64.5330   6  11   0.0418   0.0444   0.1660  -0.0170   0.0488  -0.0368   0.00    0.0
2018/11/08 00:44:30.000  -74.425541167  163.418470294    64.4695   6  11   0.0334   0.0330   0.1262  -0.0126   0.0372  -0.0314   0.00    0.0
2018/11/08 00:45:00.000  -74.425541230  163.418470195    64.4725   6  11   0.0291   0.0270   0.1106  -0.0100   0.0293  -0.0249   0.00    0.0
2018/11/08 00:45:30.000  -74.425541169  163.418470777    64.5311   6  11   0.0346   0.0329   0.1343  -0.0129   0.0365  -0.0345   0.00    0.0
2018/11/08 00:46:00.000  -74.425541098  163.418469956    64.4893   6  11   0.0456   0.0439   0.1748  -0.0179   0.0500  -0.0521   2.00    0.0
2018/11/08 00:46:30.000  -74.425540792  163.418468431    64.3649   6  10   0.0730   0.0600   0.2950  -0.0387   0.0918  -0.1170   3.00    0.0
2018/11/08 00:47:00.000  -74.425540689  163.418468047    64.3639   6  10   0.0921   0.0738   0.3730  -0.0500   0.1168  -0.1525   4.00    0.0
2018/11/08 00:47:30.000  -74.425540618  163.418467994    64.4179   6  10   0.1115   0.0874   0.4588  -0.0613   0.1413  -0.1891   5.00    0.0
2018/11/08 00:48:00.000  -74.425540763  163.418467526    64.2889   6  10   0.0930   0.0732   0.3732  -0.0497   0.1173  -0.1554   5.00    0.0
2018/11/08 00:48:30.000  -74.425540920  163.418467871    64.3771   6  10   0.0731   0.0590   0.2928  -0.0375   0.0900  -0.1177   5.00    0.0
2018/11/08 00:49:00.000  -74.425540945  163.418468301    64.3593   6  10   0.0545   0.0453   0.2221  -0.0261   0.0644  -0.0827   5.00    0.0
2018/11/08 00:49:30.000  -74.425541165  163.418468911    64.4065   6  10   0.0386   0.0332   0.1636  -0.0161   0.0417  -0.0509   5.00    0.0
2018/11/08 00:50:00.000  -74.425541284  163.418469846    64.4783   6  10   0.0302   0.0267   0.1333  -0.0098   0.0276  -0.0294   5.00    0.0
2018/11/08 00:50:30.000  -74.425541285  163.418470266    64.5941   6   9   0.0424   0.0338   0.2233  -0.0189   0.0485  -0.0710   0.00    0.0
2018/11/08 00:51:00.000  -74.425540881  163.418469879    64.5287   6   9   0.0581   0.0454   0.2496  -0.0277   0.0658  -0.0952   0.00    0.0
2018/11/08 00:51:30.000  -74.425541024  163.418469950    64.6104   6   9   0.0747   0.0578   0.3236  -0.0360   0.0849  -0.1260   0.00    0.0
2018/11/08 00:52:00.000  -74.425540780  163.418469164    64.5250   6   9   0.0927   0.0703   0.4024  -0.0452   0.1057  -0.1596   0.00    0.0
2018/11/08 00:52:30.000  -74.425540699  163.418469180    64.5312   6   9   0.1111   0.0828   0.4828  -0.0546   0.1267  -0.1942   2.00    0.0
2018/11/08 00:53:00.000  -74.425541062  163.418469121    64.6441   6  10   0.0737   0.0695   0.2846  -0.0397   0.0935  -0.0971   3.00    0.0
2018/11/08 00:53:30.000  -74.425540923  163.418469487    64.6265   6  10   0.0594   0.0564   0.2237  -0.0304   0.0724  -0.0711   4.00    0.0
2018/11/08 00:54:00.000  -74.425540940  163.418469670    64.6009   6  10   0.0479   0.0440   0.1702  -0.0230   0.0532  -0.0487   4.00    0.0
2018/11/08 00:54:30.000  -74.425541157  163.418470068    64.6511   6  10   0.0351   0.0329   0.1218  -0.0153   0.0370  -0.0335   3.00    0.0
2018/11/08 00:55:00.000  -74.425541356  163.418469688    64.6178   6  10   0.0299   0.0271   0.0930  -0.0109   0.0259  -0.0211   4.00    0.0
2018/11/08 00:55:30.000  -74.425541280  163.418468952    64.6543   6  10   0.0369   0.0345   0.1172  -0.0168   0.0364  -0.0301   4.00    0.0
2018/11/08 00:56:00.000  -74.425541070  163.418468699    64.6638   6  10   0.0498   0.0459   0.1576  -0.0243   0.0506  -0.0429   4.00    0.0
2018/11/08 00:56:30.000  -74.425541295  163.418469477    64.6877   6  10   0.0621   0.0585   0.2050  -0.0334   0.0673  -0.0617   4.00    0.0
2018/11/08 00:57:00.000  -74.425541455  163.418469577    64.6974   6  10   0.0699   0.0700   0.2519  -0.0375   0.0838  -0.0809   4.00    0.0
2018/11/08 00:57:30.000  -74.425541353  163.418469287    64.7029   6  10   0.0816   0.0819   0.3011  -0.0441   0.1001  -0.0986   4.00    0.0
2018/11/08 00:58:00.000  -74.425541409  163.418468897    64.6572   6  10   0.0688   0.0721   0.2534  -0.0372   0.0851  -0.0815   4.00    0.0
2018/11/08 00:58:30.000  -74.425541399  163.418468547    64.6196   6  10   0.0573   0.0626   0.2088  -0.0331   0.0734  -0.0671   3.00    0.0
2018/11/08 00:59:00.000  -74.425541522  163.418469117    64.6727   6  10   0.0451   0.0452   0.1585  -0.0221   0.0498  -0.0474   3.00    0.0
2018/11/08 00:59:30.000  -74.425541505  163.418469419    64.6604   6  10   0.0350   0.0319   0.1137  -0.0146   0.0321  -0.0280   3.00    0.0
2018/11/08 01:00:00.000  -74.425541530  163.418469630    64.6254   6  10   0.0273   0.0261   0.0851  -0.0078   0.0234  -0.0149   3.00    0.0
2018/11/08 01:00:30.000  -74.425541498  163.418469512    64.6154   6  10   0.0330   0.0348   0.1130  -0.0131   0.0356  -0.0292   3.00    0.0
2018/11/08 01:01:00.000  -74.425541315  163.418468975    64.6624   6  10   0.0430   0.0478   0.1558  -0.0201   0.0516  -0.0456   4.00    0.0
2018/11/08 01:01:30.000  -74.425541216  163.418468803    64.7011   6  10   0.0549   0.0621   0.2039  -0.0278   0.0693  -0.0634   4.00    0.0
2018/11/08 01:02:00.000  -74.425541107  163.418468822    64.7046   6  10   0.0682   0.0722   0.2557  -0.0364   0.0860  -0.0834   4.00    0.0
2018/11/08 01:02:30.000  -74.425541180  163.418469525    64.7804   6  10   0.0824   0.0871   0.3169  -0.0467   0.1107  -0.1070   3.00    0.0
2018/11/08 01:03:00.000  -74.425541188  163.418469539    64.7363   6  10   0.0697   0.0701   0.2569  -0.0393   0.0840  -0.0874   3.00    0.0
2018/11/08 01:03:30.000  -74.425541321  163.418469560    64.7101   6  10   0.0548   0.0522   0.2003  -0.0249   0.0572  -0.0631   3.00    0.0
2018/11/08 01:04:00.000  -74.425541468  163.418468714    64.6286   6  10   0.0426   0.0392   0.1506  -0.0162   0.0392  -0.0435   3.00    0.0
2018/11/08 01:04:30.000  -74.425541494  163.418468437    64.5892   6  10   0.0324   0.0278   0.1068  -0.0086   0.0244  -0.0256   3.00    0.0
2018/11/08 01:05:00.000  -74.425541541  163.418469385    64.6226   6  10   0.0270   0.0219   0.0795  -0.0010   0.0158  -0.0090   3.00    0.0
2018/11/08 01:05:30.000  -74.425541602  163.418470282    64.6775   6  10   0.0332   0.0288   0.1104  -0.0025   0.0203  -0.0290   4.00    0.0
2018/11/08 01:06:00.000  -74.425541483  163.418469893    64.7445   6  10   0.0447   0.0387   0.1622  -0.0086   0.0245  -0.0529   3.00    0.0
2018/11/08 01:06:30.000  -74.425541526  163.418469397    64.8877   6  10   0.0569   0.0496   0.2132  -0.0185   0.0433  -0.0726   2.00    0.0
2018/11/08 01:07:00.000  -74.425541292  163.418469669    64.9357   6  10   0.0681   0.0609   0.2553  -0.0240   0.0545  -0.0863   3.00    0.0
2018/11/08 01:07:30.000  -74.425541257  163.418469259    64.9599   6  10   0.0801   0.0720   0.3015  -0.0302   0.0666  -0.1022   3.00    0.0
2018/11/08 01:08:00.000  -74.425541263  163.418468708    64.9600   6  10   0.0681   0.0609   0.2543  -0.0221   0.0495  -0.0861   3.00    0.0
2018/11/08 01:08:30.000  -74.425541486  163.418469334    64.9097   6  10   0.0575   0.0501   0.2132  -0.0105   0.0265  -0.0738   3.00    0.0
2018/11/08 01:09:00.000  -74.425541550  163.418469802    64.8445   6  10   0.0454   0.0384   0.1640  -0.0046   0.0157  -0.0551   3.00    0.0
2018/11/08 01:09:30.000  -74.425541569  163.418469105    64.7782   6  10   0.0331   0.0273   0.1082   0.0024   0.0108  -0.0290   4.00    0.0
2018/11/08 01:10:00.000  -74.425541507  163.418469212    64.6139   6  10   0.0264   0.0208   0.0735   0.0029   0.0108   0.0074   4.00    0.0
2018/11/08 01:10:30.000  -74.425541343  163.418468869    64.5377   6  10   0.0320   0.0270   0.1007  -0.0016   0.0121  -0.0232   4.00    0.0
2018/11/08 01:11:00.000  -74.425541156  163.418468517    64.5670   6  10   0.0424   0.0378   0.1449  -0.0060   0.0161  -0.0431   4.00    0.0
2018/11/08 01:11:30.000  -74.425540958  163.418468489    64.5982   6  10   0.0552   0.0494   0.1974  -0.0069   0.0170  -0.0654   4.00    0.0
2018/11/08 01:12:00.000  -74.425540993  163.418468716    64.7291   6  10   0.0698   0.0601   0.2603  -0.0132   0.0264  -0.0920   4.00    0.0
2018/11/08 01:12:30.000  -74.425540918  163.418469467    64.7633   6  10   0.0830   0.0716   0.3106  -0.0145   0.0262  -0.1111   4.00    0.0
2018/11/08 01:13:00.000  -74.425540839  163.418469634    64.7158   6  10   0.0710   0.0605   0.2645   0.0042  -0.0139  -0.0955   4.00    0.0
2018/11/08 01:13:30.000  -74.425541005  163.418469431    64.7114   6  10   0.0542   0.0480   0.1930  -0.0115   0.0225  -0.0621   4.00    0.0
2018/11/08 01:14:00.000  -74.425541080  163.418469584    64.6438   6  11   0.0375   0.0376   0.1224   0.0114  -0.0219  -0.0191   4.00    0.0
2018/11/08 01:14:30.000  -74.425541610  163.418469064    64.5007   1  11   0.0330   0.0281   0.0943   0.0077  -0.0206   0.0075   5.00    1.0
2018/11/08 01:15:00.000  -74.425541836  163.418469179    64.5554   1  11   0.0282   0.0208   0.0652   0.0059  -0.0154   0.0173   5.00    1.0
2018/11/08 01:15:30.000  -74.425541894  163.418469225    64.5915   1  11   0.0328   0.0278   0.0924   0.0069  -0.0196   0.0111   5.00    1.0
2018/11/08 01:16:00.000  -74.425541451  163.418468253    64.7362   6  11   0.0364   0.0373   0.1137   0.0120  -0.0233  -0.0014   4.00    0.0
2018/11/08 01:16:30.000  -74.425541403  163.418468287    64.7122   6  11   0.0445   0.0457   0.1465   0.0106  -0.0236  -0.0100   4.00    0.0
2018/11/08 01:17:00.000  -74.425541229  163.418468925    64.6462   6  11   0.0536   0.0557   0.1821   0.0117  -0.0289  -0.0193   4.00    0.0
2018/11/08 01:17:30.000  -74.425541285  163.418469212    64.6251   6  11   0.0631   0.0658   0.2194   0.0125  -0.0348  -0.0281   4.00    0.0
2018/11/08 01:18:00.000  -74.425541526  163.418469243    64.6493   6  12   0.0527   0.0535   0.1764  -0.0059  -0.0407  -0.0291   4.00    0.0
2018/11/08 01:18:30.000  -74.425541581  163.418469660    64.6374   6  12   0.0436   0.0437   0.1405  -0.0033  -0.0333  -0.0195   4.00    0.0
2018/11/08 01:19:00.000  -74.425542047  163.418470057    64.5269   1  12   0.0420   0.0374   0.1307  -0.0083  -0.0322  -0.0188   7.00    1.0
2018/11/08 01:19:30.000  -74.425541865  163.418469419    64.5097   1  12   0.0324   0.0261   0.0867  -0.0020  -0.0217   0.0130   7.00    1.0
2018/11/08 01:20:00.000  -74.425541880  163.418469148    64.5622   1  12   0.0279   0.0200   0.0607   0.0045  -0.0162   0.0192   7.00    1.0
2018/11/08 01:20:30.000  -74.425541769  163.418469868    64.5354   1  12   0.0325   0.0263   0.0868  -0.0007  -0.0226   0.0129   7.00    1.0
2018/11/08 01:21:00.000  -74.425541728  163.418469871    64.4791   1  12   0.0421   0.0375   0.1318  -0.0074  -0.0338  -0.0194   7.00    1.0
2018/11/08 01:21:30.000  -74.425541106  163.418469929    64.5504   6  12   0.0434   0.0432   0.1393  -0.0031  -0.0346  -0.0197   5.00    0.0
2018/11/08 01:22:00.000  -74.425541006  163.418469782    64.5125   6  12   0.0523   0.0526   0.1752  -0.0064  -0.0441  -0.0314   5.00    0.0
2018/11/08 01:22:30.000  -74.425540848  163.418469407    64.5589   6  12   0.0616   0.0621   0.2123  -0.0093  -0.0538  -0.0422   5.00    0.0
2018/11/08 01:23:00.000  -74.425541021  163.418469798    64.6156   6  12   0.0523   0.0525   0.1760  -0.0048  -0.0448  -0.0319   5.00    0.0
2018/11/08 01:23:30.000  -74.425541147  163.418469521    64.6415   6  12   0.0433   0.0431   0.1403   0.0027  -0.0357  -0.0205   6.00    0.0
2018/11/08 01:24:00.000  -74.425541886  163.418469249    64.5833   1  12   0.0421   0.0376   0.1333  -0.0053  -0.0358  -0.0201   7.00    1.0
2018/11/08 01:24:30.000  -74.425541932  163.418469031    64.5529   1  12   0.0326   0.0266   0.0873   0.0044  -0.0248   0.0130   7.00    1.0
2018/11/08 01:25:00.000  -74.425541869  163.418468860    64.5750   1  12   0.0284   0.0208   0.0609   0.0065  -0.0190   0.0192   7.00    1.0
2018/11/08 01:25:30.000  -74.425541950  163.418468806    64.5780   1  12   0.0333   0.0280   0.0894  -0.0024  -0.0282   0.0137   7.00    1.0
2018/11/08 01:26:00.000  -74.425541858  163.418468670    64.5511   1  12   0.0426   0.0377   0.1344   0.0022  -0.0369  -0.0229   7.00    1.0
2018/11/08 01:26:30.000  -74.425540872  163.418468685    64.5387   6  12   0.0433   0.0429   0.1414   0.0033  -0.0373  -0.0210   7.00    0.0
2018/11/08 01:27:00.000  -74.425540812  163.418468273    64.5637   6  12   0.0522   0.0523   0.1781  -0.0036  -0.0472  -0.0329   7.00    0.0
2018/11/08 01:27:30.000  -74.425540850  163.418468350    64.6011   6  12   0.0616   0.0617   0.2160  -0.0067  -0.0574  -0.0440   7.00    0.0
2018/11/08 01:28:00.000  -74.425540922  163.418468058    64.5794   6  12   0.0523   0.0523   0.1794  -0.0021  -0.0478  -0.0333   7.00    0.0
2018/11/08 01:28:30.000  -74.425541065  163.418468529    64.5458   6  12   0.0434   0.0430   0.1427   0.0051  -0.0382  -0.0220   7.00    0.0
2018/11/08 01:29:00.000  -74.425541767  163.418467992    64.5210   1  12   0.0434   0.0380   0.1376   0.0061  -0.0389  -0.0259   7.00    1.0
2018/11/08 01:29:30.000  -74.425541713  163.418468338    64.5362   1  12   0.0348   0.0271   0.0930   0.0093  -0.0283  -0.0140   7.00    1.0
2018/11/08 01:30:00.000  -74.425541942  163.418468463    64.5762   1  12   0.0282   0.0213   0.0598   0.0080  -0.0200   0.0200   7.00    1.0
2018/11/08 01:30:30.000  -74.425541952  163.418468104    64.6088   1  12   0.0326   0.0272   0.0880   0.0076  -0.0274   0.0133   7.00    1.0
2018/11/08 01:31:00.000  -74.425541994  163.418467893    64.5905   1  12   0.0423   0.0382   0.1354   0.0056  -0.0392  -0.0207   7.00    1.0
2018/11/08 01:31:30.000  -74.425541195  163.418468398    64.6014   6  12   0.0431   0.0428   0.1423   0.0072  -0.0390  -0.0224   7.00    0.0
2018/11/08 01:32:00.000  -74.425541155  163.418469163    64.5428   6  12   0.0521   0.0520   0.1790   0.0065  -0.0492  -0.0341   7.00    0.0
2018/11/08 01:32:30.000  -74.425540999  163.418469396    64.5843   6  12   0.0615   0.0614   0.2166   0.0050  -0.0595  -0.0450   7.00    0.0
2018/11/08 01:33:00.000  -74.425541018  163.418468967    64.6248   6  12   0.0522   0.0520   0.1785   0.0071  -0.0495  -0.0342   7.00    0.0
2018/11/08 01:33:30.000  -74.425541151  163.418469532    64.6319   6  12   0.0432   0.0428   0.1418   0.0079  -0.0396  -0.0225   7.00    0.0
2018/11/08 01:34:00.000  -74.425541863  163.418468639    64.5881   1  12   0.0425   0.0383   0.1349   0.0072  -0.0403  -0.0209   7.00    1.0
2018/11/08 01:34:30.000  -74.425541857  163.418468184    64.5943   1  12   0.0328   0.0276   0.0883   0.0088  -0.0289   0.0128   7.00    1.0
2018/11/08 01:35:00.000  -74.425541798  163.418468263    64.5674   1  12   0.0285   0.0219   0.0614   0.0096  -0.0226   0.0192   7.00    1.0
2018/11/08 01:35:30.000  -74.425541697  163.418468020    64.5556   1  12   0.0331   0.0280   0.0893   0.0098  -0.0301   0.0112   7.00    1.0
2018/11/08 01:36:00.000  -74.425541742  163.418467817    64.5863   1  12   0.0428   0.0388   0.1354   0.0091  -0.0418  -0.0221   7.00    1.0
2018/11/08 01:36:30.000  -74.425541108  163.418467968    64.6178   6  12   0.0431   0.0427   0.1409   0.0093  -0.0403  -0.0226   7.00    0.0
2018/11/08 01:37:00.000  -74.425540995  163.418467874    64.6303   6  12   0.0521   0.0518   0.1765   0.0091  -0.0503  -0.0339   7.00    0.0
2018/11/08 01:37:30.000  -74.425541002  163.418468226    64.6291   6  12   0.0614   0.0610   0.2128   0.0087  -0.0605  -0.0444   7.00    0.0
2018/11/08 01:38:00.000  -74.425541085  163.418468026    64.6408   6  12   0.0521   0.0518   0.1762   0.0093  -0.0505  -0.0336   7.00    0.0
2018/11/08 01:38:30.000  -74.425541177  163.418467943    64.6067   6  12   0.0432   0.0427   0.1405   0.0096  -0.0407  -0.0221   7.00    0.0
2018/11/08 01:39:00.000  -74.425541927  163.418468124    64.5566   1  12   0.0432   0.0391   0.1355   0.0103  -0.0428  -0.0222   6.00    1.0
2018/11/08 01:39:30.000  -74.425542107  163.418468113    64.5894   1  12   0.0336   0.0288   0.0916   0.0111  -0.0323   0.0085   6.00    1.0
2018/11/08 01:40:00.000  -74.425541917  163.418467834    64.5818   1  12   0.0292   0.0238   0.0666   0.0122  -0.0266   0.0157   6.00    1.0
2018/11/08 01:40:30.000  -74.425541605  163.418467477    64.5839   1  12   0.0356   0.0305   0.0994   0.0146  -0.0371  -0.0182   6.00    1.0
2018/11/08 01:41:00.000  -74.425540787  163.418468046    64.5318   6  12   0.0375   0.0352   0.1136   0.0140  -0.0361  -0.0233   7.00    0.0
2018/11/08 01:41:30.000  -74.425540756  163.418468080    64.5183   6  12   0.0473   0.0438   0.1518   0.0166  -0.0473  -0.0404   7.00    0.0
2018/11/08 01:42:00.000  -74.425540574  163.418468774    64.4891   6  12   0.0558   0.0525   0.1833   0.0171  -0.0561  -0.0478   7.00    0.0
2018/11/08 01:42:30.000  -74.425540525  163.418468876    64.4623   6  12   0.0654   0.0617   0.2179   0.0182  -0.0661  -0.0577   7.00    0.0
2018/11/08 01:43:00.000  -74.425540696  163.418468714    64.4055   6  12   0.0581   0.0530   0.1878   0.0202  -0.0587  -0.0546   7.00    0.0
2018/11/08 01:43:30.000  -74.425541247  163.418468397    64.5563   6  12   0.0452   0.0436   0.1454   0.0142  -0.0448  -0.0324   7.00    0.0
2018/11/08 01:44:00.000  -74.425541943  163.418467270    64.6062   1  12   0.0438   0.0430   0.1360   0.0152  -0.0475  -0.0225   5.00    1.0
2018/11/08 01:44:30.000  -74.425541986  163.418467276    64.6099   1  12   0.0341   0.0319   0.0964   0.0135  -0.0377   0.0055   5.00    1.0
2018/11/08 01:45:00.000  -74.425541970  163.418467809    64.5987   1  12   0.0296   0.0242   0.0722   0.0131  -0.0295   0.0147   5.00    1.0
2018/11/08 01:45:30.000  -74.425541768  163.418467531    64.6975   1  12   0.0362   0.0325   0.1101   0.0162  -0.0437  -0.0183   5.00    1.0
2018/11/08 01:46:00.000  -74.425540851  163.418469175    64.6253   6  12   0.0378   0.0367   0.1180   0.0149  -0.0408  -0.0193   6.00    0.0
2018/11/08 01:46:30.000  -74.425540654  163.418469867    64.5476   6  12   0.0481   0.0455   0.1520   0.0185  -0.0511  -0.0351   6.00    0.0
2018/11/08 01:47:00.000  -74.425540643  163.418469877    64.5305   6  12   0.0620   0.0561   0.1989   0.0265  -0.0664  -0.0600   6.00    0.0
2018/11/08 01:47:30.000  -74.425540653  163.418469805    64.4645   6  12   0.0744   0.0674   0.2340   0.0333  -0.0772  -0.0703   6.00    0.0
2018/11/08 01:48:00.000  -74.425541199  163.418468982    64.6335   6  11   0.0596   0.0558   0.1867   0.0226  -0.0574  -0.0342   5.00    0.0
2018/11/08 01:48:30.000  -74.425541199  163.418469335    64.5971   6  11   0.0477   0.0446   0.1503   0.0146  -0.0476  -0.0125   5.00    0.0
2018/11/08 01:49:00.000  -74.425541220  163.418469216    64.5560   6  11   0.0382   0.0371   0.1226   0.0093  -0.0428   0.0188   5.00    0.0
2018/11/08 01:49:30.000  -74.425541967  163.418467854    64.5909   1  10   0.0357   0.0327   0.1120   0.0121  -0.0444   0.0182   5.00    1.0
2018/11/08 01:50:00.000  -74.425542054  163.418467475    64.6019   1  10   0.0302   0.0258   0.0821   0.0147  -0.0343   0.0105   5.00    1.0
2018/11/08 01:50:30.000  -74.425542195  163.418467310    64.5812   1  10   0.0383   0.0374   0.1381   0.0195  -0.0578  -0.0280   5.00    1.0
2018/11/08 01:51:00.000  -74.425541261  163.418469746    64.5030   6   9   0.0415   0.0447   0.1632   0.0198  -0.0664  -0.0330   5.00    0.0
2018/11/08 01:51:30.000  -74.425541282  163.418469550    64.4815   6   9   0.0537   0.0591   0.2239   0.0260  -0.0926  -0.0499   6.00    0.0
2018/11/08 01:52:00.000  -74.425541048  163.418470899    64.3921   6   9   0.0671   0.0761   0.2905   0.0344  -0.1225  -0.0689   6.00    0.0
2018/11/08 01:52:30.000  -74.425541392  163.418469293    64.5756   6   9   0.0803   0.0892   0.3535   0.0396  -0.1473  -0.0842   5.00    0.0
2018/11/08 01:53:00.000  -74.425541346  163.418469649    64.6039   6   9   0.0663   0.0724   0.2864   0.0315  -0.1179  -0.0657   5.00    0.0
2018/11/08 01:53:30.000  -74.425541283  163.418468958    64.5477   6   9   0.0533   0.0574   0.2236   0.0249  -0.0911  -0.0490   5.00    0.0
2018/11/08 01:54:00.000  -74.425541157  163.418469294    64.4654   6   9   0.0412   0.0434   0.1638   0.0192  -0.0655  -0.0328   5.00    0.0
2018/11/08 01:54:30.000  -74.425541745  163.418468129    64.5205   1   9   0.0378   0.0345   0.1359   0.0177  -0.0536  -0.0257   6.00    1.0
2018/11/08 01:55:00.000  -74.425541942  163.418467253    64.6089   1   9   0.0305   0.0249   0.0865   0.0147  -0.0330  -0.0029   6.00    1.0
2018/11/08 01:55:30.000  -74.425542061  163.418466505    64.6377   1   9   0.0381   0.0360   0.1392   0.0185  -0.0551  -0.0287   6.00    1.0
2018/11/08 01:56:00.000  -74.425541261  163.418468921    64.4614   6   9   0.0413   0.0445   0.1649   0.0196  -0.0662  -0.0337   6.00    0.0
2018/11/08 01:56:30.000  -74.425541414  163.418468986    64.4682   6   9   0.0533   0.0588   0.2243   0.0255  -0.0923  -0.0495   6.00    0.0
2018/11/08 01:57:00.000  -74.425541142  163.418469186    64.4228   6   9   0.0663   0.0742   0.2865   0.0322  -0.1194  -0.0654   6.00    0.0
2018/11/08 01:57:30.000  -74.425541141  163.418469282    64.4397   6   9   0.0798   0.0915   0.3503   0.0398  -0.1481  -0.0817   6.00    0.0
2018/11/08 01:58:00.000  -74.425541153  163.418469176    64.3634   6   9   0.0670   0.0793   0.2891   0.0347  -0.1239  -0.0668   6.00    0.0
2018/11/08 01:58:30.000  -74.425541198  163.418468634    64.3853   6   9   0.0539   0.0592   0.2255   0.0260  -0.0933  -0.0499   6.00    0.0
2018/11/08 01:59:00.000  -74.425541178  163.418468274    64.4388   6   9   0.0419   0.0444   0.1670   0.0201  -0.0670  -0.0351   6.00    0.0
2018/11/08 01:59:30.000  -74.425541200  163.418469075    64.3912   6   9   0.0319   0.0318   0.1163   0.0157  -0.0429  -0.0221   6.00    0.0
2018/11/08 02:00:00.000  -74.425542019  163.418466835    64.6660   1   9   0.0316   0.0259   0.1011   0.0164  -0.0362  -0.0218   5.00    1.0
2018/11/08 02:00:30.000  -74.425541511  163.418468032    64.6187   6   9   0.0330   0.0325   0.1232   0.0159  -0.0430  -0.0291   6.00    0.0
2018/11/08 02:01:00.000  -74.425541607  163.418468612    64.6211   6   9   0.0442   0.0463   0.1803   0.0210  -0.0680  -0.0472   6.00    0.0
2018/11/08 02:01:30.000  -74.425541646  163.418468449    64.6662   6   9   0.0576   0.0594   0.2464   0.0288  -0.0965  -0.0679   6.00    0.0
2018/11/08 02:02:00.000  -74.425541721  163.418468271    64.6531   6   9   0.0732   0.0740   0.3221   0.0370  -0.1255  -0.0939   6.00    0.0
2018/11/08 02:02:30.000  -74.425541898  163.418467649    64.8323   6   8   0.1094   0.0934   0.5203   0.0617  -0.1820  -0.1881   5.00    0.0
2018/11/08 02:03:00.000  -74.425541412  163.418467289    64.7337   6   8   0.0904   0.0775   0.4268   0.0515  -0.1494  -0.1543   5.00    0.0
2018/11/08 02:03:30.000  -74.425541534  163.418466468    64.8110   6   9   0.0537   0.0574   0.2303   0.0245  -0.0900  -0.0540   5.00    0.0
2018/11/08 02:04:00.000  -74.425541634  163.418466809    64.7473   6   9   0.0411   0.0436   0.1685   0.0197  -0.0653  -0.0360   5.00    0.0
2018/11/08 02:04:30.000  -74.425542032  163.418466741    64.6363   1   9   0.0364   0.0349   0.1345   0.0184  -0.0532  -0.0205   5.00    1.0
2018/11/08 02:05:00.000  -74.425541930  163.418466887    64.6218   1   9   0.0298   0.0255   0.0956   0.0170  -0.0366  -0.0113   5.00    1.0
2018/11/08 02:05:30.000  -74.425541961  163.418466451    64.6865   1   9   0.0365   0.0352   0.1360   0.0190  -0.0537  -0.0222   5.00    1.0
2018/11/08 02:06:00.000  -74.425541191  163.418469812    64.5071   6   9   0.0400   0.0434   0.1603   0.0195  -0.0641  -0.0295   5.00    0.0
2018/11/08 02:06:30.000  -74.425541187  163.418469628    64.5693   6   9   0.0508   0.0567   0.2128   0.0231  -0.0867  -0.0393   5.00    0.0
2018/11/08 02:07:00.000  -74.425540972  163.418470892    64.3980   6   9   0.0624   0.0707   0.2689   0.0274  -0.1106  -0.0500   6.00    0.0
2018/11/08 02:07:30.000  -74.425541044  163.418471953    64.2989   6   9   0.0747   0.0853   0.3273   0.0324  -0.1352  -0.0618   5.00    0.0
2018/11/08 02:08:00.000  -74.425541202  163.418471687    64.3112   6   9   0.0628   0.0712   0.2721   0.0288  -0.1121  -0.0531   5.00    0.0
2018/11/08 02:08:30.000  -74.425541203  163.418471454    64.3696   6   9   0.0513   0.0573   0.2171   0.0250  -0.0888  -0.0440   5.00    0.0
2018/11/08 02:09:00.000  -74.425541553  163.418469704    64.5575   6   9   0.0405   0.0440   0.1642   0.0214  -0.0661  -0.0343   5.00    0.0
2018/11/08 02:09:30.000  -74.425541601  163.418468510    64.6251   6   9   0.0312   0.0324   0.1166   0.0184  -0.0451  -0.0241   5.00    0.0
2018/11/08 02:10:00.000  -74.425541507  163.418467984    64.5795   6   9   0.0262   0.0259   0.0882   0.0168  -0.0314  -0.0163   5.00    0.0
2018/11/08 02:10:30.000  -74.425541463  163.418468153    64.5561   6   9   0.0313   0.0324   0.1160   0.0188  -0.0449  -0.0248   5.00    0.0
2018/11/08 02:11:00.000  -74.425541234  163.418469519    64.4871   6   9   0.0407   0.0441   0.1646   0.0224  -0.0663  -0.0366   5.00    0.0
2018/11/08 02:11:30.000  -74.425541389  163.418469500    64.4894   6   9   0.0518   0.0575   0.2204   0.0274  -0.0900  -0.0498   5.00    0.0
2018/11/08 02:12:00.000  -74.425541527  163.418469563    64.4966   6   9   0.0639   0.0718   0.2798   0.0332  -0.1149  -0.0642   5.00    0.0
2018/11/08 02:12:30.000  -74.425541528  163.418468193    64.6895   6   9   0.0766   0.0865   0.3412   0.0397  -0.1405  -0.0795   5.00    0.0
2018/11/08 02:13:00.000  -74.425541408  163.418468884    64.6322   6   9   0.0641   0.0718   0.2813   0.0340  -0.1153  -0.0666   5.00    0.0
2018/11/08 02:13:30.000  -74.425541326  163.418469026    64.5810   6   9   0.0522   0.0576   0.2226   0.0287  -0.0907  -0.0537   5.00    0.0
2018/11/08 02:14:00.000  -74.425541388  163.418468236    64.6199   6   9   0.0411   0.0442   0.1662   0.0238  -0.0668  -0.0405   5.00    0.0
2018/11/08 02:14:30.000  -74.425541350  163.418468401    64.5788   6   9   0.0316   0.0326   0.1160   0.0198  -0.0448  -0.0278   5.00    0.0
2018/11/08 02:15:00.000  -74.425541538  163.418467617    64.6329   6   9   0.0265   0.0262   0.0872   0.0179  -0.0312  -0.0192   5.00    0.0
2018/11/08 02:15:30.000  -74.425541438  163.418468090    64.5944   6   9   0.0317   0.0324   0.1142   0.0199  -0.0437  -0.0279   5.00    1.0
2018/11/08 02:16:00.000  -74.425541326  163.418468419    64.5444   6   9   0.0413   0.0438   0.1643   0.0244  -0.0654  -0.0420   5.00    1.0
2018/11/08 02:16:30.000  -74.425541284  163.418468815    64.5160   6   9   0.0529   0.0572   0.2222   0.0304  -0.0898  -0.0581   5.00    1.0
2018/11/08 02:17:00.000  -74.425541304  163.418469249    64.4840   6   9   0.0656   0.0715   0.2834   0.0374  -0.1153  -0.0755   5.00    1.0
2018/11/08 02:17:30.000  -74.425541194  163.418469684    64.4237   6   9   0.0788   0.0863   0.3462   0.0451  -0.1412  -0.0937   5.00    1.0
2018/11/08 02:18:00.000  -74.425541227  163.418469218    64.4741   6   9   0.0660   0.0715   0.2838   0.0383  -0.1153  -0.0774   5.00    1.0
2018/11/08 02:18:30.000  -74.425541308  163.418468527    64.5191   6   9   0.0536   0.0571   0.2225   0.0316  -0.0897  -0.0612   5.00    1.0
2018/11/08 02:19:00.000  -74.425541320  163.418469095    64.5042   6   9   0.0420   0.0437   0.1639   0.0255  -0.0649  -0.0450   5.00    1.0
2018/11/08 02:19:30.000  -74.425541551  163.418467771    64.6329   6   9   0.0321   0.0323   0.1124   0.0207  -0.0423  -0.0300   5.00    1.0
2018/11/08 02:20:00.000  -74.425541545  163.418467582    64.6132   6   9   0.0269   0.0262   0.0842   0.0184  -0.0284  -0.0209   5.00    0.0
2018/11/08 02:20:30.000  -74.425541637  163.418467566    64.5736   6   9   0.0322   0.0323   0.1121   0.0204  -0.0395  -0.0300   5.00    0.0
2018/11/08 02:21:00.000  -74.425541343  163.418467605    64.5521   6   9   0.0424   0.0440   0.1679   0.0251  -0.0595  -0.0477   5.00    0.0
2018/11/08 02:21:30.000  -74.425541391  163.418466400    64.6880   6   9   0.0547   0.0577   0.2301   0.0316  -0.0823  -0.0672   5.00    0.0
2018/11/08 02:22:00.000  -74.425541546  163.418465808    64.7709   6   9   0.0680   0.0723   0.2955   0.0390  -0.1058  -0.0881   5.00    0.0
2018/11/08 02:22:30.000  -74.425541390  163.418467870    64.6166   6   9   0.0817   0.0856   0.3500   0.0484  -0.1355  -0.1063   5.00    0.0
2018/11/08 02:23:00.000  -74.425541438  163.418468585    64.6291   6   9   0.0684   0.0708   0.2845   0.0412  -0.1115  -0.0871   5.00    0.0
2018/11/08 02:23:30.000  -74.425541638  163.418467249    64.7524   6   9   0.0554   0.0563   0.2213   0.0337  -0.0863  -0.0679   5.00    0.0
2018/11/08 02:24:00.000  -74.425541540  163.418467911    64.7404   6   9   0.0432   0.0429   0.1615   0.0268  -0.0619  -0.0492   5.00    0.0
2018/11/08 02:24:30.000  -74.425541460  163.418468245    64.6353   6   9   0.0328   0.0318   0.1093   0.0215  -0.0399  -0.0320   5.00    0.0
2018/11/08 02:25:00.000  -74.425541553  163.418467291    64.6702   6   9   0.0273   0.0261   0.0801   0.0191  -0.0263  -0.0215   5.00    0.0
2018/11/08 02:25:30.000  -74.425541139  163.418468386    64.5555   6   9   0.0330   0.0317   0.1073   0.0217  -0.0384  -0.0310   5.00    0.0
2018/11/08 02:26:00.000  -74.425541012  163.418467696    64.6519   6   9   0.0437   0.0426   0.1572   0.0274  -0.0599  -0.0486   5.00    0.0
2018/11/08 02:26:30.000  -74.425540868  163.418468639    64.6127   6   9   0.0564   0.0555   0.2138   0.0350  -0.0837  -0.0684   5.00    0.0
2018/11/08 02:27:00.000  -74.425540895  163.418468609    64.6098   6   9   0.0703   0.0693   0.2725   0.0435  -0.1080  -0.0891   5.00    0.0
2018/11/08 02:27:30.000  -74.425540911  163.418469681    64.4337   6   9   0.0848   0.0835   0.3317   0.0526  -0.1322  -0.1101   5.00    0.0
2018/11/08 02:28:00.000  -74.425540928  163.418469265    64.4566   6   9   0.0716   0.0695   0.2708   0.0447  -0.1062  -0.0892   5.00    0.0
2018/11/08 02:28:30.000  -74.425541222  163.418469243    64.4116   6   9   0.0576   0.0554   0.2099   0.0361  -0.0818  -0.0700   4.00    0.0
2018/11/08 02:29:00.000  -74.425541315  163.418468741    64.4791   6   9   0.0446   0.0425   0.1529   0.0283  -0.0579  -0.0509   4.00    0.0
2018/11/08 02:29:30.000  -74.425541382  163.418468329    64.5185   6   9   0.0339   0.0320   0.1040   0.0225  -0.0365  -0.0336   4.00    0.0
2018/11/08 02:30:00.000  -74.425541777  163.418466032    64.6996   1   9   0.0342   0.0328   0.1046   0.0297  -0.0359  -0.0420   5.00    2.0
2018/11/08 02:30:30.000  -74.425541637  163.418467017    64.7017   6   9   0.0344   0.0323   0.1080   0.0231  -0.0367  -0.0361   5.00    0.0
2018/11/08 02:31:00.000  -74.425541560  163.418467760    64.5974   6   9   0.0453   0.0425   0.1546   0.0287  -0.0566  -0.0539   5.00    0.0
2018/11/08 02:31:30.000  -74.425541641  163.418467693    64.6766   6   9   0.0584   0.0547   0.2073   0.0362  -0.0787  -0.0738   4.00    0.0
2018/11/08 02:32:00.000  -74.425541871  163.418467012    64.7051   6   9   0.0724   0.0678   0.2618   0.0447  -0.1014  -0.0945   5.00    0.0
2018/11/08 02:32:30.000  -74.425541758  163.418466976    64.6223   6   9   0.0871   0.0813   0.3166   0.0536  -0.1239  -0.1155   5.00    0.0
2018/11/08 02:33:00.000  -74.425541513  163.418467876    64.5675   6   9   0.0728   0.0676   0.2597   0.0449  -0.1002  -0.0953   5.00    0.0
2018/11/08 02:33:30.000  -74.425541842  163.418467499    64.6707   6   9   0.0591   0.0544   0.2054   0.0364  -0.0762  -0.0755   5.00    0.0
2018/11/08 02:34:00.000  -74.425541893  163.418467400    64.6826   6   9   0.0465   0.0425   0.1573   0.0285  -0.0522  -0.0576   5.00    0.0
2018/11/08 02:34:30.000  -74.425541978  163.418466547    64.7740   6   8   0.0355   0.0326   0.1113   0.0235  -0.0340  -0.0398   5.00    0.0
2018/11/08 02:35:00.000  -74.425541771  163.418465875    64.7803   1   8   0.0348   0.0346   0.1104   0.0309  -0.0429  -0.0493   4.00    3.0
2018/11/08 02:35:30.000  -74.425541728  163.418466730    64.8013   6   8   0.0368   0.0347   0.1160   0.0258  -0.0388  -0.0436   5.00    0.0
2018/11/08 02:36:00.000  -74.425541664  163.418467605    64.7662   6   8   0.0500   0.0463   0.1768   0.0328  -0.0594  -0.0692   5.00    0.0
2018/11/08 02:36:30.000  -74.425542123  163.418467509    64.9615   6   8   0.0656   0.0597   0.2439   0.0414  -0.0813  -0.0974   5.00    0.0
2018/11/08 02:37:00.000  -74.425542166  163.418467417    64.9454   6   8   0.0825   0.0742   0.3133   0.0509  -0.1037  -0.1266   5.00    0.0
2018/11/08 02:37:30.000  -74.425542011  163.418468197    64.8558   6   8   0.1003   0.0894   0.3844   0.0612  -0.1269  -0.1570   5.00    0.0
2018/11/08 02:38:00.000  -74.425541534  163.418469356    64.6726   6   8   0.0862   0.0791   0.3268   0.0568  -0.1147  -0.1360   5.00    0.0
2018/11/08 02:38:30.000  -74.425541748  163.418467316    64.8371   6   8   0.0690   0.0625   0.2554   0.0455  -0.0886  -0.1061   4.00    0.0
2018/11/08 02:39:00.000  -74.425541853  163.418466065    64.8618   6   8   0.0519   0.0466   0.1799   0.0341  -0.0598  -0.0735   4.00    0.0
2018/11/08 02:39:30.000  -74.425541696  163.418466209    64.7350   6   8   0.0380   0.0350   0.1169   0.0266  -0.0377  -0.0460   4.00    0.0
2018/11/08 02:40:00.000  -74.425542033  163.418464632    64.8616   1   8   0.0357   0.0353   0.1031   0.0316  -0.0363  -0.0463   4.00    3.0
2018/11/08 02:40:30.000  -74.425541748  163.418466264    64.8356   6   8   0.0385   0.0362   0.1156   0.0277  -0.0365  -0.0450   4.00    0.0
2018/11/08 02:41:00.000  -74.425541861  163.418466082    64.8498   6   9   0.0516   0.0474   0.1687   0.0342  -0.0573  -0.0747   4.00    0.0
2018/11/08 02:41:30.000  -74.425542030  163.418467158    64.8892   6   9   0.0686   0.0612   0.2289   0.0436  -0.0775  -0.1048   4.00    0.0
2018/11/08 02:42:00.000  -74.425542193  163.418466667    64.9535   6   9   0.0878   0.0777   0.2995   0.0559  -0.1037  -0.1395   5.00    0.0
2018/11/08 02:42:30.000  -74.425542483  163.418466166    65.0175   6   9   0.1060   0.0907   0.3662   0.0646  -0.1227  -0.1711   4.00    0.0
2018/11/08 02:43:00.000  -74.425542159  163.418467069    64.8856   6   9   0.0862   0.0728   0.2930   0.0505  -0.0916  -0.1350   4.00    0.0
2018/11/08 02:43:30.000  -74.425541894  163.418467170    64.8042   6   9   0.0681   0.0581   0.2296   0.0402  -0.0657  -0.1020   4.00    0.0
2018/11/08 02:44:00.000  -74.425541864  163.418466851    64.8189   6   8   0.0514   0.0460   0.1694   0.0320  -0.0427  -0.0713   4.00    0.0
2018/11/08 02:44:30.000  -74.425541648  163.418466721    64.8085   6   8   0.0367   0.0343   0.1113   0.0245  -0.0295  -0.0452   4.00    0.0
2018/11/08 02:45:00.000  -74.425541689  163.418466003    64.7847   1   8   0.0343   0.0350   0.1008   0.0301  -0.0371  -0.0486   4.00    3.0
2018/11/08 02:45:30.000  -74.425541202  163.418468360    64.6236   6   8   0.0406   0.0411   0.1208   0.0315  -0.0442  -0.0541   4.00    0.0
2018/11/08 02:46:00.000  -74.425541374  163.418468786    64.6585   6   8   0.0574   0.0564   0.1864   0.0426  -0.0650  -0.0850   4.00    0.0
2018/11/08 02:46:30.000  -74.425541945  163.418468290    64.8089   6   8   0.0730   0.0691   0.2459   0.0495  -0.0739  -0.1105   4.00    0.0
2018/11/08 02:47:00.000  -74.425541944  163.418468664    64.7847   6   8   0.0918   0.0862   0.3151   0.0607  -0.0907  -0.1418   4.00    0.0
2018/11/08 02:47:30.000  -74.425542122  163.418467358    64.8848   6   8   0.1059   0.0931   0.3730   0.0604  -0.0832  -0.1637   4.00    0.0
2018/11/08 02:48:00.000  -74.425541734  163.418467617    64.8139   6   8   0.0854   0.0737   0.2995   0.0454  -0.0565  -0.1295   4.00    0.0
2018/11/08 02:48:30.000  -74.425541738  163.418467847    64.8370   6   8   0.0665   0.0571   0.2303   0.0341  -0.0373  -0.0979   4.00    0.0
2018/11/08 02:49:00.000  -74.425541765  163.418467649    64.7746   6   9   0.0454   0.0402   0.1398   0.0193   0.0251  -0.0552   4.00    0.0
2018/11/08 02:49:30.000  -74.425541553  163.418466569    64.7487   1   9   0.0349   0.0313   0.1130   0.0157   0.0276  -0.0448   4.00    3.0
2018/11/08 02:50:00.000  -74.425541673  163.418465863    64.7763   1   9   0.0240   0.0220   0.0769   0.0140   0.0170  -0.0303   4.00    3.0
2018/11/08 02:50:30.000  -74.425541611  163.418466063    64.8025   1   9   0.0373   0.0323   0.1155   0.0182   0.0264  -0.0476   4.00    3.0
2018/11/08 02:51:00.000  -74.425541597  163.418467818    64.8246   6   9   0.0452   0.0391   0.1303   0.0171   0.0342  -0.0507   5.00    0.0
2018/11/08 02:51:30.000  -74.425541648  163.418467616    64.8482   6   9   0.0612   0.0520   0.1789   0.0213   0.0493  -0.0725   5.00    0.0
2018/11/08 02:52:00.000  -74.425541729  163.418467303    64.8102   6   9   0.0764   0.0650   0.2308   0.0224   0.0654  -0.0950   4.00    0.0
2018/11/08 02:52:30.000  -74.425541629  163.418467674    64.7816   6   9   0.0910   0.0782   0.2836   0.0206   0.0832  -0.1165   4.00    0.0
2018/11/08 02:53:00.000  -74.425541932  163.418467479    64.8083   6   9   0.0749   0.0646   0.2332   0.0174   0.0686  -0.0951   4.00    0.0
2018/11/08 02:53:30.000  -74.425542072  163.418467148    64.8522   6   9   0.0594   0.0514   0.1831   0.0153   0.0533  -0.0738   4.00    0.0
2018/11/08 02:54:00.000  -74.425541957  163.418465813    64.8020   6   9   0.0447   0.0389   0.1344   0.0136   0.0380  -0.0528   4.00    0.0
2018/11/08 02:54:30.000  -74.425541841  163.418465374    64.8063   1   9   0.0347   0.0314   0.1180   0.0122   0.0327  -0.0473   5.00    3.0
2018/11/08 02:55:00.000  -74.425541626  163.418465842    64.7834   1   9   0.0227   0.0217   0.0782   0.0114   0.0205  -0.0306   5.00    3.0
2018/11/08 02:55:30.000  -74.425541862  163.418464857    64.8698   1   9   0.0359   0.0320   0.1275   0.0132   0.0307  -0.0519   5.00    3.0
2018/11/08 02:56:00.000  -74.425541931  163.418465282    64.8723   6   9   0.0456   0.0395   0.1455   0.0140   0.0361  -0.0582   3.00    0.0
2018/11/08 02:56:30.000  -74.425542036  163.418465465    64.8798   6   9   0.0636   0.0530   0.2219   0.0186   0.0458  -0.0922   2.00    0.0
2018/11/08 02:57:00.000  -74.425542134  163.418464675    64.9240   6   9   0.0769   0.0659   0.2590   0.0109   0.0729  -0.1067   2.00    0.0
2018/11/08 02:57:30.000  -74.425542202  163.418464930    64.9667   6   9   0.0921   0.0800   0.3084  -0.0070   0.0940  -0.1272   2.00    0.0
2018/11/08 02:58:00.000  -74.425542114  163.418465428    64.9383   6   9   0.0763   0.0664   0.2525   0.0041   0.0774  -0.1036   3.00    0.0
2018/11/08 02:58:30.000  -74.425541896  163.418465509    64.8333   6   9   0.0604   0.0527   0.1963   0.0077   0.0605  -0.0797   3.00    0.0
2018/11/08 02:59:00.000  -74.425541800  163.418466151    64.7731   6   9   0.0452   0.0397   0.1417   0.0096   0.0436  -0.0562   3.00    0.0
2018/11/08 02:59:30.000  -74.425541568  163.418465397    64.7070   1   9   0.0349   0.0326   0.1181   0.0088   0.0382  -0.0475   6.00    3.0
2018/11/08 03:00:00.000  -74.425541651  163.418465987    64.7518   1   9   0.0225   0.0225   0.0744   0.0098   0.0239  -0.0294   6.00    3.0
2018/11/08 03:00:30.000  -74.425541632  163.418466398    64.7590   1   9   0.0349   0.0327   0.1181   0.0086   0.0387  -0.0475   6.00    3.0
2018/11/08 03:01:00.000  -74.425541626  163.418467622    64.7390   6   9   0.0449   0.0398   0.1395   0.0066   0.0460  -0.0552   4.00    0.0
2018/11/08 03:01:30.000  -74.425541769  163.418467104    64.7272   6   9   0.0601   0.0533   0.1946  -0.0084   0.0656  -0.0790   4.00    0.0
2018/11/08 03:02:00.000  -74.425541927  163.418467163    64.7466   6   9   0.0761   0.0676   0.2519  -0.0160   0.0860  -0.1034   4.00    0.0
2018/11/08 03:02:30.000  -74.425541890  163.418466855    64.7238   6   9   0.0925   0.0824   0.3102  -0.0227   0.1069  -0.1281   4.00    0.0
2018/11/08 03:03:00.000  -74.425541774  163.418466998    64.6902   6   9   0.0762   0.0681   0.2530  -0.0176   0.0873  -0.1040   4.00    0.0
2018/11/08 03:03:30.000  -74.425542047  163.418467334    64.7717   6   9   0.0602   0.0540   0.1961  -0.0115   0.0677  -0.0798   5.00    0.0
2018/11/08 03:04:00.000  -74.425541855  163.418467810    64.6946   6   9   0.0449   0.0404   0.1406  -0.0016   0.0483  -0.0560   5.00    0.0
2018/11/08 03:04:30.000  -74.425541742  163.418465613    64.6593   1   9   0.0352   0.0335   0.1187   0.0054   0.0409  -0.0487   6.00    3.0
2018/11/08 03:05:00.000  -74.425541684  163.418465612    64.7276   1   9   0.0228   0.0232   0.0736   0.0092   0.0251  -0.0299   7.00    3.0
2018/11/08 03:05:30.000  -74.425541804  163.418466486    64.8172   1   9   0.0353   0.0338   0.1187   0.0045   0.0414  -0.0488   6.00    3.0
2018/11/08 03:06:00.000  -74.425541963  163.418468302    64.8464   6   9   0.0448   0.0406   0.1403  -0.0062   0.0497  -0.0559   6.00    0.0
2018/11/08 03:06:30.000  -74.425542109  163.418468345    64.8534   6   9   0.0601   0.0546   0.1963  -0.0148   0.0705  -0.0801   6.00    0.0
2018/11/08 03:07:00.000  -74.425541974  163.418467871    64.7083   6  10   0.0743   0.0577   0.2157   0.0128   0.0573  -0.0933   6.00    0.0
2018/11/08 03:07:30.000  -74.425542178  163.418467490    64.7749   6  10   0.0894   0.0658   0.2496   0.0214   0.0544  -0.1104   6.00    0.0
2018/11/08 03:08:00.000  -74.425542119  163.418467274    64.7614   6  10   0.0739   0.0556   0.2066   0.0168   0.0494  -0.0904   6.00    0.0
2018/11/08 03:08:30.000  -74.425541910  163.418467052    64.7165   6  10   0.0586   0.0464   0.1663   0.0118   0.0459  -0.0710   6.00    0.0
2018/11/08 03:09:00.000  -74.425541866  163.418467246    64.7012   6  10   0.0443   0.0389   0.1308   0.0048   0.0445  -0.0527   6.00    0.0
2018/11/08 03:09:30.000  -74.425541790  163.418465115    64.7452   1  10   0.0354   0.0340   0.1169  -0.0057   0.0435  -0.0487   6.00    4.0
2018/11/08 03:10:00.000  -74.425541713  163.418465185    64.7577   1  10   0.0230   0.0233   0.0724   0.0075   0.0270  -0.0299   7.00    4.0
2018/11/08 03:10:30.000  -74.425541651  163.418466767    64.7365   1  10   0.0282   0.0264   0.0852  -0.0042   0.0345  -0.0332   6.00    1.0
2018/11/08 03:11:00.000  -74.425541809  163.418467233    64.7513   6  10   0.0445   0.0411   0.1380  -0.0094   0.0517  -0.0553   6.00    0.0
2018/11/08 03:11:30.000  -74.425541804  163.418467010    64.7122   6  10   0.0583   0.0448   0.1625   0.0106   0.0439  -0.0702   6.00    0.0
2018/11/08 03:12:00.000  -74.425541949  163.418467051    64.7225   6  10   0.0732   0.0535   0.1992   0.0166   0.0456  -0.0881   6.00    0.0
2018/11/08 03:12:30.000  -74.425541931  163.418467022    64.6504   6  10   0.0886   0.0628   0.2387   0.0212   0.0492  -0.1071   6.00    0.0
2018/11/08 03:13:00.000  -74.425541907  163.418467317    64.6418   6  10   0.0727   0.0527   0.1959   0.0169   0.0435  -0.0867   6.00    0.0
2018/11/08 03:13:30.000  -74.425542037  163.418466970    64.6581   6  10   0.0575   0.0429   0.1539   0.0133   0.0371  -0.0668   6.00    0.0
2018/11/08 03:14:00.000  -74.425541945  163.418466835    64.6961   6  10   0.0431   0.0336   0.1135   0.0105   0.0305  -0.0474   6.00    0.0
2018/11/08 03:14:30.000  -74.425541761  163.418465895    64.7701   1  10   0.0348   0.0295   0.0988   0.0084   0.0300  -0.0440   7.00    4.0
2018/11/08 03:15:00.000  -74.425541579  163.418465312    64.7285   1  10   0.0237   0.0236   0.0698   0.0076   0.0255  -0.0303   7.00    4.0
2018/11/08 03:15:30.000  -74.425541414  163.418465438    64.7035   1  10   0.0353   0.0329   0.1073  -0.0023   0.0389  -0.0464   7.00    4.0
2018/11/08 03:16:00.000  -74.425541388  163.418467184    64.6374   6  10   0.0427   0.0360   0.1167   0.0079   0.0375  -0.0474   6.00    0.0
2018/11/08 03:16:30.000  -74.425541420  163.418466498    64.6478   6  10   0.0571   0.0478   0.1619   0.0048   0.0522  -0.0679   6.00    0.0
2018/11/08 03:17:00.000  -74.425541315  163.418466001    64.5447   6  10   0.0741   0.0716   0.2386  -0.0256   0.0951  -0.0986   6.00    0.0
2018/11/08 03:17:30.000  -74.425541539  163.418466094    64.5641   6  10   0.0891   0.0782   0.2702  -0.0229   0.0967  -0.1151   6.00    0.0
2018/11/08 03:18:00.000  -74.425541405  163.418466463    64.5396   6  10   0.0731   0.0680   0.2262  -0.0214   0.0864  -0.0943   6.00    0.0
2018/11/08 03:18:30.000  -74.425541548  163.418466716    64.5875   6  10   0.0569   0.0460   0.1584  -0.0034   0.0495  -0.0676   6.00    0.0
2018/11/08 03:19:00.000  -74.425541566  163.418466091    64.6191   6  10   0.0424   0.0347   0.1136   0.0065   0.0355  -0.0469   6.00    0.0
2018/11/08 03:19:30.000  -74.425541640  163.418464918    64.7678   1  10   0.0355   0.0316   0.0981   0.0098   0.0325  -0.0437   7.00    3.0
2018/11/08 03:20:00.000  -74.425541510  163.418465127    64.7330   1  10   0.0252   0.0258   0.0705   0.0099   0.0271  -0.0309   6.00    3.0
2018/11/08 03:20:30.000  -74.425541009  163.418465227    64.5900   1  11   0.0352   0.0350   0.1007  -0.0048   0.0428  -0.0419   6.00    1.0
2018/11/08 03:21:00.000  -74.425541239  163.418466127    64.5440   6  11   0.0402   0.0372   0.1090  -0.0062   0.0434  -0.0408   6.00    0.0
2018/11/08 03:21:30.000  -74.425541158  163.418466029    64.5161   6  11   0.0538   0.0518   0.1551  -0.0174   0.0660  -0.0605   6.00    0.0
2018/11/08 03:22:00.000  -74.425541135  163.418466635    64.5574   6  11   0.0675   0.0616   0.1901  -0.0203   0.0773  -0.0760   6.00    0.0
2018/11/08 03:22:30.000  -74.425541244  163.418466147    64.5384   6  11   0.0820   0.0753   0.2326  -0.0261   0.0955  -0.0938   6.00    0.0
2018/11/08 03:23:00.000  -74.425541207  163.418465743    64.5020   6  11   0.0684   0.0715   0.2075  -0.0273   0.0948  -0.0811   6.00    0.0
2018/11/08 03:23:30.000  -74.425541298  163.418465733    64.5209   6  12   0.0526   0.0489   0.1480  -0.0186   0.0600  -0.0618   6.00    0.0
2018/11/08 03:24:00.000  -74.425541405  163.418465700    64.5611   6  12   0.0395   0.0392   0.1117  -0.0137   0.0473  -0.0449   6.00    0.0
2018/11/08 03:24:30.000  -74.425541515  163.418465014    64.7021   1  12   0.0334   0.0314   0.0926  -0.0051   0.0349  -0.0416   7.00    3.0
2018/11/08 03:25:00.000  -74.425541474  163.418465381    64.7068   1  12   0.0247   0.0261   0.0697   0.0062   0.0284  -0.0312   7.00    3.0
2018/11/08 03:25:30.000  -74.425541466  163.418465643    64.7214   1  12   0.0338   0.0293   0.0895   0.0040   0.0302  -0.0411   7.00    3.0
2018/11/08 03:26:00.000  -74.425541385  163.418465672    64.7018   1  12   0.0499   0.0406   0.1336  -0.0110   0.0443  -0.0612   6.00    3.0
2018/11/08 03:26:30.000  -74.425541474  163.418466008    64.6455   6  12   0.0509   0.0412   0.1342  -0.0121   0.0452  -0.0575   6.00    0.0
2018/11/08 03:27:00.000  -74.425541601  163.418465634    64.6488   6  12   0.0639   0.0510   0.1704  -0.0171   0.0571  -0.0745   6.00    0.0
2018/11/08 03:27:30.000  -74.425541653  163.418465787    64.6486   6  12   0.0774   0.0612   0.2074  -0.0220   0.0694  -0.0918   6.00    0.0
2018/11/08 03:28:00.000  -74.425541618  163.418465697    64.6380   6  12   0.0640   0.0510   0.1707  -0.0173   0.0575  -0.0747   6.00    0.0
2018/11/08 03:28:30.000  -74.425541730  163.418466012    64.6359   6  12   0.0509   0.0412   0.1343  -0.0123   0.0456  -0.0575   6.00    0.0
2018/11/08 03:29:00.000  -74.425541593  163.418464786    64.7280   1  12   0.0503   0.0410   0.1345  -0.0118   0.0453  -0.0618   5.00    2.0
