% program   : RTKLIB ver.2.4.3
% inp file  : _by_type/_obs/tuati/20181111.18o
% inp file  : _by_type/_sp3+clk/igs20270.clk
% inp file  : _by_type/_sp3+clk/igs20270.sp3
% inp file  : _by_type/_nav/tuati/20181111.18n
% obs start : 2018/11/11 00:00:00.0 GPST (week2027      0.0s)
% obs end   : 2018/11/11 23:59:30.0 GPST (week2027  86370.0s)
% pos mode  : ppp-kinematic
% solution  : combined
% elev mask : 15.0 deg
% dynamics  : off
% tidecorr  : on
% tropo opt : est ztd+grad
% ephemeris : precise
% navi sys  : gps glonass
% antenna1  :                       ( 0.0000  0.0000  0.0000)
%
% (lat/lon/height=WGS84/ellipsoidal,Q=1:fix,2:float,3:sbas,4:dgps,5:single,6:ppp,ns=# of satellites)
%  GPST                  latitude(deg) longitude(deg)  height(m)   Q  ns   sdn(m)   sde(m)   sdu(m)  sdne(m)  sdeu(m)  sdun(m) age(s)  ratio
2018/11/11 00:00:00.000  -74.425548354  163.418454211    64.7867   6  10   0.0462   0.0445   0.0759  -0.0189   0.0309   0.0121   0.00    0.0
2018/11/11 00:00:30.000  -74.425548379  163.418453445    64.7440   6  10   0.0514   0.0518   0.1103  -0.0238   0.0453  -0.0193   0.00    0.0
2018/11/11 00:01:00.000  -74.425548339  163.418454074    64.7419   6  10   0.0595   0.0605   0.1664  -0.0254   0.0655  -0.0390   0.00    0.0
2018/11/11 00:01:30.000  -74.425548334  163.418454602    64.7774   6  10   0.0725   0.0761   0.2294  -0.0351   0.0906  -0.0612   0.00    0.0
2018/11/11 00:02:00.000  -74.425548311  163.418454538    64.7653   6  10   0.0869   0.0927   0.2940  -0.0450   0.1157  -0.0825   0.00    0.0
2018/11/11 00:02:30.000  -74.425548478  163.418454226    64.7808   6  10   0.1019   0.1094   0.3581  -0.0547   0.1403  -0.1031   0.00    0.0
2018/11/11 00:03:00.000  -74.425548436  163.418453993    64.7936   6  10   0.0866   0.0928   0.2964  -0.0446   0.1172  -0.0829   0.00    0.0
2018/11/11 00:03:30.000  -74.425548562  163.418454038    64.7976   6  10   0.0725   0.0774   0.2353  -0.0339   0.0947  -0.0614   1.00    0.0
2018/11/11 00:04:00.000  -74.425548707  163.418454330    64.8167   6  10   0.0604   0.0649   0.1782  -0.0208   0.0758  -0.0350   2.00    0.0
2018/11/11 00:04:30.000  -74.425548560  163.418454582    64.7741   6  10   0.0498   0.0481   0.1127  -0.0181   0.0439  -0.0194   2.00    0.0
2018/11/11 00:05:00.000  -74.425548464  163.418454341    64.7566   6  10   0.0460   0.0429   0.0785  -0.0120   0.0306   0.0165   2.00    0.0
2018/11/11 00:05:30.000  -74.425548517  163.418454430    64.7982   6  10   0.0512   0.0526   0.1179  -0.0158   0.0499  -0.0156   2.00    0.0
2018/11/11 00:06:00.000  -74.425548519  163.418453725    64.7692   6  10   0.0604   0.0657   0.1740  -0.0253   0.0708  -0.0424   3.00    0.0
2018/11/11 00:06:30.000  -74.425548477  163.418453453    64.7377   6  10   0.0725   0.0821   0.2358  -0.0334   0.0947  -0.0624   3.00    0.0
2018/11/11 00:07:00.000  -74.425548383  163.418453535    64.7357   6  10   0.0857   0.0992   0.2960  -0.0415   0.1169  -0.0807   3.00    0.0
2018/11/11 00:07:30.000  -74.425548334  163.418452304    64.6290   6  10   0.0991   0.1183   0.3538  -0.0494   0.1361  -0.0976   2.00    0.0
2018/11/11 00:08:00.000  -74.425548481  163.418453195    64.6728   6  10   0.0860   0.1047   0.3002  -0.0391   0.1197  -0.0798   1.00    0.0
2018/11/11 00:08:30.000  -74.425548546  163.418452759    64.6480   6  10   0.0738   0.0961   0.2476  -0.0217   0.1088  -0.0563   2.00    0.0
2018/11/11 00:09:00.000  -74.425548436  163.418453719    64.6925   6  10   0.0600   0.0597   0.1751  -0.0291   0.0680  -0.0474   1.00    0.0
2018/11/11 00:09:30.000  -74.425548413  163.418453960    64.7140   6  11   0.0506   0.0482   0.1134  -0.0220   0.0451  -0.0297   2.00    0.0
2018/11/11 00:10:00.000  -74.425548493  163.418454729    64.7957   6  11   0.0469   0.0429   0.0802  -0.0177   0.0312  -0.0078   3.00    0.0
2018/11/11 00:10:30.000  -74.425548502  163.418454611    64.7674   6  11   0.0515   0.0498   0.1156  -0.0222   0.0471  -0.0302   3.00    0.0
2018/11/11 00:11:00.000  -74.425548662  163.418454467    64.7825   6  11   0.0597   0.0621   0.1693  -0.0279   0.0699  -0.0509   4.00    0.0
2018/11/11 00:11:30.000  -74.425548757  163.418454433    64.8059   6  11   0.0698   0.0767   0.2243  -0.0336   0.0927  -0.0692   4.00    0.0
2018/11/11 00:12:00.000  -74.425548720  163.418453500    64.7620   6  11   0.0810   0.0926   0.2781  -0.0385   0.1153  -0.0856   3.00    0.0
2018/11/11 00:12:30.000  -74.425548741  163.418453236    64.7674   6  11   0.0930   0.1115   0.3321  -0.0406   0.1404  -0.0999   4.00    0.0
2018/11/11 00:13:00.000  -74.425548756  163.418454382    64.8532   6  11   0.0798   0.0866   0.2749  -0.0422   0.1089  -0.0879   3.00    0.0
2018/11/11 00:13:30.000  -74.425548667  163.418455239    64.8661   6  11   0.0688   0.0724   0.2225  -0.0355   0.0878  -0.0707   3.00    0.0
2018/11/11 00:14:00.000  -74.425548668  163.418455303    64.8487   6  11   0.0590   0.0592   0.1688  -0.0290   0.0663  -0.0525   3.00    0.0
2018/11/11 00:14:30.000  -74.425548685  163.418455216    64.8643   6  11   0.0516   0.0486   0.1176  -0.0231   0.0454  -0.0338   4.00    0.0
2018/11/11 00:15:00.000  -74.425548575  163.418454884    64.8053   6  11   0.0481   0.0437   0.0870  -0.0197   0.0325  -0.0198   4.00    0.0
2018/11/11 00:15:30.000  -74.425548441  163.418454499    64.7384   6  11   0.0530   0.0495   0.1252  -0.0238   0.0456  -0.0398   4.00    0.0
2018/11/11 00:16:00.000  -74.425548383  163.418453727    64.6799   6  11   0.0632   0.0602   0.1854  -0.0300   0.0666  -0.0662   5.00    0.0
2018/11/11 00:16:30.000  -74.425548393  163.418453477    64.6598   6  11   0.0691   0.0732   0.2214  -0.0354   0.0861  -0.0701   3.00    0.0
2018/11/11 00:17:00.000  -74.425548724  163.418453657    64.7252   6  11   0.0786   0.0862   0.2699  -0.0405   0.1047  -0.0842   3.00    0.0
2018/11/11 00:17:30.000  -74.425548954  163.418453576    64.7941   6  11   0.0891   0.0994   0.3191  -0.0465   0.1239  -0.0994   4.00    0.0
2018/11/11 00:18:00.000  -74.425548686  163.418454056    64.7786   6  11   0.0781   0.0869   0.2694  -0.0402   0.1041  -0.0831   4.00    0.0
2018/11/11 00:18:30.000  -74.425548480  163.418453881    64.7197   6  11   0.0679   0.0764   0.2186  -0.0345   0.0836  -0.0666   4.00    0.0
2018/11/11 00:19:00.000  -74.425548467  163.418454562    64.7021   6  11   0.0590   0.0591   0.1687  -0.0281   0.0649  -0.0509   3.00    0.0
2018/11/11 00:19:30.000  -74.425548517  163.418454936    64.7379   6  11   0.0524   0.0494   0.1229  -0.0233   0.0458  -0.0362   3.00    0.0
2018/11/11 00:20:00.000  -74.425548545  163.418454908    64.8177   6  11   0.0486   0.0443   0.0907  -0.0208   0.0361  -0.0213   2.00    0.0
2018/11/11 00:20:30.000  -74.425548499  163.418454954    64.7869   6  11   0.0539   0.0495   0.1327  -0.0252   0.0497  -0.0430   2.00    0.0
2018/11/11 00:21:00.000  -74.425548539  163.418455675    64.8461   6  11   0.0647   0.0595   0.1962  -0.0324   0.0718  -0.0716   4.00    0.0
2018/11/11 00:21:30.000  -74.425548485  163.418454880    64.7956   6  11   0.0711   0.0713   0.2299  -0.0369   0.0889  -0.0770   4.00    0.0
2018/11/11 00:22:00.000  -74.425548564  163.418454667    64.8182   6  11   0.0796   0.0831   0.2737  -0.0407   0.1052  -0.0883   4.00    0.0
2018/11/11 00:22:30.000  -74.425548446  163.418454281    64.7903   6  11   0.0893   0.0955   0.3197  -0.0458   0.1229  -0.1020   4.00    0.0
2018/11/11 00:23:00.000  -74.425548561  163.418454580    64.7842   6  11   0.0793   0.0825   0.2723  -0.0394   0.1033  -0.0872   4.00    0.0
2018/11/11 00:23:30.000  -74.425548484  163.418454160    64.7343   6  11   0.0701   0.0698   0.2279  -0.0339   0.0847  -0.0746   4.00    0.0
2018/11/11 00:24:00.000  -74.425548432  163.418453724    64.6785   6  11   0.0630   0.0584   0.1936  -0.0297   0.0683  -0.0675   4.00    0.0
2018/11/11 00:24:30.000  -74.425548429  163.418454341    64.7375   6  11   0.0522   0.0491   0.1185  -0.0233   0.0471  -0.0313   5.00    0.0
2018/11/11 00:25:00.000  -74.425548595  163.418454514    64.8273   6  11   0.0479   0.0444   0.0896  -0.0189   0.0361  -0.0141   5.00    0.0
2018/11/11 00:25:30.000  -74.425548994  163.418454566    64.9172   6  11   0.0517   0.0491   0.1227  -0.0205   0.0457  -0.0299   5.00    0.0
2018/11/11 00:26:00.000  -74.425548971  163.418454399    64.8808   6  11   0.0592   0.0587   0.1703  -0.0233   0.0617  -0.0486   5.00    0.0
2018/11/11 00:26:30.000  -74.425549026  163.418454292    64.9309   6  11   0.0697   0.0710   0.2228  -0.0273   0.0807  -0.0698   5.00    0.0
2018/11/11 00:27:00.000  -74.425548944  163.418453377    64.8502   6  11   0.0835   0.0863   0.2852  -0.0321   0.1038  -0.0969   5.00    0.0
2018/11/11 00:27:30.000  -74.425549155  163.418455327    64.9921   6  11   0.1049   0.0978   0.3847  -0.0582   0.1418  -0.1505   5.00    0.0
2018/11/11 00:28:00.000  -74.425549054  163.418455141    64.9386   6  11   0.0937   0.0831   0.3349  -0.0493   0.1176  -0.1329   5.00    0.0
2018/11/11 00:28:30.000  -74.425548674  163.418454932    64.7986   6  11   0.0817   0.0706   0.2804  -0.0426   0.0977  -0.1119   5.00    0.0
2018/11/11 00:29:00.000  -74.425548724  163.418454949    64.8071   6  11   0.0617   0.0576   0.1758  -0.0290   0.0649  -0.0580   5.00    0.0
2018/11/11 00:29:30.000  -74.425548641  163.418454944    64.7822   6  11   0.0529   0.0480   0.1343  -0.0215   0.0454  -0.0386   5.00    0.0
2018/11/11 00:30:00.000  -74.425548679  163.418454926    64.7987   6  11   0.0472   0.0434   0.0906  -0.0160   0.0335  -0.0029   5.00    0.0
2018/11/11 00:30:30.000  -74.425548775  163.418455333    64.8196   6  11   0.0508   0.0475   0.1195  -0.0174   0.0407  -0.0232   5.00    0.0
2018/11/11 00:31:00.000  -74.425548824  163.418454929    64.8091   6  11   0.0580   0.0561   0.1621  -0.0201   0.0543  -0.0423   5.00    0.0
2018/11/11 00:31:30.000  -74.425548788  163.418454707    64.8213   6  11   0.0677   0.0668   0.2104  -0.0245   0.0710  -0.0634   5.00    0.0
2018/11/11 00:32:00.000  -74.425548854  163.418454853    64.8695   6  11   0.0803   0.0787   0.2677  -0.0311   0.0903  -0.0900   6.00    0.0
2018/11/11 00:32:30.000  -74.425548948  163.418454982    64.9154   6  11   0.1057   0.0954   0.3782  -0.0544   0.1343  -0.1511   4.00    0.0
2018/11/11 00:33:00.000  -74.425549065  163.418454659    64.9747   6  11   0.0943   0.0850   0.3291  -0.0431   0.1128  -0.1317   5.00    0.0
2018/11/11 00:33:30.000  -74.425549130  163.418454502    65.0051   6  11   0.0824   0.0728   0.2762  -0.0372   0.0937  -0.1109   5.00    0.0
2018/11/11 00:34:00.000  -74.425549066  163.418454118    64.8988   6  10   0.0663   0.0590   0.2008  -0.0270   0.0664  -0.0741   5.00    0.0
2018/11/11 00:34:30.000  -74.425548966  163.418454480    64.8395   6  10   0.0529   0.0462   0.1332  -0.0201   0.0408  -0.0371   5.00    0.0
2018/11/11 00:35:00.000  -74.425548946  163.418454710    64.8157   6  10   0.0460   0.0415   0.0931  -0.0129   0.0264   0.0146   5.00    0.0
2018/11/11 00:35:30.000  -74.425549155  163.418454779    64.8771   6  10   0.0529   0.0458   0.1331  -0.0193   0.0384  -0.0356   5.00    0.0
2018/11/11 00:36:00.000  -74.425549518  163.418455314    65.0711   6  10   0.0655   0.0546   0.2009  -0.0283   0.0602  -0.0731   5.00    0.0
2018/11/11 00:36:30.000  -74.425549439  163.418454408    65.0756   6  10   0.0810   0.0655   0.2758  -0.0381   0.0840  -0.1094   5.00    0.0
2018/11/11 00:37:00.000  -74.425549423  163.418454073    65.0979   6  10   0.0980   0.0773   0.3544  -0.0482   0.1078  -0.1453   5.00    0.0
2018/11/11 00:37:30.000  -74.425549589  163.418454241    65.1578   6  10   0.1158   0.0895   0.4415  -0.0585   0.1308  -0.1821   5.00    0.0
2018/11/11 00:38:00.000  -74.425549483  163.418454172    65.0101   6   9   0.0992   0.0766   0.3823  -0.0472   0.1057  -0.1527   6.00    0.0
2018/11/11 00:38:30.000  -74.425549521  163.418454466    64.9966   6   9   0.0814   0.0645   0.2955  -0.0361   0.0795  -0.1138   5.00    0.0
2018/11/11 00:39:00.000  -74.425549506  163.418454545    64.9929   6   9   0.0654   0.0535   0.2114  -0.0259   0.0544  -0.0745   5.00    0.0
2018/11/11 00:39:30.000  -74.425549423  163.418454793    64.9399   6   9   0.0526   0.0450   0.1356  -0.0165   0.0317  -0.0334   5.00    0.0
2018/11/11 00:40:00.000  -74.425549072  163.418454702    64.7754   6   9   0.0455   0.0408   0.0921  -0.0079   0.0172   0.0221   5.00    0.0
2018/11/11 00:40:30.000  -74.425549017  163.418454356    64.6517   6   9   0.0525   0.0456   0.1347  -0.0164   0.0317  -0.0335   5.00    0.0
2018/11/11 00:41:00.000  -74.425549145  163.418453867    64.6357   6  10   0.0628   0.0562   0.1849  -0.0271   0.0546  -0.0618   5.00    0.0
2018/11/11 00:41:30.000  -74.425549164  163.418454330    64.6880   6  10   0.0712   0.0636   0.2268  -0.0315   0.0684  -0.0760   4.00    0.0
2018/11/11 00:42:00.000  -74.425549131  163.418454263    64.6019   6  10   0.0807   0.0737   0.2706  -0.0369   0.0831  -0.0908   4.00    0.0
2018/11/11 00:42:30.000  -74.425549071  163.418453716    64.6165   6  10   0.0915   0.0846   0.3178  -0.0437   0.0994  -0.1078   4.00    0.0
2018/11/11 00:43:00.000  -74.425549197  163.418453813    64.6405   6  10   0.0809   0.0728   0.2752  -0.0349   0.0796  -0.0930   4.00    0.0
2018/11/11 00:43:30.000  -74.425549105  163.418454416    64.6764   6  10   0.0714   0.0616   0.2395  -0.0259   0.0585  -0.0809   4.00    0.0
2018/11/11 00:44:00.000  -74.425549140  163.418454314    64.7524   6  10   0.0638   0.0519   0.2024  -0.0208   0.0447  -0.0698   5.00    0.0
2018/11/11 00:44:30.000  -74.425549020  163.418454327    64.7560   6  10   0.0509   0.0440   0.1110  -0.0121   0.0253  -0.0141   5.00    0.0
2018/11/11 00:45:00.000  -74.425549057  163.418454810    64.7227   6  10   0.0447   0.0403   0.0827   0.0052   0.0058   0.0275   5.00    0.0
2018/11/11 00:45:30.000  -74.425549028  163.418455108    64.6606   6  10   0.0487   0.0436   0.1037  -0.0067   0.0189   0.0190   5.00    0.0
2018/11/11 00:46:00.000  -74.425548910  163.418454763    64.6412   6  10   0.0557   0.0506   0.1428  -0.0148   0.0362  -0.0258   5.00    0.0
2018/11/11 00:46:30.000  -74.425548835  163.418454989    64.6523   6  10   0.0646   0.0597   0.1889  -0.0225   0.0534  -0.0490   5.00    0.0
2018/11/11 00:47:00.000  -74.425548792  163.418454511    64.6073   6  10   0.0748   0.0698   0.2381  -0.0301   0.0704  -0.0696   5.00    0.0
2018/11/11 00:47:30.000  -74.425548819  163.418453837    64.5816   6  10   0.0859   0.0804   0.2886  -0.0376   0.0869  -0.0896   5.00    0.0
2018/11/11 00:48:00.000  -74.425548805  163.418454364    64.6166   6  10   0.0746   0.0694   0.2375  -0.0295   0.0687  -0.0690   5.00    0.0
2018/11/11 00:48:30.000  -74.425548780  163.418454583    64.5981   6  10   0.0643   0.0590   0.1880  -0.0213   0.0506  -0.0479   5.00    0.0
2018/11/11 00:49:00.000  -74.425548924  163.418454873    64.6493   6  10   0.0553   0.0500   0.1412  -0.0129   0.0323  -0.0231   5.00    0.0
2018/11/11 00:49:30.000  -74.425548849  163.418454859    64.6325   6  10   0.0481   0.0432   0.1012   0.0042   0.0117   0.0234   5.00    0.0
2018/11/11 00:50:00.000  -74.425548968  163.418454528    64.6952   6  10   0.0436   0.0402   0.0805   0.0102  -0.0146   0.0324   5.00    0.0
2018/11/11 00:50:30.000  -74.425548968  163.418454298    64.7037   6  10   0.0476   0.0431   0.1013   0.0071   0.0084   0.0247   5.00    0.0
2018/11/11 00:51:00.000  -74.425548849  163.418454118    64.7110   6  10   0.0546   0.0495   0.1404  -0.0097   0.0292  -0.0220   5.00    0.0
2018/11/11 00:51:30.000  -74.425548863  163.418453795    64.5771   6  10   0.0634   0.0579   0.1866  -0.0182   0.0457  -0.0474   5.00    0.0
2018/11/11 00:52:00.000  -74.425548934  163.418454022    64.5931   6  10   0.0735   0.0674   0.2355  -0.0258   0.0612  -0.0684   6.00    0.0
2018/11/11 00:52:30.000  -74.425548989  163.418453994    64.6703   6  10   0.0846   0.0774   0.2857  -0.0330   0.0758  -0.0882   6.00    0.0
2018/11/11 00:53:00.000  -74.425548940  163.418454356    64.7387   6  10   0.0734   0.0670   0.2357  -0.0249   0.0589  -0.0682   6.00    0.0
2018/11/11 00:53:30.000  -74.425548948  163.418454536    64.7336   6  10   0.0631   0.0574   0.1864  -0.0165   0.0419  -0.0467   6.00    0.0
2018/11/11 00:54:00.000  -74.425549028  163.418454364    64.7324   6  10   0.0542   0.0491   0.1404  -0.0061   0.0239  -0.0201   6.00    0.0
2018/11/11 00:54:30.000  -74.425549105  163.418454444    64.7142   6  10   0.0472   0.0429   0.1022   0.0102  -0.0112   0.0271   6.00    0.0
2018/11/11 00:55:00.000  -74.425549041  163.418454732    64.6878   6  10   0.0432   0.0402   0.0845   0.0127  -0.0192   0.0364   6.00    0.0
2018/11/11 00:55:30.000  -74.425549001  163.418454805    64.6796   6  10   0.0477   0.0428   0.1115   0.0111   0.0095   0.0172   0.00    0.0
2018/11/11 00:56:00.000  -74.425549025  163.418455066    64.7228   6  10   0.0539   0.0487   0.1455   0.0053   0.0251  -0.0231   0.00    0.0
2018/11/11 00:56:30.000  -74.425549026  163.418454882    64.6962   6  10   0.0624   0.0564   0.1886  -0.0124   0.0387  -0.0463   0.00    0.0
2018/11/11 00:57:00.000  -74.425549119  163.418454717    64.6597   6  10   0.0724   0.0653   0.2353  -0.0203   0.0514  -0.0665   1.00    0.0
2018/11/11 00:57:30.000  -74.425549071  163.418454803    64.6316   6  10   0.0833   0.0749   0.2834  -0.0272   0.0631  -0.0855   3.00    0.0
2018/11/11 00:58:00.000  -74.425549218  163.418455265    64.6772   6  10   0.0723   0.0651   0.2335  -0.0194   0.0486  -0.0657   3.00    0.0
2018/11/11 00:58:30.000  -74.425549034  163.418454757    64.6699   6  10   0.0621   0.0561   0.1853  -0.0102   0.0341  -0.0447   3.00    0.0
2018/11/11 00:59:00.000  -74.425548968  163.418454502    64.6334   6  10   0.0535   0.0483   0.1402   0.0088   0.0187  -0.0188   3.00    0.0
2018/11/11 00:59:30.000  -74.425549077  163.418454569    64.6589   6  10   0.0469   0.0427   0.1021   0.0134  -0.0106   0.0251   4.00    0.0
2018/11/11 01:00:00.000  -74.425548908  163.418454310    64.6781   6  10   0.0434   0.0402   0.0817   0.0148  -0.0153   0.0319   4.00    0.0
2018/11/11 01:00:30.000  -74.425548995  163.418454312    64.7561   6  10   0.0466   0.0426   0.0984   0.0148  -0.0101   0.0271   4.00    0.0
2018/11/11 01:01:00.000  -74.425549058  163.418454313    64.7170   6  10   0.0530   0.0480   0.1345   0.0124   0.0160  -0.0140   4.00    0.0
2018/11/11 01:01:30.000  -74.425549032  163.418454475    64.7488   6  10   0.0615   0.0553   0.1778   0.0045   0.0281  -0.0415   4.00    0.0
2018/11/11 01:02:00.000  -74.425548977  163.418454252    64.6941   6  11   0.0713   0.0638   0.2237  -0.0130   0.0379  -0.0615   4.00    0.0
2018/11/11 01:02:30.000  -74.425549078  163.418454187    64.7206   6  11   0.0773   0.0717   0.2450  -0.0066   0.0252  -0.0567   4.00    0.0
2018/11/11 01:03:00.000  -74.425548940  163.418453953    64.7333   6  11   0.0672   0.0627   0.2023   0.0104   0.0149  -0.0386   4.00    0.0
2018/11/11 01:03:30.000  -74.425548810  163.418453931    64.6592   6  11   0.0593   0.0548   0.1681   0.0120   0.0153  -0.0280   4.00    0.0
2018/11/11 01:04:00.000  -74.425548876  163.418453838    64.6453   6  11   0.0518   0.0474   0.1235   0.0161  -0.0163   0.0197   4.00    0.0
2018/11/11 01:04:30.000  -74.425548895  163.418453825    64.6335   6  11   0.0458   0.0424   0.0926   0.0167  -0.0175   0.0314   4.00    0.0
2018/11/11 01:05:00.000  -74.425548951  163.418454398    64.7007   6  11   0.0427   0.0400   0.0771   0.0168  -0.0160   0.0349   4.00    0.0
2018/11/11 01:05:30.000  -74.425548964  163.418454034    64.7307   6  12   0.0461   0.0422   0.0939   0.0173  -0.0150   0.0297   4.00    0.0
2018/11/11 01:06:00.000  -74.425548996  163.418453827    64.6740   6  12   0.0526   0.0469   0.1251   0.0166  -0.0157   0.0101   4.00    0.0
2018/11/11 01:06:30.000  -74.425548965  163.418454014    64.7100   6  12   0.0613   0.0534   0.1628   0.0143  -0.0190  -0.0343   4.00    0.0
2018/11/11 01:07:00.000  -74.425548999  163.418454225    64.6695   6  12   0.0704   0.0609   0.1992   0.0127  -0.0267  -0.0477   4.00    0.0
2018/11/11 01:07:30.000  -74.425549060  163.418453898    64.6134   6  12   0.0790   0.0688   0.2350   0.0042  -0.0375  -0.0584   4.00    0.0
2018/11/11 01:08:00.000  -74.425549130  163.418453876    64.7138   6  12   0.0674   0.0612   0.1902   0.0168  -0.0320  -0.0312   4.00    0.0
2018/11/11 01:08:30.000  -74.425549027  163.418453773    64.6753   6  12   0.0577   0.0525   0.1500   0.0175  -0.0312   0.0124   4.00    0.0
2018/11/11 01:09:00.000  -74.425549017  163.418453619    64.6436   6  12   0.0505   0.0462   0.1150   0.0183  -0.0261   0.0276   4.00    0.0
2018/11/11 01:09:30.000  -74.425549046  163.418454222    64.6595   6  12   0.0452   0.0417   0.0873   0.0184  -0.0210   0.0338   4.00    0.0
2018/11/11 01:10:00.000  -74.425548944  163.418454535    64.6735   6  12   0.0424   0.0395   0.0733   0.0181  -0.0171   0.0363   4.00    0.0
2018/11/11 01:10:30.000  -74.425548991  163.418454511    64.6580   6  12   0.0447   0.0415   0.0857   0.0190  -0.0201   0.0352   4.00    0.0
2018/11/11 01:11:00.000  -74.425549016  163.418454676    64.6011   6  12   0.0491   0.0460   0.1116   0.0193  -0.0273   0.0310   4.00    0.0
2018/11/11 01:11:30.000  -74.425549061  163.418454041    64.5415   6  12   0.0551   0.0521   0.1441   0.0189  -0.0360   0.0224   4.00    0.0
2018/11/11 01:12:00.000  -74.425549035  163.418454488    64.6122   6  12   0.0622   0.0594   0.1796   0.0179  -0.0455  -0.0119   5.00    0.0
2018/11/11 01:12:30.000  -74.425549032  163.418454309    64.7020   6  12   0.0702   0.0674   0.2166   0.0165  -0.0553  -0.0314   4.00    0.0
2018/11/11 01:13:00.000  -74.425549115  163.418453928    64.7699   6  12   0.0622   0.0594   0.1795   0.0182  -0.0459  -0.0125   4.00    0.0
2018/11/11 01:13:30.000  -74.425549128  163.418454373    64.7909   6  12   0.0551   0.0524   0.1445   0.0192  -0.0373   0.0222   4.00    0.0
2018/11/11 01:14:00.000  -74.425549048  163.418454267    64.7221   6  12   0.0490   0.0466   0.1123   0.0195  -0.0297   0.0311   4.00    0.0
2018/11/11 01:14:30.000  -74.425549042  163.418454486    64.6526   6  12   0.0448   0.0425   0.0874   0.0183  -0.0247   0.0369   4.00    0.0
2018/11/11 01:15:00.000  -74.425549044  163.418454423    64.6676   6  12   0.0422   0.0400   0.0746   0.0179  -0.0202   0.0384   5.00    0.0
2018/11/11 01:15:30.000  -74.425549006  163.418454649    64.6620   6  12   0.0446   0.0422   0.0874   0.0189  -0.0233   0.0372   5.00    0.0
2018/11/11 01:16:00.000  -74.425548999  163.418454782    64.6729   6  12   0.0494   0.0469   0.1145   0.0199  -0.0301   0.0335   6.00    0.0
2018/11/11 01:16:30.000  -74.425549064  163.418454750    64.6467   6  12   0.0558   0.0531   0.1479   0.0204  -0.0383   0.0269   7.00    0.0
2018/11/11 01:17:00.000  -74.425549024  163.418454535    64.5838   6  12   0.0637   0.0606   0.1845   0.0211  -0.0469   0.0157   7.00    0.0
2018/11/11 01:17:30.000  -74.425549134  163.418454724    64.6165   6  12   0.0730   0.0685   0.2220   0.0205  -0.0573  -0.0183   6.00    0.0
2018/11/11 01:18:00.000  -74.425549185  163.418454380    64.6056   6  12   0.0642   0.0613   0.1857   0.0215  -0.0477   0.0176   6.00    0.0
2018/11/11 01:18:30.000  -74.425549327  163.418454420    64.6726   6  12   0.0566   0.0534   0.1493   0.0204  -0.0413   0.0285   5.00    0.0
2018/11/11 01:19:00.000  -74.425549274  163.418454355    64.7258   6  12   0.0500   0.0474   0.1171   0.0194  -0.0347   0.0352   4.00    0.0
2018/11/11 01:19:30.000  -74.425549098  163.418454848    64.7006   6  12   0.0448   0.0428   0.0909   0.0175  -0.0292   0.0385   5.00    0.0
2018/11/11 01:20:00.000  -74.425549002  163.418454585    64.6422   6  12   0.0418   0.0404   0.0770   0.0169  -0.0240   0.0391   4.00    0.0
2018/11/11 01:20:30.000  -74.425549157  163.418454199    64.6490   6  12   0.0463   0.0430   0.0942   0.0197  -0.0301   0.0341   3.00    0.0
2018/11/11 01:21:00.000  -74.425548991  163.418454562    64.6467   6  12   0.0527   0.0478   0.1240   0.0216  -0.0377   0.0257   3.00    0.0
2018/11/11 01:21:30.000  -74.425548857  163.418454270    64.6684   6  12   0.0587   0.0536   0.1557   0.0209  -0.0457   0.0162   3.00    0.0
2018/11/11 01:22:00.000  -74.425548786  163.418454127    64.6406   6  12   0.0657   0.0607   0.1910   0.0208  -0.0554  -0.0273   3.00    0.0
2018/11/11 01:22:30.000  -74.425548732  163.418453825    64.6948   6  12   0.0750   0.0688   0.2309   0.0221  -0.0667  -0.0490   3.00    0.0
2018/11/11 01:23:00.000  -74.425548829  163.418453340    64.7315   6  12   0.0704   0.0615   0.2026   0.0250  -0.0600  -0.0508   4.00    0.0
2018/11/11 01:23:30.000  -74.425548743  163.418454040    64.6654   6  12   0.0613   0.0547   0.1645   0.0224  -0.0484  -0.0321   3.00    0.0
2018/11/11 01:24:00.000  -74.425549044  163.418454058    64.6927   6  12   0.0530   0.0479   0.1250   0.0208  -0.0393   0.0205   4.00    0.0
2018/11/11 01:24:30.000  -74.425549063  163.418453787    64.6112   6  12   0.0463   0.0432   0.0969   0.0199  -0.0317   0.0338   4.00    0.0
2018/11/11 01:25:00.000  -74.425549057  163.418454403    64.6065   6  12   0.0431   0.0410   0.0838   0.0188  -0.0272   0.0378   4.00    0.0
2018/11/11 01:25:30.000  -74.425549201  163.418453846    64.6284   6  12   0.0453   0.0433   0.0976   0.0192  -0.0315   0.0366   4.00    0.0
2018/11/11 01:26:00.000  -74.425549225  163.418453761    64.5745   6  12   0.0501   0.0485   0.1249   0.0194  -0.0399   0.0314   4.00    0.0
2018/11/11 01:26:30.000  -74.425549131  163.418453658    64.5345   6  12   0.0568   0.0561   0.1588   0.0182  -0.0505   0.0204   4.00    0.0
2018/11/11 01:27:00.000  -74.425549264  163.418454495    64.5472   6  12   0.0663   0.0653   0.2010   0.0088  -0.0673   0.0073   4.00    0.0
2018/11/11 01:27:30.000  -74.425549492  163.418454165    64.5293   6  12   0.0739   0.0714   0.2315   0.0152  -0.0732  -0.0348   4.00    0.0
2018/11/11 01:28:00.000  -74.425549356  163.418453787    64.6055   6  12   0.0662   0.0631   0.1990   0.0184  -0.0637  -0.0267   4.00    0.0
2018/11/11 01:28:30.000  -74.425549207  163.418454304    64.5850   6  12   0.0603   0.0564   0.1709   0.0231  -0.0580  -0.0243   4.00    0.0
2018/11/11 01:29:00.000  -74.425549037  163.418454419    64.5376   6  12   0.0521   0.0501   0.1366   0.0215  -0.0470   0.0219   4.00    0.0
2018/11/11 01:29:30.000  -74.425549023  163.418454430    64.5092   6  12   0.0463   0.0444   0.1087   0.0211  -0.0381   0.0330   4.00    0.0
2018/11/11 01:30:00.000  -74.425548907  163.418454529    64.5663   6  12   0.0431   0.0419   0.0934   0.0201  -0.0323   0.0376   4.00    0.0
2018/11/11 01:30:30.000  -74.425548906  163.418454274    64.6064   6  12   0.0451   0.0441   0.1078   0.0206  -0.0374   0.0365   5.00    0.0
2018/11/11 01:31:00.000  -74.425549004  163.418454180    64.5413   6  12   0.0497   0.0490   0.1339   0.0213  -0.0463   0.0324   5.00    0.0
2018/11/11 01:31:30.000  -74.425548891  163.418454561    64.5332   6  12   0.0560   0.0555   0.1643   0.0214  -0.0562   0.0257   5.00    0.0
2018/11/11 01:32:00.000  -74.425548744  163.418454429    64.5247   6  12   0.0635   0.0637   0.1975   0.0206  -0.0678   0.0149   5.00    0.0
2018/11/11 01:32:30.000  -74.425548709  163.418454413    64.5205   6  12   0.0727   0.0782   0.2523   0.0051  -0.0962   0.0296   5.00    0.0
2018/11/11 01:33:00.000  -74.425548929  163.418455121    64.4617   6  12   0.0641   0.0662   0.2112   0.0167  -0.0776   0.0302   5.00    0.0
2018/11/11 01:33:30.000  -74.425549107  163.418454949    64.5099   6  12   0.0563   0.0572   0.1728   0.0199  -0.0627   0.0321   5.00    0.0
2018/11/11 01:34:00.000  -74.425549038  163.418454600    64.5208   6  12   0.0498   0.0503   0.1409   0.0206  -0.0512   0.0357   5.00    0.0
2018/11/11 01:34:30.000  -74.425549042  163.418454513    64.5211   6  12   0.0448   0.0452   0.1146   0.0204  -0.0415   0.0383   6.00    0.0
2018/11/11 01:35:00.000  -74.425548987  163.418454996    64.5153   6  12   0.0422   0.0427   0.1007   0.0197  -0.0362   0.0393   6.00    0.0
2018/11/11 01:35:30.000  -74.425548917  163.418454630    64.4493   6  12   0.0445   0.0452   0.1141   0.0202  -0.0408   0.0377   6.00    0.0
2018/11/11 01:36:00.000  -74.425549218  163.418454193    64.4186   6  11   0.0507   0.0506   0.1422   0.0207  -0.0486   0.0367   5.00    0.0
2018/11/11 01:36:30.000  -74.425549151  163.418454785    64.4063   6  11   0.0598   0.0577   0.1773   0.0194  -0.0568   0.0288   4.00    0.0
2018/11/11 01:37:00.000  -74.425548997  163.418454949    64.4988   6  11   0.0707   0.0713   0.2428  -0.0056  -0.0885   0.0507   4.00    0.0
2018/11/11 01:37:30.000  -74.425549117  163.418455280    64.5068   6  10   0.0815   0.0826   0.2873  -0.0168  -0.1046   0.0548   4.00    0.0
2018/11/11 01:38:00.000  -74.425549083  163.418455047    64.5444   6  10   0.0715   0.0709   0.2490   0.0105  -0.0919   0.0455   4.00    0.0
2018/11/11 01:38:30.000  -74.425549095  163.418454748    64.4735   6   9   0.0667   0.0671   0.2594   0.0322  -0.1018  -0.0482   4.00    0.0
2018/11/11 01:39:00.000  -74.425549117  163.418454885    64.4277   6   9   0.0559   0.0570   0.2030   0.0289  -0.0806  -0.0276   4.00    0.0
2018/11/11 01:39:30.000  -74.425549086  163.418454749    64.5071   6   9   0.0474   0.0488   0.1502   0.0255  -0.0601   0.0191   4.00    0.0
2018/11/11 01:40:00.000  -74.425548853  163.418454919    64.5096   6   9   0.0430   0.0451   0.1192   0.0232  -0.0479   0.0310   4.00    0.0
2018/11/11 01:40:30.000  -74.425548942  163.418455260    64.5121   6   9   0.0472   0.0513   0.1487   0.0266  -0.0621   0.0211   4.00    0.0
2018/11/11 01:41:00.000  -74.425548735  163.418455635    64.4703   6   9   0.0563   0.0631   0.2025   0.0317  -0.0869  -0.0238   4.00    0.0
2018/11/11 01:41:30.000  -74.425548723  163.418456471    64.4186   6   9   0.0684   0.0777   0.2629   0.0369  -0.1146  -0.0432   4.00    0.0
2018/11/11 01:42:00.000  -74.425548847  163.418456766    64.3845   6   9   0.0817   0.0962   0.3340   0.0395  -0.1475  -0.0453   3.00    0.0
2018/11/11 01:42:30.000  -74.425548814  163.418454433    64.4780   6   9   0.0955   0.1253   0.4243   0.0584  -0.1997  -0.0910   2.00    0.0
2018/11/11 01:43:00.000  -74.425549061  163.418453289    64.5739   6   9   0.0822   0.0985   0.3506   0.0460  -0.1588  -0.0667   1.00    0.0
2018/11/11 01:43:30.000  -74.425549404  163.418453381    64.5382   6   9   0.0683   0.0774   0.2824   0.0345  -0.1239  -0.0386   1.00    0.0
2018/11/11 01:44:00.000  -74.425549535  163.418452058    64.5868   6   9   0.0553   0.0586   0.2197   0.0231  -0.0922   0.0154   1.00    0.0
2018/11/11 01:44:30.000  -74.425549485  163.418451984    64.6148   6   9   0.0425   0.0382   0.1642  -0.0098  -0.0619   0.0321   1.00    0.0
2018/11/11 01:45:00.000  -74.425549536  163.418450165    64.8447   6   9   0.0380   0.0343   0.1894  -0.0184  -0.0653   0.0424   0.00    0.0
2018/11/11 01:45:30.000  -74.425549810  163.418450989    64.7976   6   9   0.0456   0.0425   0.2124  -0.0157  -0.0754   0.0391   0.00    0.0
2018/11/11 01:46:00.000  -74.425549787  163.418450700    64.7413   6   9   0.0515   0.0558   0.2526   0.0131  -0.0988  -0.0109   0.00    0.0
2018/11/11 01:46:30.000  -74.425549784  163.418451478    64.5822   6   9   0.0656   0.0698   0.2744   0.0233  -0.1150  -0.0403   0.00    0.0
2018/11/11 01:47:00.000  -74.425549592  163.418453004    64.5521   6   9   0.0810   0.0858   0.3287   0.0286  -0.1404  -0.0499   0.00    0.0
2018/11/11 01:47:30.000  -74.425549485  163.418453197    64.5938   6   9   0.0981   0.0979   0.3842   0.0386  -0.1625  -0.0593   0.00    0.0
2018/11/11 01:48:00.000  -74.425549639  163.418453413    64.4951   6   9   0.0916   0.0841   0.3298   0.0219  -0.1401   0.0300   0.00    0.0
2018/11/11 01:48:30.000  -74.425550030  163.418453094    64.3771   6   9   0.0619   0.0695   0.2561   0.0245  -0.1113  -0.0467   0.00    0.0
2018/11/11 01:49:00.000  -74.425549939  163.418452484    64.3558   6   9   0.0476   0.0529   0.1941   0.0190  -0.0827  -0.0370   1.00    0.0
2018/11/11 01:49:30.000  -74.425549895  163.418452087    64.4458   6   9   0.0351   0.0366   0.1367   0.0140  -0.0540  -0.0280   1.00    0.0
2018/11/11 01:50:00.000  -74.425549820  163.418450803    64.6830   6   9   0.0279   0.0260   0.1014   0.0122  -0.0338  -0.0224   1.00    0.0
2018/11/11 01:50:30.000  -74.425549512  163.418450874    64.5189   6   8   0.0384   0.0359   0.1614   0.0196  -0.0581  -0.0481   2.00    0.0
2018/11/11 01:51:00.000  -74.425549407  163.418452170    64.3213   6   9   0.0561   0.0520   0.2511   0.0309  -0.0926  -0.0818   3.00    0.0
2018/11/11 01:51:30.000  -74.425549544  163.418452883    64.2753   6   9   0.0756   0.0689   0.3469   0.0433  -0.1277  -0.1181   3.00    0.0
2018/11/11 01:52:00.000  -74.425549791  163.418453021    64.2607   6   9   0.0841   0.0819   0.3804   0.0447  -0.1441  -0.1172   3.00    0.0
2018/11/11 01:52:30.000  -74.425549703  163.418452130    64.3248   6   9   0.0961   0.0965   0.4319   0.0504  -0.1675  -0.1272   3.00    0.0
2018/11/11 01:53:00.000  -74.425549537  163.418452414    64.3764   6   9   0.0882   0.0840   0.4006   0.0503  -0.1524  -0.1311   3.00    0.0
2018/11/11 01:53:30.000  -74.425549210  163.418453499    64.3078   6   9   0.0776   0.0698   0.3563   0.0459  -0.1314  -0.1247   2.00    0.0
2018/11/11 01:54:00.000  -74.425549809  163.418451582    64.6204   6   9   0.0463   0.0492   0.1959   0.0211  -0.0769  -0.0427   2.00    0.0
2018/11/11 01:54:30.000  -74.425549851  163.418450034    64.7079   6   9   0.0350   0.0352   0.1409   0.0162  -0.0524  -0.0322   3.00    0.0
2018/11/11 01:55:00.000  -74.425549663  163.418450724    64.6420   6   9   0.0294   0.0273   0.1116   0.0136  -0.0374  -0.0278   3.00    0.0
2018/11/11 01:55:30.000  -74.425549660  163.418451143    64.6387   6   9   0.0347   0.0358   0.1264   0.0120  -0.0493   0.0034   3.00    0.0
2018/11/11 01:56:00.000  -74.425549557  163.418452477    64.4796   6   9   0.0476   0.0484   0.1806   0.0193  -0.0728  -0.0145   3.00    0.0
2018/11/11 01:56:30.000  -74.425549479  163.418452164    64.5094   6   9   0.0615   0.0630   0.2375   0.0257  -0.0973  -0.0236   3.00    0.0
2018/11/11 01:57:00.000  -74.425549578  163.418453293    64.4440   6   9   0.0760   0.0775   0.2962   0.0320  -0.1216  -0.0311   3.00    0.0
2018/11/11 01:57:30.000  -74.425549648  163.418453794    64.4005   6   9   0.0931   0.0921   0.3591   0.0377  -0.1464  -0.0255   3.00    0.0
2018/11/11 01:58:00.000  -74.425549601  163.418453892    64.4252   6   9   0.0762   0.0781   0.3013   0.0314  -0.1238  -0.0302   2.00    0.0
2018/11/11 01:58:30.000  -74.425549920  163.418451899    64.5498   6   9   0.0668   0.0633   0.2465   0.0258  -0.0992   0.0237   4.00    0.0
2018/11/11 01:59:00.000  -74.425549841  163.418451576    64.6335   6   9   0.0514   0.0485   0.1863   0.0201  -0.0739   0.0199   4.00    0.0
2018/11/11 01:59:30.000  -74.425549723  163.418450585    64.6537   1   9   0.0305   0.0364   0.1333   0.0189  -0.0501  -0.0336   5.00    1.0
2018/11/11 02:00:00.000  -74.425549731  163.418449891    64.7167   1   9   0.0216   0.0268   0.0904   0.0158  -0.0287  -0.0252   5.00    2.0
2018/11/11 02:00:30.000  -74.425549877  163.418450238    64.7406   1   9   0.0305   0.0365   0.1342   0.0193  -0.0505  -0.0344   5.00    2.0
2018/11/11 02:01:00.000  -74.425549803  163.418451966    64.6032   6   9   0.0437   0.0472   0.1685   0.0222  -0.0689  -0.0341   4.00    0.0
2018/11/11 02:01:30.000  -74.425549937  163.418452214    64.6063   6   9   0.0565   0.0613   0.2255   0.0295  -0.0931  -0.0488   4.00    0.0
2018/11/11 02:02:00.000  -74.425549914  163.418452762    64.5615   6   9   0.0695   0.0758   0.2853   0.0370  -0.1180  -0.0650   4.00    0.0
2018/11/11 02:02:30.000  -74.425550107  163.418452923    64.4988   6   9   0.0826   0.0905   0.3468   0.0446  -0.1434  -0.0822   4.00    0.0
2018/11/11 02:03:00.000  -74.425549981  163.418453072    64.4652   6   9   0.0700   0.0759   0.2870   0.0381  -0.1185  -0.0681   4.00    0.0
2018/11/11 02:03:30.000  -74.425549898  163.418453013    64.4854   6   9   0.0571   0.0613   0.2270   0.0311  -0.0934  -0.0534   5.00    0.0
2018/11/11 02:04:00.000  -74.425549777  163.418452838    64.4954   6   9   0.0442   0.0470   0.1686   0.0239  -0.0686  -0.0387   5.00    0.0
2018/11/11 02:04:30.000  -74.425549641  163.418450776    64.6453   1   9   0.0311   0.0369   0.1365   0.0206  -0.0514  -0.0378   5.00    2.0
2018/11/11 02:05:00.000  -74.425549742  163.418449993    64.7501   1   9   0.0217   0.0273   0.0922   0.0164  -0.0300  -0.0269   5.00    2.0
2018/11/11 02:05:30.000  -74.425549701  163.418451287    64.6151   1   9   0.0312   0.0370   0.1365   0.0208  -0.0514  -0.0383   5.00    2.0
2018/11/11 02:06:00.000  -74.425550046  163.418450861    64.6902   6   9   0.0444   0.0459   0.1627   0.0242  -0.0654  -0.0396   6.00    0.0
2018/11/11 02:06:30.000  -74.425550036  163.418452177    64.5597   6   9   0.0576   0.0598   0.2213   0.0323  -0.0899  -0.0573   6.00    0.0
2018/11/11 02:07:00.000  -74.425550105  163.418452129    64.5688   6   9   0.0711   0.0743   0.2827   0.0407  -0.1153  -0.0762   5.00    0.0
2018/11/11 02:07:30.000  -74.425549983  163.418452787    64.4998   6   9   0.0847   0.0889   0.3453   0.0492  -0.1410  -0.0958   5.00    0.0
2018/11/11 02:08:00.000  -74.425549956  163.418452238    64.5293   6   9   0.0715   0.0742   0.2825   0.0417  -0.1152  -0.0788   5.00    0.0
2018/11/11 02:08:30.000  -74.425549842  163.418452816    64.4648   6   9   0.0582   0.0597   0.2205   0.0336  -0.0894  -0.0610   5.00    0.0
2018/11/11 02:09:00.000  -74.425549665  163.418453634    64.3573   6   9   0.0449   0.0456   0.1609   0.0255  -0.0644  -0.0434   5.00    0.0
2018/11/11 02:09:30.000  -74.425549737  163.418451261    64.5602   1   9   0.0319   0.0372   0.1360   0.0219  -0.0511  -0.0413   5.00    2.0
2018/11/11 02:10:00.000  -74.425549693  163.418449880    64.7162   1   9   0.0219   0.0279   0.0920   0.0167  -0.0298  -0.0278   5.00    2.0
2018/11/11 02:10:30.000  -74.425550004  163.418449046    64.7851   1   9   0.0320   0.0372   0.1357   0.0219  -0.0506  -0.0416   5.00    2.0
2018/11/11 02:11:00.000  -74.425550250  163.418449268    64.7514   6   9   0.0451   0.0448   0.1567   0.0256  -0.0617  -0.0440   5.00    0.0
2018/11/11 02:11:30.000  -74.425550390  163.418449323    64.7208   6   9   0.0587   0.0584   0.2150   0.0343  -0.0861  -0.0637   5.00    0.0
2018/11/11 02:12:00.000  -74.425550452  163.418450041    64.6890   6   9   0.0727   0.0725   0.2755   0.0433  -0.1110  -0.0843   5.00    0.0
2018/11/11 02:12:30.000  -74.425550724  163.418448852    64.7716   6   9   0.0868   0.0868   0.3365   0.0524  -0.1360  -0.1053   5.00    0.0
2018/11/11 02:13:00.000  -74.425550625  163.418448178    64.8175   6   9   0.0730   0.0723   0.2739   0.0437  -0.1101  -0.0853   5.00    0.0
2018/11/11 02:13:30.000  -74.425550335  163.418448654    64.7815   6   9   0.0592   0.0580   0.2123   0.0349  -0.0845  -0.0654   5.00    0.0
2018/11/11 02:14:00.000  -74.425550025  163.418448806    64.7498   6   9   0.0456   0.0443   0.1535   0.0262  -0.0598  -0.0458   6.00    0.0
2018/11/11 02:14:30.000  -74.425549967  163.418448823    64.7997   6   9   0.0332   0.0322   0.1017   0.0185  -0.0370  -0.0275   6.00    0.0
2018/11/11 02:15:00.000  -74.425549989  163.418449944    64.7726   6   9   0.0262   0.0256   0.0727   0.0144  -0.0226  -0.0159   6.00    0.0
2018/11/11 02:15:30.000  -74.425550225  163.418449410    64.8614   6   9   0.0332   0.0320   0.1000   0.0184  -0.0355  -0.0271   6.00    0.0
2018/11/11 02:16:00.000  -74.425550032  163.418450842    64.7320   6   9   0.0457   0.0435   0.1499   0.0261  -0.0572  -0.0460   6.00    0.0
2018/11/11 02:16:30.000  -74.425550155  163.418450379    64.7499   6   9   0.0596   0.0567   0.2058   0.0351  -0.0806  -0.0667   6.00    0.0
2018/11/11 02:17:00.000  -74.425550663  163.418449171    64.8354   6   9   0.0739   0.0703   0.2633   0.0443  -0.1043  -0.0880   6.00    0.0
2018/11/11 02:17:30.000  -74.425550840  163.418448595    64.9111   6   9   0.0885   0.0842   0.3209   0.0536  -0.1279  -0.1097   6.00    0.0
2018/11/11 02:18:00.000  -74.425550419  163.418449858    64.7919   6   9   0.0741   0.0700   0.2605   0.0445  -0.1029  -0.0886   6.00    0.0
2018/11/11 02:18:30.000  -74.425550249  163.418450556    64.7009   6   9   0.0599   0.0562   0.2015   0.0353  -0.0783  -0.0676   6.00    0.0
2018/11/11 02:19:00.000  -74.425550165  163.418449636    64.7503   6   9   0.0460   0.0431   0.1457   0.0264  -0.0545  -0.0471   6.00    0.0
2018/11/11 02:19:30.000  -74.425550036  163.418448982    64.7869   6   9   0.0334   0.0317   0.0969   0.0186  -0.0326  -0.0281   6.00    0.0
2018/11/11 02:20:00.000  -74.425549987  163.418449893    64.7748   6   9   0.0265   0.0255   0.0703   0.0144  -0.0187  -0.0162   6.00    0.0
2018/11/11 02:20:30.000  -74.425550225  163.418449657    64.8703   6   9   0.0334   0.0317   0.0983   0.0182  -0.0298  -0.0284   6.00    0.0
2018/11/11 02:21:00.000  -74.425550503  163.418449592    64.8953   6   9   0.0462   0.0429   0.1485   0.0255  -0.0491  -0.0489   6.00    0.0
2018/11/11 02:21:30.000  -74.425550688  163.418449833    64.8482   6   9   0.0607   0.0558   0.2078   0.0337  -0.0688  -0.0724   6.00    0.0
2018/11/11 02:22:00.000  -74.425550886  163.418450083    64.8631   6   8   0.0784   0.0691   0.2940   0.0415  -0.0870  -0.1083   5.00    0.0
2018/11/11 02:22:30.000  -74.425550624  163.418451079    64.7146   6   8   0.0946   0.0825   0.3608   0.0498  -0.1064  -0.1354   5.00    0.0
2018/11/11 02:23:00.000  -74.425550526  163.418450071    64.7052   6   8   0.0791   0.0685   0.2930   0.0412  -0.0845  -0.1097   5.00    0.0
2018/11/11 02:23:30.000  -74.425550439  163.418449630    64.7491   6   8   0.0635   0.0551   0.2262   0.0329  -0.0636  -0.0837   5.00    0.0
2018/11/11 02:24:00.000  -74.425550012  163.418449966    64.6581   6   8   0.0483   0.0424   0.1620   0.0248  -0.0435  -0.0578   5.00    0.0
2018/11/11 02:24:30.000  -74.425549783  163.418450098    64.7251   6   8   0.0344   0.0314   0.1046   0.0179  -0.0251  -0.0334   5.00    0.0
2018/11/11 02:25:00.000  -74.425550002  163.418449688    64.8195   6   8   0.0267   0.0255   0.0719   0.0142  -0.0140  -0.0178   5.00    0.0
2018/11/11 02:25:30.000  -74.425550135  163.418449917    64.8048   6   8   0.0344   0.0313   0.1040   0.0178  -0.0232  -0.0327   5.00    0.0
2018/11/11 02:26:00.000  -74.425550599  163.418449141    64.9576   6   8   0.0484   0.0419   0.1603   0.0243  -0.0400  -0.0579   5.00    0.0
2018/11/11 02:26:30.000  -74.425550779  163.418449234    64.9436   6   8   0.0642   0.0540   0.2225   0.0318  -0.0577  -0.0852   5.00    0.0
2018/11/11 02:27:00.000  -74.425550859  163.418448694    64.9167   6   8   0.0808   0.0667   0.2866   0.0396  -0.0753  -0.1131   5.00    0.0
2018/11/11 02:27:30.000  -74.425550730  163.418448891    64.8873   6   8   0.0979   0.0796   0.3509   0.0475  -0.0925  -0.1412   5.00    0.0
2018/11/11 02:28:00.000  -74.425550890  163.418448533    64.9642   6   8   0.0814   0.0666   0.2852   0.0396  -0.0737  -0.1140   5.00    0.0
2018/11/11 02:28:30.000  -74.425550577  163.418449161    64.8774   6   8   0.0651   0.0538   0.2202   0.0317  -0.0547  -0.0865   5.00    0.0
2018/11/11 02:29:00.000  -74.425550315  163.418449478    64.7987   6   9   0.0491   0.0418   0.1579   0.0242  -0.0361  -0.0591   5.00    0.0
2018/11/11 02:29:30.000  -74.425550119  163.418449182    64.7396   6   9   0.0345   0.0313   0.0997   0.0177  -0.0190  -0.0345   5.00    0.0
2018/11/11 02:30:00.000  -74.425550000  163.418449541    64.7761   6   9   0.0269   0.0258   0.0703   0.0143  -0.0045  -0.0153   5.00    0.0
2018/11/11 02:30:30.000  -74.425550253  163.418449454    64.8352   6   9   0.0344   0.0316   0.0993   0.0179  -0.0146  -0.0336   5.00    0.0
2018/11/11 02:31:00.000  -74.425550539  163.418448513    64.8868   6   9   0.0490   0.0428   0.1524   0.0250  -0.0251  -0.0590   5.00    0.0
2018/11/11 02:31:30.000  -74.425550849  163.418448766    64.9399   6   8   0.0654   0.0557   0.2185   0.0325  -0.0310  -0.0871   5.00    0.0
2018/11/11 02:32:00.000  -74.425551021  163.418449264    64.9627   6   8   0.0826   0.0690   0.2821   0.0401  -0.0405  -0.1156   5.00    0.0
2018/11/11 02:32:30.000  -74.425550631  163.418451097    64.7854   6   8   0.1000   0.0827   0.3472   0.0477  -0.0487  -0.1444   5.00    0.0
2018/11/11 02:33:00.000  -74.425550807  163.418450366    64.9241   6   8   0.0827   0.0688   0.2837   0.0391  -0.0353  -0.1164   5.00    0.0
2018/11/11 02:33:30.000  -74.425550459  163.418450753    64.8208   6   8   0.0656   0.0555   0.2206   0.0310  -0.0221  -0.0882   5.00    0.0
2018/11/11 02:34:00.000  -74.425550313  163.418450760    64.7558   6   8   0.0491   0.0429   0.1589   0.0236  -0.0073  -0.0601   5.00    0.0
2018/11/11 02:34:30.000  -74.425550230  163.418449953    64.7718   6   8   0.0345   0.0320   0.1024   0.0174   0.0108  -0.0331   5.00    0.0
2018/11/11 02:35:00.000  -74.425550036  163.418449833    64.7979   6   8   0.0265   0.0262   0.0683   0.0141   0.0111  -0.0146   5.00    0.0
2018/11/11 02:35:30.000  -74.425550054  163.418450044    64.8747   6   8   0.0348   0.0325   0.1052   0.0181   0.0177  -0.0296   5.00    0.0
2018/11/11 02:36:00.000  -74.425550331  163.418449031    64.8946   6   8   0.0497   0.0436   0.1657   0.0242   0.0245  -0.0559   5.00    0.0
2018/11/11 02:36:30.000  -74.425550511  163.418449209    64.7305   6   9   0.0637   0.0552   0.1943   0.0269   0.0499  -0.0682   5.00    0.0
2018/11/11 02:37:00.000  -74.425550782  163.418448715    64.7993   6   9   0.0787   0.0684   0.2392   0.0311   0.0686  -0.0840   5.00    0.0
2018/11/11 02:37:30.000  -74.425550929  163.418448436    64.8265   6   9   0.0958   0.0832   0.2919   0.0382   0.0899  -0.0995   5.00    0.0
2018/11/11 02:38:00.000  -74.425550277  163.418449669    64.8686   6   9   0.0763   0.0678   0.2390   0.0257   0.0707  -0.0864   5.00    0.0
2018/11/11 02:38:30.000  -74.425550182  163.418450272    64.8502   6   9   0.0602   0.0541   0.1866   0.0194   0.0537  -0.0681   5.00    0.0
2018/11/11 02:39:00.000  -74.425550107  163.418449844    64.8115   6   9   0.0451   0.0416   0.1358   0.0153   0.0380  -0.0482   5.00    0.0
2018/11/11 02:39:30.000  -74.425550084  163.418449840    64.7400   6   9   0.0317   0.0311   0.0884   0.0124   0.0228  -0.0285   5.00    0.0
2018/11/11 02:40:00.000  -74.425549919  163.418449916    64.7976   6   9   0.0246   0.0260   0.0593   0.0116   0.0127  -0.0145   5.00    0.0
2018/11/11 02:40:30.000  -74.425550110  163.418449753    64.8012   6   9   0.0317   0.0329   0.0854   0.0140   0.0225  -0.0276   5.00    0.0
2018/11/11 02:41:00.000  -74.425550283  163.418449342    64.8258   6   9   0.0448   0.0442   0.1309   0.0166   0.0378  -0.0480   5.00    0.0
2018/11/11 02:41:30.000  -74.425550305  163.418449784    64.7972   6   9   0.0597   0.0570   0.1821   0.0185   0.0542  -0.0704   5.00    0.0
2018/11/11 02:42:00.000  -74.425550471  163.418450174    64.8604   6   9   0.0754   0.0707   0.2358   0.0199   0.0712  -0.0937   5.00    0.0
2018/11/11 02:42:30.000  -74.425550524  163.418449290    64.8115   6   9   0.0915   0.0851   0.2910   0.0211   0.0886  -0.1174   5.00    0.0
2018/11/11 02:43:00.000  -74.425550609  163.418449380    64.8636   6   9   0.0766   0.0756   0.2396   0.0246   0.0706  -0.0963   6.00    0.0
2018/11/11 02:43:30.000  -74.425550730  163.418449171    64.9509   6   9   0.0602   0.0573   0.1872   0.0162   0.0562  -0.0733   5.00    0.0
2018/11/11 02:44:00.000  -74.425550450  163.418450240    64.8461   6   9   0.0448   0.0428   0.1350   0.0119   0.0414  -0.0502   5.00    0.0
2018/11/11 02:44:30.000  -74.425549914  163.418450560    64.7955   1   9   0.0370   0.0312   0.1164  -0.0111   0.0299  -0.0461   6.00    1.0
2018/11/11 02:45:00.000  -74.425549838  163.418448930    64.7884   1   9   0.0258   0.0207   0.0754  -0.0108   0.0107  -0.0278   6.00    1.0
2018/11/11 02:45:30.000  -74.425549650  163.418449248    64.7742   1   9   0.0372   0.0312   0.1165  -0.0114   0.0305  -0.0465   6.00    1.0
2018/11/11 02:46:00.000  -74.425550155  163.418449270    64.7433   6   9   0.0444   0.0419   0.1354   0.0073   0.0445  -0.0504   5.00    0.0
2018/11/11 02:46:30.000  -74.425550351  163.418449411    64.7993   6   9   0.0597   0.0549   0.1900  -0.0035   0.0633  -0.0744   5.00    0.0
2018/11/11 02:47:00.000  -74.425550396  163.418448873    64.8390   6   9   0.0757   0.0686   0.2468  -0.0119   0.0827  -0.0989   5.00    0.0
2018/11/11 02:47:30.000  -74.425550592  163.418449274    64.9032   6   9   0.0921   0.0828   0.3046  -0.0183   0.1026  -0.1237   5.00    0.0
2018/11/11 02:48:00.000  -74.425550318  163.418450065    64.8385   6   9   0.0759   0.0689   0.2484  -0.0135   0.0842  -0.0996   5.00    0.0
2018/11/11 02:48:30.000  -74.425550137  163.418449988    64.7927   6   9   0.0599   0.0554   0.1924  -0.0080   0.0656  -0.0754   5.00    0.0
2018/11/11 02:49:00.000  -74.425550068  163.418450811    64.8062   6   9   0.0445   0.0423   0.1373   0.0039   0.0470  -0.0514   5.00    0.0
2018/11/11 02:49:30.000  -74.425549714  163.418449880    64.7813   1   9   0.0377   0.0315   0.1178  -0.0127   0.0332  -0.0477   6.00    1.0
2018/11/11 02:50:00.000  -74.425549939  163.418449053    64.8300   1   9   0.0267   0.0205   0.0749  -0.0109   0.0117  -0.0289   6.00    1.0
2018/11/11 02:50:30.000  -74.425549911  163.418449734    64.8376   1   9   0.0380   0.0315   0.1180  -0.0128   0.0335  -0.0482   6.00    1.0
2018/11/11 02:51:00.000  -74.425550135  163.418450060    64.7602   6   9   0.0444   0.0425   0.1379  -0.0038   0.0483  -0.0520   5.00    0.0
2018/11/11 02:51:30.000  -74.425550237  163.418450516    64.7159   6   9   0.0600   0.0560   0.1944  -0.0124   0.0687  -0.0768   5.00    0.0
2018/11/11 02:52:00.000  -74.425550189  163.418449554    64.6339   6   9   0.0762   0.0703   0.2526  -0.0194   0.0897  -0.1020   5.00    0.0
2018/11/11 02:52:30.000  -74.425550351  163.418450056    64.6536   6   9   0.0928   0.0851   0.3114  -0.0261   0.1111  -0.1273   5.00    0.0
2018/11/11 02:53:00.000  -74.425550602  163.418449650    64.6727   6   9   0.0764   0.0708   0.2537  -0.0206   0.0912  -0.1026   5.00    0.0
2018/11/11 02:53:30.000  -74.425550574  163.418449397    64.6519   6   9   0.0602   0.0567   0.1957  -0.0143   0.0707  -0.0776   5.00    0.0
2018/11/11 02:54:00.000  -74.425550366  163.418449207    64.6201   6   9   0.0446   0.0431   0.1390  -0.0071   0.0503  -0.0528   5.00    0.0
2018/11/11 02:54:30.000  -74.425550084  163.418448224    64.7345   1   9   0.0387   0.0320   0.1193  -0.0138   0.0356  -0.0494   6.00    1.0
2018/11/11 02:55:00.000  -74.425550065  163.418448502    64.7954   1  10   0.0271   0.0180   0.0694  -0.0073  -0.0126  -0.0271   6.00    1.0
2018/11/11 02:55:30.000  -74.425550149  163.418448013    64.8142   1  10   0.0378   0.0251   0.0985   0.0051  -0.0104  -0.0423   6.00    1.0
2018/11/11 02:56:00.000  -74.425550329  163.418448793    64.7354   6  10   0.0431   0.0342   0.1082   0.0140   0.0182  -0.0429   5.00    0.0
2018/11/11 02:56:30.000  -74.425550471  163.418448780    64.7793   6  10   0.0577   0.0430   0.1476   0.0185   0.0217  -0.0626   5.00    0.0
2018/11/11 02:57:00.000  -74.425550656  163.418448268    64.8187   6  10   0.0730   0.0524   0.1887   0.0228   0.0253  -0.0827   5.00    0.0
2018/11/11 02:57:30.000  -74.425550668  163.418448979    64.8314   6  10   0.0886   0.0622   0.2307   0.0270   0.0296  -0.1029   5.00    0.0
2018/11/11 02:58:00.000  -74.425550418  163.418449478    64.7957   6  10   0.0732   0.0526   0.1894   0.0225   0.0269  -0.0832   5.00    0.0
2018/11/11 02:58:30.000  -74.425550246  163.418449470    64.7239   6  10   0.0579   0.0432   0.1482   0.0179   0.0238  -0.0631   5.00    0.0
2018/11/11 02:59:00.000  -74.425550170  163.418448820    64.6967   6  10   0.0433   0.0343   0.1084   0.0136   0.0195  -0.0434   5.00    0.0
2018/11/11 02:59:30.000  -74.425550112  163.418448667    64.8468   1  10   0.0390   0.0253   0.0995   0.0054  -0.0115  -0.0438   4.00    1.0
2018/11/11 03:00:00.000  -74.425550090  163.418448545    64.8325   1  10   0.0295   0.0184   0.0722  -0.0048  -0.0165  -0.0306   4.00    1.0
2018/11/11 03:00:30.000  -74.425550207  163.418448655    64.9518   1  10   0.0413   0.0259   0.1032   0.0095  -0.0167  -0.0477   3.00    1.0
2018/11/11 03:01:00.000  -74.425550275  163.418448452    64.8607   6  10   0.0441   0.0347   0.1090   0.0143   0.0178  -0.0447   4.00    0.0
2018/11/11 03:01:30.000  -74.425550279  163.418448913    64.8800   6  10   0.0586   0.0436   0.1489   0.0179   0.0246  -0.0644   5.00    0.0
2018/11/11 03:02:00.000  -74.425550528  163.418449081    64.9216   6  10   0.0738   0.0530   0.1903   0.0212   0.0319  -0.0843   5.00    0.0
2018/11/11 03:02:30.000  -74.425550772  163.418449007    64.8639   6  10   0.0892   0.0629   0.2322   0.0243   0.0397  -0.1043   5.00    0.0
2018/11/11 03:03:00.000  -74.425550568  163.418448604    64.7865   6  10   0.0737   0.0532   0.1903   0.0206   0.0338  -0.0844   5.00    0.0
2018/11/11 03:03:30.000  -74.425550599  163.418448728    64.7813   6  10   0.0589   0.0439   0.1493   0.0173   0.0266  -0.0648   5.00    0.0
2018/11/11 03:04:00.000  -74.425550356  163.418448387    64.7258   6  10   0.0451   0.0354   0.1102   0.0142   0.0174  -0.0462   5.00    0.0
2018/11/11 03:04:30.000  -74.425550050  163.418448486    64.8535   1  10   0.0517   0.0265   0.1192   0.0182  -0.0259  -0.0646   4.00    1.0
2018/11/11 03:05:00.000  -74.425549918  163.418448673    64.8508   1  10   0.0327   0.0177   0.0756   0.0050  -0.0182  -0.0355   4.00    1.0
2018/11/11 03:05:30.000  -74.425549904  163.418449053    64.8980   1  10   0.0524   0.0266   0.1205   0.0181  -0.0264  -0.0653   4.00    1.0
2018/11/11 03:06:00.000  -74.425550216  163.418448975    64.7327   6  10   0.0492   0.0345   0.1190   0.0137   0.0184  -0.0542   3.00    0.0
2018/11/11 03:06:30.000  -74.425550408  163.418448334    64.7316   6  10   0.0616   0.0437   0.1543   0.0164   0.0288  -0.0699   3.00    0.0
2018/11/11 03:07:00.000  -74.425550610  163.418447849    64.7410   6  10   0.0756   0.0533   0.1928   0.0187   0.0389  -0.0875   3.00    0.0
2018/11/11 03:07:30.000  -74.425550790  163.418447811    64.7779   6  10   0.0903   0.0634   0.2328   0.0207   0.0490  -0.1059   3.00    0.0
2018/11/11 03:08:00.000  -74.425550637  163.418448006    64.7581   6  10   0.0749   0.0534   0.1912   0.0180   0.0407  -0.0862   3.00    0.0
2018/11/11 03:08:30.000  -74.425550297  163.418448265    64.6901   6  11   0.0575   0.0427   0.1425   0.0089   0.0384  -0.0607   3.00    0.0
2018/11/11 03:09:00.000  -74.425549781  163.418448815    64.7475   1  11   0.0539   0.0365   0.1333  -0.0111   0.0346  -0.0570   6.00    1.0
2018/11/11 03:09:30.000  -74.425549784  163.418449089    64.7831   1  11   0.0375   0.0238   0.0890  -0.0084   0.0160  -0.0374   6.00    1.0
2018/11/11 03:10:00.000  -74.425549681  163.418448989    64.7994   1  11   0.0288   0.0164   0.0648  -0.0073  -0.0110  -0.0261   6.00    1.0
2018/11/11 03:10:30.000  -74.425550025  163.418448711    64.7188   6  11   0.0306   0.0259   0.0704   0.0058   0.0181  -0.0254   4.00    0.0
2018/11/11 03:11:00.000  -74.425550185  163.418448318    64.6572   6  11   0.0418   0.0337   0.1006   0.0052   0.0299  -0.0390   4.00    0.0
2018/11/11 03:11:30.000  -74.425550108  163.418448229    64.6592   6  12   0.0531   0.0425   0.1343  -0.0084   0.0412  -0.0568   4.00    0.0
2018/11/11 03:12:00.000  -74.425550196  163.418447814    64.5881   6  12   0.0659   0.0520   0.1704  -0.0138   0.0532  -0.0742   4.00    0.0
2018/11/11 03:12:30.000  -74.425550319  163.418447918    64.5745   6  12   0.0792   0.0619   0.2075  -0.0189   0.0655  -0.0918   5.00    0.0
2018/11/11 03:13:00.000  -74.425550544  163.418447676    64.6549   6  12   0.0657   0.0523   0.1708  -0.0147   0.0540  -0.0744   5.00    0.0
2018/11/11 03:13:30.000  -74.425550436  163.418448247    64.7146   6  12   0.0527   0.0428   0.1347  -0.0102   0.0422  -0.0573   5.00    0.0
2018/11/11 03:14:00.000  -74.425550228  163.418448940    64.7474   6  12   0.0404   0.0338   0.1003  -0.0055   0.0302  -0.0410   5.00    0.0
2018/11/11 03:14:30.000  -74.425550009  163.418448194    64.7559   6  12   0.0300   0.0260   0.0703   0.0025   0.0182  -0.0267   5.00    0.0
2018/11/11 03:15:00.000  -74.425549978  163.418448476    64.7279   6  12   0.0246   0.0220   0.0544   0.0047   0.0091  -0.0189   5.00    0.0
2018/11/11 03:15:30.000  -74.425549997  163.418447833    64.7242   6  12   0.0312   0.0261   0.0720   0.0045   0.0173  -0.0290   5.00    0.0
2018/11/11 03:16:00.000  -74.425550196  163.418448059    64.6787   6  12   0.0432   0.0340   0.1040   0.0014   0.0290  -0.0456   5.00    0.0
2018/11/11 03:16:30.000  -74.425550232  163.418447245    64.6366   6  12   0.0575   0.0432   0.1416  -0.0072   0.0409  -0.0651   6.00    0.0
2018/11/11 03:17:00.000  -74.425550417  163.418447148    64.6930   6  12   0.0748   0.0531   0.1847  -0.0108   0.0521  -0.0886   5.00    0.0
2018/11/11 03:17:30.000  -74.425550307  163.418446432    64.7083   6  12   0.1100   0.0634   0.2610   0.0055   0.0600  -0.1426   4.00    0.0
2018/11/11 03:18:00.000  -74.425550227  163.418446323    64.6936   6  12   0.0905   0.0533   0.2143   0.0063   0.0498  -0.1164   4.00    0.0
2018/11/11 03:18:30.000  -74.425550039  163.418446158    64.6541   6  12   0.0581   0.0433   0.1464  -0.0121   0.0436  -0.0686   4.00    0.0
2018/11/11 03:19:00.000  -74.425549873  163.418446320    64.6508   6  12   0.0428   0.0341   0.1063  -0.0078   0.0314  -0.0470   4.00    0.0
2018/11/11 03:19:30.000  -74.425549939  163.418447666    64.7375   6  12   0.0311   0.0262   0.0737  -0.0027   0.0189  -0.0302   4.00    0.0
2018/11/11 03:20:00.000  -74.425549963  163.418448381    64.7460   6  12   0.0249   0.0221   0.0563   0.0036   0.0093  -0.0209   4.00    0.0
2018/11/11 03:20:30.000  -74.425549920  163.418447978    64.6832   6  12   0.0309   0.0262   0.0732  -0.0005   0.0183  -0.0295   4.00    0.0
2018/11/11 03:21:00.000  -74.425550078  163.418447293    64.6793   6  12   0.0414   0.0342   0.1030  -0.0072   0.0307  -0.0428   4.00    0.0
2018/11/11 03:21:30.000  -74.425550085  163.418447701    64.6769   6  11   0.0536   0.0435   0.1369  -0.0128   0.0434  -0.0574   4.00    0.0
2018/11/11 03:22:00.000  -74.425550175  163.418447468    64.6859   6  11   0.0664   0.0534   0.1723  -0.0182   0.0563  -0.0728   4.00    0.0
2018/11/11 03:22:30.000  -74.425550213  163.418447552    64.7079   6  11   0.0796   0.0638   0.2083  -0.0234   0.0694  -0.0883   4.00    0.0
2018/11/11 03:23:00.000  -74.425550325  163.418448433    64.7273   6  11   0.0666   0.0537   0.1733  -0.0183   0.0567  -0.0733   4.00    0.0
2018/11/11 03:23:30.000  -74.425550117  163.418448035    64.7380   6  11   0.0540   0.0437   0.1386  -0.0128   0.0437  -0.0584   4.00    0.0
2018/11/11 03:24:00.000  -74.425550195  163.418448466    64.7257   6  11   0.0425   0.0345   0.1067  -0.0069   0.0303  -0.0451   4.00    0.0
2018/11/11 03:24:30.000  -74.425550134  163.418449305    64.7195   6  11   0.0332   0.0266   0.0809   0.0045   0.0159  -0.0352   4.00    0.0
2018/11/11 03:25:00.000  -74.425550002  163.418448420    64.7438   6  10   0.0273   0.0224   0.0644   0.0062   0.0034  -0.0280   3.00    0.0
2018/11/11 03:25:30.000  -74.425549860  163.418447354    64.6854   6   9   0.0372   0.0267   0.0926   0.0069   0.0131  -0.0447   3.00    0.0
2018/11/11 03:26:00.000  -74.425549834  163.418447243    64.6240   6  10   0.0500   0.0350   0.1296   0.0092   0.0219  -0.0624   3.00    0.0
2018/11/11 03:26:30.000  -74.425549769  163.418447108    64.6688   6  10   0.0604   0.0446   0.1604   0.0131   0.0283  -0.0731   3.00    0.0
2018/11/11 03:27:00.000  -74.425549965  163.418447424    64.6590   6  10   0.0728   0.0550   0.1970   0.0167   0.0350  -0.0874   3.00    0.0
2018/11/11 03:27:30.000  -74.425550076  163.418447640    64.6343   6  10   0.0885   0.0658   0.2415   0.0200   0.0420  -0.1081   3.00    0.0
2018/11/11 03:28:00.000  -74.425550092  163.418447271    64.6700   6  10   0.0670   0.0551   0.1873   0.0166   0.0352  -0.0763   3.00    0.0
2018/11/11 03:28:30.000  -74.425550242  163.418448011    64.6664   6  10   0.0524   0.0447   0.1460   0.0135   0.0277  -0.0573   3.00    0.0
2018/11/11 03:29:00.000  -74.425550189  163.418447831    64.6498   6  10   0.0403   0.0350   0.1099   0.0102   0.0205  -0.0427   4.00    0.0
