% program   : RTKLIB ver.2.4.3
% inp file  : _by_type/_obs/blake/20181112.18o
% inp file  : _by_type/_sp3+clk/igs20271.clk
% inp file  : _by_type/_sp3+clk/igs20271.sp3
% inp file  : _by_type/_nav/blake/20181112.18n
% obs start : 2018/11/12 00:00:00.0 GPST (week2027  86400.0s)
% obs end   : 2018/11/12 23:59:45.0 GPST (week2027 172785.0s)
% pos mode  : ppp-kinematic
% solution  : combined
% elev mask : 15.0 deg
% dynamics  : off
% tidecorr  : on
% tropo opt : est ztd+grad
% ephemeris : precise
% navi sys  : gps glonass
% antenna1  :                       ( 0.0000  0.0000  0.0000)
%
% (lat/lon/height=WGS84/ellipsoidal,Q=1:fix,2:float,3:sbas,4:dgps,5:single,6:ppp,ns=# of satellites)
%  GPST                  latitude(deg) longitude(deg)  height(m)   Q  ns   sdn(m)   sde(m)   sdu(m)  sdne(m)  sdeu(m)  sdun(m) age(s)  ratio
2018/11/12 00:00:00.000  -74.407216772  163.437632358    79.9471   6  10   0.0273   0.0328   0.1178  -0.0212   0.0454  -0.0335   0.00    0.0
2018/11/12 00:00:15.000  -74.407216690  163.437632550    79.9368   6  10   0.0300   0.0369   0.1392  -0.0234   0.0545  -0.0381   0.00    0.0
2018/11/12 00:00:30.000  -74.407216575  163.437632206    79.8701   6  10   0.0354   0.0440   0.1744  -0.0270   0.0685  -0.0448   0.00    0.0
2018/11/12 00:00:45.000  -74.407216456  163.437631684    79.8286   6  10   0.0420   0.0525   0.2077  -0.0318   0.0830  -0.0554   0.00    0.0
2018/11/12 00:01:00.000  -74.407216436  163.437631696    79.8109   6  10   0.0499   0.0620   0.2523  -0.0368   0.0999  -0.0636   0.00    0.0
2018/11/12 00:01:15.000  -74.407216542  163.437631715    79.8707   6  10   0.0582   0.0719   0.2929  -0.0423   0.1162  -0.0740   0.00    0.0
2018/11/12 00:01:30.000  -74.407216657  163.437631569    79.9251   6  10   0.0667   0.0804   0.2824  -0.0502   0.1203  -0.0934   0.00    0.0
2018/11/12 00:01:45.000  -74.407216629  163.437631017    79.9018   6  10   0.0760   0.0924   0.3285  -0.0578   0.1411  -0.1089   0.00    0.0
2018/11/12 00:02:00.000  -74.407216553  163.437630382    79.8161   6  10   0.0861   0.1069   0.3848  -0.0676   0.1679  -0.1287   0.00    0.0
2018/11/12 00:02:15.000  -74.407216336  163.437629241    79.6423   6  10   0.0994   0.1296   0.4758  -0.0844   0.2143  -0.1627   1.00    0.0
2018/11/12 00:02:30.000  -74.407216618  163.437631205    79.8475   6  10   0.0958   0.1058   0.3700  -0.0606   0.1431  -0.1136   1.00    0.0
2018/11/12 00:02:45.000  -74.407216494  163.437631147    79.8480   6  10   0.0882   0.0973   0.3354  -0.0567   0.1287  -0.1019   1.00    0.0
2018/11/12 00:03:00.000  -74.407216490  163.437631347    79.8660   6  10   0.0819   0.0909   0.3032  -0.0554   0.1148  -0.0907   2.00    0.0
2018/11/12 00:03:15.000  -74.407216681  163.437632281    79.9358   6  10   0.0697   0.0765   0.2704  -0.0430   0.1043  -0.0832   2.00    0.0
2018/11/12 00:03:30.000  -74.407216700  163.437632116    79.9043   6  10   0.0617   0.0676   0.2379  -0.0383   0.0916  -0.0733   2.00    0.0
2018/11/12 00:03:45.000  -74.407216766  163.437632699    79.9145   6  10   0.0538   0.0589   0.2056  -0.0337   0.0787  -0.0636   2.00    0.0
2018/11/12 00:04:00.000  -74.407216899  163.437633201    79.9942   6  10   0.0461   0.0504   0.1737  -0.0292   0.0659  -0.0539   2.00    0.0
2018/11/12 00:04:15.000  -74.407216892  163.437633291    80.0283   6  10   0.0389   0.0424   0.1429  -0.0251   0.0533  -0.0446   3.00    0.0
2018/11/12 00:04:30.000  -74.407216775  163.437633156    79.9871   6  10   0.0326   0.0352   0.1147  -0.0214   0.0414  -0.0361   3.00    0.0
2018/11/12 00:04:45.000  -74.407216660  163.437632976    79.9609   6  10   0.0279   0.0297   0.0923  -0.0186   0.0312  -0.0292   3.00    0.0
2018/11/12 00:05:00.000  -74.407216746  163.437632764    79.9856   6  10   0.0256   0.0270   0.0815  -0.0170   0.0258  -0.0255   3.00    0.0
2018/11/12 00:05:15.000  -74.407216757  163.437632404    79.9272   6  11   0.0278   0.0299   0.0919  -0.0188   0.0321  -0.0306   3.00    0.0
2018/11/12 00:05:30.000  -74.407216782  163.437632295    79.9256   6  11   0.0325   0.0356   0.1145  -0.0218   0.0427  -0.0384   4.00    0.0
2018/11/12 00:05:45.000  -74.407216663  163.437631778    79.8405   6  11   0.0385   0.0427   0.1424  -0.0254   0.0549  -0.0478   3.00    0.0
2018/11/12 00:06:00.000  -74.407216634  163.437631491    79.8140   6  11   0.0452   0.0506   0.1727  -0.0293   0.0675  -0.0575   3.00    0.0
2018/11/12 00:06:15.000  -74.407216562  163.437630814    79.7573   6  11   0.0523   0.0587   0.2050  -0.0332   0.0803  -0.0670   4.00    0.0
2018/11/12 00:06:30.000  -74.407216481  163.437630438    79.7101   6  11   0.0596   0.0669   0.2424  -0.0368   0.0937  -0.0745   4.00    0.0
2018/11/12 00:06:45.000  -74.407216414  163.437630421    79.7362   6  11   0.0661   0.0745   0.2539  -0.0415   0.1017  -0.0891   0.00    0.0
2018/11/12 00:07:00.000  -74.407216379  163.437630265    79.7122   6  11   0.0730   0.0822   0.2820  -0.0452   0.1126  -0.0985   0.00    0.0
2018/11/12 00:07:15.000  -74.407216250  163.437629811    79.6775   6  11   0.0798   0.0898   0.3096  -0.0488   0.1232  -0.1076   0.00    0.0
2018/11/12 00:07:30.000  -74.407216244  163.437629837    79.6840   6  11   0.0864   0.0971   0.3365  -0.0524   0.1335  -0.1165   0.00    0.0
2018/11/12 00:07:45.000  -74.407216279  163.437630161    79.6841   6  11   0.0800   0.0905   0.3143  -0.0495   0.1255  -0.1093   2.00    0.0
2018/11/12 00:08:00.000  -74.407216379  163.437629917    79.6840   6  11   0.0731   0.0828   0.2872  -0.0459   0.1149  -0.1002   3.00    0.0
2018/11/12 00:08:15.000  -74.407216494  163.437631168    79.7779   6  11   0.0662   0.0751   0.2595  -0.0422   0.1041  -0.0910   4.00    0.0
2018/11/12 00:08:30.000  -74.407216574  163.437631495    79.8313   6  11   0.0594   0.0673   0.2312  -0.0386   0.0930  -0.0815   4.00    0.0
2018/11/12 00:08:45.000  -74.407216537  163.437632186    79.8604   6  11   0.0528   0.0597   0.2023  -0.0353   0.0817  -0.0721   4.00    0.0
2018/11/12 00:09:00.000  -74.407216494  163.437632091    79.8618   6  11   0.0471   0.0530   0.1736  -0.0331   0.0709  -0.0632   4.00    0.0
2018/11/12 00:09:15.000  -74.407216464  163.437632434    79.8760   6  11   0.0401   0.0448   0.1444  -0.0285   0.0583  -0.0528   2.00    0.0
2018/11/12 00:09:30.000  -74.407216511  163.437632949    79.9371   6  11   0.0326   0.0359   0.1162  -0.0222   0.0448  -0.0418   3.00    0.0
2018/11/12 00:09:45.000  -74.407216577  163.437632906    79.9648   6  11   0.0282   0.0303   0.0933  -0.0194   0.0343  -0.0343   2.00    0.0
2018/11/12 00:10:00.000  -74.407216738  163.437632317    79.9631   6  11   0.0259   0.0271   0.0802  -0.0178   0.0274  -0.0300   3.00    0.0
2018/11/12 00:10:15.000  -74.407216877  163.437631695    79.9212   6  11   0.0284   0.0304   0.0936  -0.0193   0.0343  -0.0346   3.00    0.0
2018/11/12 00:10:30.000  -74.407217026  163.437631572    79.9820   1  11   0.0292   0.0348   0.1207  -0.0178   0.0466  -0.0441   3.00    1.0
2018/11/12 00:10:45.000  -74.407216879  163.437630876    79.9464   6  11   0.0384   0.0427   0.1421  -0.0248   0.0552  -0.0506   4.00    0.0
2018/11/12 00:11:00.000  -74.407216815  163.437630784    79.9445   6  11   0.0447   0.0500   0.1692  -0.0278   0.0661  -0.0595   4.00    0.0
2018/11/12 00:11:15.000  -74.407216641  163.437630133    79.8625   6  11   0.0514   0.0575   0.1964  -0.0306   0.0765  -0.0685   3.00    0.0
2018/11/12 00:11:30.000  -74.407216500  163.437630230    79.8322   6  11   0.0588   0.0653   0.2235  -0.0325   0.0862  -0.0779   4.00    0.0
2018/11/12 00:11:45.000  -74.407216402  163.437629827    79.7874   6  11   0.0655   0.0727   0.2498  -0.0352   0.0961  -0.0863   3.00    0.0
2018/11/12 00:12:00.000  -74.407216406  163.437629607    79.7989   6  11   0.0710   0.0795   0.2752  -0.0395   0.1065  -0.0935   5.00    0.0
2018/11/12 00:12:15.000  -74.407216417  163.437629635    79.7781   6  11   0.0784   0.0872   0.3011  -0.0410   0.1156  -0.1026   5.00    0.0
2018/11/12 00:12:30.000  -74.407216281  163.437629954    79.7524   6  11   0.0820   0.0929   0.3256  -0.0477   0.1269  -0.1085   5.00    0.0
2018/11/12 00:12:45.000  -74.407216333  163.437630199    79.7924   6  11   0.0757   0.0857   0.3002  -0.0443   0.1170  -0.1003   5.00    0.0
2018/11/12 00:13:00.000  -74.407216388  163.437630200    79.8002   6  11   0.0692   0.0784   0.2745  -0.0409   0.1071  -0.0919   5.00    0.0
2018/11/12 00:13:15.000  -74.407216441  163.437629495    79.7845   6  11   0.0627   0.0711   0.2485  -0.0376   0.0970  -0.0835   5.00    0.0
2018/11/12 00:13:30.000  -74.407216593  163.437630256    79.8623   6  11   0.0563   0.0637   0.2221  -0.0343   0.0868  -0.0751   5.00    0.0
2018/11/12 00:13:45.000  -74.407216701  163.437630650    79.8863   6  11   0.0498   0.0563   0.1954  -0.0311   0.0764  -0.0665   5.00    0.0
2018/11/12 00:14:00.000  -74.407216749  163.437631050    79.9049   6  11   0.0435   0.0490   0.1683  -0.0279   0.0657  -0.0579   5.00    0.0
2018/11/12 00:14:15.000  -74.407216701  163.437631158    79.8717   6  11   0.0375   0.0419   0.1414  -0.0247   0.0549  -0.0492   5.00    0.0
2018/11/12 00:14:30.000  -74.407216913  163.437632770    80.0387   1  11   0.0306   0.0369   0.1218  -0.0224   0.0489  -0.0468   4.00    1.0
2018/11/12 00:14:45.000  -74.407216909  163.437632582    79.9985   1  11   0.0255   0.0311   0.0973  -0.0192   0.0382  -0.0390   5.00    1.0
2018/11/12 00:15:00.000  -74.407216953  163.437632551    80.0103   1  11   0.0226   0.0279   0.0832  -0.0175   0.0316  -0.0344   5.00    1.0
2018/11/12 00:15:15.000  -74.407216813  163.437632006    79.9240   1  11   0.0261   0.0320   0.0981  -0.0198   0.0387  -0.0398   4.00    1.0
2018/11/12 00:15:30.000  -74.407216761  163.437632619    79.9124   1  11   0.0317   0.0399   0.1233  -0.0240   0.0499  -0.0483   4.00    1.0
2018/11/12 00:15:45.000  -74.407216438  163.437631191    79.7635   6  11   0.0371   0.0447   0.1372  -0.0248   0.0523  -0.0471   4.00    0.0
2018/11/12 00:16:00.000  -74.407216425  163.437630780    79.7135   6  11   0.0427   0.0478   0.1613  -0.0265   0.0620  -0.0542   4.00    0.0
2018/11/12 00:16:15.000  -74.407216428  163.437630346    79.6794   6  11   0.0485   0.0547   0.1856  -0.0291   0.0713  -0.0613   4.00    0.0
2018/11/12 00:16:30.000  -74.407216421  163.437629690    79.6330   6  11   0.0545   0.0616   0.2101  -0.0318   0.0806  -0.0686   4.00    0.0
2018/11/12 00:16:45.000  -74.407216423  163.437629698    79.6376   6  11   0.0606   0.0685   0.2346  -0.0346   0.0900  -0.0760   4.00    0.0
2018/11/12 00:17:00.000  -74.407216290  163.437629455    79.5735   6  11   0.0666   0.0754   0.2591  -0.0376   0.0995  -0.0836   4.00    0.0
2018/11/12 00:17:15.000  -74.407216256  163.437629541    79.5995   6  11   0.0725   0.0822   0.2837  -0.0407   0.1090  -0.0913   5.00    0.0
2018/11/12 00:17:30.000  -74.407216284  163.437629363    79.6137   6  11   0.0784   0.0890   0.3083  -0.0440   0.1186  -0.0993   5.00    0.0
2018/11/12 00:17:45.000  -74.407216259  163.437629547    79.6382   6  11   0.0721   0.0820   0.2825  -0.0405   0.1083  -0.0905   5.00    0.0
2018/11/12 00:18:00.000  -74.407216466  163.437630128    79.7512   6  11   0.0660   0.0750   0.2575  -0.0373   0.0983  -0.0823   5.00    0.0
2018/11/12 00:18:15.000  -74.407216496  163.437629998    79.7708   6  11   0.0600   0.0680   0.2327  -0.0343   0.0885  -0.0744   5.00    0.0
2018/11/12 00:18:30.000  -74.407216543  163.437629948    79.7586   6  11   0.0542   0.0611   0.2081  -0.0317   0.0786  -0.0665   5.00    0.0
2018/11/12 00:18:45.000  -74.407216572  163.437629977    79.7567   6  11   0.0489   0.0546   0.1838  -0.0299   0.0685  -0.0585   5.00    0.0
2018/11/12 00:19:00.000  -74.407216610  163.437630135    79.7615   6  11   0.0417   0.0467   0.1592  -0.0252   0.0603  -0.0529   5.00    0.0
2018/11/12 00:19:15.000  -74.407216692  163.437630767    79.8159   6  11   0.0362   0.0399   0.1357  -0.0227   0.0509  -0.0460   5.00    0.0
2018/11/12 00:19:30.000  -74.407217037  163.437632508    79.9983   1  11   0.0319   0.0363   0.1244  -0.0231   0.0491  -0.0492   6.00    1.0
2018/11/12 00:19:45.000  -74.407217049  163.437632503    79.9902   1  11   0.0273   0.0305   0.1018  -0.0203   0.0392  -0.0424   6.00    1.0
2018/11/12 00:20:00.000  -74.407217054  163.437632578    80.0090   1  11   0.0250   0.0274   0.0891  -0.0185   0.0333  -0.0385   6.00    1.0
2018/11/12 00:20:15.000  -74.407216929  163.437631603    79.9738   6  11   0.0276   0.0287   0.0961  -0.0186   0.0331  -0.0341   5.00    0.0
2018/11/12 00:20:30.000  -74.407216946  163.437631361    79.9571   6  11   0.0313   0.0335   0.1138  -0.0201   0.0402  -0.0387   5.00    0.0
2018/11/12 00:20:45.000  -74.407216880  163.437631147    79.9503   6  11   0.0359   0.0393   0.1341  -0.0219   0.0481  -0.0438   5.00    0.0
2018/11/12 00:21:00.000  -74.407216938  163.437631252    79.9867   6  11   0.0411   0.0457   0.1559  -0.0239   0.0563  -0.0492   5.00    0.0
2018/11/12 00:21:15.000  -74.407216886  163.437631090    79.9745   6  11   0.0466   0.0524   0.1785  -0.0262   0.0647  -0.0550   5.00    0.0
2018/11/12 00:21:30.000  -74.407216906  163.437631297    80.0125   6  11   0.0523   0.0591   0.2019  -0.0287   0.0733  -0.0611   5.00    0.0
2018/11/12 00:21:45.000  -74.407216858  163.437630572    79.9943   6  11   0.0581   0.0658   0.2261  -0.0314   0.0820  -0.0674   5.00    0.0
2018/11/12 00:22:00.000  -74.407216855  163.437630819    80.0267   6  11   0.0639   0.0725   0.2516  -0.0344   0.0905  -0.0737   5.00    0.0
2018/11/12 00:22:15.000  -74.407217034  163.437630169    79.9913   6  11   0.0698   0.0793   0.2814  -0.0378   0.0980  -0.0788   5.00    0.0
2018/11/12 00:22:30.000  -74.407216923  163.437629279    79.9366   6  11   0.0755   0.0858   0.3131  -0.0409   0.1070  -0.0866   0.00    0.0
2018/11/12 00:22:45.000  -74.407216899  163.437629154    79.9091   6  11   0.0697   0.0792   0.2878  -0.0375   0.0978  -0.0792   0.00    0.0
2018/11/12 00:23:00.000  -74.407216887  163.437629364    79.8901   6  11   0.0636   0.0721   0.2541  -0.0338   0.0904  -0.0743   0.00    0.0
2018/11/12 00:23:15.000  -74.407216906  163.437629380    79.8834   6  11   0.0579   0.0655   0.2355  -0.0312   0.0793  -0.0647   0.00    0.0
2018/11/12 00:23:30.000  -74.407216888  163.437630094    79.9073   6  11   0.0519   0.0585   0.2048  -0.0279   0.0722  -0.0606   0.00    0.0
2018/11/12 00:23:45.000  -74.407216854  163.437630570    79.9149   6  11   0.0464   0.0518   0.1869  -0.0257   0.0619  -0.0524   0.00    0.0
2018/11/12 00:24:00.000  -74.407216870  163.437631081    79.9146   6  11   0.0407   0.0450   0.1543  -0.0230   0.0558  -0.0499   0.00    0.0
2018/11/12 00:24:15.000  -74.407216819  163.437631124    79.8745   6  11   0.0357   0.0386   0.1335  -0.0210   0.0475  -0.0445   0.00    0.0
2018/11/12 00:24:30.000  -74.407216824  163.437631273    79.8763   6  11   0.0313   0.0328   0.1153  -0.0195   0.0397  -0.0400   1.00    0.0
2018/11/12 00:24:45.000  -74.407216834  163.437631459    79.8769   6  11   0.0279   0.0282   0.1008  -0.0181   0.0331  -0.0363   2.00    0.0
2018/11/12 00:25:00.000  -74.407216844  163.437631699    79.8978   6  11   0.0261   0.0258   0.0931  -0.0171   0.0286  -0.0336   5.00    0.0
2018/11/12 00:25:15.000  -74.407216865  163.437631304    79.8787   6  11   0.0283   0.0283   0.1043  -0.0184   0.0331  -0.0376   6.00    0.0
2018/11/12 00:25:30.000  -74.407216871  163.437631185    79.8836   6  11   0.0319   0.0329   0.1200  -0.0196   0.0395  -0.0419   6.00    0.0
2018/11/12 00:25:45.000  -74.407216720  163.437630438    79.7939   6  11   0.0363   0.0385   0.1374  -0.0210   0.0465  -0.0463   6.00    0.0
2018/11/12 00:26:00.000  -74.407216602  163.437630230    79.7404   6  11   0.0411   0.0446   0.1559  -0.0226   0.0540  -0.0508   5.00    0.0
2018/11/12 00:26:15.000  -74.407216572  163.437630171    79.7252   6  11   0.0463   0.0508   0.1754  -0.0245   0.0618  -0.0558   5.00    0.0
2018/11/12 00:26:30.000  -74.407216502  163.437630106    79.6957   6  11   0.0515   0.0572   0.1954  -0.0265   0.0699  -0.0612   5.00    0.0
2018/11/12 00:26:45.000  -74.407216481  163.437629956    79.7035   6  11   0.0569   0.0635   0.2160  -0.0289   0.0782  -0.0670   5.00    0.0
2018/11/12 00:27:00.000  -74.407216555  163.437629863    79.7369   6  11   0.0623   0.0698   0.2368  -0.0314   0.0865  -0.0731   5.00    0.0
2018/11/12 00:27:15.000  -74.407216688  163.437629568    79.7793   6  11   0.0677   0.0761   0.2578  -0.0341   0.0949  -0.0795   5.00    0.0
2018/11/12 00:27:30.000  -74.407216758  163.437629652    79.7988   6  11   0.0731   0.0824   0.2788  -0.0369   0.1034  -0.0861   5.00    0.0
2018/11/12 00:27:45.000  -74.407216731  163.437629481    79.7797   6  11   0.0677   0.0759   0.2571  -0.0339   0.0945  -0.0795   4.00    0.0
2018/11/12 00:28:00.000  -74.407216690  163.437629549    79.7651   6  11   0.0622   0.0694   0.2354  -0.0310   0.0855  -0.0728   4.00    0.0
2018/11/12 00:28:15.000  -74.407216758  163.437630046    79.7764   6  11   0.0568   0.0630   0.2145  -0.0283   0.0767  -0.0666   4.00    0.0
2018/11/12 00:28:30.000  -74.407216837  163.437630119    79.7637   6  11   0.0514   0.0565   0.1944  -0.0259   0.0682  -0.0609   4.00    0.0
2018/11/12 00:28:45.000  -74.407216815  163.437630481    79.7636   6  11   0.0463   0.0502   0.1756  -0.0238   0.0599  -0.0560   4.00    0.0
2018/11/12 00:29:00.000  -74.407216803  163.437630745    79.7921   6  11   0.0415   0.0440   0.1586  -0.0221   0.0521  -0.0519   4.00    0.0
2018/11/12 00:29:15.000  -74.407216772  163.437630998    79.8121   6  11   0.0371   0.0381   0.1444  -0.0208   0.0449  -0.0486   4.00    0.0
2018/11/12 00:29:30.000  -74.407216783  163.437630865    79.7957   6  11   0.0335   0.0331   0.1355  -0.0200   0.0383  -0.0460   5.00    0.0
2018/11/12 00:29:45.000  -74.407216789  163.437630829    79.7905   6  11   0.0315   0.0300   0.1308  -0.0200   0.0347  -0.0474   0.00    0.0
2018/11/12 00:30:00.000  -74.407216971  163.437631932    79.9352   6  10   0.0285   0.0247   0.1139  -0.0173   0.0311  -0.0422   0.00    0.0
2018/11/12 00:30:15.000  -74.407217055  163.437632508    79.9907   6  10   0.0321   0.0273   0.1316  -0.0189   0.0368  -0.0493   0.00    0.0
2018/11/12 00:30:30.000  -74.407217053  163.437632893    80.0020   6  10   0.0387   0.0323   0.1595  -0.0218   0.0459  -0.0608   0.00    0.0
2018/11/12 00:30:45.000  -74.407217060  163.437632637    80.0073   6  10   0.0469   0.0385   0.1923  -0.0255   0.0568  -0.0746   1.00    0.0
2018/11/12 00:31:00.000  -74.407217117  163.437632519    80.0367   6  10   0.0562   0.0452   0.2278  -0.0296   0.0685  -0.0897   4.00    0.0
2018/11/12 00:31:15.000  -74.407217117  163.437632496    80.0840   6  10   0.0668   0.0522   0.2648  -0.0334   0.0808  -0.1056   4.00    0.0
2018/11/12 00:31:30.000  -74.407217127  163.437632128    80.0892   6  10   0.0773   0.0591   0.3031  -0.0381   0.0930  -0.1229   3.00    0.0
2018/11/12 00:31:45.000  -74.407216917  163.437631325    79.9743   6  10   0.0873   0.0660   0.3421  -0.0431   0.1055  -0.1403   4.00    0.0
2018/11/12 00:32:00.000  -74.407216665  163.437631023    79.8506   6  10   0.0975   0.0728   0.3824  -0.0482   0.1180  -0.1581   4.00    0.0
2018/11/12 00:32:15.000  -74.407216564  163.437630834    79.7836   6  10   0.1078   0.0795   0.4257  -0.0534   0.1307  -0.1766   3.00    0.0
2018/11/12 00:32:30.000  -74.407216722  163.437630440    79.8377   6  10   0.1139   0.0856   0.4788  -0.0618   0.1440  -0.1977   3.00    0.0
2018/11/12 00:32:45.000  -74.407216943  163.437630407    79.9137   6  10   0.1056   0.0788   0.4428  -0.0575   0.1332  -0.1857   0.00    0.0
2018/11/12 00:33:00.000  -74.407216981  163.437630391    79.9732   6  10   0.0942   0.0715   0.3956  -0.0509   0.1174  -0.1637   0.00    0.0
2018/11/12 00:33:15.000  -74.407217080  163.437630881    80.0429   6  10   0.0839   0.0644   0.3612  -0.0449   0.1033  -0.1457   0.00    0.0
2018/11/12 00:33:30.000  -74.407217331  163.437631920    80.1628   6  10   0.0741   0.0575   0.3374  -0.0392   0.0896  -0.1301   2.00    0.0
2018/11/12 00:33:45.000  -74.407217455  163.437632180    80.2257   6   9   0.0672   0.0507   0.3467  -0.0351   0.0814  -0.1265   4.00    0.0
2018/11/12 00:34:00.000  -74.407217215  163.437631867    80.0759   6   9   0.0594   0.0443   0.2933  -0.0314   0.0717  -0.1113   0.00    0.0
2018/11/12 00:34:15.000  -74.407217239  163.437632028    80.1157   6   9   0.0493   0.0375   0.2622  -0.0260   0.0583  -0.0941   0.00    0.0
2018/11/12 00:34:30.000  -74.407217159  163.437631854    79.9789   6   9   0.0395   0.0315   0.1749  -0.0217   0.0446  -0.0682   0.00    0.0
2018/11/12 00:34:45.000  -74.407217014  163.437631476    79.8644   6   9   0.0320   0.0264   0.1417  -0.0179   0.0338  -0.0531   1.00    0.0
2018/11/12 00:35:00.000  -74.407216982  163.437631803    79.8132   6   9   0.0282   0.0238   0.1283  -0.0159   0.0274  -0.0457   0.00    0.0
2018/11/12 00:35:15.000  -74.407216873  163.437631807    79.7738   6   9   0.0314   0.0265   0.1484  -0.0167   0.0303  -0.0528   2.00    0.0
2018/11/12 00:35:30.000  -74.407216855  163.437631748    79.7856   6   9   0.0380   0.0315   0.1852  -0.0186   0.0364  -0.0662   4.00    0.0
2018/11/12 00:35:45.000  -74.407216702  163.437631767    79.7630   6   9   0.0468   0.0382   0.2384  -0.0205   0.0439  -0.0847   4.00    0.0
2018/11/12 00:36:00.000  -74.407216577  163.437631301    79.8069   6   9   0.0582   0.0436   0.2547  -0.0288   0.0644  -0.1035   0.00    0.0
2018/11/12 00:36:15.000  -74.407216318  163.437630750    79.6676   6   9   0.0659   0.0497   0.2857  -0.0319   0.0723  -0.1156   0.00    0.0
2018/11/12 00:36:30.000  -74.407216322  163.437630684    79.6648   6   9   0.0743   0.0559   0.3209  -0.0356   0.0816  -0.1299   0.00    0.0
2018/11/12 00:36:45.000  -74.407216645  163.437630279    79.7888   6  10   0.0656   0.0619   0.2576  -0.0364   0.0843  -0.0919   1.00    0.0
2018/11/12 00:37:00.000  -74.407216613  163.437629903    79.7564   6  10   0.0708   0.0678   0.2763  -0.0388   0.0907  -0.0965   3.00    0.0
2018/11/12 00:37:15.000  -74.407216662  163.437630569    79.8036   6  10   0.0765   0.0738   0.2974  -0.0419   0.0980  -0.1029   3.00    0.0
2018/11/12 00:37:30.000  -74.407216617  163.437630428    79.7942   6  10   0.0825   0.0798   0.3196  -0.0452   0.1058  -0.1101   3.00    0.0
2018/11/12 00:37:45.000  -74.407216743  163.437630186    79.7524   6  10   0.0757   0.0734   0.2935  -0.0411   0.0963  -0.1004   3.00    0.0
2018/11/12 00:38:00.000  -74.407216833  163.437630307    79.7445   6  10   0.0691   0.0672   0.2672  -0.0371   0.0871  -0.0910   3.00    0.0
2018/11/12 00:38:15.000  -74.407216798  163.437630619    79.7615   6  10   0.0625   0.0613   0.2411  -0.0333   0.0781  -0.0817   3.00    0.0
2018/11/12 00:38:30.000  -74.407216882  163.437631039    79.8346   6  10   0.0559   0.0565   0.2151  -0.0296   0.0697  -0.0727   3.00    0.0
2018/11/12 00:38:45.000  -74.407216951  163.437631157    79.8157   6  10   0.0495   0.0474   0.1892  -0.0264   0.0599  -0.0641   3.00    0.0
2018/11/12 00:39:00.000  -74.407217008  163.437630950    79.8027   6  10   0.0431   0.0410   0.1637  -0.0231   0.0510  -0.0557   4.00    0.0
2018/11/12 00:39:15.000  -74.407217080  163.437631351    79.8620   6  10   0.0370   0.0348   0.1391  -0.0202   0.0425  -0.0479   3.00    0.0
2018/11/12 00:39:30.000  -74.407216987  163.437631534    79.8544   6  10   0.0315   0.0293   0.1163  -0.0177   0.0347  -0.0408   5.00    0.0
2018/11/12 00:39:45.000  -74.407216979  163.437631452    79.8604   6  10   0.0272   0.0248   0.0970  -0.0157   0.0281  -0.0347   3.00    0.0
2018/11/12 00:40:00.000  -74.407217015  163.437631256    79.8708   6  10   0.0249   0.0225   0.0854  -0.0145   0.0241  -0.0308   5.00    0.0
2018/11/12 00:40:15.000  -74.407216915  163.437631631    79.8794   6  10   0.0267   0.0246   0.0934  -0.0151   0.0266  -0.0327   5.00    0.0
2018/11/12 00:40:30.000  -74.407217294  163.437632502    80.0481   1  10   0.0333   0.0322   0.1197  -0.0212   0.0400  -0.0422   5.00    1.0
2018/11/12 00:40:45.000  -74.407216973  163.437631883    79.9929   6  10   0.0356   0.0341   0.1281  -0.0186   0.0383  -0.0421   6.00    0.0
2018/11/12 00:41:00.000  -74.407216960  163.437632128    80.0145   6  10   0.0413   0.0399   0.1495  -0.0211   0.0455  -0.0484   6.00    0.0
2018/11/12 00:41:15.000  -74.407216934  163.437632278    80.0127   6  10   0.0473   0.0458   0.1723  -0.0238   0.0532  -0.0556   6.00    0.0
2018/11/12 00:41:30.000  -74.407216841  163.437631556    79.9543   6  10   0.0535   0.0518   0.1959  -0.0269   0.0611  -0.0633   6.00    0.0
2018/11/12 00:41:45.000  -74.407216835  163.437631491    79.9385   6  10   0.0597   0.0577   0.2201  -0.0301   0.0691  -0.0716   6.00    0.0
2018/11/12 00:42:00.000  -74.407216771  163.437631432    79.9390   6  10   0.0661   0.0636   0.2448  -0.0335   0.0772  -0.0802   7.00    0.0
2018/11/12 00:42:15.000  -74.407216717  163.437631114    79.8975   6  10   0.0724   0.0696   0.2697  -0.0370   0.0853  -0.0890   7.00    0.0
2018/11/12 00:42:30.000  -74.407216790  163.437631024    79.8557   6  10   0.0788   0.0754   0.2949  -0.0406   0.0933  -0.0980   7.00    0.0
2018/11/12 00:42:45.000  -74.407216856  163.437631123    79.8805   6  10   0.0722   0.0693   0.2679  -0.0367   0.0843  -0.0879   7.00    0.0
2018/11/12 00:43:00.000  -74.407216855  163.437631076    79.8231   6  10   0.0658   0.0631   0.2428  -0.0330   0.0755  -0.0790   7.00    0.0
2018/11/12 00:43:15.000  -74.407216920  163.437631340    79.8245   6  10   0.0594   0.0570   0.2179  -0.0294   0.0668  -0.0703   7.00    0.0
2018/11/12 00:43:30.000  -74.407216901  163.437631152    79.8256   6  10   0.0531   0.0509   0.1933  -0.0260   0.0583  -0.0619   7.00    0.0
2018/11/12 00:43:45.000  -74.407216867  163.437630911    79.8111   6  10   0.0469   0.0449   0.1692  -0.0228   0.0500  -0.0538   7.00    0.0
2018/11/12 00:44:00.000  -74.407216887  163.437631158    79.8388   6  10   0.0408   0.0389   0.1457  -0.0199   0.0420  -0.0463   7.00    0.0
2018/11/12 00:44:15.000  -74.407216943  163.437631332    79.8507   6  10   0.0351   0.0332   0.1234  -0.0174   0.0345  -0.0394   7.00    0.0
2018/11/12 00:44:30.000  -74.407217369  163.437631745    79.9808   1  10   0.0330   0.0312   0.1152  -0.0203   0.0364  -0.0396   4.00    1.0
2018/11/12 00:44:45.000  -74.407217447  163.437631720    79.9875   1  10   0.0274   0.0263   0.0886  -0.0174   0.0285  -0.0296   4.00    1.0
2018/11/12 00:45:00.000  -74.407217405  163.437631983    79.9882   1  10   0.0244   0.0191   0.0697  -0.0147   0.0161  -0.0222   4.00    2.0
2018/11/12 00:45:15.000  -74.407217344  163.437631851    79.9660   1  10   0.0276   0.0224   0.0868  -0.0168   0.0231  -0.0297   4.00    2.0
2018/11/12 00:45:30.000  -74.407217384  163.437631650    79.9485   1  10   0.0345   0.0298   0.1167  -0.0217   0.0357  -0.0424   4.00    2.0
2018/11/12 00:45:45.000  -74.407217016  163.437630747    79.8236   6  10   0.0350   0.0330   0.1196  -0.0173   0.0330  -0.0386   7.00    0.0
2018/11/12 00:46:00.000  -74.407216942  163.437630616    79.7942   6  10   0.0405   0.0384   0.1407  -0.0193   0.0395  -0.0449   7.00    0.0
2018/11/12 00:46:15.000  -74.407216990  163.437630782    79.7931   6  10   0.0465   0.0441   0.1636  -0.0218   0.0465  -0.0523   7.00    0.0
2018/11/12 00:46:30.000  -74.407216964  163.437630826    79.7783   6  10   0.0526   0.0497   0.1876  -0.0246   0.0537  -0.0604   7.00    0.0
2018/11/12 00:46:45.000  -74.407216997  163.437630731    79.7898   6  10   0.0588   0.0554   0.2121  -0.0276   0.0610  -0.0688   7.00    0.0
2018/11/12 00:47:00.000  -74.407216910  163.437630660    79.7663   6  10   0.0651   0.0611   0.2370  -0.0307   0.0682  -0.0776   7.00    0.0
2018/11/12 00:47:15.000  -74.407216882  163.437630899    79.8338   6  10   0.0714   0.0667   0.2622  -0.0339   0.0754  -0.0864   7.00    0.0
2018/11/12 00:47:30.000  -74.407216748  163.437630612    79.8292   6  10   0.0778   0.0723   0.2875  -0.0371   0.0824  -0.0954   7.00    0.0
2018/11/12 00:47:45.000  -74.407216720  163.437630805    79.8457   6  10   0.0715   0.0666   0.2629  -0.0335   0.0743  -0.0869   8.00    0.0
2018/11/12 00:48:00.000  -74.407216698  163.437630898    79.8305   6  10   0.0650   0.0607   0.2373  -0.0300   0.0662  -0.0777   8.00    0.0
2018/11/12 00:48:15.000  -74.407216686  163.437631589    79.8149   6  10   0.0587   0.0549   0.2119  -0.0266   0.0582  -0.0687   7.00    0.0
2018/11/12 00:48:30.000  -74.407216656  163.437631297    79.8054   6  10   0.0523   0.0491   0.1868  -0.0234   0.0502  -0.0599   7.00    0.0
2018/11/12 00:48:45.000  -74.407216743  163.437631540    79.8272   6  10   0.0461   0.0434   0.1621  -0.0205   0.0425  -0.0513   7.00    0.0
2018/11/12 00:49:00.000  -74.407216881  163.437631775    79.8546   6  10   0.0400   0.0377   0.1382  -0.0178   0.0349  -0.0433   7.00    0.0
2018/11/12 00:49:15.000  -74.407216951  163.437631754    79.8759   6  10   0.0343   0.0322   0.1155  -0.0154   0.0276  -0.0358   7.00    0.0
2018/11/12 00:49:30.000  -74.407217283  163.437632101    79.9747   1  10   0.0328   0.0301   0.1124  -0.0186   0.0307  -0.0378   5.00    1.0
2018/11/12 00:49:45.000  -74.407217327  163.437631748    79.9847   1  10   0.0271   0.0252   0.0855  -0.0161   0.0238  -0.0276   5.00    1.0
2018/11/12 00:50:00.000  -74.407217377  163.437631627    79.9817   1  10   0.0247   0.0231   0.0709  -0.0152   0.0205  -0.0223   5.00    1.0
2018/11/12 00:50:15.000  -74.407217370  163.437631235    79.9381   1  10   0.0279   0.0258   0.0884  -0.0166   0.0244  -0.0300   5.00    1.0
2018/11/12 00:50:30.000  -74.407217267  163.437630935    79.9169   1  10   0.0343   0.0312   0.1187  -0.0196   0.0313  -0.0425   5.00    1.0
2018/11/12 00:50:45.000  -74.407216941  163.437630598    79.8430   6  10   0.0348   0.0331   0.1154  -0.0156   0.0257  -0.0371   7.00    0.0
2018/11/12 00:51:00.000  -74.407216943  163.437630749    79.8371   6  10   0.0408   0.0386   0.1386  -0.0178   0.0321  -0.0452   7.00    0.0
2018/11/12 00:51:15.000  -74.407216988  163.437631252    79.8809   6  10   0.0471   0.0442   0.1630  -0.0203   0.0386  -0.0539   7.00    0.0
2018/11/12 00:51:30.000  -74.407216967  163.437631288    79.8957   6  10   0.0535   0.0499   0.1882  -0.0230   0.0450  -0.0630   7.00    0.0
2018/11/12 00:51:45.000  -74.407216905  163.437631291    79.8811   6  10   0.0600   0.0556   0.2141  -0.0259   0.0514  -0.0726   7.00    0.0
2018/11/12 00:52:00.000  -74.407216877  163.437631522    79.8818   6  10   0.0668   0.0614   0.2407  -0.0290   0.0578  -0.0827   7.00    0.0
2018/11/12 00:52:15.000  -74.407216824  163.437631577    79.8448   6  10   0.0738   0.0675   0.2682  -0.0323   0.0640  -0.0934   7.00    0.0
2018/11/12 00:52:30.000  -74.407216774  163.437631212    79.7475   6  10   0.0813   0.0740   0.2975  -0.0360   0.0703  -0.1054   7.00    0.0
2018/11/12 00:52:45.000  -74.407216736  163.437631093    79.7353   6  10   0.0780   0.0722   0.2822  -0.0350   0.0636  -0.1041   7.00    0.0
2018/11/12 00:53:00.000  -74.407216975  163.437630821    79.8732   6  10   0.0691   0.0615   0.2547  -0.0308   0.0596  -0.0910   5.00    0.0
2018/11/12 00:53:15.000  -74.407216992  163.437631030    79.9163   6  10   0.0604   0.0544   0.2185  -0.0256   0.0504  -0.0748   5.00    0.0
2018/11/12 00:53:30.000  -74.407217022  163.437631531    79.9319   6  10   0.0531   0.0483   0.1889  -0.0218   0.0425  -0.0629   4.00    0.0
2018/11/12 00:53:45.000  -74.407217026  163.437631210    79.9054   6  10   0.0463   0.0425   0.1617  -0.0186   0.0351  -0.0525   4.00    0.0
2018/11/12 00:54:00.000  -74.407217075  163.437630840    79.8996   6  10   0.0400   0.0369   0.1361  -0.0158   0.0280  -0.0430   4.00    0.0
2018/11/12 00:54:15.000  -74.407217320  163.437630709    79.9321   1  10   0.0394   0.0353   0.1396  -0.0192   0.0306  -0.0463   5.00    1.0
2018/11/12 00:54:30.000  -74.407217336  163.437630737    79.9199   1  10   0.0322   0.0290   0.1082  -0.0162   0.0229  -0.0348   5.00    1.0
2018/11/12 00:54:45.000  -74.407217273  163.437630714    79.9026   1  10   0.0267   0.0242   0.0819  -0.0140   0.0164  -0.0249   5.00    1.0
2018/11/12 00:55:00.000  -74.407217311  163.437631063    79.9318   1  10   0.0245   0.0218   0.0697  -0.0128   0.0121  -0.0211   5.00    1.0
2018/11/12 00:55:15.000  -74.407217318  163.437630571    79.9240   1  10   0.0269   0.0242   0.0825  -0.0137   0.0154  -0.0255   5.00    1.0
2018/11/12 00:55:30.000  -74.407217269  163.437631253    79.8800   1  10   0.0333   0.0292   0.1136  -0.0148   0.0178  -0.0387   5.00    1.0
2018/11/12 00:55:45.000  -74.407216991  163.437631306    79.7938   6  10   0.0345   0.0319   0.1130  -0.0097   0.0092  -0.0362   4.00    0.0
2018/11/12 00:56:00.000  -74.407217019  163.437631357    79.8421   6  10   0.0411   0.0368   0.1424  -0.0112   0.0157  -0.0478   4.00    0.0
2018/11/12 00:56:15.000  -74.407216999  163.437631430    79.8534   6  10   0.0477   0.0426   0.1664  -0.0102   0.0151  -0.0571   4.00    0.0
2018/11/12 00:56:30.000  -74.407217025  163.437631293    79.8355   6  10   0.0520   0.0467   0.1856  -0.0176   0.0321  -0.0605   4.00    0.0
2018/11/12 00:56:45.000  -74.407217030  163.437631162    79.8071   6  10   0.0574   0.0519   0.2045  -0.0201   0.0377  -0.0658   4.00    0.0
2018/11/12 00:57:00.000  -74.407217029  163.437631135    79.7950   6  10   0.0634   0.0572   0.2266  -0.0225   0.0427  -0.0730   4.00    0.0
2018/11/12 00:57:15.000  -74.407217016  163.437631166    79.7788   6  10   0.0694   0.0624   0.2497  -0.0250   0.0473  -0.0808   4.00    0.0
2018/11/12 00:57:30.000  -74.407216989  163.437631504    79.7981   6  11   0.0660   0.0656   0.2338  -0.0119   0.0179  -0.0516   4.00    0.0
2018/11/12 00:57:45.000  -74.407216929  163.437631042    79.7950   6  11   0.0596   0.0601   0.2074  -0.0077  -0.0046  -0.0397   4.00    0.0
2018/11/12 00:58:00.000  -74.407216871  163.437631102    79.7628   6  11   0.0540   0.0549   0.1853  -0.0053  -0.0115  -0.0322   4.00    0.0
2018/11/12 00:58:15.000  -74.407216913  163.437631159    79.8025   6  11   0.0488   0.0498   0.1647  -0.0043  -0.0130  -0.0263   4.00    0.0
2018/11/12 00:58:30.000  -74.407216938  163.437631240    79.8234   6  11   0.0437   0.0447   0.1450  -0.0044  -0.0131  -0.0212   5.00    0.0
2018/11/12 00:58:45.000  -74.407216967  163.437630889    79.8103   6  11   0.0387   0.0397   0.1259  -0.0052  -0.0127  -0.0167   6.00    0.0
2018/11/12 00:59:00.000  -74.407217189  163.437630649    79.8350   1  11   0.0377   0.0377   0.1332  -0.0053  -0.0078  -0.0227   7.00    2.0
2018/11/12 00:59:15.000  -74.407217253  163.437630698    79.8449   1  11   0.0315   0.0309   0.1083  -0.0048   0.0056  -0.0191   7.00    2.0
2018/11/12 00:59:30.000  -74.407217356  163.437630841    79.8692   1  11   0.0259   0.0248   0.0853  -0.0040   0.0102  -0.0155   7.00    2.0
2018/11/12 00:59:45.000  -74.407217331  163.437630737    79.8767   1  11   0.0217   0.0199   0.0660  -0.0036   0.0125  -0.0120   7.00    2.0
2018/11/12 01:00:00.000  -74.407217286  163.437630954    79.9097   1  11   0.0198   0.0174   0.0553  -0.0043   0.0134  -0.0102   7.00    2.0
2018/11/12 01:00:15.000  -74.407217245  163.437631028    79.9227   1  11   0.0250   0.0207   0.0686  -0.0094   0.0160  -0.0200   7.00    1.0
2018/11/12 01:00:30.000  -74.407217268  163.437631211    79.9475   1  11   0.0289   0.0258   0.0870  -0.0097   0.0136  -0.0219   7.00    1.0
2018/11/12 01:00:45.000  -74.407217262  163.437631383    79.9324   1  11   0.0340   0.0320   0.1097  -0.0100   0.0081  -0.0245   7.00    1.0
2018/11/12 01:01:00.000  -74.407217269  163.437631645    79.9308   1  11   0.0400   0.0389   0.1347  -0.0103  -0.0096  -0.0278   7.00    1.0
2018/11/12 01:01:15.000  -74.407216968  163.437631601    79.9055   6  11   0.0381   0.0397   0.1206  -0.0045  -0.0171  -0.0085   6.00    0.0
2018/11/12 01:01:30.000  -74.407216946  163.437631306    79.8981   6  12   0.0419   0.0426   0.1339  -0.0109  -0.0297  -0.0219   6.00    0.0
2018/11/12 01:01:45.000  -74.407216862  163.437631200    79.8837   6  12   0.0466   0.0473   0.1508  -0.0115  -0.0346  -0.0267   6.00    0.0
2018/11/12 01:02:00.000  -74.407216880  163.437630864    79.8807   6  12   0.0513   0.0520   0.1685  -0.0123  -0.0393  -0.0315   6.00    0.0
2018/11/12 01:02:15.000  -74.407216800  163.437630626    79.9081   6  12   0.0561   0.0567   0.1867  -0.0132  -0.0441  -0.0364   6.00    0.0
2018/11/12 01:02:30.000  -74.407216811  163.437630704    79.9425   6  12   0.0609   0.0615   0.2052  -0.0143  -0.0489  -0.0414   7.00    0.0
2018/11/12 01:02:45.000  -74.407216792  163.437630562    79.9270   6  12   0.0562   0.0568   0.1876  -0.0133  -0.0449  -0.0372   7.00    0.0
2018/11/12 01:03:00.000  -74.407216894  163.437630521    79.9173   6  12   0.0515   0.0522   0.1697  -0.0127  -0.0409  -0.0325   7.00    0.0
2018/11/12 01:03:15.000  -74.407216984  163.437630277    79.9019   6  12   0.0469   0.0479   0.1518  -0.0127  -0.0371  -0.0278   7.00    0.0
2018/11/12 01:03:30.000  -74.407216992  163.437630168    79.9034   6  12   0.0426   0.0445   0.1343  -0.0140  -0.0340  -0.0227   7.00    0.0
2018/11/12 01:03:45.000  -74.407217023  163.437630473    79.8808   6  12   0.0378   0.0378   0.1166  -0.0102  -0.0285  -0.0195   6.00    0.0
2018/11/12 01:04:00.000  -74.407217283  163.437630811    79.9382   1  12   0.0406   0.0361   0.1309  -0.0114  -0.0276  -0.0356   5.00    1.0
2018/11/12 01:04:15.000  -74.407217383  163.437630844    79.9028   1  12   0.0364   0.0299   0.1083  -0.0092  -0.0207  -0.0333   5.00    1.0
2018/11/12 01:04:30.000  -74.407217401  163.437630467    79.8910   1  12   0.0292   0.0242   0.0843  -0.0097  -0.0104  -0.0247   5.00    1.0
2018/11/12 01:04:45.000  -74.407217478  163.437630689    79.8914   1  12   0.0267   0.0200   0.0673  -0.0091   0.0084  -0.0233   5.00    1.0
2018/11/12 01:05:00.000  -74.407217420  163.437631034    79.9338   1  12   0.0242   0.0180   0.0560  -0.0102   0.0135  -0.0195   5.00    1.0
2018/11/12 01:05:15.000  -74.407217398  163.437630910    79.9231   1  12   0.0259   0.0193   0.0661  -0.0086   0.0071  -0.0212   6.00    1.0
2018/11/12 01:05:30.000  -74.407217453  163.437630969    79.9079   1  12   0.0304   0.0241   0.0851  -0.0089  -0.0123  -0.0261   6.00    1.0
2018/11/12 01:05:45.000  -74.407217433  163.437631250    79.9385   1  12   0.0374   0.0299   0.1093  -0.0088  -0.0221  -0.0341   6.00    1.0
2018/11/12 01:06:00.000  -74.407217591  163.437631581    79.9928   1  12   0.0443   0.0362   0.1347  -0.0092  -0.0304  -0.0413   5.00    1.0
2018/11/12 01:06:15.000  -74.407217296  163.437631399    79.9362   6  12   0.0383   0.0369   0.1195  -0.0081  -0.0294  -0.0238   6.00    0.0
2018/11/12 01:06:30.000  -74.407217294  163.437631191    79.9567   6  12   0.0427   0.0415   0.1366  -0.0084  -0.0338  -0.0269   6.00    0.0
2018/11/12 01:06:45.000  -74.407217311  163.437631432    79.9192   6  12   0.0474   0.0462   0.1547  -0.0089  -0.0384  -0.0312   5.00    0.0
2018/11/12 01:07:00.000  -74.407217250  163.437631380    79.8748   6  12   0.0523   0.0509   0.1733  -0.0096  -0.0433  -0.0359   6.00    0.0
2018/11/12 01:07:15.000  -74.407217135  163.437631094    79.8412   6  12   0.0573   0.0556   0.1922  -0.0106  -0.0482  -0.0407   6.00    0.0
2018/11/12 01:07:30.000  -74.407217095  163.437630966    79.8544   6  12   0.0626   0.0604   0.2113  -0.0119  -0.0532  -0.0455   6.00    0.0
2018/11/12 01:07:45.000  -74.407217172  163.437631113    79.8332   6  12   0.0595   0.0557   0.1927  -0.0122  -0.0486  -0.0402   6.00    0.0
2018/11/12 01:08:00.000  -74.407217170  163.437631302    79.8472   6  12   0.0561   0.0510   0.1741  -0.0130  -0.0438  -0.0358   5.00    0.0
2018/11/12 01:08:15.000  -74.407217233  163.437631683    79.8136   6  12   0.0489   0.0462   0.1555  -0.0105  -0.0391  -0.0315   5.00    0.0
2018/11/12 01:08:30.000  -74.407217140  163.437631037    79.7864   6  12   0.0450   0.0415   0.1372  -0.0100  -0.0347  -0.0260   4.00    0.0
2018/11/12 01:08:45.000  -74.407217169  163.437631266    79.8065   6  12   0.0386   0.0369   0.1192  -0.0088  -0.0303  -0.0220   4.00    0.0
2018/11/12 01:09:00.000  -74.407217421  163.437631254    79.8442   1  12   0.0426   0.0363   0.1320  -0.0135  -0.0302  -0.0327   6.00    1.0
2018/11/12 01:09:15.000  -74.407217429  163.437631120    79.8463   1  12   0.0324   0.0298   0.1068  -0.0095  -0.0223  -0.0271   7.00    1.0
2018/11/12 01:09:30.000  -74.407217440  163.437630984    79.8680   1  12   0.0272   0.0242   0.0836  -0.0085  -0.0138  -0.0220   7.00    1.0
2018/11/12 01:09:45.000  -74.407217445  163.437631364    79.8929   1  12   0.0227   0.0163   0.0611  -0.0028  -0.0146  -0.0148   7.00    2.0
2018/11/12 01:10:00.000  -74.407217410  163.437631193    79.9213   1  12   0.0211   0.0136   0.0498  -0.0017  -0.0111  -0.0123   7.00    2.0
2018/11/12 01:10:15.000  -74.407217348  163.437630956    79.9311   1  12   0.0231   0.0166   0.0617  -0.0034  -0.0151  -0.0149   7.00    2.0
2018/11/12 01:10:30.000  -74.407217072  163.437630654    79.8506   6  12   0.0241   0.0241   0.0710  -0.0078  -0.0196  -0.0094   5.00    0.0
2018/11/12 01:10:45.000  -74.407216993  163.437630377    79.8565   6  12   0.0280   0.0282   0.0858  -0.0081  -0.0234  -0.0129   5.00    0.0
2018/11/12 01:11:00.000  -74.407217041  163.437630144    79.8671   6  12   0.0323   0.0326   0.1025  -0.0083  -0.0279  -0.0169   5.00    0.0
2018/11/12 01:11:15.000  -74.407217025  163.437630266    79.8310   6  12   0.0368   0.0374   0.1204  -0.0087  -0.0328  -0.0211   5.00    0.0
2018/11/12 01:11:30.000  -74.407216988  163.437630403    79.8057   6  12   0.0416   0.0424   0.1393  -0.0097  -0.0385  -0.0253   5.00    0.0
2018/11/12 01:11:45.000  -74.407216955  163.437630298    79.8167   6  12   0.0466   0.0483   0.1593  -0.0126  -0.0459  -0.0285   5.00    0.0
2018/11/12 01:12:00.000  -74.407216915  163.437630776    79.8112   6  12   0.0510   0.0521   0.1784  -0.0106  -0.0500  -0.0348   5.00    0.0
2018/11/12 01:12:15.000  -74.407216979  163.437630852    79.8031   6  12   0.0557   0.0561   0.1964  -0.0096  -0.0534  -0.0409   5.00    0.0
2018/11/12 01:12:30.000  -74.407217018  163.437631069    79.8232   6  12   0.0605   0.0606   0.2152  -0.0097  -0.0579  -0.0464   5.00    0.0
2018/11/12 01:12:45.000  -74.407217121  163.437631187    79.8405   6  12   0.0556   0.0558   0.1954  -0.0083  -0.0525  -0.0416   5.00    0.0
2018/11/12 01:13:00.000  -74.407217189  163.437631660    79.8222   6  12   0.0508   0.0509   0.1762  -0.0072  -0.0473  -0.0367   6.00    0.0
2018/11/12 01:13:15.000  -74.407217143  163.437631874    79.8043   6  12   0.0460   0.0461   0.1571  -0.0065  -0.0423  -0.0319   6.00    0.0
2018/11/12 01:13:30.000  -74.407217114  163.437631986    79.8284   6  12   0.0412   0.0414   0.1384  -0.0061  -0.0373  -0.0272   6.00    0.0
2018/11/12 01:13:45.000  -74.407217131  163.437632224    79.7878   6  12   0.0366   0.0367   0.1201  -0.0060  -0.0326  -0.0226   6.00    0.0
2018/11/12 01:14:00.000  -74.407217161  163.437631865    79.7590   6  12   0.0321   0.0322   0.1024  -0.0063  -0.0280  -0.0182   6.00    0.0
2018/11/12 01:14:15.000  -74.407217202  163.437631110    79.7997   6  12   0.0279   0.0279   0.0859  -0.0067  -0.0239  -0.0144   6.00    0.0
2018/11/12 01:14:30.000  -74.407217278  163.437630776    79.8040   6  12   0.0243   0.0240   0.0715  -0.0072  -0.0204  -0.0114   6.00    0.0
2018/11/12 01:14:45.000  -74.407217166  163.437630562    79.8353   6  12   0.0218   0.0211   0.0606  -0.0077  -0.0175  -0.0104   6.00    0.0
2018/11/12 01:15:00.000  -74.407217210  163.437630676    79.8419   6  12   0.0196   0.0195   0.0556  -0.0067  -0.0169  -0.0066   6.00    0.0
2018/11/12 01:15:15.000  -74.407217397  163.437631005    79.8669   1  12   0.0234   0.0204   0.0636  -0.0075  -0.0045  -0.0189   7.00    1.0
2018/11/12 01:15:30.000  -74.407217138  163.437630857    79.7670   6  12   0.0238   0.0242   0.0720  -0.0068  -0.0208  -0.0105   6.00    0.0
2018/11/12 01:15:45.000  -74.407217028  163.437630933    79.7903   6  12   0.0276   0.0281   0.0863  -0.0066  -0.0242  -0.0141   6.00    0.0
2018/11/12 01:16:00.000  -74.407216956  163.437631109    79.7893   6  12   0.0319   0.0323   0.1025  -0.0063  -0.0282  -0.0184   5.00    0.0
2018/11/12 01:16:15.000  -74.407216963  163.437630540    79.8125   6  12   0.0364   0.0368   0.1199  -0.0060  -0.0327  -0.0229   5.00    0.0
2018/11/12 01:16:30.000  -74.407216934  163.437630091    79.8125   6  12   0.0410   0.0414   0.1379  -0.0059  -0.0374  -0.0277   6.00    0.0
2018/11/12 01:16:45.000  -74.407216934  163.437630012    79.8131   6  12   0.0458   0.0460   0.1564  -0.0061  -0.0423  -0.0327   6.00    0.0
2018/11/12 01:17:00.000  -74.407217013  163.437630446    79.8200   6  12   0.0506   0.0508   0.1751  -0.0067  -0.0473  -0.0377   6.00    0.0
2018/11/12 01:17:15.000  -74.407217015  163.437630774    79.7810   6  12   0.0555   0.0556   0.1939  -0.0075  -0.0525  -0.0427   6.00    0.0
2018/11/12 01:17:30.000  -74.407216946  163.437630859    79.7526   6  12   0.0605   0.0605   0.2129  -0.0086  -0.0577  -0.0478   6.00    0.0
2018/11/12 01:17:45.000  -74.407216967  163.437631268    79.7616   6  12   0.0557   0.0561   0.1937  -0.0096  -0.0525  -0.0428   6.00    0.0
2018/11/12 01:18:00.000  -74.407216961  163.437630989    79.7670   6  12   0.0514   0.0524   0.1747  -0.0126  -0.0469  -0.0382   6.00    0.0
2018/11/12 01:18:15.000  -74.407216973  163.437630483    79.7919   6  12   0.0473   0.0487   0.1561  -0.0149  -0.0410  -0.0342   6.00    0.0
2018/11/12 01:18:30.000  -74.407216880  163.437630326    79.8150   6  12   0.0423   0.0436   0.1376  -0.0131  -0.0364  -0.0291   6.00    0.0
2018/11/12 01:18:45.000  -74.407216867  163.437630920    79.8017   6  12   0.0369   0.0375   0.1196  -0.0090  -0.0325  -0.0237   6.00    0.0
2018/11/12 01:19:00.000  -74.407216974  163.437630922    79.8143   6  12   0.0326   0.0336   0.1024  -0.0098  -0.0280  -0.0192   6.00    0.0
2018/11/12 01:19:15.000  -74.407217131  163.437630978    79.8468   6  12   0.0276   0.0277   0.0865  -0.0055  -0.0246  -0.0147   6.00    0.0
2018/11/12 01:19:30.000  -74.407217185  163.437631236    79.8265   6  12   0.0238   0.0238   0.0727  -0.0054  -0.0215  -0.0110   6.00    0.0
2018/11/12 01:19:45.000  -74.407217235  163.437630860    79.8030   6  12   0.0209   0.0211   0.0627  -0.0055  -0.0192  -0.0083   6.00    0.0
2018/11/12 01:20:00.000  -74.407217207  163.437630603    79.8012   6  12   0.0196   0.0200   0.0588  -0.0057  -0.0187  -0.0072   6.00    0.0
2018/11/12 01:20:15.000  -74.407217202  163.437630566    79.7951   6  12   0.0211   0.0203   0.0646  -0.0056  -0.0184  -0.0071   6.00    0.0
2018/11/12 01:20:30.000  -74.407217141  163.437630489    79.7871   6  12   0.0241   0.0235   0.0762  -0.0055  -0.0215  -0.0090   6.00    0.0
2018/11/12 01:20:45.000  -74.407217093  163.437630424    79.7888   6  12   0.0278   0.0273   0.0907  -0.0052  -0.0253  -0.0123   6.00    0.0
2018/11/12 01:21:00.000  -74.407217071  163.437630453    79.8248   6  12   0.0320   0.0316   0.1069  -0.0044  -0.0296  -0.0165   6.00    0.0
2018/11/12 01:21:15.000  -74.407217064  163.437630442    79.8476   6  12   0.0364   0.0360   0.1240  -0.0035  -0.0342  -0.0210   6.00    0.0
2018/11/12 01:21:30.000  -74.407217158  163.437630518    79.8444   6  12   0.0409   0.0406   0.1417  -0.0024  -0.0391  -0.0258   6.00    0.0
2018/11/12 01:21:45.000  -74.407217199  163.437630386    79.8431   6  12   0.0456   0.0452   0.1597  -0.0008  -0.0442  -0.0307   6.00    0.0
2018/11/12 01:22:00.000  -74.407217103  163.437630737    79.8257   6  12   0.0503   0.0499   0.1780   0.0016  -0.0493  -0.0356   5.00    0.0
2018/11/12 01:22:15.000  -74.407217080  163.437630880    79.8163   6  12   0.0551   0.0546   0.1963   0.0020  -0.0546  -0.0405   5.00    0.0
2018/11/12 01:22:30.000  -74.407217040  163.437630915    79.8392   6  12   0.0600   0.0594   0.2148   0.0019  -0.0599  -0.0454   6.00    0.0
2018/11/12 01:22:45.000  -74.407217054  163.437631346    79.8396   6  12   0.0552   0.0544   0.1975   0.0002  -0.0546  -0.0399   5.00    0.0
2018/11/12 01:23:00.000  -74.407217157  163.437631211    79.8696   6  12   0.0504   0.0497   0.1813  -0.0018  -0.0499  -0.0342   6.00    0.0
2018/11/12 01:23:15.000  -74.407217200  163.437631193    79.8482   6  12   0.0457   0.0451   0.1671  -0.0032  -0.0457  -0.0278   5.00    0.0
2018/11/12 01:23:30.000  -74.407217180  163.437630713    79.8484   6  12   0.0412   0.0406   0.1581  -0.0050  -0.0426  -0.0187   6.00    0.0
2018/11/12 01:23:45.000  -74.407217203  163.437630640    79.8804   6  12   0.0367   0.0364   0.1483  -0.0042  -0.0409  -0.0201   0.00    0.0
2018/11/12 01:24:00.000  -74.407217178  163.437631109    79.8415   6  12   0.0328   0.0319   0.1328  -0.0065  -0.0361  -0.0075   0.00    0.0
2018/11/12 01:24:15.000  -74.407217083  163.437630861    79.8855   6  12   0.0293   0.0273   0.0910  -0.0059  -0.0252  -0.0189   0.00    0.0
2018/11/12 01:24:30.000  -74.407217164  163.437630699    79.8735   6  12   0.0240   0.0232   0.0725  -0.0043  -0.0203  -0.0137   0.00    0.0
2018/11/12 01:24:45.000  -74.407217152  163.437630341    79.8803   6  12   0.0210   0.0199   0.0595  -0.0047  -0.0166  -0.0116   0.00    0.0
2018/11/12 01:25:00.000  -74.407217119  163.437630261    79.8510   6  12   0.0197   0.0183   0.0529  -0.0049  -0.0143  -0.0112   2.00    0.0
2018/11/12 01:25:15.000  -74.407217135  163.437630163    79.8494   6  12   0.0213   0.0200   0.0592  -0.0049  -0.0163  -0.0116   5.00    0.0
2018/11/12 01:25:30.000  -74.407216595  163.437629641    79.7948   1  12   0.0492   0.0499   0.1085   0.0159   0.0216   0.0475   5.00    1.0
2018/11/12 01:25:45.000  -74.407217144  163.437629748    79.8303   6  12   0.0279   0.0273   0.0844  -0.0052  -0.0235  -0.0152   6.00    0.0
2018/11/12 01:26:00.000  -74.407217092  163.437629947    79.8181   6  12   0.0320   0.0316   0.0997  -0.0050  -0.0277  -0.0185   5.00    0.0
2018/11/12 01:26:15.000  -74.407217070  163.437630112    79.8165   6  12   0.0364   0.0360   0.1159  -0.0050  -0.0321  -0.0223   5.00    0.0
2018/11/12 01:26:30.000  -74.407217128  163.437629901    79.8132   6  12   0.0410   0.0406   0.1325  -0.0051  -0.0366  -0.0266   5.00    0.0
2018/11/12 01:26:45.000  -74.407217132  163.437629576    79.8167   6  12   0.0457   0.0453   0.1495  -0.0057  -0.0413  -0.0311   6.00    0.0
2018/11/12 01:27:00.000  -74.407217145  163.437629745    79.8002   6  12   0.0506   0.0501   0.1667  -0.0070  -0.0461  -0.0359   5.00    0.0
2018/11/12 01:27:15.000  -74.407217118  163.437630306    79.8005   6  12   0.0557   0.0551   0.1841  -0.0093  -0.0506  -0.0409   5.00    0.0
2018/11/12 01:27:30.000  -74.407217104  163.437630293    79.7722   6  12   0.0613   0.0608   0.2019  -0.0140  -0.0543  -0.0468   5.00    0.0
2018/11/12 01:27:45.000  -74.407217187  163.437630858    79.7593   6  12   0.0561   0.0552   0.1840  -0.0100  -0.0500  -0.0418   4.00    0.0
2018/11/12 01:28:00.000  -74.407217131  163.437630741    79.7205   6  12   0.0507   0.0500   0.1658  -0.0058  -0.0460  -0.0359   4.00    0.0
2018/11/12 01:28:15.000  -74.407217151  163.437630914    79.7041   6  12   0.0458   0.0451   0.1483  -0.0038  -0.0414  -0.0309   4.00    0.0
2018/11/12 01:28:30.000  -74.407217096  163.437630992    79.6832   6  12   0.0410   0.0405   0.1312  -0.0029  -0.0368  -0.0262   4.00    0.0
2018/11/12 01:28:45.000  -74.407217082  163.437631039    79.6753   6  12   0.0365   0.0359   0.1148  -0.0029  -0.0325  -0.0219   4.00    0.0
2018/11/12 01:29:00.000  -74.407217371  163.437630975    79.7707   1  12   0.0389   0.0382   0.1313  -0.0073  -0.0403  -0.0376   5.00    1.0
2018/11/12 01:29:15.000  -74.407217419  163.437630922    79.7808   1  12   0.0331   0.0325   0.1105  -0.0071  -0.0346  -0.0336   5.00    1.0
2018/11/12 01:29:30.000  -74.407217383  163.437631044    79.7710   1  12   0.0282   0.0276   0.0926  -0.0069  -0.0298  -0.0306   4.00    1.0
2018/11/12 01:29:45.000  -74.407217298  163.437630784    79.8459   1  12   0.0249   0.0238   0.0799  -0.0075  -0.0267  -0.0287   4.00    1.0
2018/11/12 01:30:00.000  -74.407217246  163.437630409    79.8942   1  12   0.0237   0.0212   0.0712  -0.0070  -0.0221  -0.0296   4.00    1.0
2018/11/12 01:30:15.000  -74.407217214  163.437630128    79.9213   1  12   0.0279   0.0241   0.0861  -0.0081  -0.0271  -0.0338   4.00    1.0
2018/11/12 01:30:30.000  -74.407217193  163.437630371    79.8990   1  12   0.0338   0.0280   0.1036  -0.0085  -0.0305  -0.0396   3.00    1.0
2018/11/12 01:30:45.000  -74.407217257  163.437630642    79.8278   1  12   0.0406   0.0340   0.1260  -0.0106  -0.0372  -0.0438   3.00    1.0
2018/11/12 01:31:00.000  -74.407216974  163.437631182    79.7037   6  12   0.0357   0.0331   0.1067  -0.0069  -0.0313  -0.0183   4.00    0.0
2018/11/12 01:31:15.000  -74.407217002  163.437631002    79.7198   6  12   0.0409   0.0378   0.1232  -0.0059  -0.0349  -0.0176   4.00    0.0
2018/11/12 01:31:30.000  -74.407217031  163.437630741    79.7179   6  11   0.0469   0.0425   0.1409  -0.0063  -0.0392  -0.0145   4.00    0.0
2018/11/12 01:31:45.000  -74.407216941  163.437631025    79.7521   6  11   0.0529   0.0474   0.1578  -0.0084  -0.0438  -0.0146   4.00    0.0
2018/11/12 01:32:00.000  -74.407216990  163.437630961    79.7130   6  11   0.0593   0.0526   0.1749  -0.0118  -0.0482  -0.0181   4.00    0.0
2018/11/12 01:32:15.000  -74.407217033  163.437631151    79.6962   6  11   0.0639   0.0576   0.1925  -0.0115  -0.0530  -0.0188   4.00    0.0
2018/11/12 01:32:30.000  -74.407217060  163.437631214    79.6954   6  11   0.0696   0.0629   0.2104  -0.0135  -0.0578  -0.0201   4.00    0.0
2018/11/12 01:32:45.000  -74.407217041  163.437631222    79.6701   6  11   0.0663   0.0598   0.1969  -0.0195  -0.0543  -0.0151   4.00    0.0
2018/11/12 01:33:00.000  -74.407217122  163.437631549    79.6684   6  11   0.0634   0.0560   0.1846  -0.0224  -0.0583   0.0243   4.00    0.0
2018/11/12 01:33:15.000  -74.407216878  163.437631313    79.7203   6  10   0.0536   0.0534   0.1830  -0.0196  -0.0660   0.0360   4.00    0.0
2018/11/12 01:33:30.000  -74.407216863  163.437630921    79.7061   6  10   0.0470   0.0475   0.1631  -0.0147  -0.0590   0.0292   5.00    0.0
2018/11/12 01:33:45.000  -74.407216970  163.437630429    79.7131   6  10   0.0413   0.0421   0.1450  -0.0099  -0.0529   0.0208   5.00    0.0
2018/11/12 01:34:00.000  -74.407216840  163.437630297    79.7432   6  10   0.0364   0.0372   0.1308   0.0035  -0.0486  -0.0076   5.00    0.0
2018/11/12 01:34:15.000  -74.407216969  163.437629993    79.8210   6   9   0.0328   0.0331   0.1279   0.0117  -0.0479  -0.0291   4.00    0.0
2018/11/12 01:34:30.000  -74.407217058  163.437630195    79.8677   1   9   0.0287   0.0311   0.1251   0.0126  -0.0502  -0.0327   5.00    2.0
2018/11/12 01:34:45.000  -74.407217123  163.437630200    79.8637   1   9   0.0216   0.0241   0.0922   0.0097  -0.0374  -0.0253   5.00    2.0
2018/11/12 01:35:00.000  -74.407217226  163.437630103    79.8899   1   9   0.0179   0.0205   0.0743   0.0082  -0.0305  -0.0214   5.00    2.0
2018/11/12 01:35:15.000  -74.407217137  163.437630214    79.8279   1   9   0.0217   0.0242   0.0928   0.0098  -0.0377  -0.0257   5.00    2.0
2018/11/12 01:35:30.000  -74.407217073  163.437630752    79.7581   1   9   0.0288   0.0314   0.1266   0.0130  -0.0510  -0.0335   5.00    2.0
2018/11/12 01:35:45.000  -74.407217057  163.437631048    79.6715   6   9   0.0321   0.0335   0.1279   0.0120  -0.0489  -0.0273   5.00    0.0
2018/11/12 01:36:00.000  -74.407217081  163.437630817    79.7286   6   9   0.0382   0.0400   0.1564   0.0152  -0.0607  -0.0343   5.00    0.0
2018/11/12 01:36:15.000  -74.407217146  163.437630277    79.8451   6   9   0.0445   0.0469   0.1862   0.0184  -0.0730  -0.0416   5.00    0.0
2018/11/12 01:36:30.000  -74.407217243  163.437630003    79.8958   6   9   0.0510   0.0539   0.2168   0.0216  -0.0857  -0.0492   5.00    0.0
2018/11/12 01:36:45.000  -74.407217158  163.437630299    79.9185   6   9   0.0577   0.0611   0.2479   0.0248  -0.0987  -0.0568   5.00    0.0
2018/11/12 01:37:00.000  -74.407217119  163.437630036    79.9210   6   9   0.0644   0.0684   0.2793   0.0281  -0.1118  -0.0646   5.00    0.0
2018/11/12 01:37:15.000  -74.407217097  163.437630170    79.8885   6   9   0.0713   0.0759   0.3110   0.0314  -0.1251  -0.0724   5.00    0.0
2018/11/12 01:37:30.000  -74.407217140  163.437629990    79.8596   6   9   0.0781   0.0833   0.3429   0.0347  -0.1384  -0.0803   5.00    0.0
2018/11/12 01:37:45.000  -74.407216963  163.437630512    79.8191   6   9   0.0715   0.0764   0.3126   0.0318  -0.1262  -0.0728   5.00    0.0
2018/11/12 01:38:00.000  -74.407216965  163.437630409    79.7951   6   9   0.0647   0.0692   0.2815   0.0287  -0.1135  -0.0653   5.00    0.0
2018/11/12 01:38:15.000  -74.407216860  163.437630515    79.8271   6   9   0.0580   0.0620   0.2506   0.0257  -0.1009  -0.0578   5.00    0.0
2018/11/12 01:38:30.000  -74.407216712  163.437630763    79.8046   6   9   0.0514   0.0549   0.2199   0.0226  -0.0882  -0.0503   5.00    0.0
2018/11/12 01:38:45.000  -74.407216659  163.437631160    79.7753   6   9   0.0449   0.0479   0.1897   0.0195  -0.0758  -0.0430   5.00    0.0
2018/11/12 01:39:00.000  -74.407216825  163.437630894    79.7740   6   9   0.0385   0.0411   0.1603   0.0164  -0.0635  -0.0360   5.00    0.0
2018/11/12 01:39:15.000  -74.407217088  163.437630419    79.7946   6   9   0.0324   0.0345   0.1322   0.0133  -0.0518  -0.0293   5.00    0.0
2018/11/12 01:39:30.000  -74.407217143  163.437629889    79.8780   1   9   0.0296   0.0327   0.1335   0.0145  -0.0546  -0.0365   5.00    2.0
2018/11/12 01:39:45.000  -74.407217164  163.437629712    79.8869   1   9   0.0226   0.0254   0.1004   0.0112  -0.0412  -0.0291   5.00    2.0
2018/11/12 01:40:00.000  -74.407217220  163.437629938    79.8822   1   9   0.0190   0.0216   0.0820   0.0092  -0.0339  -0.0249   4.00    2.0
2018/11/12 01:40:15.000  -74.407217425  163.437629501    79.9657   1   9   0.0229   0.0257   0.1017   0.0110  -0.0418  -0.0298   5.00    2.0
2018/11/12 01:40:30.000  -74.407217550  163.437628923    80.0266   1   9   0.0301   0.0335   0.1360   0.0143  -0.0559  -0.0378   4.00    2.0
2018/11/12 01:40:45.000  -74.407217374  163.437629489    79.8657   6   9   0.0325   0.0352   0.1334   0.0132  -0.0528  -0.0299   5.00    0.0
2018/11/12 01:41:00.000  -74.407217385  163.437629264    79.8463   6   9   0.0386   0.0420   0.1617   0.0165  -0.0650  -0.0368   5.00    0.0
2018/11/12 01:41:15.000  -74.407217381  163.437629084    79.8267   6   9   0.0450   0.0491   0.1913   0.0198  -0.0777  -0.0439   5.00    0.0
2018/11/12 01:41:30.000  -74.407217277  163.437629367    79.8044   6   9   0.0515   0.0564   0.2216   0.0232  -0.0908  -0.0513   5.00    0.0
2018/11/12 01:41:45.000  -74.407217266  163.437629390    79.8153   6   9   0.0582   0.0639   0.2524   0.0265  -0.1041  -0.0588   5.00    0.0
2018/11/12 01:42:00.000  -74.407217051  163.437629763    79.8043   6   9   0.0650   0.0715   0.2836   0.0299  -0.1176  -0.0664   5.00    0.0
2018/11/12 01:42:15.000  -74.407216915  163.437630187    79.7778   6   9   0.0719   0.0792   0.3149   0.0333  -0.1311  -0.0740   5.00    0.0
2018/11/12 01:42:30.000  -74.407216952  163.437630351    79.8197   6   9   0.0788   0.0870   0.3464   0.0366  -0.1448  -0.0816   5.00    0.0
2018/11/12 01:42:45.000  -74.407216905  163.437630257    79.8155   6   9   0.0721   0.0800   0.3150   0.0327  -0.1318  -0.0736   5.00    0.0
2018/11/12 01:43:00.000  -74.407217045  163.437629986    79.8335   6   9   0.0655   0.0739   0.2841   0.0279  -0.1196  -0.0652   5.00    0.0
2018/11/12 01:43:15.000  -74.407217169  163.437629961    79.8492   6   9   0.0589   0.0664   0.2533   0.0243  -0.1066  -0.0573   5.00    0.0
2018/11/12 01:43:30.000  -74.407217256  163.437629519    79.8537   6   9   0.0523   0.0595   0.2227   0.0205  -0.0938  -0.0499   5.00    0.0
2018/11/12 01:43:45.000  -74.407217295  163.437629152    79.8828   6   9   0.0458   0.0523   0.1929   0.0170  -0.0810  -0.0426   5.00    0.0
2018/11/12 01:44:00.000  -74.407217221  163.437629114    79.8529   6   9   0.0389   0.0424   0.1629   0.0171  -0.0663  -0.0376   5.00    0.0
2018/11/12 01:44:15.000  -74.407217116  163.437629477    79.8017   6   9   0.0328   0.0352   0.1353   0.0144  -0.0539  -0.0317   5.00    0.0
2018/11/12 01:44:30.000  -74.407217027  163.437629879    79.7667   6   9   0.0272   0.0288   0.1104   0.0117  -0.0427  -0.0264   5.00    0.0
