% program   : RTKLIB ver.2.4.3
% inp file  : _by_type/_obs/base/20181106.18o
% inp file  : _by_type/_sp3+clk/igs20262.clk
% inp file  : _by_type/_sp3+clk/igs20262.sp3
% inp file  : _by_type/_nav/base/20181106.18n
% obs start : 2018/11/06 00:00:00.0 GPST (week2026 172800.0s)
% obs end   : 2018/11/06 23:59:45.0 GPST (week2026 259185.0s)
% pos mode  : ppp-kinematic
% solution  : combined
% elev mask : 15.0 deg
% dynamics  : off
% tidecorr  : on
% tropo opt : est ztd+grad
% ephemeris : precise
% navi sys  : gps glonass
% antenna1  :                       ( 0.0000  0.0000  0.0000)
%
% (lat/lon/height=WGS84/ellipsoidal,Q=1:fix,2:float,3:sbas,4:dgps,5:single,6:ppp,ns=# of satellites)
%  GPST                  latitude(deg) longitude(deg)  height(m)   Q  ns   sdn(m)   sde(m)   sdu(m)  sdne(m)  sdeu(m)  sdun(m) age(s)  ratio
2018/11/06 00:00:00.000  -74.370508188  163.307880930  1012.3496   1   8   0.0257   0.0207   0.0731  -0.0038  -0.0209  -0.0240   4.00    1.0
2018/11/06 00:00:15.000  -74.370508297  163.307880644  1012.3613   1   9   0.0283   0.0240   0.0818  -0.0060  -0.0187  -0.0268   4.00    1.0
2018/11/06 00:00:30.000  -74.370508439  163.307880594  1012.3823   1   9   0.0355   0.0306   0.1083  -0.0049  -0.0204  -0.0399   4.00    1.0
2018/11/06 00:00:45.000  -74.370508599  163.307880063  1012.3897   6   9   0.0451   0.0396   0.1439   0.0058  -0.0235  -0.0569   0.00    0.0
2018/11/06 00:01:00.000  -74.370508611  163.307879634  1012.4085   6   9   0.0599   0.0493   0.2000   0.0182  -0.0415  -0.0860   0.00    0.0
2018/11/06 00:01:15.000  -74.370508455  163.307879482  1012.3761   6   9   0.0597   0.0558   0.1910  -0.0127   0.0092  -0.0723   0.00    0.0
2018/11/06 00:01:30.000  -74.370508358  163.307879487  1012.3576   6   9   0.0695   0.0647   0.2249  -0.0135   0.0100  -0.0867   0.00    0.0
2018/11/06 00:01:45.000  -74.370508361  163.307879391  1012.3731   6   9   0.0803   0.0738   0.2633  -0.0115  -0.0120  -0.1037   2.00    0.0
2018/11/06 00:02:00.000  -74.370508375  163.307879370  1012.3663   6   9   0.0933   0.0833   0.3115   0.0109  -0.0340  -0.1270   3.00    0.0
2018/11/06 00:02:15.000  -74.370508369  163.307878915  1012.3573   6   9   0.1141   0.0943   0.3926   0.0344  -0.0726  -0.1702   3.00    0.0
2018/11/06 00:02:30.000  -74.370508127  163.307879031  1012.2713   6   9   0.1090   0.0996   0.3638  -0.0127  -0.0137  -0.1445   3.00    0.0
2018/11/06 00:02:45.000  -74.370508019  163.307879161  1012.1958   6   9   0.1128   0.0935   0.3900   0.0323  -0.0695  -0.1684   4.00    0.0
2018/11/06 00:03:00.000  -74.370507966  163.307879406  1012.2082   6   9   0.0892   0.0818   0.2983  -0.0144   0.0081  -0.1178   2.00    0.0
2018/11/06 00:03:15.000  -74.370507999  163.307879781  1012.2531   6   9   0.0909   0.0753   0.3149   0.0251  -0.0552  -0.1354   2.00    0.0
2018/11/06 00:03:30.000  -74.370508096  163.307879663  1012.2378   6   9   0.0638   0.0630   0.2057  -0.0227   0.0379  -0.0717   3.00    0.0
2018/11/06 00:03:45.000  -74.370508230  163.307879652  1012.2311   6   9   0.0568   0.0548   0.1843  -0.0181   0.0278  -0.0663   3.00    0.0
2018/11/06 00:04:00.000  -74.370508306  163.307879472  1012.2275   6   9   0.0508   0.0468   0.1668  -0.0118   0.0102  -0.0631   3.00    0.0
2018/11/06 00:04:15.000  -74.370508358  163.307879956  1012.2992   6   9   0.0478   0.0397   0.1616   0.0101  -0.0281  -0.0670   4.00    0.0
2018/11/06 00:04:30.000  -74.370508453  163.307880649  1012.3852   1   9   0.0331   0.0298   0.1003  -0.0113   0.0005  -0.0329   4.00    1.0
2018/11/06 00:04:45.000  -74.370508366  163.307880848  1012.3733   1   9   0.0281   0.0236   0.0824  -0.0081  -0.0146  -0.0268   4.00    1.0
2018/11/06 00:05:00.000  -74.370508315  163.307880811  1012.3246   1   9   0.0258   0.0203   0.0745  -0.0055  -0.0184  -0.0248   4.00    1.0
2018/11/06 00:05:15.000  -74.370508313  163.307881058  1012.3447   1   9   0.0232   0.0224   0.0798   0.0061  -0.0070  -0.0306   4.00    2.0
2018/11/06 00:05:30.000  -74.370508257  163.307881118  1012.3237   1   9   0.0303   0.0290   0.1043   0.0013   0.0090  -0.0400   4.00    2.0
2018/11/06 00:05:45.000  -74.370508193  163.307881368  1012.3380   1   9   0.0384   0.0370   0.1324  -0.0079   0.0178  -0.0503   4.00    2.0
2018/11/06 00:06:00.000  -74.370508116  163.307880812  1012.2620   6   9   0.0479   0.0462   0.1568  -0.0155   0.0240  -0.0548   4.00    0.0
2018/11/06 00:06:15.000  -74.370508077  163.307880806  1012.2153   6   9   0.0555   0.0543   0.1837  -0.0182   0.0310  -0.0639   4.00    0.0
2018/11/06 00:06:30.000  -74.370507974  163.307880722  1012.1642   6   9   0.0631   0.0624   0.2103  -0.0208   0.0374  -0.0725   4.00    0.0
2018/11/06 00:06:45.000  -74.370507997  163.307880650  1012.1783   6   9   0.0706   0.0704   0.2366  -0.0233   0.0433  -0.0809   4.00    0.0
2018/11/06 00:07:00.000  -74.370508111  163.307880141  1012.1795   6   9   0.0781   0.0782   0.2628  -0.0255   0.0488  -0.0892   4.00    0.0
2018/11/06 00:07:15.000  -74.370508070  163.307879957  1012.1661   6   9   0.0855   0.0858   0.2889  -0.0275   0.0538  -0.0975   3.00    0.0
2018/11/06 00:07:30.000  -74.370507958  163.307879144  1012.1032   6   9   0.0928   0.0933   0.3153  -0.0291   0.0581  -0.1063   3.00    0.0
2018/11/06 00:07:45.000  -74.370507954  163.307879368  1012.1324   6   9   0.0885   0.0863   0.3052  -0.0220   0.0434  -0.1092   3.00    0.0
2018/11/06 00:08:00.000  -74.370508097  163.307879309  1012.1683   6   9   0.0879   0.0801   0.3117   0.0113  -0.0244  -0.1219   3.00    0.0
2018/11/06 00:08:15.000  -74.370508055  163.307880016  1012.1891   6   9   0.0742   0.0705   0.2583  -0.0185   0.0354  -0.0950   3.00    0.0
2018/11/06 00:08:30.000  -74.370508074  163.307880554  1012.2049   6   9   0.0723   0.0638   0.2581   0.0099  -0.0236  -0.1031   4.00    0.0
2018/11/06 00:08:45.000  -74.370508024  163.307880922  1012.2275   6   9   0.0523   0.0534   0.1744  -0.0220   0.0417  -0.0550   4.00    0.0
2018/11/06 00:09:00.000  -74.370507951  163.307880825  1012.2501   6   9   0.0451   0.0455   0.1492  -0.0187   0.0342  -0.0473   3.00    0.0
2018/11/06 00:09:15.000  -74.370508020  163.307881083  1012.2854   6   9   0.0384   0.0378   0.1249  -0.0154   0.0261  -0.0398   3.00    0.0
2018/11/06 00:09:30.000  -74.370508046  163.307880968  1012.3006   6   9   0.0323   0.0307   0.1023  -0.0121   0.0171  -0.0327   2.00    0.0
2018/11/06 00:09:45.000  -74.370508099  163.307881008  1012.3251   6   9   0.0276   0.0249   0.0835  -0.0091   0.0051  -0.0264   3.00    0.0
2018/11/06 00:10:00.000  -74.370508286  163.307880587  1012.3256   6   9   0.0254   0.0220   0.0752  -0.0067  -0.0112  -0.0241   2.00    0.0
2018/11/06 00:10:15.000  -74.370508297  163.307880488  1012.2925   6   9   0.0276   0.0249   0.0837  -0.0093   0.0062  -0.0265   2.00    0.0
2018/11/06 00:10:30.000  -74.370508263  163.307880349  1012.2611   6   9   0.0333   0.0309   0.1085  -0.0108   0.0137  -0.0369   2.00    0.0
2018/11/06 00:10:45.000  -74.370508190  163.307880077  1012.2457   6   9   0.0404   0.0381   0.1370  -0.0123   0.0194  -0.0478   2.00    0.0
2018/11/06 00:11:00.000  -74.370508158  163.307879935  1012.2597   6   9   0.0483   0.0461   0.1688  -0.0125   0.0222  -0.0601   2.00    0.0
2018/11/06 00:11:15.000  -74.370508067  163.307879304  1012.2427   6   9   0.0584   0.0547   0.2095  -0.0063   0.0117  -0.0778   2.00    0.0
2018/11/06 00:11:30.000  -74.370508064  163.307879225  1012.2408   6   9   0.0682   0.0626   0.2483  -0.0026   0.0127  -0.0942   2.00    0.0
2018/11/06 00:11:45.000  -74.370508163  163.307878349  1012.3203   6   9   0.0645   0.0678   0.2247  -0.0276   0.0587  -0.0662   3.00    0.0
2018/11/06 00:12:00.000  -74.370508178  163.307877819  1012.2879   6   9   0.0705   0.0750   0.2465  -0.0300   0.0651  -0.0704   3.00    0.0
2018/11/06 00:12:15.000  -74.370508160  163.307877423  1012.2400   6   9   0.0767   0.0821   0.2693  -0.0326   0.0717  -0.0757   3.00    0.0
2018/11/06 00:12:30.000  -74.370508099  163.307877050  1012.1931   6   9   0.0830   0.0890   0.2923  -0.0352   0.0785  -0.0816   3.00    0.0
2018/11/06 00:12:45.000  -74.370508142  163.307877805  1012.1847   6   9   0.0764   0.0820   0.2693  -0.0324   0.0725  -0.0746   3.00    0.0
2018/11/06 00:13:00.000  -74.370508110  163.307877822  1012.2247   6   9   0.0698   0.0748   0.2460  -0.0298   0.0664  -0.0681   3.00    0.0
2018/11/06 00:13:15.000  -74.370508110  163.307878053  1012.2761   6   9   0.0631   0.0675   0.2223  -0.0273   0.0601  -0.0618   3.00    0.0
2018/11/06 00:13:30.000  -74.370508185  163.307878207  1012.2793   6   9   0.0564   0.0601   0.1982  -0.0247   0.0536  -0.0553   3.00    0.0
2018/11/06 00:13:45.000  -74.370508148  163.307878349  1012.2532   6   9   0.0497   0.0525   0.1736  -0.0220   0.0469  -0.0487   3.00    0.0
2018/11/06 00:14:00.000  -74.370508157  163.307878992  1012.2955   6   9   0.0430   0.0449   0.1486  -0.0192   0.0397  -0.0418   3.00    0.0
2018/11/06 00:14:15.000  -74.370508183  163.307879390  1012.3275   6   9   0.0365   0.0374   0.1233  -0.0165   0.0322  -0.0345   3.00    0.0
2018/11/06 00:14:30.000  -74.370508269  163.307879632  1012.3452   6   9   0.0306   0.0304   0.0988  -0.0137   0.0243  -0.0267   3.00    0.0
2018/11/06 00:14:45.000  -74.370508280  163.307879859  1012.3469   6   9   0.0258   0.0247   0.0772  -0.0113   0.0166  -0.0189   3.00    0.0
2018/11/06 00:15:00.000  -74.370508485  163.307880731  1012.3705   6   9   0.0232   0.0216   0.0643  -0.0098   0.0111  -0.0130   3.00    0.0
2018/11/06 00:15:15.000  -74.370508576  163.307881901  1012.3805   1   9   0.0218   0.0228   0.0781   0.0034   0.0213  -0.0251   2.00    1.0
2018/11/06 00:15:30.000  -74.370508611  163.307882397  1012.4033   1   9   0.0280   0.0295   0.1030  -0.0085   0.0294  -0.0334   2.00    1.0
2018/11/06 00:15:45.000  -74.370508662  163.307882217  1012.4296   1   9   0.0356   0.0376   0.1327  -0.0141   0.0388  -0.0432   2.00    1.0
2018/11/06 00:16:00.000  -74.370508640  163.307880700  1012.3936   6  10   0.0412   0.0440   0.1374  -0.0199   0.0444  -0.0333   3.00    0.0
2018/11/06 00:16:15.000  -74.370508707  163.307880162  1012.3854   6  10   0.0472   0.0512   0.1601  -0.0226   0.0526  -0.0378   3.00    0.0
2018/11/06 00:16:30.000  -74.370508696  163.307879379  1012.3648   6  10   0.0534   0.0584   0.1830  -0.0252   0.0605  -0.0425   3.00    0.0
2018/11/06 00:16:45.000  -74.370508712  163.307878507  1012.3720   6  10   0.0595   0.0656   0.2062  -0.0279   0.0683  -0.0476   3.00    0.0
2018/11/06 00:17:00.000  -74.370508780  163.307878145  1012.3897   6  10   0.0657   0.0726   0.2301  -0.0306   0.0758  -0.0535   3.00    0.0
2018/11/06 00:17:15.000  -74.370508764  163.307877217  1012.3778   6  10   0.0720   0.0797   0.2556  -0.0333   0.0827  -0.0606   3.00    0.0
2018/11/06 00:17:30.000  -74.370508798  163.307876693  1012.4214   6  10   0.0786   0.0872   0.2866  -0.0351   0.0868  -0.0710   3.00    0.0
2018/11/06 00:17:45.000  -74.370508598  163.307877310  1012.3353   6  10   0.0718   0.0786   0.2502  -0.0351   0.0887  -0.0593   3.00    0.0
2018/11/06 00:18:00.000  -74.370508601  163.307877348  1012.3517   6  10   0.0652   0.0718   0.2264  -0.0320   0.0807  -0.0520   3.00    0.0
2018/11/06 00:18:15.000  -74.370508689  163.307877715  1012.3510   6  10   0.0589   0.0649   0.2040  -0.0290   0.0726  -0.0464   3.00    0.0
2018/11/06 00:18:30.000  -74.370508760  163.307878135  1012.3789   6  10   0.0527   0.0578   0.1817  -0.0260   0.0644  -0.0413   3.00    0.0
2018/11/06 00:18:45.000  -74.370508773  163.307878244  1012.3481   6  10   0.0465   0.0507   0.1593  -0.0231   0.0561  -0.0364   3.00    0.0
2018/11/06 00:19:00.000  -74.370508814  163.307878592  1012.3259   6  10   0.0404   0.0435   0.1368  -0.0202   0.0476  -0.0316   3.00    0.0
2018/11/06 00:19:15.000  -74.370508812  163.307879582  1012.3697   6  10   0.0345   0.0365   0.1142  -0.0173   0.0387  -0.0264   3.00    0.0
2018/11/06 00:19:30.000  -74.370508727  163.307880177  1012.3971   6  10   0.0291   0.0298   0.0922  -0.0145   0.0297  -0.0207   3.00    0.0
2018/11/06 00:19:45.000  -74.370508650  163.307880369  1012.3856   6  10   0.0249   0.0244   0.0729  -0.0120   0.0209  -0.0146   3.00    0.0
2018/11/06 00:20:00.000  -74.370508589  163.307880482  1012.3824   6  10   0.0227   0.0216   0.0618  -0.0105   0.0151  -0.0097   3.00    0.0
2018/11/06 00:20:15.000  -74.370508546  163.307880699  1012.3613   6  10   0.0248   0.0244   0.0732  -0.0119   0.0206  -0.0145   3.00    0.0
2018/11/06 00:20:30.000  -74.370508636  163.307880251  1012.3734   6  10   0.0288   0.0298   0.0926  -0.0140   0.0289  -0.0200   3.00    0.0
2018/11/06 00:20:45.000  -74.370508583  163.307879449  1012.3090   6  10   0.0339   0.0363   0.1145  -0.0165   0.0376  -0.0249   3.00    0.0
2018/11/06 00:21:00.000  -74.370508556  163.307879241  1012.2678   6  10   0.0396   0.0433   0.1374  -0.0190   0.0464  -0.0295   3.00    0.0
2018/11/06 00:21:15.000  -74.370508561  163.307878926  1012.2938   6  10   0.0455   0.0503   0.1606  -0.0217   0.0553  -0.0343   3.00    0.0
2018/11/06 00:21:30.000  -74.370508531  163.307878471  1012.2725   6  10   0.0515   0.0573   0.1840  -0.0247   0.0643  -0.0395   3.00    0.0
2018/11/06 00:21:45.000  -74.370508464  163.307878202  1012.2397   6  10   0.0577   0.0643   0.2077  -0.0278   0.0734  -0.0453   3.00    0.0
2018/11/06 00:22:00.000  -74.370508543  163.307877901  1012.2346   6  10   0.0638   0.0712   0.2314  -0.0312   0.0827  -0.0516   3.00    0.0
2018/11/06 00:22:15.000  -74.370508478  163.307877762  1012.1857   6  10   0.0699   0.0780   0.2553  -0.0346   0.0921  -0.0585   3.00    0.0
2018/11/06 00:22:30.000  -74.370508441  163.307876867  1012.1378   6  10   0.0760   0.0848   0.2794  -0.0383   0.1016  -0.0657   3.00    0.0
2018/11/06 00:22:45.000  -74.370508470  163.307877338  1012.1682   6  10   0.0702   0.0784   0.2583  -0.0348   0.0931  -0.0597   3.00    0.0
2018/11/06 00:23:00.000  -74.370508468  163.307877705  1012.1723   6  10   0.0641   0.0717   0.2365  -0.0312   0.0837  -0.0540   4.00    0.0
2018/11/06 00:23:15.000  -74.370508517  163.307878447  1012.2304   6  10   0.0581   0.0650   0.2155  -0.0276   0.0738  -0.0491   3.00    0.0
2018/11/06 00:23:30.000  -74.370508575  163.307878697  1012.2542   6  10   0.0522   0.0586   0.1977  -0.0234   0.0618  -0.0463   4.00    0.0
2018/11/06 00:23:45.000  -74.370508599  163.307878966  1012.2638   6  10   0.0459   0.0505   0.1658  -0.0226   0.0593  -0.0370   4.00    0.0
2018/11/06 00:24:00.000  -74.370508565  163.307879359  1012.2922   6  10   0.0397   0.0434   0.1410  -0.0196   0.0501  -0.0305   4.00    0.0
2018/11/06 00:24:15.000  -74.370508531  163.307879568  1012.3000   6  10   0.0339   0.0365   0.1172  -0.0169   0.0410  -0.0249   4.00    0.0
2018/11/06 00:24:30.000  -74.370508487  163.307879875  1012.2907   6  10   0.0287   0.0300   0.0944  -0.0143   0.0320  -0.0193   4.00    0.0
2018/11/06 00:24:45.000  -74.370508543  163.307880538  1012.3442   6  10   0.0246   0.0246   0.0743  -0.0121   0.0234  -0.0134   4.00    0.0
2018/11/06 00:25:00.000  -74.370508572  163.307880390  1012.3427   6  10   0.0224   0.0217   0.0623  -0.0107   0.0178  -0.0083   4.00    0.0
2018/11/06 00:25:15.000  -74.370508529  163.307879901  1012.2953   6  10   0.0245   0.0245   0.0739  -0.0120   0.0233  -0.0124   4.00    0.0
2018/11/06 00:25:30.000  -74.370508448  163.307879049  1012.2472   6  10   0.0284   0.0299   0.0934  -0.0139   0.0316  -0.0176   4.00    0.0
2018/11/06 00:25:45.000  -74.370508370  163.307878291  1012.1962   6  10   0.0334   0.0362   0.1159  -0.0162   0.0405  -0.0226   4.00    0.0
2018/11/06 00:26:00.000  -74.370508224  163.307877734  1012.1215   6  10   0.0390   0.0430   0.1398  -0.0189   0.0498  -0.0280   4.00    0.0
2018/11/06 00:26:15.000  -74.370508136  163.307877263  1012.0602   6  10   0.0450   0.0500   0.1643  -0.0219   0.0594  -0.0340   4.00    0.0
2018/11/06 00:26:30.000  -74.370508124  163.307876330  1011.9676   6  10   0.0511   0.0570   0.1893  -0.0251   0.0691  -0.0406   4.00    0.0
2018/11/06 00:26:45.000  -74.370508174  163.307875958  1011.9388   6  10   0.0572   0.0639   0.2145  -0.0286   0.0791  -0.0478   4.00    0.0
2018/11/06 00:27:00.000  -74.370508218  163.307875607  1011.9446   6  10   0.0634   0.0708   0.2399  -0.0323   0.0891  -0.0554   4.00    0.0
2018/11/06 00:27:15.000  -74.370508294  163.307875445  1011.9474   6  10   0.0696   0.0777   0.2654  -0.0361   0.0993  -0.0635   4.00    0.0
2018/11/06 00:27:30.000  -74.370508338  163.307875627  1012.0020   6  10   0.0758   0.0846   0.2911  -0.0400   0.1095  -0.0717   4.00    0.0
2018/11/06 00:27:45.000  -74.370508443  163.307876482  1012.0585   6  10   0.0695   0.0774   0.2658  -0.0359   0.0987  -0.0635   4.00    0.0
2018/11/06 00:28:00.000  -74.370508438  163.307877049  1012.0913   6  10   0.0633   0.0705   0.2412  -0.0322   0.0890  -0.0561   4.00    0.0
2018/11/06 00:28:15.000  -74.370508542  163.307877823  1012.1544   6  10   0.0571   0.0636   0.2165  -0.0286   0.0793  -0.0489   4.00    0.0
2018/11/06 00:28:30.000  -74.370508541  163.307878276  1012.1668   6  10   0.0509   0.0566   0.1917  -0.0251   0.0696  -0.0419   4.00    0.0
2018/11/06 00:28:45.000  -74.370508593  163.307879061  1012.2187   6  10   0.0448   0.0496   0.1669  -0.0218   0.0599  -0.0352   4.00    0.0
2018/11/06 00:29:00.000  -74.370508542  163.307879432  1012.2475   6  10   0.0389   0.0426   0.1421  -0.0188   0.0503  -0.0290   4.00    0.0
2018/11/06 00:29:15.000  -74.370508565  163.307879903  1012.2933   6  10   0.0332   0.0358   0.1179  -0.0160   0.0408  -0.0232   4.00    0.0
2018/11/06 00:29:30.000  -74.370508576  163.307880154  1012.3218   6  10   0.0282   0.0295   0.0948  -0.0136   0.0318  -0.0177   4.00    0.0
2018/11/06 00:29:45.000  -74.370508768  163.307881419  1012.3935   1  10   0.0272   0.0260   0.0812  -0.0157   0.0298  -0.0215   3.00    1.0
2018/11/06 00:30:00.000  -74.370508757  163.307881153  1012.3917   1  10   0.0246   0.0229   0.0667  -0.0142   0.0242  -0.0159   3.00    1.0
2018/11/06 00:30:15.000  -74.370508692  163.307880445  1012.3890   6  11   0.0241   0.0242   0.0733  -0.0115   0.0233  -0.0147   4.00    0.0
2018/11/06 00:30:30.000  -74.370508832  163.307880816  1012.4174   6  11   0.0279   0.0293   0.0916  -0.0132   0.0313  -0.0216   4.00    0.0
2018/11/06 00:30:45.000  -74.370508835  163.307880542  1012.3818   6  11   0.0328   0.0355   0.1132  -0.0155   0.0405  -0.0292   4.00    0.0
2018/11/06 00:31:00.000  -74.370508959  163.307880532  1012.4194   6  11   0.0384   0.0422   0.1365  -0.0184   0.0503  -0.0374   4.00    0.0
2018/11/06 00:31:15.000  -74.370508943  163.307880058  1012.4042   6  11   0.0443   0.0491   0.1610  -0.0217   0.0605  -0.0460   4.00    0.0
2018/11/06 00:31:30.000  -74.370509038  163.307879482  1012.4097   6  11   0.0505   0.0561   0.1863  -0.0253   0.0709  -0.0552   4.00    0.0
2018/11/06 00:31:45.000  -74.370509064  163.307878926  1012.4078   6  11   0.0569   0.0630   0.2122  -0.0292   0.0815  -0.0650   4.00    0.0
2018/11/06 00:32:00.000  -74.370508967  163.307878571  1012.3878   6  11   0.0637   0.0700   0.2388  -0.0334   0.0923  -0.0756   4.00    0.0
2018/11/06 00:32:15.000  -74.370508751  163.307877505  1012.2952   6  11   0.0710   0.0769   0.2669  -0.0380   0.1035  -0.0877   4.00    0.0
2018/11/06 00:32:30.000  -74.370508701  163.307876950  1012.2451   6  11   0.0804   0.0840   0.2989  -0.0434   0.1155  -0.1040   4.00    0.0
2018/11/06 00:32:45.000  -74.370508709  163.307877285  1012.2824   6  11   0.0809   0.0786   0.2961  -0.0451   0.1129  -0.1122   3.00    0.0
2018/11/06 00:33:00.000  -74.370508627  163.307877073  1012.2164   6  11   0.0735   0.0716   0.2686  -0.0404   0.1018  -0.1008   3.00    0.0
2018/11/06 00:33:15.000  -74.370508667  163.307877596  1012.2495   6  11   0.0661   0.0645   0.2408  -0.0359   0.0907  -0.0892   3.00    0.0
2018/11/06 00:33:30.000  -74.370508549  163.307877577  1012.2031   6  11   0.0519   0.0571   0.1979  -0.0288   0.0767  -0.0626   3.00    0.0
2018/11/06 00:33:45.000  -74.370508467  163.307878302  1012.2212   6  11   0.0447   0.0498   0.1683  -0.0239   0.0645  -0.0499   3.00    0.0
2018/11/06 00:34:00.000  -74.370508447  163.307878576  1012.2051   6  11   0.0384   0.0427   0.1419  -0.0200   0.0536  -0.0400   3.00    0.0
2018/11/06 00:34:15.000  -74.370508410  163.307878741  1012.2212   6  11   0.0328   0.0358   0.1172  -0.0167   0.0432  -0.0311   4.00    0.0
2018/11/06 00:34:30.000  -74.370508327  163.307879030  1012.2172   6  11   0.0279   0.0295   0.0945  -0.0139   0.0335  -0.0231   4.00    0.0
2018/11/06 00:34:45.000  -74.370508484  163.307879625  1012.2899   6  11   0.0242   0.0244   0.0757  -0.0118   0.0251  -0.0161   4.00    0.0
2018/11/06 00:35:00.000  -74.370508561  163.307879842  1012.3109   6  11   0.0223   0.0218   0.0659  -0.0105   0.0203  -0.0122   4.00    0.0
2018/11/06 00:35:15.000  -74.370508544  163.307879283  1012.2547   6  11   0.0248   0.0243   0.0788  -0.0118   0.0248  -0.0198   5.00    0.0
2018/11/06 00:35:30.000  -74.370508620  163.307878502  1012.2128   6  11   0.0298   0.0297   0.1006  -0.0150   0.0349  -0.0300   4.00    0.0
2018/11/06 00:35:45.000  -74.370508570  163.307877722  1012.1777   6  11   0.0358   0.0357   0.1255  -0.0175   0.0441  -0.0403   4.00    0.0
2018/11/06 00:36:00.000  -74.370508621  163.307878179  1012.2676   6  11   0.0446   0.0431   0.1609  -0.0236   0.0583  -0.0578   4.00    0.0
2018/11/06 00:36:15.000  -74.370508733  163.307878479  1012.3454   6  11   0.0457   0.0499   0.1739  -0.0256   0.0671  -0.0546   4.00    0.0
2018/11/06 00:36:30.000  -74.370508778  163.307878315  1012.3480   6  11   0.0505   0.0563   0.1949  -0.0278   0.0755  -0.0597   6.00    0.0
2018/11/06 00:36:45.000  -74.370508783  163.307877552  1012.3013   6  11   0.0559   0.0630   0.2186  -0.0310   0.0852  -0.0672   6.00    0.0
2018/11/06 00:37:00.000  -74.370508863  163.307876307  1012.2421   6  11   0.0616   0.0697   0.2433  -0.0346   0.0954  -0.0756   6.00    0.0
2018/11/06 00:37:15.000  -74.370508875  163.307875336  1012.1286   6  11   0.0674   0.0765   0.2685  -0.0384   0.1057  -0.0844   5.00    0.0
2018/11/06 00:37:30.000  -74.370508879  163.307875303  1012.1551   6  11   0.0732   0.0833   0.2939  -0.0423   0.1162  -0.0935   6.00    0.0
2018/11/06 00:37:45.000  -74.370508860  163.307875754  1012.1730   6  11   0.0670   0.0764   0.2682  -0.0381   0.1057  -0.0839   6.00    0.0
2018/11/06 00:38:00.000  -74.370508831  163.307876101  1012.1871   6  11   0.0610   0.0695   0.2426  -0.0341   0.0951  -0.0745   6.00    0.0
2018/11/06 00:38:15.000  -74.370508729  163.307876243  1012.1645   6  11   0.0550   0.0626   0.2170  -0.0302   0.0846  -0.0652   6.00    1.0
2018/11/06 00:38:30.000  -74.370508679  163.307876555  1012.1889   6  11   0.0490   0.0557   0.1914  -0.0264   0.0741  -0.0561   6.00    0.0
2018/11/06 00:38:45.000  -74.370508704  163.307877096  1012.2011   6  11   0.0432   0.0489   0.1660  -0.0227   0.0636  -0.0471   6.00    0.0
2018/11/06 00:39:00.000  -74.370508740  163.307877811  1012.2548   6  11   0.0375   0.0421   0.1409  -0.0194   0.0534  -0.0384   5.00    0.0
2018/11/06 00:39:15.000  -74.370508735  163.307878366  1012.2766   6  11   0.0321   0.0355   0.1166  -0.0164   0.0435  -0.0299   5.00    0.0
2018/11/06 00:39:30.000  -74.370508890  163.307880332  1012.3890   1  11   0.0301   0.0294   0.1121  -0.0158   0.0441  -0.0355   6.00    2.0
2018/11/06 00:39:45.000  -74.370508849  163.307880320  1012.3708   1  11   0.0249   0.0221   0.0861  -0.0111   0.0333  -0.0247   6.00    2.0
2018/11/06 00:40:00.000  -74.370508837  163.307880806  1012.4073   1  11   0.0221   0.0182   0.0719  -0.0084   0.0274  -0.0181   6.00    2.0
2018/11/06 00:40:15.000  -74.370508858  163.307880934  1012.4120   1  11   0.0249   0.0222   0.0863  -0.0113   0.0333  -0.0247   7.00    2.0
2018/11/06 00:40:30.000  -74.370508692  163.307881004  1012.4038   1  11   0.0294   0.0286   0.1106  -0.0172   0.0426  -0.0371   7.00    3.0
2018/11/06 00:40:45.000  -74.370508396  163.307878321  1012.2246   6  11   0.0316   0.0351   0.1137  -0.0157   0.0421  -0.0278   5.00    0.0
2018/11/06 00:41:00.000  -74.370508434  163.307877935  1012.2248   6  11   0.0367   0.0415   0.1373  -0.0185   0.0518  -0.0361   5.00    0.0
2018/11/06 00:41:15.000  -74.370508459  163.307877308  1012.2201   6  11   0.0422   0.0481   0.1617  -0.0218   0.0617  -0.0447   5.00    0.0
2018/11/06 00:41:30.000  -74.370508478  163.307876766  1012.2295   6  11   0.0479   0.0547   0.1867  -0.0253   0.0719  -0.0535   5.00    0.0
2018/11/06 00:41:45.000  -74.370508489  163.307876154  1012.2119   6  11   0.0536   0.0614   0.2118  -0.0289   0.0821  -0.0625   5.00    0.0
2018/11/06 00:42:00.000  -74.370508520  163.307875729  1012.2028   6  11   0.0594   0.0681   0.2370  -0.0327   0.0924  -0.0716   5.00    0.0
2018/11/06 00:42:15.000  -74.370508413  163.307875127  1012.1511   6  11   0.0652   0.0748   0.2623  -0.0365   0.1027  -0.0808   5.00    0.0
2018/11/06 00:42:30.000  -74.370508399  163.307874542  1012.0893   6  11   0.0710   0.0815   0.2875  -0.0404   0.1130  -0.0900   5.00    0.0
2018/11/06 00:42:45.000  -74.370508429  163.307874901  1012.0747   6  11   0.0649   0.0747   0.2610  -0.0362   0.1020  -0.0801   5.00    0.0
2018/11/06 00:43:00.000  -74.370508383  163.307874836  1012.0266   6  11   0.0590   0.0679   0.2355  -0.0322   0.0914  -0.0707   5.00    0.0
2018/11/06 00:43:15.000  -74.370508457  163.307875622  1012.0834   6  11   0.0532   0.0611   0.2101  -0.0284   0.0810  -0.0614   5.00    0.0
2018/11/06 00:43:30.000  -74.370508589  163.307876227  1012.1571   6  11   0.0474   0.0544   0.1849  -0.0246   0.0706  -0.0524   5.00    0.0
2018/11/06 00:43:45.000  -74.370508725  163.307876974  1012.2182   6  11   0.0417   0.0477   0.1601  -0.0211   0.0605  -0.0436   5.00    0.0
2018/11/06 00:44:00.000  -74.370508697  163.307877211  1012.1985   6  11   0.0363   0.0411   0.1359  -0.0179   0.0506  -0.0351   6.00    0.0
2018/11/06 00:44:15.000  -74.370508641  163.307877874  1012.2060   6  11   0.0311   0.0348   0.1127  -0.0151   0.0411  -0.0270   6.00    0.0
2018/11/06 00:44:30.000  -74.370508989  163.307881068  1012.3962   1  11   0.0332   0.0322   0.1127  -0.0217   0.0423  -0.0396   7.00    1.0
2018/11/06 00:44:45.000  -74.370508935  163.307880895  1012.3963   1  11   0.0285   0.0258   0.0882  -0.0188   0.0317  -0.0308   7.00    1.0
2018/11/06 00:45:00.000  -74.370508946  163.307881147  1012.4343   1  11   0.0263   0.0228   0.0752  -0.0174   0.0261  -0.0258   7.00    1.0
2018/11/06 00:45:15.000  -74.370508631  163.307878933  1012.3291   6  11   0.0230   0.0248   0.0737  -0.0111   0.0252  -0.0119   6.00    0.0
2018/11/06 00:45:30.000  -74.370508711  163.307878262  1012.3390   6  11   0.0265   0.0296   0.0906  -0.0129   0.0320  -0.0192   6.00    0.0
2018/11/06 00:45:45.000  -74.370508697  163.307877730  1012.3246   6  11   0.0310   0.0354   0.1111  -0.0152   0.0403  -0.0268   6.00    0.0
2018/11/06 00:46:00.000  -74.370508655  163.307877050  1012.3192   6  11   0.0360   0.0417   0.1334  -0.0180   0.0493  -0.0347   6.00    0.0
2018/11/06 00:46:15.000  -74.370508651  163.307876640  1012.3191   6  11   0.0413   0.0482   0.1566  -0.0211   0.0587  -0.0429   6.00    0.0
2018/11/06 00:46:30.000  -74.370508690  163.307876247  1012.2888   6  11   0.0467   0.0549   0.1802  -0.0246   0.0682  -0.0513   6.00    0.0
2018/11/06 00:46:45.000  -74.370508729  163.307875995  1012.2708   6  11   0.0523   0.0619   0.2040  -0.0282   0.0779  -0.0598   6.00    0.0
2018/11/06 00:47:00.000  -74.370508744  163.307876085  1012.2857   6  11   0.0579   0.0692   0.2279  -0.0321   0.0876  -0.0684   6.00    0.0
2018/11/06 00:47:15.000  -74.370508678  163.307875704  1012.2327   6  11   0.0637   0.0782   0.2517  -0.0368   0.0974  -0.0770   6.00    0.0
2018/11/06 00:47:30.000  -74.370508688  163.307877086  1012.2181   6  11   0.0693   0.0826   0.2759  -0.0397   0.1083  -0.0860   5.00    0.0
2018/11/06 00:47:45.000  -74.370508639  163.307876814  1012.1962   6  11   0.0633   0.0742   0.2502  -0.0346   0.0971  -0.0762   5.00    0.0
2018/11/06 00:48:00.000  -74.370508667  163.307877302  1012.2269   6  11   0.0575   0.0669   0.2256  -0.0305   0.0868  -0.0671   5.00    0.0
2018/11/06 00:48:15.000  -74.370508653  163.307877839  1012.2357   6  11   0.0518   0.0600   0.2013  -0.0266   0.0767  -0.0582   4.00    0.0
2018/11/06 00:48:30.000  -74.370508691  163.307878035  1012.2478   6  11   0.0462   0.0533   0.1773  -0.0230   0.0669  -0.0496   4.00    0.0
2018/11/06 00:48:45.000  -74.370508675  163.307878336  1012.2646   6  11   0.0408   0.0467   0.1539  -0.0196   0.0573  -0.0412   4.00    0.0
2018/11/06 00:49:00.000  -74.370508618  163.307878436  1012.2675   6  11   0.0355   0.0403   0.1313  -0.0165   0.0480  -0.0332   4.00    0.0
2018/11/06 00:49:15.000  -74.370508622  163.307878472  1012.2314   6  11   0.0306   0.0342   0.1098  -0.0138   0.0393  -0.0256   5.00    0.0
2018/11/06 00:49:30.000  -74.370508633  163.307879030  1012.2594   6  11   0.0263   0.0286   0.0905  -0.0116   0.0314  -0.0186   5.00    0.0
2018/11/06 00:49:45.000  -74.370508590  163.307879170  1012.2868   6  11   0.0228   0.0242   0.0749  -0.0100   0.0250  -0.0120   5.00    0.0
2018/11/06 00:50:00.000  -74.370508532  163.307879059  1012.2776   6  11   0.0210   0.0220   0.0666  -0.0094   0.0222  -0.0075   4.00    0.0
2018/11/06 00:50:15.000  -74.370508521  163.307878802  1012.2735   6  11   0.0228   0.0241   0.0754  -0.0098   0.0247  -0.0128   4.00    0.0
2018/11/06 00:50:30.000  -74.370508522  163.307878264  1012.2483   6  11   0.0264   0.0285   0.0913  -0.0113   0.0309  -0.0202   4.00    1.0
2018/11/06 00:50:45.000  -74.370508594  163.307877810  1012.2544   6  11   0.0309   0.0338   0.1103  -0.0133   0.0385  -0.0275   4.00    0.0
2018/11/06 00:51:00.000  -74.370508685  163.307877973  1012.2846   6  11   0.0357   0.0397   0.1308  -0.0159   0.0468  -0.0348   4.00    0.0
2018/11/06 00:51:15.000  -74.370508739  163.307877914  1012.3104   6  11   0.0408   0.0457   0.1521  -0.0187   0.0554  -0.0423   4.00    0.0
2018/11/06 00:51:30.000  -74.370508698  163.307877205  1012.2926   6  11   0.0460   0.0519   0.1738  -0.0218   0.0641  -0.0499   4.00    0.0
2018/11/06 00:51:45.000  -74.370508649  163.307876564  1012.2461   6  11   0.0513   0.0581   0.1956  -0.0249   0.0729  -0.0576   4.00    0.0
2018/11/06 00:52:00.000  -74.370508514  163.307876217  1012.2172   6  11   0.0567   0.0643   0.2175  -0.0281   0.0817  -0.0653   4.00    0.0
2018/11/06 00:52:15.000  -74.370508527  163.307876452  1012.2162   6  11   0.0621   0.0706   0.2393  -0.0314   0.0904  -0.0730   4.00    0.0
2018/11/06 00:52:30.000  -74.370508466  163.307876527  1012.2120   6  11   0.0676   0.0769   0.2612  -0.0346   0.0991  -0.0807   4.00    0.0
2018/11/06 00:52:45.000  -74.370508466  163.307876731  1012.2195   6  11   0.0620   0.0705   0.2387  -0.0314   0.0901  -0.0728   4.00    0.0
2018/11/06 00:53:00.000  -74.370508478  163.307876882  1012.2397   6  11   0.0565   0.0640   0.2161  -0.0279   0.0809  -0.0649   4.00    1.0
2018/11/06 00:53:15.000  -74.370508534  163.307877157  1012.2571   6  11   0.0512   0.0576   0.1940  -0.0245   0.0717  -0.0571   4.00    1.0
2018/11/06 00:53:30.000  -74.370508618  163.307877448  1012.2576   6  11   0.0459   0.0514   0.1725  -0.0213   0.0628  -0.0498   4.00    1.0
2018/11/06 00:53:45.000  -74.370508668  163.307877811  1012.2669   6  11   0.0408   0.0452   0.1518  -0.0183   0.0541  -0.0429   4.00    1.0
2018/11/06 00:54:00.000  -74.370508701  163.307878515  1012.3035   6  11   0.0360   0.0391   0.1323  -0.0155   0.0457  -0.0368   4.00    1.0
2018/11/06 00:54:15.000  -74.370508711  163.307879202  1012.3434   6  11   0.0316   0.0333   0.1148  -0.0131   0.0377  -0.0317   4.00    0.0
2018/11/06 00:54:30.000  -74.370508625  163.307879081  1012.3061   6  11   0.0279   0.0280   0.1006  -0.0110   0.0303  -0.0283   4.00    0.0
2018/11/06 00:54:45.000  -74.370508694  163.307879414  1012.3336   6  10   0.0262   0.0247   0.0924  -0.0126   0.0291  -0.0290   4.00    0.0
2018/11/06 00:55:00.000  -74.370508680  163.307879003  1012.3043   6  10   0.0227   0.0223   0.0762  -0.0103   0.0240  -0.0187   4.00    0.0
2018/11/06 00:55:15.000  -74.370508568  163.307878644  1012.2444   6  10   0.0261   0.0247   0.0923  -0.0124   0.0288  -0.0287   4.00    0.0
2018/11/06 00:55:30.000  -74.370508524  163.307878347  1012.2016   6  10   0.0327   0.0293   0.1211  -0.0162   0.0380  -0.0442   4.00    0.0
2018/11/06 00:55:45.000  -74.370508421  163.307878233  1012.1956   6  10   0.0409   0.0349   0.1551  -0.0210   0.0491  -0.0610   4.00    0.0
2018/11/06 00:56:00.000  -74.370508423  163.307878217  1012.2505   6  10   0.0498   0.0411   0.1912  -0.0262   0.0611  -0.0783   4.00    0.0
2018/11/06 00:56:15.000  -74.370508495  163.307877903  1012.2683   6  10   0.0591   0.0475   0.2283  -0.0317   0.0734  -0.0959   4.00    0.0
2018/11/06 00:56:30.000  -74.370508596  163.307877615  1012.2720   6  10   0.0686   0.0540   0.2659  -0.0373   0.0857  -0.1135   4.00    0.0
2018/11/06 00:56:45.000  -74.370508593  163.307877602  1012.2914   6  10   0.0782   0.0606   0.3039  -0.0429   0.0980  -0.1312   4.00    0.0
2018/11/06 00:57:00.000  -74.370508775  163.307877773  1012.3569   6  10   0.0879   0.0672   0.3422  -0.0485   0.1102  -0.1489   4.00    0.0
2018/11/06 00:57:15.000  -74.370508717  163.307877725  1012.3650   6  10   0.0975   0.0738   0.3811  -0.0541   0.1223  -0.1666   4.00    0.0
2018/11/06 00:57:30.000  -74.370508676  163.307877669  1012.3724   6  10   0.1073   0.0804   0.4214  -0.0595   0.1343  -0.1845   4.00    0.0
2018/11/06 00:57:45.000  -74.370508780  163.307877922  1012.4356   6  10   0.0976   0.0734   0.3943  -0.0533   0.1205  -0.1686   4.00    0.0
2018/11/06 00:58:00.000  -74.370508665  163.307877914  1012.3379   6   9   0.0893   0.0665   0.3794  -0.0476   0.1083  -0.1576   4.00    0.0
2018/11/06 00:58:15.000  -74.370508813  163.307878549  1012.4193   6   9   0.0793   0.0597   0.3358  -0.0416   0.0951  -0.1384   4.00    0.0
2018/11/06 00:58:30.000  -74.370508930  163.307878540  1012.4799   6   9   0.0694   0.0530   0.2923  -0.0357   0.0821  -0.1193   4.00    0.0
2018/11/06 00:58:45.000  -74.370508902  163.307878300  1012.4638   6   9   0.0596   0.0465   0.2493  -0.0300   0.0693  -0.1002   4.00    0.0
2018/11/06 00:59:00.000  -74.370508894  163.307878224  1012.4586   6   9   0.0501   0.0401   0.2069  -0.0245   0.0569  -0.0814   4.00    0.0
2018/11/06 00:59:15.000  -74.370508894  163.307878612  1012.4560   6   9   0.0409   0.0341   0.1658  -0.0194   0.0452  -0.0629   4.00    0.0
2018/11/06 00:59:30.000  -74.370508769  163.307878740  1012.3682   6   9   0.0325   0.0286   0.1271  -0.0148   0.0345  -0.0449   5.00    0.0
2018/11/06 00:59:45.000  -74.370508644  163.307878781  1012.2966   6   9   0.0258   0.0242   0.0943  -0.0111   0.0259  -0.0283   5.00    0.0
2018/11/06 01:00:00.000  -74.370508627  163.307878813  1012.2894   6   9   0.0223   0.0219   0.0753  -0.0091   0.0216  -0.0169   5.00    0.0
2018/11/06 01:00:15.000  -74.370508751  163.307878958  1012.3307   6   9   0.0255   0.0241   0.0932  -0.0108   0.0254  -0.0279   5.00    0.0
2018/11/06 01:00:30.000  -74.370508808  163.307878713  1012.3426   6   9   0.0322   0.0283   0.1253  -0.0143   0.0334  -0.0443   5.00    0.0
2018/11/06 01:00:45.000  -74.370508920  163.307878655  1012.4086   6   9   0.0403   0.0335   0.1630  -0.0184   0.0431  -0.0619   4.00    0.0
2018/11/06 01:01:00.000  -74.370509032  163.307878641  1012.4903   6   9   0.0491   0.0393   0.2030  -0.0229   0.0535  -0.0799   4.00    0.0
2018/11/06 01:01:15.000  -74.370508712  163.307878070  1012.3325   6  10   0.0476   0.0451   0.1838  -0.0258   0.0604  -0.0649   4.00    0.0
2018/11/06 01:01:30.000  -74.370508717  163.307877730  1012.3480   6  10   0.0525   0.0508   0.2002  -0.0284   0.0666  -0.0692   4.00    0.0
2018/11/06 01:01:45.000  -74.370508772  163.307877398  1012.3626   6  10   0.0580   0.0567   0.2204  -0.0318   0.0742  -0.0757   4.00    0.0
2018/11/06 01:02:00.000  -74.370508810  163.307877626  1012.3617   6  10   0.0640   0.0628   0.2426  -0.0355   0.0824  -0.0833   4.00    0.0
2018/11/06 01:02:15.000  -74.370508768  163.307876885  1012.3489   6  10   0.0701   0.0689   0.2658  -0.0393   0.0909  -0.0914   4.00    0.0
2018/11/06 01:02:30.000  -74.370508682  163.307876465  1012.3176   6  10   0.0764   0.0751   0.2899  -0.0432   0.0995  -0.0999   4.00    0.0
2018/11/06 01:02:45.000  -74.370508666  163.307876698  1012.3432   6  10   0.0699   0.0687   0.2637  -0.0390   0.0900  -0.0904   5.00    0.0
2018/11/06 01:03:00.000  -74.370508652  163.307876953  1012.4080   6  10   0.0634   0.0623   0.2385  -0.0348   0.0806  -0.0810   5.00    0.0
2018/11/06 01:03:15.000  -74.370508675  163.307877405  1012.4405   6  10   0.0570   0.0560   0.2134  -0.0307   0.0714  -0.0716   5.00    0.0
2018/11/06 01:03:30.000  -74.370508618  163.307877244  1012.3653   6  10   0.0506   0.0499   0.1885  -0.0266   0.0622  -0.0622   5.00    0.0
2018/11/06 01:03:45.000  -74.370508645  163.307877637  1012.3825   6  10   0.0444   0.0438   0.1639  -0.0226   0.0532  -0.0528   5.00    0.0
2018/11/06 01:04:00.000  -74.370508576  163.307877966  1012.3695   6  10   0.0383   0.0379   0.1398  -0.0187   0.0445  -0.0434   5.00    0.0
2018/11/06 01:04:15.000  -74.370508580  163.307877947  1012.3311   6  10   0.0326   0.0323   0.1165  -0.0151   0.0361  -0.0341   4.00    0.0
2018/11/06 01:04:30.000  -74.370508605  163.307878340  1012.3333   6  10   0.0274   0.0272   0.0948  -0.0118   0.0283  -0.0248   4.00    0.0
2018/11/06 01:04:45.000  -74.370508600  163.307878600  1012.3009   6  10   0.0231   0.0232   0.0759  -0.0090   0.0216  -0.0152   4.00    0.0
2018/11/06 01:05:00.000  -74.370508655  163.307878440  1012.2995   6  10   0.0209   0.0211   0.0650  -0.0069   0.0178  -0.0057   4.00    0.0
2018/11/06 01:05:15.000  -74.370508671  163.307878155  1012.2894   6  10   0.0234   0.0231   0.0786  -0.0076   0.0189  -0.0182   4.00    0.0
2018/11/06 01:05:30.000  -74.370508761  163.307877966  1012.3474   6  10   0.0291   0.0273   0.1056  -0.0124   0.0294  -0.0336   4.00    0.0
2018/11/06 01:05:45.000  -74.370508793  163.307877832  1012.4054   6  10   0.0339   0.0320   0.1249  -0.0144   0.0344  -0.0409   4.00    0.0
2018/11/06 01:06:00.000  -74.370508776  163.307878025  1012.4233   6  10   0.0396   0.0373   0.1480  -0.0173   0.0412  -0.0500   4.00    0.0
2018/11/06 01:06:15.000  -74.370508831  163.307877730  1012.4288   6  10   0.0458   0.0429   0.1734  -0.0206   0.0488  -0.0600   4.00    0.0
2018/11/06 01:06:30.000  -74.370508795  163.307877411  1012.3805   6  10   0.0525   0.0486   0.2012  -0.0242   0.0566  -0.0712   4.00    0.0
2018/11/06 01:06:45.000  -74.370508815  163.307877054  1012.3976   6  10   0.0600   0.0544   0.2323  -0.0278   0.0644  -0.0840   4.00    0.0
2018/11/06 01:07:00.000  -74.370508830  163.307876719  1012.4300   6  10   0.0688   0.0603   0.2710  -0.0313   0.0719  -0.1011   4.00    0.0
2018/11/06 01:07:15.000  -74.370508562  163.307876359  1012.3051   6  10   0.0745   0.0663   0.2940  -0.0378   0.0858  -0.1084   4.00    0.0
2018/11/06 01:07:30.000  -74.370508509  163.307876037  1012.2655   6  10   0.0790   0.0721   0.3076  -0.0408   0.0924  -0.1107   4.00    0.0
2018/11/06 01:07:45.000  -74.370508519  163.307876503  1012.2883   6  10   0.0713   0.0661   0.2759  -0.0366   0.0831  -0.0977   4.00    0.0
2018/11/06 01:08:00.000  -74.370508529  163.307876983  1012.3171   6  10   0.0640   0.0600   0.2459  -0.0324   0.0740  -0.0858   4.00    0.0
2018/11/06 01:08:15.000  -74.370508520  163.307877349  1012.2957   6  10   0.0571   0.0540   0.2173  -0.0284   0.0651  -0.0745   4.00    0.0
2018/11/06 01:08:30.000  -74.370508498  163.307877414  1012.2694   6  10   0.0503   0.0481   0.1896  -0.0244   0.0564  -0.0637   4.00    0.0
2018/11/06 01:08:45.000  -74.370508579  163.307877699  1012.2809   6  10   0.0438   0.0423   0.1627  -0.0206   0.0479  -0.0530   4.00    0.0
2018/11/06 01:09:00.000  -74.370508614  163.307877905  1012.2920   6  10   0.0375   0.0367   0.1366  -0.0169   0.0397  -0.0425   4.00    0.0
2018/11/06 01:09:15.000  -74.370508607  163.307878082  1012.2878   6  10   0.0317   0.0314   0.1116  -0.0134   0.0319  -0.0321   4.00    0.0
2018/11/06 01:09:30.000  -74.370509012  163.307880484  1012.3343   1  10   0.0325   0.0288   0.1148  -0.0141   0.0392  -0.0362   5.00    1.0
2018/11/06 01:09:45.000  -74.370509003  163.307880252  1012.3170   1  10   0.0267   0.0233   0.0891  -0.0098   0.0323  -0.0256   5.00    1.0
2018/11/06 01:10:00.000  -74.370508963  163.307879976  1012.2982   1  10   0.0239   0.0204   0.0748  -0.0075   0.0290  -0.0189   5.00    1.0
2018/11/06 01:10:15.000  -74.370508923  163.307879776  1012.2981   1  10   0.0266   0.0232   0.0885  -0.0096   0.0321  -0.0252   5.00    1.0
2018/11/06 01:10:30.000  -74.370508805  163.307879539  1012.3034   1  10   0.0324   0.0287   0.1138  -0.0137   0.0384  -0.0357   5.00    1.0
2018/11/06 01:10:45.000  -74.370508308  163.307877134  1012.3087   6  10   0.0307   0.0310   0.1060  -0.0123   0.0297  -0.0289   4.00    0.0
2018/11/06 01:11:00.000  -74.370508277  163.307877005  1012.3372   6  10   0.0363   0.0361   0.1292  -0.0155   0.0367  -0.0385   0.00    0.0
2018/11/06 01:11:15.000  -74.370508253  163.307877073  1012.3502   6  10   0.0422   0.0414   0.1535  -0.0188   0.0439  -0.0480   0.00    0.0
2018/11/06 01:11:30.000  -74.370508157  163.307876891  1012.3440   6  10   0.0483   0.0468   0.1784  -0.0223   0.0512  -0.0575   0.00    0.0
2018/11/06 01:11:45.000  -74.370508156  163.307876846  1012.3433   6  10   0.0546   0.0524   0.2038  -0.0258   0.0585  -0.0669   2.00    0.0
2018/11/06 01:12:00.000  -74.370508101  163.307876503  1012.3121   6  10   0.0611   0.0580   0.2294  -0.0293   0.0658  -0.0763   3.00    0.0
2018/11/06 01:12:15.000  -74.370508163  163.307876294  1012.3113   6  10   0.0676   0.0636   0.2551  -0.0328   0.0730  -0.0856   3.00    0.0
2018/11/06 01:12:30.000  -74.370508207  163.307876685  1012.2970   6  10   0.0741   0.0693   0.2809  -0.0363   0.0800  -0.0949   3.00    0.0
2018/11/06 01:12:45.000  -74.370508267  163.307877020  1012.3181   6  10   0.0676   0.0635   0.2549  -0.0326   0.0720  -0.0853   4.00    0.0
2018/11/06 01:13:00.000  -74.370508276  163.307876922  1012.3174   6  10   0.0610   0.0577   0.2288  -0.0288   0.0640  -0.0758   4.00    0.0
2018/11/06 01:13:15.000  -74.370508228  163.307876926  1012.2738   6  10   0.0546   0.0519   0.2030  -0.0251   0.0561  -0.0663   3.00    0.0
2018/11/06 01:13:30.000  -74.370508275  163.307877270  1012.2730   6  10   0.0482   0.0463   0.1774  -0.0215   0.0484  -0.0567   3.00    0.0
2018/11/06 01:13:45.000  -74.370508352  163.307877554  1012.2989   6  10   0.0420   0.0408   0.1521  -0.0179   0.0408  -0.0471   3.00    0.0
2018/11/06 01:14:00.000  -74.370508373  163.307877601  1012.3172   6  10   0.0360   0.0355   0.1275  -0.0145   0.0336  -0.0375   3.00    0.0
2018/11/06 01:14:15.000  -74.370508413  163.307877575  1012.3207   6  10   0.0304   0.0305   0.1038  -0.0114   0.0267  -0.0276   4.00    0.0
2018/11/06 01:14:30.000  -74.370508941  163.307879725  1012.2999   1  10   0.0321   0.0280   0.1107  -0.0122   0.0355  -0.0338   5.00    1.0
2018/11/06 01:14:45.000  -74.370508995  163.307879649  1012.2992   1  10   0.0264   0.0226   0.0846  -0.0077   0.0297  -0.0229   5.00    1.0
2018/11/06 01:15:00.000  -74.370509010  163.307879827  1012.2849   1  10   0.0235   0.0200   0.0701  -0.0046   0.0270  -0.0162   5.00    1.0
2018/11/06 01:15:15.000  -74.370509114  163.307879648  1012.2719   1  10   0.0262   0.0226   0.0839  -0.0075   0.0294  -0.0225   5.00    1.0
2018/11/06 01:15:30.000  -74.370509268  163.307879827  1012.3153   1  10   0.0319   0.0278   0.1095  -0.0116   0.0346  -0.0332   5.00    1.0
2018/11/06 01:15:45.000  -74.370509289  163.307879812  1012.3508   1  10   0.0392   0.0344   0.1404  -0.0161   0.0414  -0.0449   5.00    1.0
2018/11/06 01:16:00.000  -74.370508741  163.307877473  1012.3382   6  10   0.0356   0.0349   0.1252  -0.0135   0.0314  -0.0368   3.00    0.0
2018/11/06 01:16:15.000  -74.370508760  163.307877538  1012.3439   6  10   0.0415   0.0400   0.1494  -0.0165   0.0375  -0.0462   3.00    0.0
2018/11/06 01:16:30.000  -74.370508764  163.307877735  1012.3458   6  10   0.0476   0.0452   0.1742  -0.0197   0.0437  -0.0555   3.00    0.0
2018/11/06 01:16:45.000  -74.370508708  163.307877392  1012.2980   6  10   0.0539   0.0505   0.1992  -0.0228   0.0497  -0.0646   3.00    0.0
2018/11/06 01:17:00.000  -74.370508591  163.307877007  1012.2081   6  10   0.0603   0.0559   0.2244  -0.0260   0.0557  -0.0737   3.00    0.0
2018/11/06 01:17:15.000  -74.370508500  163.307876537  1012.2634   6  10   0.0667   0.0613   0.2497  -0.0291   0.0616  -0.0827   3.00    0.0
2018/11/06 01:17:30.000  -74.370508613  163.307876559  1012.3290   6  10   0.0732   0.0668   0.2749  -0.0321   0.0673  -0.0917   3.00    0.0
2018/11/06 01:17:45.000  -74.370508648  163.307876672  1012.3894   6  10   0.0665   0.0610   0.2492  -0.0284   0.0601  -0.0823   3.00    0.0
2018/11/06 01:18:00.000  -74.370508663  163.307876619  1012.4156   6  10   0.0600   0.0554   0.2234  -0.0250   0.0532  -0.0730   4.00    0.0
2018/11/06 01:18:15.000  -74.370508626  163.307876796  1012.4500   6  10   0.0536   0.0499   0.1977  -0.0216   0.0464  -0.0636   4.00    0.0
2018/11/06 01:18:30.000  -74.370508601  163.307877099  1012.4469   6  10   0.0473   0.0445   0.1724  -0.0183   0.0399  -0.0543   4.00    0.0
2018/11/06 01:18:45.000  -74.370508587  163.307877356  1012.4103   6  10   0.0411   0.0393   0.1474  -0.0151   0.0335  -0.0449   4.00    0.0
2018/11/06 01:19:00.000  -74.370508650  163.307877618  1012.4020   6  10   0.0352   0.0343   0.1230  -0.0120   0.0275  -0.0354   4.00    0.0
2018/11/06 01:19:15.000  -74.370509148  163.307879814  1012.3394   1  10   0.0387   0.0335   0.1372  -0.0139   0.0370  -0.0429   5.00    1.0
2018/11/06 01:19:30.000  -74.370509122  163.307879781  1012.3374   1  10   0.0315   0.0270   0.1061  -0.0094   0.0310  -0.0311   5.00    1.0
2018/11/06 01:19:45.000  -74.370509097  163.307879681  1012.3071   1  10   0.0259   0.0220   0.0802  -0.0050   0.0268  -0.0203   5.00    1.0
2018/11/06 01:20:00.000  -74.370509018  163.307879624  1012.2811   1  10   0.0233   0.0196   0.0660   0.0020   0.0249  -0.0133   5.00    1.0
2018/11/06 01:20:15.000  -74.370508993  163.307879768  1012.2618   1  10   0.0258   0.0219   0.0796  -0.0041   0.0265  -0.0199   5.00    1.0
2018/11/06 01:20:30.000  -74.370509010  163.307879737  1012.2676   1  10   0.0313   0.0269   0.1049  -0.0086   0.0302  -0.0304   5.00    1.0
2018/11/06 01:20:45.000  -74.370509047  163.307879398  1012.2640   1  10   0.0385   0.0332   0.1353  -0.0129   0.0351  -0.0419   5.00    1.0
2018/11/06 01:21:00.000  -74.370508460  163.307877553  1012.2838   6  10   0.0349   0.0337   0.1208  -0.0108   0.0251  -0.0345   4.00    0.0
2018/11/06 01:21:15.000  -74.370508460  163.307877449  1012.3058   6  10   0.0407   0.0386   0.1444  -0.0135   0.0298  -0.0436   4.00    0.0
2018/11/06 01:21:30.000  -74.370508461  163.307877580  1012.3254   6  10   0.0467   0.0436   0.1685  -0.0163   0.0344  -0.0525   4.00    0.0
2018/11/06 01:21:45.000  -74.370508474  163.307877578  1012.3443   6  10   0.0529   0.0488   0.1928  -0.0191   0.0389  -0.0613   4.00    0.0
2018/11/06 01:22:00.000  -74.370508297  163.307877269  1012.3200   6  11   0.0521   0.0524   0.1868  -0.0109   0.0214  -0.0424   4.00    0.0
2018/11/06 01:22:15.000  -74.370508243  163.307877128  1012.3105   6  11   0.0559   0.0572   0.1999  -0.0084   0.0125  -0.0390   4.00    0.0
2018/11/06 01:22:30.000  -74.370508211  163.307876991  1012.2569   6  11   0.0603   0.0621   0.2164  -0.0071  -0.0073  -0.0389   4.00    0.0
2018/11/06 01:22:45.000  -74.370508129  163.307877106  1012.2680   6  11   0.0549   0.0571   0.1956  -0.0041  -0.0074  -0.0338   4.00    0.0
2018/11/06 01:23:00.000  -74.370508201  163.307876996  1012.3110   6  11   0.0497   0.0520   0.1758   0.0018  -0.0079  -0.0291   4.00    0.0
2018/11/06 01:23:15.000  -74.370508353  163.307877154  1012.3097   6  11   0.0447   0.0470   0.1563   0.0041  -0.0074  -0.0245   4.00    0.0
2018/11/06 01:23:30.000  -74.370508363  163.307876948  1012.2896   6  11   0.0397   0.0421   0.1370   0.0050  -0.0061  -0.0198   4.00    0.0
2018/11/06 01:23:45.000  -74.370508471  163.307876919  1012.2756   6  11   0.0350   0.0373   0.1181   0.0053  -0.0038  -0.0147   4.00    0.0
2018/11/06 01:24:00.000  -74.370508933  163.307878333  1012.1467   1  11   0.0388   0.0384   0.1339   0.0062   0.0171  -0.0185   5.00    1.0
2018/11/06 01:24:15.000  -74.370508982  163.307878954  1012.1675   1  11   0.0327   0.0318   0.1093   0.0068   0.0192  -0.0136   5.00    1.0
2018/11/06 01:24:30.000  -74.370508916  163.307879016  1012.1871   1  11   0.0274   0.0259   0.0866   0.0070   0.0206  -0.0080   5.00    1.0
2018/11/06 01:24:45.000  -74.370508901  163.307879161  1012.2191   1  11   0.0234   0.0213   0.0680   0.0073   0.0210   0.0055   5.00    1.0
2018/11/06 01:25:00.000  -74.370508989  163.307879319  1012.2337   1  11   0.0217   0.0190   0.0580   0.0074   0.0212   0.0087   5.00    1.0
2018/11/06 01:25:15.000  -74.370508946  163.307879215  1012.2396   1  11   0.0235   0.0215   0.0676   0.0074   0.0210   0.0057   5.00    1.0
2018/11/06 01:25:30.000  -74.370508890  163.307879058  1012.2356   1  11   0.0274   0.0258   0.0862   0.0074   0.0198  -0.0071   5.00    1.0
2018/11/06 01:25:45.000  -74.370508891  163.307878801  1012.2461   1  11   0.0327   0.0317   0.1090   0.0074   0.0175  -0.0135   5.00    1.0
2018/11/06 01:26:00.000  -74.370508820  163.307878890  1012.2246   1  11   0.0388   0.0383   0.1340   0.0073   0.0133  -0.0190   5.00    1.0
2018/11/06 01:26:15.000  -74.370508207  163.307877866  1012.2944   6  12   0.0337   0.0355   0.1121  -0.0011  -0.0212  -0.0161   4.00    0.0
2018/11/06 01:26:30.000  -74.370508223  163.307878048  1012.3370   6  12   0.0382   0.0398   0.1286  -0.0045  -0.0271  -0.0225   4.00    0.0
2018/11/06 01:26:45.000  -74.370508200  163.307877793  1012.3381   6  12   0.0428   0.0443   0.1463  -0.0065  -0.0323  -0.0281   4.00    0.0
2018/11/06 01:27:00.000  -74.370508194  163.307877918  1012.3423   6  12   0.0476   0.0489   0.1645  -0.0084  -0.0374  -0.0334   4.00    0.0
2018/11/06 01:27:15.000  -74.370508191  163.307878001  1012.3482   6  12   0.0525   0.0536   0.1830  -0.0101  -0.0425  -0.0386   4.00    0.0
2018/11/06 01:27:30.000  -74.370508210  163.307878433  1012.3430   6  12   0.0574   0.0584   0.2018  -0.0118  -0.0475  -0.0437   4.00    0.0
2018/11/06 01:27:45.000  -74.370508327  163.307878464  1012.3295   6  12   0.0526   0.0537   0.1842  -0.0102  -0.0434  -0.0389   4.00    0.0
2018/11/06 01:28:00.000  -74.370508419  163.307878580  1012.3328   6  12   0.0477   0.0489   0.1660  -0.0084  -0.0388  -0.0341   4.00    0.0
2018/11/06 01:28:15.000  -74.370508342  163.307878463  1012.3249   6  12   0.0429   0.0443   0.1478  -0.0066  -0.0342  -0.0291   4.00    0.0
2018/11/06 01:28:30.000  -74.370508391  163.307878446  1012.3214   6  12   0.0382   0.0397   0.1297  -0.0046  -0.0296  -0.0239   4.00    0.0
2018/11/06 01:28:45.000  -74.370508386  163.307878542  1012.3406   6  12   0.0337   0.0353   0.1119  -0.0025  -0.0249  -0.0183   4.00    0.0
2018/11/06 01:29:00.000  -74.370508984  163.307880064  1012.2822   1  12   0.0381   0.0364   0.1296  -0.0043  -0.0218  -0.0264   6.00    1.0
2018/11/06 01:29:15.000  -74.370509010  163.307879752  1012.2633   1  12   0.0322   0.0303   0.1055   0.0034  -0.0115  -0.0194   6.00    1.0
2018/11/06 01:29:30.000  -74.370508996  163.307879677  1012.2278   1  12   0.0272   0.0248   0.0833   0.0059   0.0111  -0.0120   6.00    1.0
2018/11/06 01:29:45.000  -74.370509019  163.307879264  1012.2152   1  12   0.0233   0.0206   0.0649   0.0071   0.0168   0.0029   6.00    1.0
2018/11/06 01:30:00.000  -74.370509059  163.307879339  1012.2296   1  12   0.0217   0.0187   0.0551   0.0078   0.0187   0.0086   6.00    1.0
2018/11/06 01:30:15.000  -74.370509130  163.307879741  1012.2120   1  12   0.0233   0.0206   0.0646   0.0074   0.0167   0.0039   6.00    1.0
2018/11/06 01:30:30.000  -74.370509110  163.307879914  1012.2269   1  12   0.0271   0.0249   0.0830   0.0064   0.0102  -0.0116   6.00    1.0
2018/11/06 01:30:45.000  -74.370509116  163.307880151  1012.2357   1  12   0.0322   0.0303   0.1056   0.0047  -0.0130  -0.0194   6.00    1.0
2018/11/06 01:31:00.000  -74.370509154  163.307880089  1012.2248   1  12   0.0381   0.0365   0.1303  -0.0020  -0.0234  -0.0266   6.00    1.0
2018/11/06 01:31:15.000  -74.370508612  163.307878956  1012.2405   6  12   0.0335   0.0349   0.1124   0.0014  -0.0261  -0.0190   5.00    0.0
2018/11/06 01:31:30.000  -74.370508619  163.307878938  1012.2687   6  12   0.0381   0.0393   0.1309  -0.0032  -0.0313  -0.0249   5.00    0.0
2018/11/06 01:31:45.000  -74.370508582  163.307878709  1012.2843   6  12   0.0428   0.0439   0.1498  -0.0052  -0.0364  -0.0304   5.00    0.0
2018/11/06 01:32:00.000  -74.370508639  163.307878763  1012.2491   6  12   0.0476   0.0485   0.1689  -0.0069  -0.0416  -0.0358   5.00    0.0
2018/11/06 01:32:15.000  -74.370508649  163.307878532  1012.2400   6  12   0.0525   0.0533   0.1882  -0.0084  -0.0468  -0.0411   5.00    0.0
2018/11/06 01:32:30.000  -74.370508609  163.307878776  1012.2439   6  12   0.0575   0.0581   0.2076  -0.0099  -0.0520  -0.0463   5.00    0.0
2018/11/06 01:32:45.000  -74.370508529  163.307878608  1012.2764   6  12   0.0527   0.0532   0.1893  -0.0084  -0.0470  -0.0417   5.00    0.0
2018/11/06 01:33:00.000  -74.370508550  163.307878608  1012.2659   6  12   0.0478   0.0485   0.1703  -0.0066  -0.0421  -0.0366   5.00    0.0
2018/11/06 01:33:15.000  -74.370508629  163.307878481  1012.2572   6  12   0.0430   0.0438   0.1513  -0.0047  -0.0371  -0.0313   5.00    1.0
2018/11/06 01:33:30.000  -74.370508600  163.307878190  1012.2294   6  12   0.0382   0.0393   0.1325  -0.0024  -0.0322  -0.0259   5.00    0.0
2018/11/06 01:33:45.000  -74.370508521  163.307878009  1012.2178   6  12   0.0337   0.0348   0.1139   0.0025  -0.0272  -0.0200   5.00    0.0
2018/11/06 01:34:00.000  -74.370509096  163.307879055  1012.1605   1  12   0.0384   0.0365   0.1322   0.0032  -0.0253  -0.0277   6.00    1.0
2018/11/06 01:34:15.000  -74.370509133  163.307878868  1012.1856   1  12   0.0324   0.0304   0.1070   0.0060  -0.0157  -0.0203   6.00    1.0
2018/11/06 01:34:30.000  -74.370509115  163.307878982  1012.1916   1  12   0.0272   0.0249   0.0837   0.0073   0.0061  -0.0122   6.00    1.0
2018/11/06 01:34:45.000  -74.370509113  163.307879170  1012.2087   1  12   0.0234   0.0208   0.0644   0.0082   0.0149   0.0044   6.00    1.0
2018/11/06 01:35:00.000  -74.370509075  163.307879345  1012.2225   1  12   0.0217   0.0189   0.0539   0.0083   0.0171   0.0092   6.00    1.0
2018/11/06 01:35:15.000  -74.370509038  163.307879063  1012.2098   1  12   0.0236   0.0210   0.0642   0.0084   0.0148   0.0048   6.00    1.0
2018/11/06 01:35:30.000  -74.370508982  163.307879107  1012.1882   1  12   0.0273   0.0252   0.0835   0.0078   0.0055  -0.0119   6.00    1.0
2018/11/06 01:35:45.000  -74.370508967  163.307879200  1012.2114   1  12   0.0325   0.0305   0.1069   0.0066  -0.0165  -0.0201   6.00    1.0
2018/11/06 01:36:00.000  -74.370508957  163.307879058  1012.2597   1  12   0.0384   0.0366   0.1324   0.0052  -0.0262  -0.0276   6.00    1.0
2018/11/06 01:36:15.000  -74.370508330  163.307877976  1012.3148   6  12   0.0336   0.0345   0.1142   0.0036  -0.0279  -0.0204   4.00    0.0
2018/11/06 01:36:30.000  -74.370508367  163.307878294  1012.2958   6  12   0.0382   0.0389   0.1331   0.0021  -0.0332  -0.0263   4.00    0.0
2018/11/06 01:36:45.000  -74.370508238  163.307878683  1012.3074   6  12   0.0429   0.0435   0.1523  -0.0027  -0.0385  -0.0319   4.00    0.0
2018/11/06 01:37:00.000  -74.370508323  163.307878806  1012.3050   6  12   0.0478   0.0481   0.1716  -0.0047  -0.0439  -0.0374   4.00    0.0
2018/11/06 01:37:15.000  -74.370508269  163.307878557  1012.2598   6  12   0.0527   0.0529   0.1911  -0.0062  -0.0492  -0.0427   5.00    0.0
2018/11/06 01:37:30.000  -74.370508316  163.307878664  1012.2663   6  12   0.0577   0.0577   0.2107  -0.0075  -0.0546  -0.0479   5.00    0.0
2018/11/06 01:37:45.000  -74.370508247  163.307879232  1012.2907   6  12   0.0527   0.0530   0.1913  -0.0065  -0.0495  -0.0427   5.00    0.0
2018/11/06 01:38:00.000  -74.370508301  163.307879058  1012.3099   6  12   0.0478   0.0483   0.1719  -0.0048  -0.0443  -0.0374   5.00    0.0
2018/11/06 01:38:15.000  -74.370508333  163.307878828  1012.3152   6  12   0.0429   0.0436   0.1525  -0.0027  -0.0391  -0.0320   5.00    0.0
2018/11/06 01:38:30.000  -74.370508363  163.307878502  1012.3269   6  12   0.0382   0.0390   0.1334   0.0022  -0.0339  -0.0263   5.00    0.0
2018/11/06 01:38:45.000  -74.370508394  163.307878749  1012.3220   6  12   0.0336   0.0346   0.1145   0.0037  -0.0287  -0.0204   5.00    0.0
2018/11/06 01:39:00.000  -74.370509047  163.307879507  1012.2348   1  12   0.0385   0.0369   0.1326   0.0059  -0.0276  -0.0276   6.00    1.0
2018/11/06 01:39:15.000  -74.370509091  163.307879338  1012.2241   1  12   0.0326   0.0308   0.1071   0.0075  -0.0182  -0.0200   6.00    1.0
2018/11/06 01:39:30.000  -74.370509108  163.307879013  1012.2115   1  12   0.0274   0.0255   0.0835   0.0083  -0.0045  -0.0117   6.00    1.0
2018/11/06 01:39:45.000  -74.370509002  163.307878978  1012.1646   1  12   0.0236   0.0214   0.0641   0.0090   0.0138   0.0055   6.00    1.0
2018/11/06 01:40:00.000  -74.370509118  163.307878829  1012.1919   1  12   0.0221   0.0195   0.0536   0.0097   0.0166   0.0099   6.00    1.0
2018/11/06 01:40:15.000  -74.370509278  163.307878657  1012.1765   1  12   0.0236   0.0217   0.0641   0.0092   0.0137   0.0060   6.00    1.0
2018/11/06 01:40:30.000  -74.370509295  163.307878780  1012.1914   1  12   0.0274   0.0258   0.0834   0.0089  -0.0044  -0.0114   6.00    1.0
2018/11/06 01:40:45.000  -74.370509350  163.307878696  1012.1941   1  12   0.0327   0.0311   0.1068   0.0083  -0.0185  -0.0197   6.00    1.0
2018/11/06 01:41:00.000  -74.370509310  163.307878568  1012.1850   1  12   0.0386   0.0371   0.1322   0.0072  -0.0280  -0.0274   6.00    1.0
2018/11/06 01:41:15.000  -74.370508541  163.307878295  1012.2239   6  12   0.0336   0.0343   0.1140   0.0043  -0.0291  -0.0203   6.00    0.0
2018/11/06 01:41:30.000  -74.370508582  163.307878820  1012.1731   6  12   0.0381   0.0387   0.1327   0.0035  -0.0345  -0.0263   6.00    0.0
2018/11/06 01:41:45.000  -74.370508604  163.307878818  1012.1838   6  12   0.0429   0.0432   0.1517   0.0019  -0.0399  -0.0319   6.00    0.0
2018/11/06 01:42:00.000  -74.370508777  163.307879171  1012.1892   6  12   0.0478   0.0479   0.1709  -0.0025  -0.0453  -0.0373   6.00    0.0
2018/11/06 01:42:15.000  -74.370508811  163.307878981  1012.1954   6  12   0.0527   0.0527   0.1901  -0.0042  -0.0508  -0.0425   6.00    0.0
2018/11/06 01:42:30.000  -74.370508767  163.307879398  1012.1711   6  12   0.0577   0.0575   0.2093  -0.0055  -0.0562  -0.0477   6.00    0.0
2018/11/06 01:42:45.000  -74.370508706  163.307879490  1012.1689   6  12   0.0528   0.0526   0.1893  -0.0031  -0.0511  -0.0427   6.00    0.0
2018/11/06 01:43:00.000  -74.370508682  163.307879308  1012.1725   6  12   0.0479   0.0479   0.1699   0.0016  -0.0457  -0.0374   6.00    0.0
2018/11/06 01:43:15.000  -74.370508640  163.307879124  1012.2079   6  12   0.0430   0.0432   0.1507   0.0036  -0.0404  -0.0319   6.00    0.0
2018/11/06 01:43:30.000  -74.370508586  163.307879300  1012.1701   6  12   0.0383   0.0387   0.1316   0.0045  -0.0350  -0.0263   6.00    1.0
2018/11/06 01:43:45.000  -74.370508607  163.307879339  1012.1441   6  12   0.0337   0.0343   0.1130   0.0051  -0.0298  -0.0203   6.00    1.0
2018/11/06 01:44:00.000  -74.370508462  163.307879863  1012.1251   1  12   0.0278   0.0261   0.0935  -0.0039  -0.0256  -0.0183   6.00    1.0
2018/11/06 01:44:15.000  -74.370508394  163.307879567  1012.1789   1  12   0.0236   0.0217   0.0758  -0.0029  -0.0207  -0.0128   6.00    1.0
2018/11/06 01:44:30.000  -74.370508400  163.307879303  1012.2120   1  12   0.0199   0.0178   0.0594  -0.0014  -0.0161  -0.0069   6.00    1.0
