% program   : RTKLIB ver.2.4.3
% inp file  : _by_type/_obs/hillary/20181108_20181110.18o
% inp file  : _by_type/_sp3+clk/igs20264.clk
% inp file  : _by_type/_sp3+clk/igs20264.sp3
% inp file  : _by_type/_nav/hillary/20181108_20181110.18n
% obs start : 2018/11/08 00:00:00.0 GPST (week2026 345600.0s)
% obs end   : 2018/11/10 23:59:45.0 GPST (week2026 604785.0s)
% pos mode  : ppp-kinematic
% solution  : combined
% elev mask : 15.0 deg
% dynamics  : off
% tidecorr  : on
% tropo opt : est ztd+grad
% ephemeris : precise
% navi sys  : gps glonass
% antenna1  :                       ( 0.0000  0.0000  0.0000)
%
% (lat/lon/height=WGS84/ellipsoidal,Q=1:fix,2:float,3:sbas,4:dgps,5:single,6:ppp,ns=# of satellites)
%  GPST                  latitude(deg) longitude(deg)  height(m)   Q  ns   sdn(m)   sde(m)   sdu(m)  sdne(m)  sdeu(m)  sdun(m) age(s)  ratio
2018/11/08 00:00:00.000  -74.393401239  163.452946742    97.6114   6   9   0.0232   0.0216   0.0651  -0.0099   0.0093  -0.0171   0.00    0.0
2018/11/08 00:00:15.000  -74.393401256  163.452946470    97.6156   6   9   0.0260   0.0248   0.0774  -0.0117   0.0151  -0.0226   0.00    0.0
2018/11/08 00:00:30.000  -74.393401293  163.452946881    97.6406   6   9   0.0313   0.0308   0.0989  -0.0144   0.0230  -0.0308   0.00    0.0
2018/11/08 00:00:45.000  -74.393401320  163.452946642    97.6363   6   9   0.0381   0.0384   0.1248  -0.0179   0.0315  -0.0398   0.00    0.0
2018/11/08 00:01:00.000  -74.393401340  163.452946365    97.6160   6   9   0.0456   0.0466   0.1529  -0.0215   0.0403  -0.0492   0.00    0.0
2018/11/08 00:01:15.000  -74.393401349  163.452946166    97.6157   6   9   0.0536   0.0552   0.1822  -0.0254   0.0491  -0.0589   0.00    0.0
2018/11/08 00:01:30.000  -74.393401391  163.452946179    97.6097   6   9   0.0617   0.0640   0.2121  -0.0292   0.0580  -0.0686   0.00    0.0
2018/11/08 00:01:45.000  -74.393401332  163.452946156    97.6065   6   9   0.0699   0.0727   0.2422  -0.0331   0.0667  -0.0783   2.00    0.0
2018/11/08 00:02:00.000  -74.393401392  163.452945890    97.6328   6   9   0.0781   0.0813   0.2722  -0.0369   0.0753  -0.0880   1.00    0.0
2018/11/08 00:02:15.000  -74.393401312  163.452945895    97.6057   6   9   0.0863   0.0898   0.3019  -0.0405   0.0837  -0.0975   4.00    0.0
2018/11/08 00:02:30.000  -74.393401380  163.452945211    97.6177   6   9   0.0942   0.0980   0.3311  -0.0440   0.0918  -0.1068   4.00    0.0
2018/11/08 00:02:45.000  -74.393401275  163.452945193    97.5978   6   9   0.0857   0.0890   0.3015  -0.0398   0.0833  -0.0966   4.00    0.0
2018/11/08 00:03:00.000  -74.393401298  163.452945641    97.5982   6   9   0.0774   0.0804   0.2727  -0.0362   0.0755  -0.0873   4.00    0.0
2018/11/08 00:03:15.000  -74.393401323  163.452945214    97.5557   6   9   0.0692   0.0717   0.2437  -0.0325   0.0675  -0.0779   5.00    0.0
2018/11/08 00:03:30.000  -74.393401379  163.452945253    97.5399   6   9   0.0610   0.0631   0.2144  -0.0288   0.0593  -0.0685   4.00    0.0
2018/11/08 00:03:45.000  -74.393401344  163.452945730    97.5624   6   9   0.0530   0.0545   0.1852  -0.0251   0.0510  -0.0589   5.00    0.0
2018/11/08 00:04:00.000  -74.393401264  163.452945791    97.5824   6   9   0.0452   0.0461   0.1561  -0.0214   0.0425  -0.0494   5.00    0.0
2018/11/08 00:04:15.000  -74.393401301  163.452946409    97.6303   6   9   0.0377   0.0380   0.1278  -0.0178   0.0339  -0.0400   5.00    0.0
2018/11/08 00:04:30.000  -74.393401327  163.452946304    97.6340   6   9   0.0311   0.0305   0.1013  -0.0146   0.0255  -0.0310   5.00    0.0
2018/11/08 00:04:45.000  -74.393401236  163.452946472    97.5905   6   9   0.0260   0.0246   0.0789  -0.0120   0.0179  -0.0230   5.00    0.0
2018/11/08 00:05:00.000  -74.393401262  163.452946554    97.5980   6   9   0.0234   0.0215   0.0663  -0.0105   0.0130  -0.0181   5.00    0.0
2018/11/08 00:05:15.000  -74.393401299  163.452946849    97.6520   6   9   0.0259   0.0246   0.0789  -0.0121   0.0181  -0.0231   5.00    0.0
2018/11/08 00:05:30.000  -74.393401220  163.452946783    97.6756   6   9   0.0311   0.0305   0.1014  -0.0147   0.0261  -0.0309   5.00    0.0
2018/11/08 00:05:45.000  -74.393401089  163.452947170    97.7057   6   9   0.0375   0.0379   0.1280  -0.0179   0.0348  -0.0395   5.00    0.0
2018/11/08 00:06:00.000  -74.393401041  163.452947008    97.7174   6   9   0.0445   0.0459   0.1559  -0.0212   0.0434  -0.0481   4.00    0.0
2018/11/08 00:06:15.000  -74.393401109  163.452946590    97.6756   6   9   0.0518   0.0540   0.1841  -0.0245   0.0519  -0.0565   4.00    0.0
2018/11/08 00:06:30.000  -74.393401213  163.452945945    97.6380   6   9   0.0591   0.0622   0.2120  -0.0277   0.0601  -0.0644   4.00    0.0
2018/11/08 00:06:45.000  -74.393401168  163.452945102    97.5991   6   9   0.0664   0.0702   0.2393  -0.0308   0.0680  -0.0720   4.00    0.0
2018/11/08 00:07:00.000  -74.393401189  163.452944766    97.5335   6   9   0.0734   0.0780   0.2661  -0.0338   0.0756  -0.0793   4.00    0.0
2018/11/08 00:07:15.000  -74.393401264  163.452943645    97.4661   6   9   0.0804   0.0857   0.2923  -0.0366   0.0831  -0.0864   4.00    0.0
2018/11/08 00:07:30.000  -74.393401407  163.452943180    97.4558   6   9   0.0872   0.0930   0.3180  -0.0394   0.0904  -0.0933   4.00    0.0
2018/11/08 00:07:45.000  -74.393401355  163.452943254    97.4638   6  10   0.0782   0.0842   0.2666  -0.0406   0.0955  -0.0728   4.00    0.0
2018/11/08 00:08:00.000  -74.393401257  163.452943416    97.4173   6  10   0.0713   0.0767   0.2438  -0.0372   0.0872  -0.0671   3.00    0.0
2018/11/08 00:08:15.000  -74.393401264  163.452944040    97.4651   6  10   0.0644   0.0691   0.2213  -0.0338   0.0785  -0.0618   4.00    0.0
2018/11/08 00:08:30.000  -74.393401237  163.452944627    97.4760   6  10   0.0574   0.0614   0.1989  -0.0301   0.0693  -0.0565   4.00    0.0
2018/11/08 00:08:45.000  -74.393401173  163.452945321    97.4709   6  10   0.0506   0.0537   0.1773  -0.0262   0.0592  -0.0516   3.00    0.0
2018/11/08 00:09:00.000  -74.393401294  163.452946268    97.5489   6  10   0.0443   0.0461   0.1604  -0.0217   0.0468  -0.0488   3.00    0.0
2018/11/08 00:09:15.000  -74.393401267  163.452946246    97.5133   6  10   0.0364   0.0378   0.1201  -0.0197   0.0424  -0.0339   3.00    0.0
2018/11/08 00:09:30.000  -74.393401268  163.452946583    97.5263   6  10   0.0303   0.0306   0.0966  -0.0161   0.0324  -0.0270   3.00    0.0
2018/11/08 00:09:45.000  -74.393401283  163.452947048    97.5585   6  10   0.0256   0.0247   0.0765  -0.0132   0.0232  -0.0207   3.00    0.0
2018/11/08 00:10:00.000  -74.393401379  163.452947055    97.5673   6  10   0.0232   0.0216   0.0649  -0.0112   0.0174  -0.0166   3.00    0.0
2018/11/08 00:10:15.000  -74.393401383  163.452947434    97.5821   6  10   0.0256   0.0248   0.0764  -0.0131   0.0233  -0.0205   3.00    0.0
2018/11/08 00:10:30.000  -74.393401356  163.452947352    97.5615   6  10   0.0301   0.0306   0.0963  -0.0160   0.0324  -0.0262   3.00    0.0
2018/11/08 00:10:45.000  -74.393401290  163.452947202    97.5319   6  10   0.0358   0.0375   0.1194  -0.0192   0.0421  -0.0322   3.00    0.0
2018/11/08 00:11:00.000  -74.393401249  163.452946866    97.4873   6  10   0.0421   0.0450   0.1434  -0.0224   0.0516  -0.0379   3.00    0.0
2018/11/08 00:11:15.000  -74.393401257  163.452946898    97.4815   6  10   0.0485   0.0525   0.1676  -0.0255   0.0608  -0.0432   3.00    0.0
2018/11/08 00:11:30.000  -74.393401242  163.452946725    97.4792   6  10   0.0550   0.0600   0.1916  -0.0286   0.0697  -0.0483   3.00    0.0
2018/11/08 00:11:45.000  -74.393401204  163.452946055    97.4346   6  10   0.0614   0.0673   0.2155  -0.0316   0.0785  -0.0533   3.00    0.0
2018/11/08 00:12:00.000  -74.393401251  163.452945407    97.4464   6  10   0.0678   0.0745   0.2391  -0.0346   0.0872  -0.0585   3.00    0.0
2018/11/08 00:12:15.000  -74.393401362  163.452945390    97.5043   6  10   0.0741   0.0816   0.2627  -0.0378   0.0958  -0.0640   3.00    0.0
2018/11/08 00:12:30.000  -74.393401489  163.452945486    97.5665   6  10   0.0803   0.0886   0.2862  -0.0410   0.1046  -0.0697   3.00    0.0
2018/11/08 00:12:45.000  -74.393401481  163.452945652    97.6088   6  10   0.0742   0.0817   0.2644  -0.0380   0.0968  -0.0650   3.00    0.0
2018/11/08 00:13:00.000  -74.393401599  163.452945414    97.5952   6  10   0.0678   0.0746   0.2419  -0.0349   0.0886  -0.0599   3.00    0.0
2018/11/08 00:13:15.000  -74.393401596  163.452945753    97.6069   6  10   0.0614   0.0673   0.2190  -0.0319   0.0802  -0.0549   3.00    0.0
2018/11/08 00:13:30.000  -74.393401578  163.452945581    97.6008   6  10   0.0549   0.0600   0.1956  -0.0288   0.0717  -0.0498   3.00    0.0
2018/11/08 00:13:45.000  -74.393401619  163.452946418    97.6283   6  10   0.0484   0.0526   0.1718  -0.0257   0.0629  -0.0446   3.00    0.0
2018/11/08 00:14:00.000  -74.393401554  163.452946438    97.6118   6  10   0.0420   0.0451   0.1475  -0.0226   0.0538  -0.0391   3.00    0.0
2018/11/08 00:14:15.000  -74.393401516  163.452946732    97.6007   6  10   0.0358   0.0377   0.1231  -0.0194   0.0444  -0.0332   3.00    0.0
2018/11/08 00:14:30.000  -74.393401452  163.452946594    97.5683   6  10   0.0301   0.0307   0.0992  -0.0162   0.0346  -0.0271   3.00    0.0
2018/11/08 00:14:45.000  -74.393401483  163.452946536    97.5775   6  10   0.0257   0.0250   0.0785  -0.0133   0.0255  -0.0210   3.00    0.0
2018/11/08 00:15:00.000  -74.393401539  163.452946819    97.5822   6  10   0.0232   0.0218   0.0663  -0.0115   0.0193  -0.0171   3.00    0.0
2018/11/08 00:15:15.000  -74.393401451  163.452946564    97.5135   6  10   0.0255   0.0248   0.0776  -0.0133   0.0249  -0.0205   3.00    0.0
2018/11/08 00:15:30.000  -74.393401415  163.452946923    97.5222   6  10   0.0297   0.0305   0.0976  -0.0157   0.0338  -0.0254   3.00    0.0
2018/11/08 00:15:45.000  -74.393401313  163.452946280    97.4718   6  10   0.0350   0.0372   0.1204  -0.0184   0.0430  -0.0304   3.00    0.0
2018/11/08 00:16:00.000  -74.393401250  163.452945862    97.4510   6  10   0.0409   0.0444   0.1442  -0.0212   0.0522  -0.0352   3.00    0.0
2018/11/08 00:16:15.000  -74.393401191  163.452945118    97.4227   6  10   0.0470   0.0516   0.1684  -0.0241   0.0613  -0.0401   3.00    0.0
2018/11/08 00:16:30.000  -74.393401315  163.452944628    97.4489   6  10   0.0533   0.0589   0.1928  -0.0271   0.0706  -0.0454   3.00    0.0
2018/11/08 00:16:45.000  -74.393401446  163.452944129    97.4237   6  10   0.0596   0.0661   0.2175  -0.0303   0.0799  -0.0511   3.00    0.0
2018/11/08 00:17:00.000  -74.393401507  163.452943840    97.3926   6  10   0.0658   0.0732   0.2422  -0.0336   0.0893  -0.0574   3.00    0.0
2018/11/08 00:17:15.000  -74.393401541  163.452943947    97.4081   6  10   0.0721   0.0803   0.2671  -0.0370   0.0989  -0.0641   3.00    0.0
2018/11/08 00:17:30.000  -74.393401552  163.452943803    97.3729   6  10   0.0783   0.0872   0.2921  -0.0406   0.1086  -0.0713   3.00    0.0
2018/11/08 00:17:45.000  -74.393401588  163.452944416    97.4005   6  10   0.0720   0.0800   0.2678  -0.0369   0.0988  -0.0645   3.00    0.0
2018/11/08 00:18:00.000  -74.393401584  163.452944581    97.3894   6  10   0.0657   0.0730   0.2439  -0.0335   0.0896  -0.0582   3.00    0.0
2018/11/08 00:18:15.000  -74.393401596  163.452944757    97.3941   6  10   0.0593   0.0659   0.2198  -0.0302   0.0805  -0.0522   3.00    0.0
2018/11/08 00:18:30.000  -74.393401595  163.452945439    97.4488   6  10   0.0530   0.0587   0.1956  -0.0270   0.0713  -0.0465   3.00    0.0
2018/11/08 00:18:45.000  -74.393401553  163.452945680    97.4734   6  10   0.0468   0.0514   0.1711  -0.0240   0.0621  -0.0410   3.00    0.0
2018/11/08 00:19:00.000  -74.393401477  163.452945878    97.4725   6  10   0.0406   0.0441   0.1467  -0.0210   0.0529  -0.0357   3.00    0.0
2018/11/08 00:19:15.000  -74.393401393  163.452945577    97.4615   6  10   0.0347   0.0370   0.1223  -0.0181   0.0436  -0.0304   3.00    0.0
2018/11/08 00:19:30.000  -74.393401385  163.452945669    97.4813   6  10   0.0294   0.0303   0.0989  -0.0154   0.0342  -0.0251   3.00    0.0
2018/11/08 00:19:45.000  -74.393401507  163.452946363    97.5523   6  10   0.0252   0.0247   0.0784  -0.0129   0.0254  -0.0200   3.00    0.0
2018/11/08 00:20:00.000  -74.393401555  163.452946742    97.5659   6  10   0.0231   0.0219   0.0667  -0.0113   0.0196  -0.0165   3.00    0.0
2018/11/08 00:20:15.000  -74.393401633  163.452946566    97.5649   6  10   0.0251   0.0252   0.0775  -0.0125   0.0248  -0.0191   3.00    0.0
2018/11/08 00:20:30.000  -74.393401634  163.452945615    97.5121   6  10   0.0290   0.0308   0.0969  -0.0148   0.0328  -0.0231   3.00    0.0
2018/11/08 00:20:45.000  -74.393401666  163.452944743    97.4312   6  10   0.0341   0.0377   0.1196  -0.0173   0.0416  -0.0276   3.00    0.0
2018/11/08 00:21:00.000  -74.393401780  163.452944730    97.4332   6  10   0.0399   0.0450   0.1438  -0.0200   0.0508  -0.0327   3.00    0.0
2018/11/08 00:21:15.000  -74.393401857  163.452944874    97.4471   6  10   0.0460   0.0527   0.1689  -0.0231   0.0602  -0.0384   3.00    0.0
2018/11/08 00:21:30.000  -74.393401886  163.452944828    97.4927   6  10   0.0522   0.0607   0.1945  -0.0264   0.0696  -0.0448   3.00    0.0
2018/11/08 00:21:45.000  -74.393401894  163.452944592    97.5171   6  11   0.0562   0.0703   0.2103  -0.0297   0.0792  -0.0612   3.00    0.0
2018/11/08 00:22:00.000  -74.393401906  163.452944897    97.4824   6  11   0.0622   0.0727   0.2342  -0.0331   0.0920  -0.0697   2.00    0.0
2018/11/08 00:22:15.000  -74.393401887  163.452944473    97.4948   6  11   0.0683   0.0795   0.2591  -0.0369   0.1022  -0.0783   2.00    0.0
2018/11/08 00:22:30.000  -74.393401830  163.452943915    97.4765   6  11   0.0743   0.0863   0.2841  -0.0408   0.1126  -0.0872   2.00    0.0
2018/11/08 00:22:45.000  -74.393401922  163.452944021    97.5008   6  11   0.0683   0.0794   0.2614  -0.0372   0.1034  -0.0792   2.00    0.0
2018/11/08 00:23:00.000  -74.393401844  163.452943853    97.4459   6  11   0.0622   0.0723   0.2373  -0.0335   0.0934  -0.0710   2.00    0.0
2018/11/08 00:23:15.000  -74.393401864  163.452944141    97.4494   6  11   0.0562   0.0651   0.2130  -0.0298   0.0835  -0.0629   3.00    0.0
2018/11/08 00:23:30.000  -74.393401780  163.452944671    97.4597   6  11   0.0501   0.0579   0.1889  -0.0263   0.0736  -0.0550   3.00    0.0
2018/11/08 00:23:45.000  -74.393401737  163.452945242    97.4946   6  11   0.0442   0.0506   0.1648  -0.0230   0.0637  -0.0473   3.00    0.0
2018/11/08 00:24:00.000  -74.393401682  163.452945638    97.5036   6  11   0.0384   0.0434   0.1411  -0.0199   0.0540  -0.0400   3.00    0.0
2018/11/08 00:24:15.000  -74.393401600  163.452945961    97.5012   6  11   0.0331   0.0363   0.1181  -0.0171   0.0445  -0.0330   3.00    0.0
2018/11/08 00:24:30.000  -74.393401594  163.452946345    97.4984   6  11   0.0283   0.0298   0.0964  -0.0146   0.0353  -0.0265   3.00    0.0
2018/11/08 00:24:45.000  -74.393401601  163.452946358    97.5094   6  11   0.0246   0.0242   0.0777  -0.0125   0.0270  -0.0208   3.00    0.0
2018/11/08 00:25:00.000  -74.393401576  163.452946446    97.5481   6  11   0.0227   0.0211   0.0666  -0.0112   0.0214  -0.0168   3.00    0.0
2018/11/08 00:25:15.000  -74.393401513  163.452946044    97.5430   6  11   0.0245   0.0242   0.0770  -0.0125   0.0266  -0.0199   3.00    0.0
2018/11/08 00:25:30.000  -74.393401470  163.452945794    97.5228   6  11   0.0282   0.0297   0.0951  -0.0146   0.0347  -0.0253   3.00    0.0
2018/11/08 00:25:45.000  -74.393401441  163.452945403    97.5122   6  11   0.0330   0.0363   0.1166  -0.0172   0.0438  -0.0317   3.00    0.0
2018/11/08 00:26:00.000  -74.393401397  163.452944703    97.4705   6  11   0.0384   0.0433   0.1399  -0.0202   0.0535  -0.0389   3.00    0.0
2018/11/08 00:26:15.000  -74.393401453  163.452944288    97.4814   6  11   0.0442   0.0506   0.1643  -0.0236   0.0636  -0.0467   3.00    0.0
2018/11/08 00:26:30.000  -74.393401437  163.452943170    97.4454   6  11   0.0502   0.0578   0.1893  -0.0272   0.0739  -0.0549   3.00    0.0
2018/11/08 00:26:45.000  -74.393401350  163.452942720    97.4394   6  11   0.0564   0.0651   0.2147  -0.0313   0.0844  -0.0636   3.00    0.0
2018/11/08 00:27:00.000  -74.393401350  163.452942853    97.4732   6  11   0.0628   0.0725   0.2404  -0.0358   0.0950  -0.0725   3.00    0.0
2018/11/08 00:27:15.000  -74.393401279  163.452942272    97.4428   6  11   0.0699   0.0805   0.2662  -0.0416   0.1059  -0.0820   3.00    0.0
2018/11/08 00:27:30.000  -74.393401251  163.452941976    97.4240   6  11   0.0774   0.0891   0.2936  -0.0482   0.1187  -0.0936   2.00    0.0
2018/11/08 00:27:45.000  -74.393401427  163.452942843    97.4655   6  11   0.0683   0.0792   0.2678  -0.0390   0.1069  -0.0831   2.00    0.0
2018/11/08 00:28:00.000  -74.393401394  163.452943011    97.4725   6  11   0.0618   0.0716   0.2419  -0.0341   0.0956  -0.0733   2.00    0.0
2018/11/08 00:28:15.000  -74.393401404  163.452943347    97.4882   6  11   0.0556   0.0643   0.2164  -0.0299   0.0849  -0.0642   2.00    0.0
2018/11/08 00:28:30.000  -74.393401493  163.452943298    97.5497   6  11   0.0495   0.0571   0.1911  -0.0261   0.0744  -0.0556   6.00    0.0
2018/11/08 00:28:45.000  -74.393401512  163.452943737    97.5464   6  11   0.0436   0.0499   0.1661  -0.0225   0.0640  -0.0473   6.00    0.0
2018/11/08 00:29:00.000  -74.393401540  163.452944331    97.5547   6  11   0.0378   0.0427   0.1416  -0.0191   0.0539  -0.0394   6.00    0.0
2018/11/08 00:29:15.000  -74.393401606  163.452945166    97.5824   6  11   0.0324   0.0357   0.1181  -0.0162   0.0442  -0.0321   6.00    0.0
2018/11/08 00:29:30.000  -74.393401682  163.452945615    97.5560   6  11   0.0277   0.0291   0.0963  -0.0136   0.0349  -0.0255   6.00    0.0
2018/11/08 00:29:45.000  -74.393401748  163.452946487    97.6011   6  11   0.0240   0.0238   0.0782  -0.0116   0.0268  -0.0199   6.00    0.0
2018/11/08 00:30:00.000  -74.393401718  163.452946538    97.5876   6  11   0.0221   0.0207   0.0678  -0.0104   0.0216  -0.0162   6.00    0.0
2018/11/08 00:30:15.000  -74.393401786  163.452946641    97.6126   6  11   0.0239   0.0235   0.0775  -0.0112   0.0263  -0.0190   6.00    0.0
2018/11/08 00:30:30.000  -74.393402072  163.452947697    97.6729   1  11   0.0320   0.0323   0.1143  -0.0201   0.0460  -0.0384   6.00    1.0
2018/11/08 00:30:45.000  -74.393401831  163.452945709    97.6142   6  11   0.0322   0.0353   0.1166  -0.0157   0.0433  -0.0307   6.00    0.0
2018/11/08 00:31:00.000  -74.393401779  163.452945193    97.6066   6  11   0.0375   0.0422   0.1399  -0.0185   0.0530  -0.0381   6.00    0.0
2018/11/08 00:31:15.000  -74.393401685  163.452944367    97.5874   6  11   0.0431   0.0492   0.1643  -0.0218   0.0630  -0.0460   6.00    0.0
2018/11/08 00:31:30.000  -74.393401652  163.452943855    97.5623   6  11   0.0488   0.0563   0.1893  -0.0252   0.0733  -0.0544   6.00    0.0
2018/11/08 00:31:45.000  -74.393401648  163.452943521    97.5425   6  11   0.0547   0.0633   0.2145  -0.0289   0.0836  -0.0631   6.00    0.0
2018/11/08 00:32:00.000  -74.393401718  163.452943383    97.5328   6  11   0.0606   0.0702   0.2400  -0.0326   0.0940  -0.0719   6.00    0.0
2018/11/08 00:32:15.000  -74.393401743  163.452943202    97.5605   6  11   0.0665   0.0770   0.2654  -0.0365   0.1045  -0.0810   6.00    0.0
2018/11/08 00:32:30.000  -74.393401668  163.452942643    97.4950   6  11   0.0723   0.0839   0.2909  -0.0404   0.1149  -0.0901   6.00    0.0
2018/11/08 00:32:45.000  -74.393401656  163.452942633    97.4844   6  11   0.0664   0.0772   0.2653  -0.0365   0.1043  -0.0809   6.00    0.0
2018/11/08 00:33:00.000  -74.393401763  163.452943539    97.4985   6  11   0.0604   0.0702   0.2396  -0.0325   0.0937  -0.0718   6.00    0.0
2018/11/08 00:33:15.000  -74.393401752  163.452943952    97.4944   6  11   0.0544   0.0632   0.2141  -0.0286   0.0832  -0.0628   6.00    0.0
2018/11/08 00:33:30.000  -74.393401714  163.452944200    97.4344   6  11   0.0485   0.0562   0.1889  -0.0249   0.0727  -0.0540   6.00    0.0
2018/11/08 00:33:45.000  -74.393401762  163.452944687    97.4534   6  11   0.0428   0.0491   0.1640  -0.0214   0.0625  -0.0456   6.00    0.0
2018/11/08 00:34:00.000  -74.393401798  163.452944862    97.4785   6  11   0.0372   0.0421   0.1399  -0.0181   0.0524  -0.0376   6.00    0.0
2018/11/08 00:34:15.000  -74.393401798  163.452945119    97.5072   6  11   0.0320   0.0352   0.1169  -0.0152   0.0428  -0.0302   6.00    0.0
2018/11/08 00:34:30.000  -74.393401894  163.452945629    97.5799   6  11   0.0274   0.0288   0.0961  -0.0128   0.0337  -0.0234   6.00    0.0
2018/11/08 00:34:45.000  -74.393401825  163.452945976    97.5850   6  11   0.0239   0.0235   0.0793  -0.0109   0.0259  -0.0173   6.00    0.0
2018/11/08 00:35:00.000  -74.393401748  163.452946084    97.5610   6  11   0.0218   0.0205   0.0686  -0.0093   0.0212  -0.0152   5.00    0.0
2018/11/08 00:35:15.000  -74.393401679  163.452946123    97.5723   6  11   0.0235   0.0233   0.0778  -0.0105   0.0257  -0.0185   5.00    0.0
2018/11/08 00:35:30.000  -74.393401928  163.452946872    97.6629   1  11   0.0302   0.0305   0.1181  -0.0208   0.0466  -0.0457   7.00    2.0
2018/11/08 00:35:45.000  -74.393401714  163.452944777    97.5715   6  11   0.0316   0.0348   0.1149  -0.0148   0.0418  -0.0301   5.00    0.0
2018/11/08 00:36:00.000  -74.393401728  163.452944593    97.6037   6  11   0.0367   0.0416   0.1373  -0.0175   0.0511  -0.0372   5.00    0.0
2018/11/08 00:36:15.000  -74.393401721  163.452944019    97.5816   6  11   0.0422   0.0484   0.1608  -0.0207   0.0607  -0.0449   5.00    0.0
2018/11/08 00:36:30.000  -74.393401732  163.452943793    97.5854   6  11   0.0478   0.0552   0.1848  -0.0240   0.0705  -0.0529   5.00    0.0
2018/11/08 00:36:45.000  -74.393401758  163.452943588    97.5970   6  11   0.0534   0.0619   0.2090  -0.0275   0.0804  -0.0612   5.00    0.0
2018/11/08 00:37:00.000  -74.393401784  163.452943218    97.5818   6  11   0.0591   0.0686   0.2334  -0.0311   0.0903  -0.0697   5.00    0.0
2018/11/08 00:37:15.000  -74.393401923  163.452943156    97.6344   6  11   0.0649   0.0753   0.2577  -0.0347   0.1002  -0.0782   5.00    0.0
2018/11/08 00:37:30.000  -74.393401999  163.452943489    97.6749   6  11   0.0706   0.0819   0.2821  -0.0384   0.1100  -0.0869   5.00    0.0
2018/11/08 00:37:45.000  -74.393402077  163.452943649    97.6619   6  11   0.0646   0.0749   0.2564  -0.0343   0.0994  -0.0774   5.00    0.0
2018/11/08 00:38:00.000  -74.393402114  163.452944252    97.6681   6  11   0.0587   0.0680   0.2313  -0.0305   0.0891  -0.0684   5.00    0.0
2018/11/08 00:38:15.000  -74.393402124  163.452944634    97.6696   6  11   0.0529   0.0612   0.2066  -0.0268   0.0790  -0.0597   5.00    0.0
2018/11/08 00:38:30.000  -74.393402154  163.452944987    97.6682   6  11   0.0472   0.0544   0.1822  -0.0232   0.0689  -0.0513   5.00    0.0
2018/11/08 00:38:45.000  -74.393402136  163.452945151    97.6753   6  11   0.0416   0.0475   0.1583  -0.0198   0.0591  -0.0433   6.00    0.0
2018/11/08 00:39:00.000  -74.393402151  163.452945316    97.6718   6  11   0.0362   0.0407   0.1353  -0.0167   0.0495  -0.0358   6.00    0.0
2018/11/08 00:39:15.000  -74.393402112  163.452945554    97.6832   6  11   0.0311   0.0341   0.1136  -0.0139   0.0403  -0.0290   6.00    0.0
2018/11/08 00:39:30.000  -74.393402301  163.452947292    97.7556   1  11   0.0306   0.0298   0.1175  -0.0207   0.0454  -0.0458   6.00    2.0
2018/11/08 00:39:45.000  -74.393402131  163.452947066    97.7191   1  11   0.0259   0.0230   0.0953  -0.0179   0.0361  -0.0391   5.00    2.0
2018/11/08 00:40:00.000  -74.393401998  163.452946853    97.6567   1  11   0.0235   0.0194   0.0832  -0.0161   0.0308  -0.0354   6.00    2.0
2018/11/08 00:40:15.000  -74.393401700  163.452945787    97.5843   6  11   0.0232   0.0226   0.0798  -0.0096   0.0240  -0.0171   6.00    0.0
2018/11/08 00:40:30.000  -74.393401809  163.452945589    97.5921   6  11   0.0267   0.0276   0.0956  -0.0114   0.0306  -0.0219   6.00    0.0
2018/11/08 00:40:45.000  -74.393401730  163.452945287    97.5576   6  11   0.0311   0.0337   0.1148  -0.0137   0.0384  -0.0276   6.00    0.0
2018/11/08 00:41:00.000  -74.393401771  163.452945103    97.5695   6  11   0.0361   0.0401   0.1360  -0.0163   0.0469  -0.0340   6.00    0.0
2018/11/08 00:41:15.000  -74.393401789  163.452944707    97.5795   6  11   0.0413   0.0466   0.1584  -0.0192   0.0557  -0.0409   6.00    0.0
2018/11/08 00:41:30.000  -74.393401783  163.452943964    97.5943   6  11   0.0467   0.0532   0.1818  -0.0223   0.0646  -0.0480   6.00    0.0
2018/11/08 00:41:45.000  -74.393401699  163.452943432    97.5627   6  11   0.0521   0.0597   0.2064  -0.0256   0.0733  -0.0550   6.00    0.0
2018/11/08 00:42:00.000  -74.393401784  163.452943190    97.6175   6  11   0.0578   0.0662   0.2349  -0.0291   0.0814  -0.0611   6.00    0.0
2018/11/08 00:42:15.000  -74.393401937  163.452943160    97.5687   6  11   0.0629   0.0724   0.2519  -0.0319   0.0931  -0.0734   0.00    0.0
2018/11/08 00:42:30.000  -74.393401937  163.452942779    97.5792   6  11   0.0684   0.0788   0.2713  -0.0353   0.1021  -0.0810   0.00    0.0
2018/11/08 00:42:45.000  -74.393401856  163.452942330    97.5184   6  11   0.0629   0.0723   0.2467  -0.0317   0.0924  -0.0727   0.00    0.0
2018/11/08 00:43:00.000  -74.393401879  163.452942599    97.5211   6  11   0.0573   0.0657   0.2225  -0.0281   0.0828  -0.0644   3.00    0.0
2018/11/08 00:43:15.000  -74.393401914  163.452943303    97.5207   6  11   0.0517   0.0591   0.1988  -0.0246   0.0734  -0.0563   5.00    0.0
2018/11/08 00:43:30.000  -74.393401930  163.452943982    97.5553   6  11   0.0462   0.0525   0.1759  -0.0212   0.0641  -0.0485   6.00    0.0
2018/11/08 00:43:45.000  -74.393401883  163.452944273    97.5625   6  11   0.0409   0.0459   0.1536  -0.0181   0.0551  -0.0413   7.00    0.0
2018/11/08 00:44:00.000  -74.393401775  163.452944437    97.5300   6  11   0.0357   0.0394   0.1324  -0.0152   0.0464  -0.0346   7.00    0.0
2018/11/08 00:44:15.000  -74.393401686  163.452944765    97.4968   6  11   0.0309   0.0331   0.1128  -0.0127   0.0382  -0.0287   7.00    0.0
2018/11/08 00:44:30.000  -74.393401981  163.452946606    97.5929   1  11   0.0338   0.0298   0.1222  -0.0182   0.0465  -0.0452   4.00    1.0
2018/11/08 00:44:45.000  -74.393402065  163.452946628    97.6369   1  11   0.0295   0.0235   0.1031  -0.0152   0.0388  -0.0389   4.00    1.0
2018/11/08 00:45:00.000  -74.393402008  163.452946514    97.6108   1  11   0.0273   0.0201   0.0933  -0.0134   0.0346  -0.0355   4.00    1.0
2018/11/08 00:45:15.000  -74.393401924  163.452946923    97.6285   1  11   0.0310   0.0236   0.1116  -0.0162   0.0404  -0.0437   4.00    1.0
2018/11/08 00:45:30.000  -74.393401642  163.452945601    97.5048   6  11   0.0275   0.0270   0.1010  -0.0109   0.0306  -0.0278   7.00    0.0
2018/11/08 00:45:45.000  -74.393401650  163.452945019    97.4690   6  11   0.0326   0.0328   0.1218  -0.0133   0.0381  -0.0357   7.00    0.0
2018/11/08 00:46:00.000  -74.393401673  163.452944274    97.4592   6  11   0.0387   0.0390   0.1457  -0.0163   0.0465  -0.0454   7.00    0.0
2018/11/08 00:46:15.000  -74.393401629  163.452943196    97.4356   6  11   0.0460   0.0454   0.1743  -0.0203   0.0562  -0.0585   7.00    0.0
2018/11/08 00:46:30.000  -74.393401345  163.452942268    97.2644   6  10   0.0699   0.0556   0.2755  -0.0389   0.0901  -0.1160   6.00    0.0
2018/11/08 00:46:45.000  -74.393401377  163.452942036    97.2909   6  10   0.0796   0.0625   0.3144  -0.0447   0.1031  -0.1339   5.00    0.0
2018/11/08 00:47:00.000  -74.393401332  163.452941671    97.2650   6  10   0.0894   0.0694   0.3537  -0.0506   0.1159  -0.1518   5.00    0.0
2018/11/08 00:47:15.000  -74.393401289  163.452941428    97.2528   6  10   0.0992   0.0762   0.3935  -0.0564   0.1286  -0.1699   5.00    0.0
2018/11/08 00:47:30.000  -74.393401413  163.452941373    97.3149   6  10   0.1090   0.0831   0.4346  -0.0621   0.1411  -0.1880   5.00    0.0
2018/11/08 00:47:45.000  -74.393401427  163.452941009    97.3331   6  10   0.0992   0.0760   0.4061  -0.0558   0.1269  -0.1714   5.00    0.0
2018/11/08 00:48:00.000  -74.393401466  163.452941365    97.3367   6  10   0.0900   0.0688   0.3583  -0.0500   0.1150  -0.1543   5.00    0.0
2018/11/08 00:48:15.000  -74.393401577  163.452941592    97.4102   6  10   0.0796   0.0617   0.3127  -0.0436   0.1009  -0.1342   5.00    0.0
2018/11/08 00:48:30.000  -74.393401597  163.452941974    97.4116   6  10   0.0697   0.0546   0.2717  -0.0375   0.0873  -0.1155   5.00    0.0
2018/11/08 00:48:45.000  -74.393401606  163.452942459    97.4286   6  10   0.0599   0.0476   0.2326  -0.0315   0.0740  -0.0973   5.00    0.0
2018/11/08 00:49:00.000  -74.393401525  163.452942738    97.3714   6  10   0.0504   0.0406   0.1951  -0.0257   0.0611  -0.0797   5.00    0.0
2018/11/08 00:49:15.000  -74.393401576  163.452943496    97.3920   6  10   0.0413   0.0339   0.1595  -0.0202   0.0486  -0.0627   5.00    0.0
2018/11/08 00:49:30.000  -74.393401529  163.452943940    97.3555   6  10   0.0330   0.0275   0.1270  -0.0152   0.0370  -0.0466   5.00    0.0
2018/11/08 00:49:45.000  -74.393401993  163.452945824    97.5459   1  10   0.0340   0.0235   0.1306  -0.0171   0.0419  -0.0527   4.00    1.0
2018/11/08 00:50:00.000  -74.393402030  163.452946176    97.5788   1   9   0.0268   0.0181   0.0991  -0.0163   0.0308  -0.0447   6.00    2.0
2018/11/08 00:50:15.000  -74.393402027  163.452946602    97.5754   1   9   0.0320   0.0219   0.1258  -0.0193   0.0380  -0.0554   6.00    2.0
2018/11/08 00:50:30.000  -74.393401613  163.452945383    97.4285   6   9   0.0330   0.0273   0.1319  -0.0147   0.0357  -0.0473   5.00    0.0
2018/11/08 00:50:45.000  -74.393401363  163.452944699    97.3659   6   9   0.0413   0.0334   0.1693  -0.0194   0.0462  -0.0642   5.00    0.0
2018/11/08 00:51:00.000  -74.393401436  163.452944623    97.4673   6   9   0.0503   0.0399   0.2094  -0.0243   0.0575  -0.0820   5.00    0.0
2018/11/08 00:51:15.000  -74.393401492  163.452944163    97.4902   6   9   0.0596   0.0463   0.2508  -0.0294   0.0689  -0.1000   5.00    0.0
2018/11/08 00:51:30.000  -74.393401627  163.452943971    97.5219   6   9   0.0691   0.0528   0.2926  -0.0345   0.0803  -0.1183   5.00    0.0
2018/11/08 00:51:45.000  -74.393401529  163.452943484    97.4974   6   9   0.0787   0.0592   0.3348  -0.0396   0.0917  -0.1366   5.00    0.0
2018/11/08 00:52:00.000  -74.393401493  163.452943112    97.4497   6   9   0.0883   0.0656   0.3770  -0.0447   0.1029  -0.1548   5.00    0.0
2018/11/08 00:52:15.000  -74.393401495  163.452942900    97.4328   6   9   0.0979   0.0720   0.4191  -0.0497   0.1140  -0.1730   5.00    0.0
2018/11/08 00:52:30.000  -74.393401418  163.452942682    97.4212   6   9   0.1075   0.0783   0.4610  -0.0546   0.1248  -0.1910   5.00    0.0
2018/11/08 00:52:45.000  -74.393401382  163.452942559    97.3766   6   9   0.0975   0.0717   0.4167  -0.0488   0.1120  -0.1719   5.00    0.0
2018/11/08 00:53:00.000  -74.393401530  163.452942947    97.4354   6  10   0.0694   0.0646   0.2716  -0.0384   0.0899  -0.0986   5.00    0.0
2018/11/08 00:53:15.000  -74.393401497  163.452943236    97.4804   6  10   0.0606   0.0578   0.2334  -0.0329   0.0778  -0.0813   5.00    0.0
2018/11/08 00:53:30.000  -74.393401441  163.452943814    97.4823   6  10   0.0530   0.0513   0.2020  -0.0280   0.0670  -0.0681   5.00    0.0
2018/11/08 00:53:45.000  -74.393401435  163.452944264    97.4543   6  10   0.0461   0.0448   0.1737  -0.0236   0.0570  -0.0566   6.00    0.0
2018/11/08 00:54:00.000  -74.393401453  163.452944623    97.4576   6  10   0.0395   0.0384   0.1472  -0.0194   0.0474  -0.0460   6.00    0.0
2018/11/08 00:54:15.000  -74.393401456  163.452945054    97.4623   6  10   0.0334   0.0322   0.1224  -0.0154   0.0383  -0.0363   6.00    0.0
2018/11/08 00:54:30.000  -74.393401448  163.452945326    97.4912   6  10   0.0279   0.0264   0.0998  -0.0117   0.0298  -0.0272   6.00    0.0
2018/11/08 00:54:45.000  -74.393401643  163.452945450    97.5025   6  10   0.0235   0.0216   0.0809  -0.0087   0.0228  -0.0189   6.00    0.0
2018/11/08 00:55:00.000  -74.393401655  163.452945076    97.4665   6  10   0.0211   0.0193   0.0701  -0.0066   0.0189  -0.0126   6.00    0.0
2018/11/08 00:55:15.000  -74.393401626  163.452944619    97.4430   6  10   0.0234   0.0217   0.0790  -0.0083   0.0220  -0.0170   6.00    0.0
2018/11/08 00:55:30.000  -74.393401642  163.452944328    97.5160   6  10   0.0276   0.0264   0.0955  -0.0110   0.0280  -0.0237   6.00    0.0
2018/11/08 00:55:45.000  -74.393401593  163.452944277    97.5563   6  10   0.0330   0.0320   0.1155  -0.0144   0.0353  -0.0311   6.00    0.0
2018/11/08 00:56:00.000  -74.393401557  163.452944022    97.5523   6  10   0.0391   0.0380   0.1376  -0.0181   0.0432  -0.0389   6.00    0.0
2018/11/08 00:56:15.000  -74.393401500  163.452943751    97.5548   6  10   0.0463   0.0441   0.1611  -0.0223   0.0513  -0.0465   6.00    0.0
2018/11/08 00:56:30.000  -74.393401737  163.452944144    97.5585   6  10   0.0510   0.0501   0.1843  -0.0257   0.0603  -0.0581   5.00    0.0
2018/11/08 00:56:45.000  -74.393401692  163.452943813    97.5644   6  10   0.0567   0.0561   0.2089  -0.0292   0.0688  -0.0672   5.00    0.0
2018/11/08 00:57:00.000  -74.393401745  163.452943519    97.5643   6  10   0.0628   0.0621   0.2340  -0.0329   0.0773  -0.0765   5.00    0.0
2018/11/08 00:57:15.000  -74.393401817  163.452943412    97.5567   6  10   0.0691   0.0682   0.2593  -0.0368   0.0857  -0.0859   5.00    0.0
2018/11/08 00:57:30.000  -74.393401801  163.452943346    97.5723   6  10   0.0756   0.0742   0.2848  -0.0406   0.0942  -0.0953   5.00    0.0
2018/11/08 00:57:45.000  -74.393401854  163.452943592    97.5979   6  10   0.0689   0.0681   0.2595  -0.0364   0.0851  -0.0858   6.00    0.0
2018/11/08 00:58:00.000  -74.393401850  163.452943034    97.5287   6  10   0.0624   0.0620   0.2342  -0.0322   0.0761  -0.0765   6.00    0.0
2018/11/08 00:58:15.000  -74.393401793  163.452942804    97.5031   6  10   0.0559   0.0563   0.2092  -0.0282   0.0675  -0.0672   6.00    0.0
2018/11/08 00:58:30.000  -74.393401756  163.452943022    97.5215   6  10   0.0496   0.0514   0.1845  -0.0242   0.0595  -0.0580   6.00    0.0
2018/11/08 00:58:45.000  -74.393401735  163.452943266    97.5098   6  10   0.0434   0.0456   0.1603  -0.0205   0.0514  -0.0491   5.00    0.0
2018/11/08 00:59:00.000  -74.393401748  163.452943882    97.5317   6  10   0.0373   0.0368   0.1361  -0.0165   0.0413  -0.0401   6.00    0.0
2018/11/08 00:59:15.000  -74.393401786  163.452944230    97.5428   6  10   0.0316   0.0307   0.1131  -0.0126   0.0331  -0.0314   6.00    0.0
2018/11/08 00:59:30.000  -74.393401751  163.452944700    97.5241   6  10   0.0264   0.0251   0.0920  -0.0092   0.0258  -0.0231   6.00    0.0
2018/11/08 00:59:45.000  -74.393401837  163.452945286    97.5176   6  10   0.0223   0.0205   0.0742  -0.0060   0.0200  -0.0153   6.00    0.0
2018/11/08 01:00:00.000  -74.393401751  163.452944997    97.4773   6  10   0.0203   0.0182   0.0640  -0.0041   0.0169  -0.0095   6.00    0.0
2018/11/08 01:00:15.000  -74.393401745  163.452944712    97.4562   6  10   0.0222   0.0205   0.0734  -0.0057   0.0198  -0.0152   6.00    0.0
2018/11/08 01:00:30.000  -74.393401645  163.452944595    97.4769   6  10   0.0262   0.0252   0.0905  -0.0084   0.0254  -0.0228   6.00    0.0
2018/11/08 01:00:45.000  -74.393401600  163.452944107    97.4988   6  10   0.0312   0.0307   0.1112  -0.0115   0.0323  -0.0311   7.00    0.0
2018/11/08 01:01:00.000  -74.393401610  163.452943888    97.5367   6  10   0.0368   0.0364   0.1339  -0.0149   0.0397  -0.0397   7.00    0.0
2018/11/08 01:01:15.000  -74.393401579  163.452943497    97.5421   6  10   0.0427   0.0423   0.1578  -0.0184   0.0475  -0.0487   7.00    0.0
2018/11/08 01:01:30.000  -74.393401598  163.452943579    97.5926   6  10   0.0489   0.0482   0.1825  -0.0220   0.0554  -0.0578   7.00    0.0
2018/11/08 01:01:45.000  -74.393401561  163.452943349    97.6037   6  10   0.0552   0.0542   0.2078  -0.0256   0.0635  -0.0670   7.00    0.0
2018/11/08 01:02:00.000  -74.393401530  163.452943117    97.5630   6  10   0.0616   0.0604   0.2337  -0.0292   0.0718  -0.0762   7.00    0.0
2018/11/08 01:02:15.000  -74.393401558  163.452943328    97.5944   6  10   0.0680   0.0673   0.2608  -0.0325   0.0816  -0.0852   7.00    0.0
2018/11/08 01:02:30.000  -74.393401561  163.452943253    97.5730   6  10   0.0746   0.0748   0.2906  -0.0360   0.0933  -0.0943   6.00    0.0
2018/11/08 01:02:45.000  -74.393401458  163.452943415    97.5592   6  10   0.0680   0.0664   0.2608  -0.0326   0.0804  -0.0852   6.00    0.0
2018/11/08 01:03:00.000  -74.393401597  163.452943599    97.5955   6  10   0.0615   0.0602   0.2341  -0.0286   0.0712  -0.0757   6.00    0.0
2018/11/08 01:03:15.000  -74.393401601  163.452943657    97.5937   6  10   0.0551   0.0551   0.2094  -0.0243   0.0645  -0.0660   6.00    0.0
2018/11/08 01:03:30.000  -74.393401701  163.452944260    97.6261   6  10   0.0487   0.0472   0.1822  -0.0214   0.0530  -0.0574   6.00    0.0
2018/11/08 01:03:45.000  -74.393401815  163.452944344    97.5965   6  10   0.0425   0.0411   0.1564  -0.0176   0.0441  -0.0481   6.00    0.0
2018/11/08 01:04:00.000  -74.393401776  163.452943715    97.5362   6  10   0.0365   0.0352   0.1319  -0.0141   0.0361  -0.0390   6.00    0.0
2018/11/08 01:04:15.000  -74.393401719  163.452943659    97.4943   6  10   0.0309   0.0295   0.1087  -0.0106   0.0285  -0.0301   6.00    0.0
2018/11/08 01:04:30.000  -74.393401722  163.452944023    97.4814   6  10   0.0259   0.0241   0.0875  -0.0074   0.0218  -0.0215   7.00    0.0
2018/11/08 01:04:45.000  -74.393401050  163.452940148    97.6031   1  10   0.0348   0.0355   0.1060  -0.0216  -0.0401   0.0027   7.00    1.0
2018/11/08 01:05:00.000  -74.393401676  163.452945078    97.4897   6  10   0.0199   0.0175   0.0604  -0.0026   0.0137  -0.0074   7.00    0.0
2018/11/08 01:05:15.000  -74.393401697  163.452945295    97.5047   6  10   0.0221   0.0200   0.0701  -0.0042   0.0155  -0.0143   7.00    0.0
2018/11/08 01:05:30.000  -74.393401746  163.452945246    97.5566   6  10   0.0262   0.0245   0.0886  -0.0068   0.0196  -0.0236   7.00    0.0
2018/11/08 01:05:45.000  -74.393401757  163.452944860    97.6297   6  10   0.0316   0.0299   0.1111  -0.0095   0.0250  -0.0333   7.00    0.0
2018/11/08 01:06:00.000  -74.393401777  163.452944469    97.6563   6  10   0.0377   0.0356   0.1361  -0.0124   0.0308  -0.0436   7.00    0.0
2018/11/08 01:06:15.000  -74.393401777  163.452944013    97.6822   6  10   0.0444   0.0415   0.1635  -0.0153   0.0363  -0.0550   7.00    0.0
2018/11/08 01:06:30.000  -74.393401765  163.452943858    97.7074   6  10   0.0522   0.0478   0.1961  -0.0178   0.0403  -0.0693   7.00    0.0
2018/11/08 01:06:45.000  -74.393401713  163.452944069    97.7461   6  10   0.0658   0.0548   0.2594  -0.0206   0.0429  -0.1008   6.00    0.0
2018/11/08 01:07:00.000  -74.393401679  163.452944496    97.7731   6  10   0.0659   0.0584   0.2519  -0.0284   0.0599  -0.0904   6.00    0.0
2018/11/08 01:07:15.000  -74.393401660  163.452943992    97.7796   6  10   0.0703   0.0632   0.2676  -0.0305   0.0655  -0.0933   6.00    0.0
2018/11/08 01:07:30.000  -74.393401592  163.452943812    97.7670   6  10   0.0759   0.0685   0.2885  -0.0333   0.0715  -0.0995   6.00    0.0
2018/11/08 01:07:45.000  -74.393401551  163.452943611    97.8073   6  10   0.0690   0.0628   0.2613  -0.0298   0.0644  -0.0893   6.00    0.0
2018/11/08 01:08:00.000  -74.393401651  163.452943671    97.8415   6  10   0.0622   0.0569   0.2341  -0.0262   0.0571  -0.0791   6.00    0.0
2018/11/08 01:08:15.000  -74.393401664  163.452943552    97.8223   6  10   0.0556   0.0512   0.2075  -0.0226   0.0499  -0.0692   6.00    0.0
2018/11/08 01:08:30.000  -74.393401815  163.452944336    97.7835   6  10   0.0491   0.0455   0.1814  -0.0191   0.0429  -0.0594   6.00    0.0
2018/11/08 01:08:45.000  -74.393401848  163.452944715    97.7513   6  10   0.0429   0.0399   0.1559  -0.0156   0.0359  -0.0498   7.00    0.0
2018/11/08 01:09:00.000  -74.393401838  163.452945011    97.7405   6  10   0.0368   0.0343   0.1311  -0.0122   0.0291  -0.0404   7.00    0.0
2018/11/08 01:09:15.000  -74.393401819  163.452944826    97.6862   6  10   0.0312   0.0289   0.1076  -0.0088   0.0224  -0.0312   7.00    0.0
2018/11/08 01:09:30.000  -74.393401756  163.452944755    97.6357   6  10   0.0261   0.0239   0.0862  -0.0051   0.0160  -0.0225   6.00    0.0
2018/11/08 01:09:45.000  -74.393401820  163.452945101    97.6069   6  10   0.0224   0.0197   0.0692   0.0031   0.0097  -0.0150   6.00    0.0
2018/11/08 01:10:00.000  -74.393401661  163.452945378    97.4619   6  10   0.0200   0.0173   0.0577   0.0026   0.0103  -0.0053   6.00    0.0
2018/11/08 01:10:15.000  -74.393401621  163.452945191    97.4369   6  10   0.0219   0.0194   0.0666  -0.0013   0.0115  -0.0122   6.00    0.0
2018/11/08 01:10:30.000  -74.393401494  163.452944801    97.3906   6  10   0.0259   0.0237   0.0843  -0.0043   0.0146  -0.0211   6.00    0.0
2018/11/08 01:10:45.000  -74.393401467  163.452944639    97.4045   6  10   0.0309   0.0288   0.1057  -0.0069   0.0187  -0.0303   6.00    0.0
2018/11/08 01:11:00.000  -74.393401379  163.452944257    97.4407   6  10   0.0366   0.0341   0.1292  -0.0095   0.0232  -0.0397   6.00    0.0
2018/11/08 01:11:15.000  -74.393401317  163.452943989    97.4521   6  10   0.0428   0.0395   0.1542  -0.0119   0.0275  -0.0495   6.00    0.0
2018/11/08 01:11:30.000  -74.393401318  163.452944072    97.4885   6  10   0.0494   0.0450   0.1809  -0.0139   0.0310  -0.0602   6.00    0.0
2018/11/08 01:11:45.000  -74.393401358  163.452943966    97.5475   6  10   0.0570   0.0508   0.2118  -0.0143   0.0309  -0.0735   6.00    0.0
2018/11/08 01:12:00.000  -74.393401333  163.452944015    97.5732   6  10   0.0655   0.0560   0.2495  -0.0167   0.0340  -0.0900   6.00    0.0
2018/11/08 01:12:15.000  -74.393401338  163.452944146    97.5954   6  10   0.0711   0.0615   0.2694  -0.0197   0.0392  -0.0960   6.00    0.0
2018/11/08 01:12:30.000  -74.393401357  163.452944258    97.5925   6  10   0.0788   0.0674   0.2998  -0.0195   0.0372  -0.1086   6.00    0.0
2018/11/08 01:12:45.000  -74.393401256  163.452944492    97.5845   6  10   0.0706   0.0608   0.2679  -0.0207   0.0403  -0.0949   6.00    0.0
2018/11/08 01:13:00.000  -74.393401179  163.452944653    97.5486   6  10   0.0628   0.0553   0.2353  -0.0185   0.0367  -0.0813   6.00    0.0
2018/11/08 01:13:15.000  -74.393401242  163.452944609    97.5613   6  10   0.0564   0.0500   0.2090  -0.0147   0.0297  -0.0717   6.00    0.0
2018/11/08 01:13:30.000  -74.393401255  163.452944571    97.5238   6  10   0.0510   0.0452   0.1878  -0.0072   0.0158  -0.0655   6.00    0.0
2018/11/08 01:13:45.000  -74.393401321  163.452945251    97.5193   6  10   0.0433   0.0388   0.1573  -0.0106   0.0224  -0.0519   6.00    0.0
2018/11/08 01:14:00.000  -74.393401720  163.452946253    97.4081   1  11   0.0394   0.0385   0.1355   0.0063  -0.0204  -0.0221   6.00    1.0
2018/11/08 01:14:15.000  -74.393401714  163.452945982    97.3974   1  11   0.0339   0.0326   0.1140   0.0093  -0.0228  -0.0215   6.00    1.0
2018/11/08 01:14:30.000  -74.393401749  163.452945724    97.3701   1  11   0.0285   0.0258   0.0902   0.0074  -0.0175  -0.0154   6.00    1.0
2018/11/08 01:14:45.000  -74.393401845  163.452945776    97.3920   1  11   0.0243   0.0204   0.0702   0.0062  -0.0132  -0.0082   6.00    1.0
2018/11/08 01:15:00.000  -74.393402026  163.452945591    97.4435   1  11   0.0221   0.0170   0.0568   0.0041  -0.0072   0.0090   7.00    1.0
2018/11/08 01:15:15.000  -74.393402046  163.452945644    97.4445   1  11   0.0240   0.0195   0.0665   0.0037  -0.0080   0.0059   7.00    1.0
2018/11/08 01:15:30.000  -74.393402053  163.452945483    97.4634   1  11   0.0278   0.0243   0.0853   0.0025  -0.0096  -0.0076   7.00    1.0
2018/11/08 01:15:45.000  -74.393402007  163.452944903    97.4756   1  11   0.0329   0.0304   0.1080   0.0015  -0.0128  -0.0134   7.00    1.0
2018/11/08 01:16:00.000  -74.393402162  163.452944743    97.5176   1  11   0.0389   0.0371   0.1328  -0.0016  -0.0163  -0.0185   7.00    1.0
2018/11/08 01:16:15.000  -74.393401696  163.452943340    97.5793   6  11   0.0348   0.0368   0.1176   0.0069  -0.0138  -0.0075   6.00    0.0
2018/11/08 01:16:30.000  -74.393401705  163.452943530    97.5510   6  11   0.0394   0.0418   0.1359   0.0073  -0.0169  -0.0131   6.00    0.0
2018/11/08 01:16:45.000  -74.393401669  163.452943591    97.5301   6  11   0.0442   0.0468   0.1546   0.0076  -0.0201  -0.0178   6.00    0.0
2018/11/08 01:17:00.000  -74.393401677  163.452944142    97.4747   6  11   0.0491   0.0518   0.1737   0.0079  -0.0233  -0.0222   6.00    0.0
2018/11/08 01:17:15.000  -74.393401660  163.452944310    97.4699   6  11   0.0540   0.0569   0.1930   0.0080  -0.0266  -0.0264   7.00    0.0
2018/11/08 01:17:30.000  -74.393401732  163.452944165    97.4851   6  11   0.0591   0.0620   0.2125   0.0082  -0.0299  -0.0306   8.00    0.0
2018/11/08 01:17:45.000  -74.393401878  163.452944496    97.4759   6  11   0.0542   0.0571   0.1938   0.0080  -0.0279  -0.0265   8.00    0.0
2018/11/08 01:18:00.000  -74.393401877  163.452944587    97.4903   6  12   0.0484   0.0500   0.1687  -0.0083  -0.0361  -0.0304   8.00    0.0
2018/11/08 01:18:15.000  -74.393401869  163.452944731    97.5148   6  12   0.0435   0.0450   0.1493  -0.0075  -0.0335  -0.0268   8.00    0.0
2018/11/08 01:18:30.000  -74.393401825  163.452944953    97.4983   6  12   0.0388   0.0402   0.1311  -0.0061  -0.0297  -0.0222   8.00    0.0
2018/11/08 01:18:45.000  -74.393401773  163.452945258    97.4719   6  12   0.0343   0.0354   0.1135  -0.0045  -0.0257  -0.0171   8.00    0.0
2018/11/08 01:19:00.000  -74.393402215  163.452946388    97.4071   1  12   0.0384   0.0357   0.1277  -0.0087  -0.0302  -0.0255   8.00    1.0
2018/11/08 01:19:15.000  -74.393402136  163.452946158    97.3668   1  12   0.0326   0.0294   0.1040  -0.0062  -0.0241  -0.0185   8.00    1.0
2018/11/08 01:19:30.000  -74.393402079  163.452945779    97.3996   1  12   0.0276   0.0237   0.0822  -0.0034  -0.0186  -0.0107   8.00    1.0
2018/11/08 01:19:45.000  -74.393402065  163.452945387    97.4359   1  12   0.0238   0.0192   0.0640   0.0027  -0.0141   0.0057   8.00    1.0
2018/11/08 01:20:00.000  -74.393402092  163.452945562    97.4504   1  12   0.0219   0.0169   0.0540   0.0042  -0.0117   0.0096   8.00    1.0
2018/11/08 01:20:15.000  -74.393402040  163.452945803    97.4308   1  12   0.0238   0.0192   0.0639   0.0028  -0.0141   0.0057   8.00    1.0
2018/11/08 01:20:30.000  -74.393401921  163.452946385    97.4248   1  12   0.0275   0.0237   0.0822  -0.0030  -0.0191  -0.0107   8.00    1.0
2018/11/08 01:20:45.000  -74.393401883  163.452946366    97.4054   1  12   0.0326   0.0294   0.1044  -0.0056  -0.0251  -0.0186   8.00    1.0
2018/11/08 01:21:00.000  -74.393401832  163.452946162    97.3765   1  12   0.0384   0.0357   0.1288  -0.0079  -0.0315  -0.0258   8.00    1.0
2018/11/08 01:21:15.000  -74.393401384  163.452944966    97.4141   6  12   0.0341   0.0351   0.1137  -0.0042  -0.0273  -0.0178   8.00    0.0
2018/11/08 01:21:30.000  -74.393401445  163.452945095    97.4268   6  12   0.0386   0.0397   0.1317  -0.0057  -0.0322  -0.0236   8.00    0.0
2018/11/08 01:21:45.000  -74.393401388  163.452944899    97.4175   6  12   0.0433   0.0444   0.1501  -0.0072  -0.0371  -0.0290   8.00    0.0
2018/11/08 01:22:00.000  -74.393401326  163.452944562    97.3906   6  12   0.0481   0.0491   0.1689  -0.0087  -0.0420  -0.0343   8.00    0.0
2018/11/08 01:22:15.000  -74.393401213  163.452944388    97.4031   6  12   0.0529   0.0539   0.1879  -0.0101  -0.0470  -0.0396   8.00    0.0
2018/11/08 01:22:30.000  -74.393401256  163.452944033    97.4230   6  12   0.0579   0.0587   0.2070  -0.0115  -0.0521  -0.0447   8.00    0.0
2018/11/08 01:22:45.000  -74.393401329  163.452944489    97.4467   6  12   0.0529   0.0538   0.1884  -0.0093  -0.0474  -0.0399   8.00    0.0
2018/11/08 01:23:00.000  -74.393401440  163.452944761    97.4852   6  12   0.0480   0.0490   0.1697  -0.0077  -0.0427  -0.0349   8.00    0.0
2018/11/08 01:23:15.000  -74.393401441  163.452944669    97.5030   6  12   0.0432   0.0443   0.1512  -0.0060  -0.0380  -0.0297   8.00    0.0
2018/11/08 01:23:30.000  -74.393401489  163.452944617    97.5067   6  12   0.0385   0.0396   0.1328  -0.0042  -0.0333  -0.0243   8.00    0.0
2018/11/08 01:23:45.000  -74.393401477  163.452944652    97.5118   6  12   0.0340   0.0349   0.1147  -0.0019  -0.0286  -0.0186   8.00    0.0
2018/11/08 01:24:00.000  -74.393402042  163.452945471    97.4658   1  12   0.0384   0.0357   0.1301  -0.0061  -0.0333  -0.0263   8.00    1.0
2018/11/08 01:24:15.000  -74.393402055  163.452945350    97.4675   1  12   0.0325   0.0294   0.1052  -0.0033  -0.0270  -0.0188   8.00    1.0
2018/11/08 01:24:30.000  -74.393402106  163.452945177    97.4404   1  12   0.0275   0.0237   0.0822   0.0031  -0.0211  -0.0103   8.00    1.0
2018/11/08 01:24:45.000  -74.393402143  163.452945085    97.4449   1  12   0.0238   0.0192   0.0633   0.0047  -0.0162   0.0068   8.00    1.0
2018/11/08 01:25:00.000  -74.393402138  163.452945190    97.4659   1  12   0.0222   0.0168   0.0533   0.0055  -0.0139   0.0106   8.00    1.0
2018/11/08 01:25:15.000  -74.393402153  163.452945385    97.4811   1  12   0.0238   0.0192   0.0631   0.0046  -0.0166   0.0069   8.00    1.0
2018/11/08 01:25:30.000  -74.393402180  163.452945480    97.4625   1  12   0.0276   0.0237   0.0822   0.0035  -0.0215  -0.0103   8.00    1.0
2018/11/08 01:25:45.000  -74.393402177  163.452945099    97.4482   1  12   0.0326   0.0294   0.1054  -0.0019  -0.0276  -0.0189   8.00    1.0
2018/11/08 01:26:00.000  -74.393402127  163.452945275    97.4427   1  12   0.0384   0.0357   0.1306  -0.0048  -0.0343  -0.0265   8.00    1.0
2018/11/08 01:26:15.000  -74.393401408  163.452944176    97.4292   6  12   0.0339   0.0345   0.1152   0.0015  -0.0295  -0.0190   9.00    0.0
2018/11/08 01:26:30.000  -74.393401273  163.452943921    97.4363   6  12   0.0384   0.0391   0.1337  -0.0028  -0.0345  -0.0249   9.00    1.0
2018/11/08 01:26:45.000  -74.393401270  163.452943502    97.4409   6  12   0.0431   0.0438   0.1527  -0.0046  -0.0397  -0.0305   9.00    1.0
2018/11/08 01:27:00.000  -74.393401280  163.452943156    97.4586   6  12   0.0479   0.0485   0.1719  -0.0061  -0.0448  -0.0359   9.00    1.0
2018/11/08 01:27:15.000  -74.393401301  163.452943070    97.4940   6  12   0.0528   0.0533   0.1912  -0.0074  -0.0501  -0.0413   9.00    1.0
2018/11/08 01:27:30.000  -74.393401291  163.452942929    97.5061   6  12   0.0578   0.0582   0.2106  -0.0087  -0.0553  -0.0466   9.00    1.0
2018/11/08 01:27:45.000  -74.393401317  163.452942745    97.5148   6  12   0.0529   0.0534   0.1923  -0.0073  -0.0504  -0.0414   9.00    1.0
2018/11/08 01:28:00.000  -74.393401280  163.452942687    97.5083   6  12   0.0480   0.0486   0.1731  -0.0058  -0.0454  -0.0361   9.00    0.0
2018/11/08 01:28:15.000  -74.393401331  163.452943264    97.4836   6  12   0.0432   0.0439   0.1540  -0.0040  -0.0404  -0.0307   9.00    0.0
2018/11/08 01:28:30.000  -74.393401378  163.452943330    97.4627   6  12   0.0385   0.0392   0.1351  -0.0016  -0.0354  -0.0251   9.00    0.0
2018/11/08 01:28:45.000  -74.393401403  163.452943570    97.4397   6  12   0.0339   0.0346   0.1165   0.0027  -0.0304  -0.0192   9.00    0.0
2018/11/08 01:29:00.000  -74.393401988  163.452944593    97.4237   1  12   0.0386   0.0359   0.1324  -0.0032  -0.0358  -0.0266   8.00    1.0
2018/11/08 01:29:15.000  -74.393401940  163.452944820    97.4317   1  12   0.0327   0.0296   0.1070   0.0029  -0.0292  -0.0188   8.00    1.0
2018/11/08 01:29:30.000  -74.393401995  163.452945003    97.4269   1  12   0.0277   0.0240   0.0834   0.0048  -0.0231  -0.0099   8.00    1.0
2018/11/08 01:29:45.000  -74.393402070  163.452944911    97.4565   1  12   0.0240   0.0197   0.0639   0.0060  -0.0181   0.0074   8.00    1.0
2018/11/08 01:30:00.000  -74.393402176  163.452945065    97.4633   1  12   0.0223   0.0174   0.0533   0.0066  -0.0157   0.0109   8.00    1.0
2018/11/08 01:30:15.000  -74.393402194  163.452945027    97.4950   1  12   0.0240   0.0195   0.0638   0.0059  -0.0184   0.0074   8.00    1.0
2018/11/08 01:30:30.000  -74.393401640  163.452944144    97.4817   6  12   0.0221   0.0215   0.0653   0.0050  -0.0164   0.0100   9.00    0.0
2018/11/08 01:30:45.000  -74.393400743  163.452943197    97.5192   1  12   0.0416   0.0386   0.1171   0.0111   0.0049   0.0281   9.00    1.0
2018/11/08 01:31:00.000  -74.393401585  163.452943501    97.4680   6  12   0.0295   0.0297   0.0982   0.0042  -0.0260  -0.0130   9.00    1.0
2018/11/08 01:31:15.000  -74.393401528  163.452943236    97.5013   6  12   0.0338   0.0341   0.1163   0.0036  -0.0310  -0.0195   9.00    1.0
2018/11/08 01:31:30.000  -74.393401492  163.452943408    97.4824   6  12   0.0384   0.0387   0.1349   0.0023  -0.0362  -0.0254   9.00    1.0
2018/11/08 01:31:45.000  -74.393401429  163.452943560    97.4734   6  12   0.0431   0.0433   0.1539  -0.0018  -0.0414  -0.0310   9.00    1.0
2018/11/08 01:32:00.000  -74.393401467  163.452944017    97.4138   6  12   0.0479   0.0481   0.1730  -0.0038  -0.0467  -0.0365   9.00    1.0
2018/11/08 01:32:15.000  -74.393401474  163.452943811    97.4485   6  12   0.0528   0.0529   0.1922  -0.0051  -0.0520  -0.0418   9.00    1.0
2018/11/08 01:32:30.000  -74.393401438  163.452944139    97.4691   6  12   0.0578   0.0577   0.2115  -0.0063  -0.0574  -0.0470   9.00    1.0
2018/11/08 01:32:45.000  -74.393401398  163.452944016    97.4944   6  12   0.0530   0.0529   0.1918  -0.0046  -0.0522  -0.0420   9.00    1.0
2018/11/08 01:33:00.000  -74.393401440  163.452944036    97.5004   6  12   0.0480   0.0480   0.1724  -0.0027  -0.0470  -0.0366   9.00    1.0
2018/11/08 01:33:15.000  -74.393401509  163.452944560    97.4986   6  12   0.0432   0.0433   0.1532   0.0020  -0.0418  -0.0312   9.00    1.0
2018/11/08 01:33:30.000  -74.393401548  163.452944719    97.4893   6  12   0.0385   0.0386   0.1343   0.0036  -0.0366  -0.0256   9.00    1.0
2018/11/08 01:33:45.000  -74.393401546  163.452944566    97.4735   6  12   0.0339   0.0340   0.1157   0.0044  -0.0316  -0.0197   9.00    1.0
2018/11/08 01:34:00.000  -74.393402144  163.452945116    97.4677   1  12   0.0388   0.0360   0.1315   0.0041  -0.0374  -0.0268   8.00    1.0
2018/11/08 01:34:15.000  -74.393401582  163.452944233    97.4614   1  12   0.0255   0.0232   0.0773   0.0042  -0.0185   0.0013   9.00    1.0
2018/11/08 01:34:30.000  -74.393401600  163.452944103    97.4730   1  12   0.0221   0.0194   0.0610   0.0045  -0.0141   0.0106   9.00    1.0
2018/11/08 01:34:45.000  -74.393401679  163.452944357    97.4419   1  12   0.0196   0.0162   0.0477   0.0045  -0.0105   0.0131   9.00    1.0
2018/11/08 01:35:00.000  -74.393401582  163.452944466    97.4487   1  12   0.0184   0.0146   0.0406   0.0045  -0.0085   0.0138   9.00    1.0
2018/11/08 01:35:15.000  -74.393401522  163.452944211    97.4496   1  12   0.0195   0.0162   0.0476   0.0046  -0.0108   0.0130   9.00    1.0
2018/11/08 01:35:30.000  -74.393401451  163.452943878    97.4461   1  12   0.0221   0.0193   0.0608   0.0046  -0.0146   0.0102   9.00    1.0
2018/11/08 01:35:45.000  -74.393401419  163.452943608    97.4607   1  12   0.0255   0.0232   0.0769   0.0045  -0.0191  -0.0023   9.00    1.0
2018/11/08 01:36:00.000  -74.393402046  163.452944051    97.5021   1  12   0.0390   0.0361   0.1310   0.0056  -0.0381  -0.0270   8.00    1.0
2018/11/08 01:36:15.000  -74.393401459  163.452943181    97.4775   6  12   0.0338   0.0336   0.1149   0.0050  -0.0319  -0.0197   9.00    1.0
2018/11/08 01:36:30.000  -74.393401464  163.452943035    97.4853   6  12   0.0384   0.0381   0.1331   0.0046  -0.0371  -0.0255   9.00    0.0
2018/11/08 01:36:45.000  -74.393401421  163.452942743    97.5022   6  12   0.0431   0.0428   0.1515   0.0040  -0.0423  -0.0309   9.00    0.0
2018/11/08 01:37:00.000  -74.393401418  163.452942742    97.4943   6  12   0.0479   0.0475   0.1701   0.0031  -0.0475  -0.0362   9.00    0.0
2018/11/08 01:37:15.000  -74.393401467  163.452942929    97.4807   6  12   0.0529   0.0523   0.1887   0.0017  -0.0528  -0.0414   9.00    0.0
2018/11/08 01:37:30.000  -74.393401456  163.452943117    97.4489   6  12   0.0578   0.0572   0.2074  -0.0021  -0.0581  -0.0465   9.00    0.0
2018/11/08 01:37:45.000  -74.393401396  163.452942847    97.4833   6  12   0.0530   0.0524   0.1887   0.0020  -0.0530  -0.0413   9.00    0.0
2018/11/08 01:38:00.000  -74.393401468  163.452942779    97.5078   6  12   0.0480   0.0475   0.1697   0.0036  -0.0477  -0.0360   9.00    0.0
2018/11/08 01:38:15.000  -74.393401441  163.452943067    97.5046   6  12   0.0432   0.0428   0.1510   0.0044  -0.0425  -0.0306   9.00    0.0
2018/11/08 01:38:30.000  -74.393401494  163.452942837    97.4812   6  12   0.0385   0.0381   0.1325   0.0050  -0.0374  -0.0251   9.00    0.0
2018/11/08 01:38:45.000  -74.393401431  163.452942927    97.4524   6  12   0.0339   0.0336   0.1145   0.0054  -0.0323  -0.0194   9.00    0.0
2018/11/08 01:39:00.000  -74.393402141  163.452944380    97.4638   1  12   0.0393   0.0362   0.1306   0.0067  -0.0389  -0.0267   7.00    1.0
2018/11/08 01:39:15.000  -74.393402226  163.452944520    97.4686   1  12   0.0335   0.0301   0.1063   0.0074  -0.0325  -0.0195   7.00    1.0
2018/11/08 01:39:30.000  -74.393402265  163.452944503    97.4687   1  12   0.0284   0.0246   0.0843   0.0080  -0.0267  -0.0119   7.00    1.0
2018/11/08 01:39:45.000  -74.393402195  163.452944432    97.4670   1  12   0.0249   0.0204   0.0663   0.0083  -0.0221   0.0015   7.00    1.0
2018/11/08 01:40:00.000  -74.393401622  163.452944464    97.4122   1  12   0.0184   0.0148   0.0418   0.0055  -0.0106   0.0132   9.00    1.0
2018/11/08 01:40:15.000  -74.393401438  163.452944479    97.3916   1  12   0.0198   0.0164   0.0491   0.0054  -0.0127   0.0118   9.00    1.0
2018/11/08 01:40:30.000  -74.393401294  163.452943962    97.4112   1  12   0.0226   0.0195   0.0625   0.0057  -0.0167   0.0068   9.00    1.0
2018/11/08 01:40:45.000  -74.393401225  163.452943682    97.3969   1  12   0.0265   0.0233   0.0788   0.0065  -0.0215  -0.0115   9.00    1.0
2018/11/08 01:41:00.000  -74.393400544  163.452943025    97.4094   1  12   0.0450   0.0423   0.1358   0.0093  -0.0282   0.0171   9.00    1.0
2018/11/08 01:41:15.000  -74.393401106  163.452943399    97.3610   6  12   0.0399   0.0342   0.1298   0.0143  -0.0397  -0.0412   8.00    0.0
2018/11/08 01:41:30.000  -74.393401302  163.452943093    97.4136   6  12   0.0411   0.0381   0.1382   0.0103  -0.0406  -0.0356   8.00    0.0
2018/11/08 01:41:45.000  -74.393401196  163.452943542    97.3875   6  12   0.0448   0.0426   0.1525   0.0090  -0.0445  -0.0365   8.00    0.0
2018/11/08 01:42:00.000  -74.393401138  163.452943907    97.3724   6  12   0.0492   0.0472   0.1688   0.0083  -0.0491  -0.0396   8.00    0.0
2018/11/08 01:42:15.000  -74.393401140  163.452944126    97.3567   6  12   0.0539   0.0520   0.1858   0.0078  -0.0539  -0.0434   8.00    0.0
2018/11/08 01:42:30.000  -74.393401113  163.452943612    97.3636   6  12   0.0587   0.0568   0.2031   0.0074  -0.0589  -0.0475   8.00    0.0
2018/11/08 01:42:45.000  -74.393401220  163.452943238    97.3708   6  12   0.0536   0.0519   0.1845   0.0073  -0.0536  -0.0423   8.00    0.0
2018/11/08 01:43:00.000  -74.393401309  163.452943260    97.3576   6  12   0.0486   0.0471   0.1661   0.0073  -0.0484  -0.0371   8.00    0.0
2018/11/08 01:43:15.000  -74.393401385  163.452943361    97.3917   6  12   0.0437   0.0424   0.1480   0.0073  -0.0432  -0.0318   8.00    0.0
2018/11/08 01:43:30.000  -74.393401491  163.452943713    97.4034   6  12   0.0390   0.0377   0.1303   0.0072  -0.0382  -0.0265   8.00    0.0
2018/11/08 01:43:45.000  -74.393401465  163.452943435    97.4403   6  12   0.0344   0.0333   0.1131   0.0071  -0.0333  -0.0209   8.00    0.0
2018/11/08 01:44:00.000  -74.393402043  163.452943627    97.5194   1  12   0.0393   0.0364   0.1273   0.0079  -0.0396  -0.0245   7.00    1.0
2018/11/08 01:44:15.000  -74.393402049  163.452943611    97.5235   1  12   0.0336   0.0304   0.1046   0.0082  -0.0335  -0.0172   7.00    1.0
2018/11/08 01:44:30.000  -74.393402089  163.452943709    97.5247   1  12   0.0286   0.0251   0.0842   0.0085  -0.0282  -0.0092   7.00    1.0
