% program   : RTKLIB ver.2.4.3
% inp file  : _by_type/_obs/blake/20181105.18o
% inp file  : _by_type/_sp3+clk/igs20261.clk
% inp file  : _by_type/_sp3+clk/igs20261.sp3
% inp file  : _by_type/_nav/blake/20181105.18n
% obs start : 2018/11/05 00:00:00.0 GPST (week2026  86400.0s)
% obs end   : 2018/11/05 23:59:45.0 GPST (week2026 172785.0s)
% pos mode  : ppp-kinematic
% solution  : combined
% elev mask : 15.0 deg
% dynamics  : off
% tidecorr  : on
% tropo opt : est ztd+grad
% ephemeris : precise
% navi sys  : gps glonass
% antenna1  :                       ( 0.0000  0.0000  0.0000)
%
% (lat/lon/height=WGS84/ellipsoidal,Q=1:fix,2:float,3:sbas,4:dgps,5:single,6:ppp,ns=# of satellites)
%  GPST                  latitude(deg) longitude(deg)  height(m)   Q  ns   sdn(m)   sde(m)   sdu(m)  sdne(m)  sdeu(m)  sdun(m) age(s)  ratio
2018/11/05 00:00:00.000  -74.407193496  163.437679072    80.2371   6   8   0.0344   0.0291   0.1306   0.0119  -0.0387  -0.0499   0.00    0.0
2018/11/05 00:00:15.000  -74.407193375  163.437678708    80.2056   6   8   0.0382   0.0326   0.1467   0.0140  -0.0419  -0.0572   0.00    0.0
2018/11/05 00:00:30.000  -74.407193258  163.437678908    80.1534   6   8   0.0453   0.0386   0.1725   0.0170  -0.0467  -0.0692   0.00    0.0
2018/11/05 00:00:45.000  -74.407193142  163.437678574    80.1225   6   8   0.0543   0.0462   0.2037   0.0205  -0.0522  -0.0836   0.00    0.0
2018/11/05 00:01:00.000  -74.407193145  163.437678760    80.1264   6   8   0.0643   0.0547   0.2381   0.0241  -0.0582  -0.0993   0.00    0.0
2018/11/05 00:01:15.000  -74.407193514  163.437678619    80.2340   6   8   0.0749   0.0636   0.2744   0.0278  -0.0642  -0.1156   0.00    0.0
2018/11/05 00:01:30.000  -74.407193773  163.437678680    80.3160   6   8   0.0857   0.0728   0.3117   0.0314  -0.0700  -0.1321   0.00    0.0
2018/11/05 00:01:45.000  -74.407193992  163.437678335    80.3671   6   8   0.0966   0.0822   0.3497   0.0347  -0.0751  -0.1487   0.00    0.0
2018/11/05 00:02:00.000  -74.407194113  163.437678169    80.3632   6   8   0.1074   0.0918   0.3882   0.0377  -0.0789  -0.1652   2.00    0.0
2018/11/05 00:02:15.000  -74.407194197  163.437677543    80.3762   6   8   0.1180   0.1020   0.4278   0.0399  -0.0792  -0.1816   2.00    0.0
2018/11/05 00:02:30.000  -74.407194178  163.437677088    80.3844   6   8   0.1286   0.1148   0.4733   0.0394  -0.0645  -0.1990   3.00    0.0
2018/11/05 00:02:45.000  -74.407194033  163.437678022    80.3480   6   8   0.1166   0.0976   0.4118   0.0425  -0.0991  -0.1767   3.00    0.0
2018/11/05 00:03:00.000  -74.407193867  163.437678550    80.3148   6   8   0.1057   0.0890   0.3852   0.0390  -0.0950  -0.1615   4.00    0.0
2018/11/05 00:03:15.000  -74.407193929  163.437678744    80.3509   6   8   0.0950   0.0812   0.3743   0.0362  -0.0967  -0.1483   3.00    0.0
2018/11/05 00:03:30.000  -74.407194008  163.437678814    80.2937   6   8   0.0835   0.0696   0.2782   0.0288  -0.0631  -0.1236   0.00    0.0
2018/11/05 00:03:45.000  -74.407193984  163.437678663    80.2331   6   8   0.0730   0.0613   0.2426   0.0256  -0.0567  -0.1077   0.00    0.0
2018/11/05 00:04:00.000  -74.407193895  163.437678653    80.1927   6   8   0.0632   0.0538   0.2090   0.0236  -0.0525  -0.0930   0.00    0.0
2018/11/05 00:04:15.000  -74.407193463  163.437679247    80.0510   6   9   0.0426   0.0442   0.1254  -0.0110  -0.0103  -0.0457   0.00    0.0
2018/11/05 00:04:30.000  -74.407193284  163.437680272    79.9965   6   9   0.0358   0.0328   0.1020  -0.0150   0.0174  -0.0363   1.00    0.0
2018/11/05 00:04:45.000  -74.407193236  163.437680366    80.0076   6   9   0.0313   0.0277   0.0864  -0.0134   0.0129  -0.0311   2.00    0.0
2018/11/05 00:05:00.000  -74.407193288  163.437680360    80.0661   6   9   0.0291   0.0250   0.0782  -0.0125   0.0106  -0.0283   2.00    0.0
2018/11/05 00:05:15.000  -74.407193242  163.437680259    80.0868   6   9   0.0319   0.0278   0.0890  -0.0134   0.0123  -0.0330   3.00    0.0
2018/11/05 00:05:30.000  -74.407193208  163.437680407    80.0954   6   9   0.0369   0.0331   0.1078  -0.0145   0.0156  -0.0403   3.00    0.0
2018/11/05 00:05:45.000  -74.407193158  163.437680406    80.0747   6   9   0.0430   0.0399   0.1298  -0.0162   0.0205  -0.0481   4.00    0.0
2018/11/05 00:06:00.000  -74.407193207  163.437680039    80.0665   6   9   0.0498   0.0473   0.1533  -0.0185   0.0261  -0.0558   4.00    0.0
2018/11/05 00:06:15.000  -74.407193317  163.437679554    80.0549   6   9   0.0568   0.0551   0.1773  -0.0211   0.0321  -0.0634   3.00    0.0
2018/11/05 00:06:30.000  -74.407193443  163.437678830    80.0140   6   9   0.0639   0.0629   0.2014  -0.0237   0.0381  -0.0707   3.00    0.0
2018/11/05 00:06:45.000  -74.407193500  163.437678395    80.0243   6   9   0.0710   0.0706   0.2254  -0.0264   0.0441  -0.0778   3.00    0.0
2018/11/05 00:07:00.000  -74.407193654  163.437678195    80.0218   6   9   0.0779   0.0782   0.2490  -0.0290   0.0500  -0.0845   3.00    0.0
2018/11/05 00:07:15.000  -74.407193602  163.437677741    79.9938   6   9   0.0848   0.0856   0.2722  -0.0316   0.0557  -0.0911   3.00    0.0
2018/11/05 00:07:30.000  -74.407193532  163.437677420    79.9933   6   9   0.0915   0.0927   0.2950  -0.0341   0.0614  -0.0974   3.00    0.0
2018/11/05 00:07:45.000  -74.407193366  163.437677847    79.9965   6   9   0.0850   0.0856   0.2757  -0.0309   0.0555  -0.0930   3.00    0.0
2018/11/05 00:08:00.000  -74.407193359  163.437678534    80.0247   6   9   0.0787   0.0782   0.2568  -0.0275   0.0485  -0.0891   4.00    0.0
2018/11/05 00:08:15.000  -74.407193362  163.437678465    80.0544   6   9   0.0728   0.0708   0.2396  -0.0234   0.0397  -0.0863   4.00    0.0
2018/11/05 00:08:30.000  -74.407193374  163.437678863    80.1312   6   9   0.0679   0.0635   0.2267  -0.0174   0.0256  -0.0862   4.00    0.0
2018/11/05 00:08:45.000  -74.407193408  163.437679067    80.1512   6   9   0.0664   0.0570   0.2288   0.0094  -0.0295  -0.0949   4.00    0.0
2018/11/05 00:09:00.000  -74.407193297  163.437679369    80.1092   6   9   0.0476   0.0469   0.1484  -0.0208   0.0348  -0.0501   4.00    0.0
2018/11/05 00:09:15.000  -74.407193345  163.437679709    80.1258   6   9   0.0412   0.0396   0.1260  -0.0182   0.0287  -0.0435   4.00    0.0
2018/11/05 00:09:30.000  -74.407193421  163.437679841    80.1416   6   9   0.0357   0.0331   0.1056  -0.0159   0.0230  -0.0374   4.00    0.0
2018/11/05 00:09:45.000  -74.407193389  163.437679835    80.1164   6   9   0.0314   0.0280   0.0891  -0.0143   0.0183  -0.0324   4.00    0.0
2018/11/05 00:10:00.000  -74.407193467  163.437680106    80.1034   6   9   0.0292   0.0253   0.0803  -0.0134   0.0157  -0.0297   5.00    0.0
2018/11/05 00:10:15.000  -74.407193531  163.437679852    80.0900   6   9   0.0318   0.0282   0.0919  -0.0140   0.0174  -0.0342   4.00    0.0
2018/11/05 00:10:30.000  -74.407193516  163.437679882    80.0688   6   9   0.0365   0.0334   0.1118  -0.0149   0.0205  -0.0412   4.00    0.0
2018/11/05 00:10:45.000  -74.407193568  163.437679573    80.1214   6   9   0.0424   0.0400   0.1352  -0.0161   0.0245  -0.0489   4.00    0.0
2018/11/05 00:11:00.000  -74.407193756  163.437679684    80.1922   6   9   0.0488   0.0473   0.1600  -0.0175   0.0287  -0.0567   4.00    0.0
2018/11/05 00:11:15.000  -74.407193782  163.437679241    80.1840   6   9   0.0556   0.0549   0.1854  -0.0188   0.0327  -0.0645   4.00    0.0
2018/11/05 00:11:30.000  -74.407193805  163.437678903    80.1960   6   9   0.0626   0.0625   0.2115  -0.0199   0.0362  -0.0726   4.00    0.0
2018/11/05 00:11:45.000  -74.407193818  163.437678096    80.1857   6   9   0.0700   0.0701   0.2390  -0.0203   0.0383  -0.0818   4.00    0.0
2018/11/05 00:12:00.000  -74.407193940  163.437677281    80.1921   6   9   0.0780   0.0777   0.2700  -0.0190   0.0369  -0.0936   5.00    0.0
2018/11/05 00:12:15.000  -74.407194120  163.437676353    80.2787   6   9   0.0883   0.0859   0.3119  -0.0087   0.0179  -0.1129   4.00    0.0
2018/11/05 00:12:30.000  -74.407193577  163.437676007    80.0097   6   9   0.0871   0.0896   0.2967  -0.0341   0.0704  -0.0925   4.00    0.0
2018/11/05 00:12:45.000  -74.407193506  163.437676215    80.0185   6   9   0.0793   0.0824   0.2683  -0.0317   0.0644  -0.0819   4.00    0.0
2018/11/05 00:13:00.000  -74.407193467  163.437676788    80.0199   6   9   0.0724   0.0754   0.2445  -0.0294   0.0591  -0.0745   4.00    0.0
2018/11/05 00:13:15.000  -74.407193537  163.437677239    80.0274   6   9   0.0658   0.0683   0.2217  -0.0269   0.0535  -0.0683   5.00    0.0
2018/11/05 00:13:30.000  -74.407193547  163.437677932    80.0199   6   9   0.0593   0.0610   0.1995  -0.0244   0.0475  -0.0627   5.00    0.0
2018/11/05 00:13:45.000  -74.407193585  163.437678610    80.0832   6   9   0.0531   0.0538   0.1776  -0.0218   0.0412  -0.0576   5.00    0.0
2018/11/05 00:14:00.000  -74.407193589  163.437679081    80.0877   6   9   0.0472   0.0466   0.1566  -0.0191   0.0343  -0.0531   5.00    0.0
2018/11/05 00:14:15.000  -74.407193558  163.437679599    80.1208   6   9   0.0419   0.0397   0.1377  -0.0162   0.0265  -0.0495   5.00    0.0
2018/11/05 00:14:30.000  -74.407193553  163.437679538    80.0852   6   9   0.0382   0.0338   0.1255  -0.0125   0.0146  -0.0490   5.00    0.0
2018/11/05 00:14:45.000  -74.407193566  163.437679977    80.0765   6   9   0.0295   0.0283   0.0836  -0.0151   0.0219  -0.0273   5.00    0.0
2018/11/05 00:15:00.000  -74.407193478  163.437680267    80.0582   6   9   0.0276   0.0262   0.0746  -0.0145   0.0201  -0.0243   5.00    0.0
2018/11/05 00:15:15.000  -74.407193464  163.437679898    80.0354   6   9   0.0294   0.0285   0.0835  -0.0154   0.0227  -0.0271   5.00    0.0
2018/11/05 00:15:30.000  -74.407193498  163.437679960    80.0495   6   9   0.0332   0.0335   0.1009  -0.0168   0.0274  -0.0316   5.00    0.0
2018/11/05 00:15:45.000  -74.407193734  163.437679131    80.0807   6   9   0.0381   0.0396   0.1220  -0.0186   0.0330  -0.0366   5.00    0.0
2018/11/05 00:16:00.000  -74.407193817  163.437678361    80.0801   6   9   0.0437   0.0464   0.1444  -0.0205   0.0389  -0.0416   5.00    0.0
2018/11/05 00:16:15.000  -74.407193859  163.437677917    80.0850   6   9   0.0496   0.0534   0.1674  -0.0226   0.0451  -0.0465   5.00    0.0
2018/11/05 00:16:30.000  -74.407193772  163.437677246    80.0370   6   9   0.0556   0.0604   0.1906  -0.0247   0.0514  -0.0516   4.00    0.0
2018/11/05 00:16:45.000  -74.407193636  163.437676500    80.0049   6   9   0.0617   0.0673   0.2138  -0.0270   0.0579  -0.0570   4.00    0.0
2018/11/05 00:17:00.000  -74.407193736  163.437676180    80.0005   6   9   0.0678   0.0742   0.2372  -0.0294   0.0645  -0.0627   5.00    0.0
2018/11/05 00:17:15.000  -74.407193753  163.437675277    79.9598   6   9   0.0740   0.0809   0.2606  -0.0319   0.0713  -0.0688   5.00    0.0
2018/11/05 00:17:30.000  -74.407193805  163.437674632    79.9250   6   9   0.0801   0.0875   0.2840  -0.0345   0.0783  -0.0753   4.00    0.0
2018/11/05 00:17:45.000  -74.407193732  163.437675067    79.9211   6   9   0.0740   0.0809   0.2625  -0.0322   0.0728  -0.0693   4.00    0.0
2018/11/05 00:18:00.000  -74.407193589  163.437675643    79.8939   6   9   0.0678   0.0741   0.2401  -0.0298   0.0667  -0.0635   4.00    0.0
2018/11/05 00:18:15.000  -74.407193487  163.437676491    79.9239   6   9   0.0616   0.0673   0.2175  -0.0274   0.0606  -0.0578   5.00    0.0
2018/11/05 00:18:30.000  -74.407193346  163.437677202    79.9181   6   9   0.0554   0.0604   0.1946  -0.0252   0.0545  -0.0524   5.00    0.0
2018/11/05 00:18:45.000  -74.407193352  163.437678232    79.9613   6   9   0.0493   0.0534   0.1716  -0.0230   0.0483  -0.0471   5.00    0.0
2018/11/05 00:19:00.000  -74.407193382  163.437678750    79.9977   6   9   0.0434   0.0465   0.1486  -0.0210   0.0423  -0.0420   3.00    0.0
2018/11/05 00:19:15.000  -74.407193384  163.437679432    80.0114   6   9   0.0379   0.0399   0.1258  -0.0192   0.0364  -0.0369   5.00    0.0
2018/11/05 00:19:30.000  -74.407193313  163.437679459    80.0178   6   9   0.0330   0.0340   0.1045  -0.0177   0.0311  -0.0320   4.00    0.0
2018/11/05 00:19:45.000  -74.407193263  163.437679423    79.9971   6   9   0.0294   0.0297   0.0871  -0.0167   0.0273  -0.0282   4.00    0.0
2018/11/05 00:20:00.000  -74.407193379  163.437679550    79.9949   6  10   0.0277   0.0281   0.0755  -0.0171   0.0275  -0.0249   4.00    0.0
2018/11/05 00:20:15.000  -74.407193452  163.437679631    79.9931   6  10   0.0281   0.0293   0.0838  -0.0161   0.0298  -0.0245   4.00    0.0
2018/11/05 00:20:30.000  -74.407193442  163.437679107    79.9462   6  10   0.0317   0.0343   0.1008  -0.0180   0.0373  -0.0277   4.00    0.0
2018/11/05 00:20:45.000  -74.407193467  163.437678901    79.9397   6  10   0.0363   0.0404   0.1207  -0.0202   0.0456  -0.0310   4.00    0.0
2018/11/05 00:21:00.000  -74.407193531  163.437678722    79.9541   6  10   0.0415   0.0470   0.1420  -0.0226   0.0541  -0.0345   4.00    0.0
2018/11/05 00:21:15.000  -74.407193552  163.437678000    79.9303   6  10   0.0471   0.0539   0.1640  -0.0251   0.0628  -0.0382   4.00    0.0
2018/11/05 00:21:30.000  -74.407193435  163.437677028    79.9027   6  10   0.0529   0.0609   0.1867  -0.0280   0.0717  -0.0426   5.00    0.0
2018/11/05 00:21:45.000  -74.407193391  163.437676351    79.9183   6  10   0.0588   0.0680   0.2100  -0.0311   0.0811  -0.0478   5.00    0.0
2018/11/05 00:22:00.000  -74.407193373  163.437675961    79.9199   6  10   0.0648   0.0752   0.2342  -0.0345   0.0911  -0.0538   5.00    0.0
2018/11/05 00:22:15.000  -74.407193343  163.437675520    79.9026   6  10   0.0708   0.0827   0.2597  -0.0383   0.1020  -0.0609   5.00    0.0
2018/11/05 00:22:30.000  -74.407193303  163.437675112    79.8749   6  10   0.0770   0.0907   0.2875  -0.0427   0.1146  -0.0694   5.00    0.0
2018/11/05 00:22:45.000  -74.407193272  163.437675027    79.7846   6  10   0.0715   0.0884   0.2832  -0.0423   0.1181  -0.0702   5.00    0.0
2018/11/05 00:23:00.000  -74.407193407  163.437676443    79.8961   6  10   0.0690   0.0881   0.2905  -0.0474   0.1273  -0.0832   4.00    0.0
2018/11/05 00:23:15.000  -74.407193471  163.437678347    80.0067   6  10   0.0607   0.0690   0.2206  -0.0350   0.0866  -0.0587   4.00    0.0
2018/11/05 00:23:30.000  -74.407193364  163.437678400    79.9773   6  10   0.0539   0.0613   0.1940  -0.0302   0.0752  -0.0497   4.00    0.0
2018/11/05 00:23:45.000  -74.407193297  163.437678326    79.9433   6  10   0.0478   0.0546   0.1722  -0.0270   0.0672  -0.0442   4.00    0.0
2018/11/05 00:24:00.000  -74.407193361  163.437678812    79.9620   6  10   0.0422   0.0488   0.1540  -0.0248   0.0615  -0.0409   4.00    0.0
2018/11/05 00:24:15.000  -74.407193315  163.437678884    79.9187   6  10   0.0373   0.0451   0.1437  -0.0242   0.0608  -0.0408   3.00    0.0
2018/11/05 00:24:30.000  -74.407193410  163.437679798    79.9948   6  10   0.0324   0.0353   0.1078  -0.0197   0.0422  -0.0321   3.00    0.0
2018/11/05 00:24:45.000  -74.407193743  163.437681368    80.1122   1  10   0.0330   0.0343   0.1081  -0.0231   0.0511  -0.0429   3.00    1.0
2018/11/05 00:25:00.000  -74.407193730  163.437681073    80.0925   1  10   0.0298   0.0268   0.0777  -0.0181   0.0352  -0.0329   4.00    1.0
2018/11/05 00:25:15.000  -74.407193818  163.437681314    80.1674   1  10   0.0321   0.0299   0.0891  -0.0200   0.0397  -0.0363   4.00    1.0
2018/11/05 00:25:30.000  -74.407193885  163.437681507    80.1986   1  10   0.0365   0.0357   0.1102  -0.0230   0.0476  -0.0419   4.00    1.0
2018/11/05 00:25:45.000  -74.407193895  163.437681697    80.1955   1  10   0.0423   0.0429   0.1366  -0.0267   0.0575  -0.0490   4.00    1.0
2018/11/05 00:26:00.000  -74.407193416  163.437678013    80.0171   6  10   0.0414   0.0454   0.1415  -0.0224   0.0521  -0.0356   3.00    0.0
2018/11/05 00:26:15.000  -74.407193370  163.437677499    80.0116   6  10   0.0469   0.0519   0.1639  -0.0248   0.0605  -0.0398   3.00    0.0
2018/11/05 00:26:30.000  -74.407193307  163.437676595    79.9724   6  10   0.0526   0.0585   0.1868  -0.0275   0.0692  -0.0447   3.00    0.0
2018/11/05 00:26:45.000  -74.407193233  163.437675799    79.9310   6  10   0.0584   0.0651   0.2101  -0.0304   0.0781  -0.0503   3.00    0.0
2018/11/05 00:27:00.000  -74.407193322  163.437675520    79.9605   6  10   0.0643   0.0717   0.2336  -0.0336   0.0873  -0.0566   3.00    0.0
2018/11/05 00:27:15.000  -74.407193353  163.437674899    79.9996   6  10   0.0702   0.0783   0.2574  -0.0370   0.0966  -0.0633   3.00    0.0
2018/11/05 00:27:30.000  -74.407193423  163.437674672    80.0120   6  10   0.0761   0.0849   0.2813  -0.0405   0.1060  -0.0705   3.00    0.0
2018/11/05 00:27:45.000  -74.407193367  163.437674771    79.9990   6  10   0.0703   0.0786   0.2601  -0.0373   0.0981  -0.0640   3.00    0.0
2018/11/05 00:28:00.000  -74.407193302  163.437675497    79.9764   6  10   0.0644   0.0720   0.2375  -0.0341   0.0894  -0.0579   3.00    0.0
2018/11/05 00:28:15.000  -74.407193285  163.437676204    80.0202   6  10   0.0585   0.0654   0.2148  -0.0310   0.0807  -0.0520   3.00    0.0
2018/11/05 00:28:30.000  -74.407193299  163.437677556    80.0259   6  10   0.0527   0.0588   0.1921  -0.0281   0.0720  -0.0466   3.00    0.0
2018/11/05 00:28:45.000  -74.407193289  163.437678088    79.9631   6  10   0.0471   0.0523   0.1694  -0.0254   0.0635  -0.0417   3.00    0.0
2018/11/05 00:29:00.000  -74.407193447  163.437678723    80.0397   6  10   0.0416   0.0459   0.1471  -0.0230   0.0551  -0.0373   3.00    0.0
2018/11/05 00:29:15.000  -74.407193508  163.437678702    80.0572   6  10   0.0366   0.0398   0.1255  -0.0210   0.0472  -0.0337   3.00    0.0
2018/11/05 00:29:30.000  -74.407193995  163.437682294    80.2124   1  10   0.0380   0.0378   0.1188  -0.0254   0.0529  -0.0460   4.00    1.0
2018/11/05 00:29:45.000  -74.407194073  163.437682491    80.2104   1  10   0.0342   0.0330   0.0979  -0.0234   0.0457  -0.0414   4.00    1.0
2018/11/05 00:30:00.000  -74.407194046  163.437681979    80.1736   1  10   0.0330   0.0316   0.0878  -0.0232   0.0426  -0.0398   4.00    1.0
2018/11/05 00:30:15.000  -74.407193951  163.437681310    80.1333   1  10   0.0350   0.0351   0.1005  -0.0252   0.0473  -0.0431   4.00    1.0
2018/11/05 00:30:30.000  -74.407193983  163.437681063    80.0934   1  10   0.0398   0.0418   0.1235  -0.0290   0.0559  -0.0491   4.00    1.0
2018/11/05 00:30:45.000  -74.407193463  163.437677029    79.8932   6  10   0.0377   0.0428   0.1281  -0.0238   0.0479  -0.0349   2.00    0.0
2018/11/05 00:31:00.000  -74.407193491  163.437676350    79.8927   6  10   0.0428   0.0492   0.1503  -0.0263   0.0558  -0.0387   2.00    0.0
2018/11/05 00:31:15.000  -74.407193527  163.437675636    79.9190   6  10   0.0484   0.0558   0.1736  -0.0291   0.0644  -0.0435   2.00    0.0
2018/11/05 00:31:30.000  -74.407193440  163.437675169    79.9740   6  10   0.0542   0.0626   0.1976  -0.0322   0.0734  -0.0493   3.00    0.0
2018/11/05 00:31:45.000  -74.407193330  163.437674042    79.9393   6  10   0.0601   0.0694   0.2221  -0.0356   0.0828  -0.0558   3.00    0.0
2018/11/05 00:32:00.000  -74.407193352  163.437674184    80.0384   6  10   0.0661   0.0764   0.2470  -0.0392   0.0925  -0.0630   3.00    0.0
2018/11/05 00:32:15.000  -74.407193271  163.437673398    80.0233   6  10   0.0722   0.0835   0.2721  -0.0430   0.1022  -0.0706   4.00    0.0
2018/11/05 00:32:30.000  -74.407193259  163.437672769    79.9642   6  10   0.0784   0.0909   0.2974  -0.0470   0.1121  -0.0786   4.00    0.0
2018/11/05 00:32:45.000  -74.407193174  163.437672309    79.9675   6  10   0.0733   0.0871   0.2736  -0.0447   0.1007  -0.0710   4.00    0.0
2018/11/05 00:33:00.000  -74.407193171  163.437674182    79.9241   6  10   0.0694   0.0776   0.2491  -0.0438   0.0939  -0.0639   2.00    0.0
2018/11/05 00:33:15.000  -74.407193329  163.437675103    79.9321   6  10   0.0619   0.0697   0.2271  -0.0385   0.0848  -0.0577   1.00    0.0
2018/11/05 00:33:30.000  -74.407193436  163.437676520    79.9773   6  10   0.0557   0.0628   0.2026  -0.0348   0.0749  -0.0501   0.00    0.0
2018/11/05 00:33:45.000  -74.407193537  163.437677313    79.9562   6  10   0.0479   0.0536   0.1774  -0.0278   0.0680  -0.0469   0.00    0.0
2018/11/05 00:34:00.000  -74.407193514  163.437677470    79.9349   6  11   0.0409   0.0469   0.1485  -0.0244   0.0595  -0.0463   1.00    0.0
2018/11/05 00:34:15.000  -74.407193483  163.437677989    79.9463   6  11   0.0361   0.0409   0.1281  -0.0221   0.0513  -0.0406   1.00    0.0
2018/11/05 00:34:30.000  -74.407193928  163.437681420    80.1150   1  11   0.0394   0.0410   0.1305  -0.0287   0.0610  -0.0550   4.00    1.0
2018/11/05 00:34:45.000  -74.407193920  163.437681627    80.1173   1  11   0.0364   0.0372   0.1130  -0.0276   0.0551  -0.0505   4.00    1.0
2018/11/05 00:35:00.000  -74.407193939  163.437681713    80.1268   1  11   0.0356   0.0370   0.1087  -0.0282   0.0554  -0.0511   3.00    1.0
2018/11/05 00:35:15.000  -74.407193791  163.437681424    80.0775   1  11   0.0394   0.0448   0.1333  -0.0333   0.0675  -0.0601   3.00    1.0
2018/11/05 00:35:30.000  -74.407193050  163.437676614    79.8437   6  11   0.0341   0.0446   0.1287  -0.0264   0.0549  -0.0427   0.00    0.0
2018/11/05 00:35:45.000  -74.407192970  163.437675859    79.7565   6  11   0.0391   0.0501   0.1601  -0.0302   0.0728  -0.0538   1.00    0.0
2018/11/05 00:36:00.000  -74.407193069  163.437676149    79.8484   6  11   0.0550   0.0727   0.2441  -0.0510   0.1186  -0.0944   0.00    0.0
2018/11/05 00:36:15.000  -74.407193123  163.437675805    79.8780   6  11   0.0585   0.0773   0.2715  -0.0520   0.1276  -0.1003   1.00    0.0
2018/11/05 00:36:30.000  -74.407193150  163.437675044    79.8644   6  11   0.0642   0.0856   0.3030  -0.0567   0.1411  -0.1098   3.00    0.0
2018/11/05 00:36:45.000  -74.407193113  163.437674530    79.9092   6  11   0.0677   0.0852   0.2934  -0.0551   0.1313  -0.1049   2.00    0.0
2018/11/05 00:37:00.000  -74.407193184  163.437674338    79.8284   6  11   0.0707   0.0891   0.3076  -0.0549   0.1381  -0.1094   1.00    0.0
2018/11/05 00:37:15.000  -74.407193144  163.437673582    79.8169   6  11   0.0759   0.0957   0.3311  -0.0580   0.1479  -0.1167   2.00    0.0
2018/11/05 00:37:30.000  -74.407193054  163.437673103    79.7457   6  11   0.0818   0.1037   0.3603  -0.0627   0.1610  -0.1267   1.00    0.0
2018/11/05 00:37:45.000  -74.407192949  163.437672715    79.6788   6  11   0.0776   0.1020   0.3559  -0.0630   0.1626  -0.1252   2.00    0.0
2018/11/05 00:38:00.000  -74.407193412  163.437675980    80.0007   6  11   0.0698   0.0821   0.2821  -0.0504   0.1210  -0.0998   2.00    0.0
2018/11/05 00:38:15.000  -74.407193653  163.437677109    80.0278   6  11   0.0608   0.0710   0.2475  -0.0410   0.1039  -0.0854   2.00    0.0
2018/11/05 00:38:30.000  -74.407193622  163.437676559    79.9861   6  11   0.0540   0.0625   0.2172  -0.0351   0.0899  -0.0736   2.00    0.0
2018/11/05 00:38:45.000  -74.407193661  163.437676759    80.0066   6  11   0.0478   0.0547   0.1897  -0.0303   0.0776  -0.0637   3.00    0.0
2018/11/05 00:39:00.000  -74.407193666  163.437677136    80.0100   6  11   0.0421   0.0474   0.1643  -0.0263   0.0665  -0.0551   3.00    0.0
2018/11/05 00:39:15.000  -74.407193658  163.437677505    79.9798   6  11   0.0369   0.0407   0.1412  -0.0230   0.0565  -0.0478   3.00    0.0
2018/11/05 00:39:30.000  -74.407193823  163.437680286    80.0286   1  11   0.0374   0.0383   0.1365  -0.0261   0.0613  -0.0552   5.00    2.0
2018/11/05 00:39:45.000  -74.407193907  163.437680714    80.0591   1  11   0.0339   0.0335   0.1187  -0.0241   0.0549  -0.0504   5.00    2.0
2018/11/05 00:40:00.000  -74.407193841  163.437680677    80.0543   1  11   0.0332   0.0325   0.1149  -0.0245   0.0545  -0.0508   4.00    2.0
2018/11/05 00:40:15.000  -74.407194018  163.437681335    80.1226   1  11   0.0372   0.0385   0.1375  -0.0293   0.0651  -0.0595   3.00    2.0
2018/11/05 00:40:30.000  -74.407193491  163.437677817    79.9333   6  11   0.0340   0.0389   0.1324  -0.0237   0.0556  -0.0456   3.00    0.0
2018/11/05 00:40:45.000  -74.407193415  163.437677179    79.9392   6  11   0.0389   0.0461   0.1574  -0.0272   0.0666  -0.0508   4.00    0.0
2018/11/05 00:41:00.000  -74.407193488  163.437676729    79.9322   6  11   0.0431   0.0551   0.1880  -0.0314   0.0828  -0.0625   3.00    0.0
2018/11/05 00:41:15.000  -74.407193649  163.437677301    80.0724   6  11   0.0506   0.0600   0.2102  -0.0362   0.0897  -0.0740   3.00    0.0
2018/11/05 00:41:30.000  -74.407193517  163.437676456    80.0576   6  11   0.0547   0.0652   0.2251  -0.0375   0.0946  -0.0764   3.00    0.0
2018/11/05 00:41:45.000  -74.407193383  163.437675427    80.0033   6  11   0.0603   0.0716   0.2449  -0.0409   0.1020  -0.0818   3.00    0.0
2018/11/05 00:42:00.000  -74.407193477  163.437675639    80.0129   6  11   0.0645   0.0768   0.2680  -0.0421   0.1113  -0.0894   3.00    0.0
2018/11/05 00:42:15.000  -74.407193469  163.437675550    80.0292   6  11   0.0697   0.0829   0.2908  -0.0449   0.1202  -0.0966   3.00    0.0
2018/11/05 00:42:30.000  -74.407193417  163.437675416    80.0174   6  11   0.0752   0.0892   0.3143  -0.0482   0.1295  -0.1046   3.00    0.0
2018/11/05 00:42:45.000  -74.407193372  163.437675306    79.9800   6  11   0.0694   0.0827   0.2906  -0.0445   0.1197  -0.0962   3.00    0.0
2018/11/05 00:43:00.000  -74.407193546  163.437676096    80.0480   6  11   0.0638   0.0765   0.2681  -0.0411   0.1109  -0.0885   3.00    0.0
2018/11/05 00:43:15.000  -74.407193617  163.437676484    80.0635   6  11   0.0583   0.0707   0.2471  -0.0382   0.1030  -0.0815   3.00    0.0
2018/11/05 00:43:30.000  -74.407193617  163.437676498    80.0204   6  11   0.0531   0.0658   0.2292  -0.0360   0.0971  -0.0759   3.00    0.0
2018/11/05 00:43:45.000  -74.407193489  163.437676025    79.9312   6  11   0.0486   0.0632   0.2190  -0.0356   0.0958  -0.0735   3.00    0.0
2018/11/05 00:44:00.000  -74.407193860  163.437678699    80.2130   6  11   0.0428   0.0509   0.1730  -0.0281   0.0693  -0.0597   3.00    0.0
2018/11/05 00:44:15.000  -74.407193786  163.437679411    80.1646   6  11   0.0371   0.0396   0.1463  -0.0225   0.0573  -0.0502   2.00    0.0
2018/11/05 00:44:30.000  -74.407193667  163.437679071    80.0540   6  11   0.0327   0.0333   0.1263  -0.0195   0.0486  -0.0442   2.00    0.0
2018/11/05 00:44:45.000  -74.407193633  163.437678826    79.9932   6  11   0.0296   0.0288   0.1126  -0.0178   0.0426  -0.0405   2.00    0.0
2018/11/05 00:45:00.000  -74.407193666  163.437678872    79.9673   6  11   0.0283   0.0271   0.1072  -0.0173   0.0407  -0.0394   3.00    0.0
2018/11/05 00:45:15.000  -74.407193686  163.437678617    79.9290   6  11   0.0298   0.0299   0.1153  -0.0184   0.0446  -0.0407   3.00    0.0
2018/11/05 00:45:30.000  -74.407193752  163.437678775    79.9377   6  11   0.0324   0.0349   0.1290  -0.0200   0.0517  -0.0447   2.00    0.0
2018/11/05 00:45:45.000  -74.407193786  163.437678266    79.9496   6  11   0.0364   0.0411   0.1477  -0.0223   0.0601  -0.0494   2.00    0.0
2018/11/05 00:46:00.000  -74.407193777  163.437677836    79.9065   6  11   0.0410   0.0479   0.1695  -0.0253   0.0697  -0.0556   2.00    0.0
2018/11/05 00:46:15.000  -74.407193838  163.437677076    79.9347   6  11   0.0462   0.0553   0.1940  -0.0289   0.0806  -0.0631   2.00    0.0
2018/11/05 00:46:30.000  -74.407193788  163.437676266    79.8984   6  11   0.0518   0.0633   0.2220  -0.0334   0.0934  -0.0723   3.00    0.0
2018/11/05 00:46:45.000  -74.407193773  163.437675430    79.8578   6  11   0.0582   0.0734   0.2579  -0.0399   0.1112  -0.0852   3.00    0.0
2018/11/05 00:47:00.000  -74.407193913  163.437676400    79.9873   6  11   0.0680   0.0843   0.3075  -0.0506   0.1340  -0.1079   3.00    0.0
2018/11/05 00:47:15.000  -74.407193710  163.437675495    79.9281   6  11   0.0722   0.0900   0.3247  -0.0524   0.1407  -0.1119   3.00    0.0
2018/11/05 00:47:30.000  -74.407193534  163.437674248    79.8307   6  11   0.0787   0.1002   0.3607  -0.0588   0.1585  -0.1247   3.00    0.0
2018/11/05 00:47:45.000  -74.407193992  163.437676678    80.1083   6  11   0.0710   0.0835   0.3035  -0.0472   0.1259  -0.1044   3.00    0.0
2018/11/05 00:48:00.000  -74.407193968  163.437676911    80.0842   6  11   0.0636   0.0738   0.2655  -0.0398   0.1079  -0.0891   2.00    0.0
2018/11/05 00:48:15.000  -74.407193957  163.437676789    80.1079   6  11   0.0574   0.0659   0.2357  -0.0344   0.0945  -0.0780   2.00    0.0
2018/11/05 00:48:30.000  -74.407193848  163.437676840    80.0669   6  11   0.0516   0.0586   0.2091  -0.0300   0.0829  -0.0687   2.00    0.0
2018/11/05 00:48:45.000  -74.407193811  163.437677085    80.0435   6  11   0.0462   0.0518   0.1845  -0.0259   0.0725  -0.0605   2.00    0.0
2018/11/05 00:49:00.000  -74.407193780  163.437677527    80.0158   6  11   0.0413   0.0456   0.1619  -0.0219   0.0631  -0.0534   2.00    0.0
2018/11/05 00:49:15.000  -74.407193887  163.437678392    80.0841   6  11   0.0361   0.0383   0.1415  -0.0205   0.0543  -0.0477   4.00    0.0
2018/11/05 00:49:30.000  -74.407193893  163.437678685    80.0750   6  11   0.0321   0.0326   0.1243  -0.0184   0.0471  -0.0432   3.00    0.0
2018/11/05 00:49:45.000  -74.407193828  163.437678769    80.0298   6  11   0.0292   0.0282   0.1114  -0.0169   0.0417  -0.0401   3.00    0.0
2018/11/05 00:50:00.000  -74.407193783  163.437678719    79.9807   6  11   0.0277   0.0264   0.1047  -0.0163   0.0392  -0.0384   3.00    0.0
2018/11/05 00:50:15.000  -74.407193784  163.437678449    79.9741   6  11   0.0289   0.0287   0.1108  -0.0168   0.0421  -0.0394   3.00    0.0
2018/11/05 00:50:30.000  -74.407193772  163.437678164    79.9725   6  11   0.0317   0.0332   0.1231  -0.0180   0.0475  -0.0420   3.00    0.0
2018/11/05 00:50:45.000  -74.407193812  163.437677213    79.9336   6  11   0.0355   0.0387   0.1391  -0.0197   0.0541  -0.0458   4.00    0.0
2018/11/05 00:51:00.000  -74.407193807  163.437676184    79.9265   6  11   0.0398   0.0447   0.1575  -0.0219   0.0615  -0.0506   4.00    0.0
2018/11/05 00:51:15.000  -74.407193802  163.437675818    79.9653   6  11   0.0446   0.0508   0.1774  -0.0244   0.0694  -0.0563   4.00    0.0
2018/11/05 00:51:30.000  -74.407193843  163.437676049    80.0360   6  11   0.0497   0.0570   0.1983  -0.0273   0.0777  -0.0627   4.00    0.0
2018/11/05 00:51:45.000  -74.407193672  163.437675435    80.0139   6  11   0.0549   0.0633   0.2199  -0.0303   0.0863  -0.0696   4.00    0.0
2018/11/05 00:52:00.000  -74.407193684  163.437675692    80.0489   6  11   0.0602   0.0695   0.2418  -0.0334   0.0950  -0.0768   4.00    0.0
2018/11/05 00:52:15.000  -74.407193632  163.437675104    80.0252   6  11   0.0655   0.0758   0.2640  -0.0367   0.1037  -0.0842   4.00    0.0
2018/11/05 00:52:30.000  -74.407193552  163.437675069    80.0246   6  11   0.0710   0.0821   0.2863  -0.0400   0.1126  -0.0918   4.00    0.0
2018/11/05 00:52:45.000  -74.407193538  163.437674972    79.9943   6  11   0.0655   0.0757   0.2636  -0.0366   0.1034  -0.0841   4.00    0.0
2018/11/05 00:53:00.000  -74.407193434  163.437675344    80.0137   6  11   0.0600   0.0694   0.2410  -0.0332   0.0946  -0.0763   4.00    0.0
2018/11/05 00:53:15.000  -74.407193409  163.437676078    80.0356   6  11   0.0547   0.0634   0.2192  -0.0301   0.0862  -0.0691   4.00    0.0
2018/11/05 00:53:30.000  -74.407193377  163.437676012    79.9826   6  11   0.0495   0.0576   0.1986  -0.0271   0.0785  -0.0624   4.00    0.0
2018/11/05 00:53:45.000  -74.407193571  163.437676188    79.9556   6  11   0.0446   0.0526   0.1800  -0.0247   0.0723  -0.0567   4.00    0.0
2018/11/05 00:54:00.000  -74.407193584  163.437676040    79.9018   6  11   0.0404   0.0495   0.1660  -0.0230   0.0697  -0.0527   4.00    0.0
2018/11/05 00:54:15.000  -74.407193676  163.437677816    79.9852   6  11   0.0373   0.0422   0.1546  -0.0249   0.0639  -0.0542   3.00    0.0
2018/11/05 00:54:30.000  -74.407193682  163.437677993    79.9523   6  11   0.0321   0.0322   0.1253  -0.0189   0.0473  -0.0439   3.00    0.0
2018/11/05 00:54:45.000  -74.407193704  163.437678094    79.9274   6  11   0.0287   0.0277   0.1100  -0.0167   0.0410  -0.0391   3.00    0.0
2018/11/05 00:55:00.000  -74.407193711  163.437678512    79.9377   6  11   0.0273   0.0261   0.1024  -0.0163   0.0385  -0.0371   3.00    0.0
2018/11/05 00:55:15.000  -74.407193821  163.437678739    79.9538   6  11   0.0298   0.0280   0.1141  -0.0175   0.0420  -0.0422   4.00    0.0
2018/11/05 00:55:30.000  -74.407193724  163.437677785    79.9000   6  11   0.0328   0.0323   0.1261  -0.0185   0.0464  -0.0454   4.00    0.0
2018/11/05 00:55:45.000  -74.407193669  163.437677285    79.8981   6  11   0.0369   0.0378   0.1423  -0.0204   0.0526  -0.0503   4.00    0.0
2018/11/05 00:56:00.000  -74.407193566  163.437676492    79.8798   6  11   0.0416   0.0438   0.1607  -0.0227   0.0598  -0.0561   4.00    0.0
2018/11/05 00:56:15.000  -74.407193610  163.437675967    79.9284   6  11   0.0466   0.0500   0.1803  -0.0253   0.0675  -0.0624   4.00    0.0
2018/11/05 00:56:30.000  -74.407193666  163.437676215    79.9928   6  11   0.0517   0.0563   0.2007  -0.0281   0.0756  -0.0690   4.00    0.0
2018/11/05 00:56:45.000  -74.407193600  163.437675941    80.0005   6  11   0.0569   0.0629   0.2215  -0.0309   0.0840  -0.0759   4.00    0.0
2018/11/05 00:57:00.000  -74.407193538  163.437675369    79.9698   6  11   0.0623   0.0703   0.2425  -0.0335   0.0926  -0.0828   4.00    0.0
2018/11/05 00:57:15.000  -74.407193496  163.437675807    79.9788   6  11   0.0675   0.0748   0.2636  -0.0375   0.1010  -0.0900   4.00    0.0
2018/11/05 00:57:30.000  -74.407193366  163.437675161    79.9116   6  11   0.0728   0.0806   0.2846  -0.0407   0.1091  -0.0971   4.00    0.0
2018/11/05 00:57:45.000  -74.407193372  163.437675728    79.9120   6  11   0.0675   0.0743   0.2634  -0.0378   0.1008  -0.0902   4.00    0.0
2018/11/05 00:58:00.000  -74.407193360  163.437676228    79.8883   6  11   0.0626   0.0682   0.2440  -0.0352   0.0931  -0.0844   4.00    0.0
2018/11/05 00:58:15.000  -74.407193395  163.437676411    79.8714   6  11   0.0579   0.0625   0.2257  -0.0329   0.0860  -0.0792   4.00    0.0
2018/11/05 00:58:30.000  -74.407193418  163.437676080    79.8320   6  11   0.0534   0.0578   0.2092  -0.0309   0.0805  -0.0748   4.00    0.0
2018/11/05 00:58:45.000  -74.407193567  163.437676710    79.8421   6  11   0.0511   0.0486   0.1957  -0.0276   0.0690  -0.0747   4.00    0.0
2018/11/05 00:59:00.000  -74.407193906  163.437677645    79.9679   6  10   0.0558   0.0443   0.2167  -0.0322   0.0734  -0.0929   4.00    0.0
2018/11/05 00:59:15.000  -74.407194021  163.437678496    80.0301   6  10   0.0459   0.0368   0.1756  -0.0253   0.0582  -0.0734   5.00    0.0
2018/11/05 00:59:30.000  -74.407193860  163.437678589    79.9624   6  10   0.0370   0.0302   0.1389  -0.0192   0.0448  -0.0557   5.00    0.0
2018/11/05 00:59:45.000  -74.407193761  163.437678491    79.9168   6  10   0.0299   0.0250   0.1086  -0.0142   0.0338  -0.0407   5.00    0.0
2018/11/05 01:00:00.000  -74.407193904  163.437678789    80.0154   6  10   0.0262   0.0224   0.0911  -0.0113   0.0276  -0.0316   5.00    0.0
2018/11/05 01:00:15.000  -74.407193837  163.437678921    79.9762   6  10   0.0292   0.0248   0.1061  -0.0128   0.0307  -0.0381   5.00    0.0
2018/11/05 01:00:30.000  -74.407193736  163.437678835    79.9178   6  10   0.0356   0.0295   0.1332  -0.0164   0.0392  -0.0520   5.00    0.0
2018/11/05 01:00:45.000  -74.407193684  163.437678191    79.8937   6  10   0.0434   0.0353   0.1643  -0.0208   0.0488  -0.0666   5.00    0.0
2018/11/05 01:01:00.000  -74.407193729  163.437678084    79.9274   6  10   0.0520   0.0417   0.1989  -0.0257   0.0597  -0.0826   5.00    0.0
2018/11/05 01:01:15.000  -74.407193596  163.437677710    79.9107   6  10   0.0610   0.0481   0.2352  -0.0309   0.0710  -0.0993   5.00    0.0
2018/11/05 01:01:30.000  -74.407193516  163.437677367    79.9419   6  10   0.0703   0.0547   0.2730  -0.0362   0.0825  -0.1164   5.00    0.0
2018/11/05 01:01:45.000  -74.407193501  163.437677041    79.9767   6  10   0.0797   0.0613   0.3129  -0.0414   0.0940  -0.1339   5.00    0.0
2018/11/05 01:02:00.000  -74.407193417  163.437676358    79.9853   6  10   0.0894   0.0679   0.3590  -0.0466   0.1052  -0.1525   5.00    0.0
2018/11/05 01:02:15.000  -74.407193281  163.437676004    79.9167   6   9   0.1009   0.0746   0.4273  -0.0522   0.1182  -0.1789   5.00    0.0
2018/11/05 01:02:30.000  -74.407193302  163.437675925    79.9283   6   9   0.1110   0.0814   0.4717  -0.0570   0.1290  -0.1982   5.00    0.0
2018/11/05 01:02:45.000  -74.407193429  163.437676307    80.0089   6   9   0.1020   0.0754   0.4320  -0.0489   0.1118  -0.1814   5.00    0.0
2018/11/05 01:03:00.000  -74.407193293  163.437676997    79.9396   6   9   0.0914   0.0668   0.3864  -0.0454   0.1031  -0.1611   4.00    0.0
2018/11/05 01:03:15.000  -74.407193305  163.437676815    79.9389   6   9   0.0807   0.0598   0.3388  -0.0403   0.0917  -0.1399   4.00    0.0
2018/11/05 01:03:30.000  -74.407193371  163.437676906    79.9368   6   9   0.0706   0.0530   0.2942  -0.0349   0.0797  -0.1204   4.00    0.0
2018/11/05 01:03:45.000  -74.407193550  163.437677355    79.9933   6   9   0.0608   0.0464   0.2508  -0.0295   0.0677  -0.1014   4.00    0.0
2018/11/05 01:04:00.000  -74.407193650  163.437677400    80.0164   6   9   0.0514   0.0399   0.2086  -0.0243   0.0561  -0.0829   4.00    0.0
2018/11/05 01:04:15.000  -74.407193782  163.437677982    80.0596   6   9   0.0425   0.0337   0.1681  -0.0193   0.0451  -0.0651   4.00    0.0
2018/11/05 01:04:30.000  -74.407193895  163.437678265    80.0400   6   9   0.0344   0.0280   0.1306  -0.0148   0.0352  -0.0484   4.00    0.0
2018/11/05 01:04:45.000  -74.407193885  163.437678268    79.9803   6   9   0.0280   0.0235   0.0994  -0.0112   0.0274  -0.0340   4.00    0.0
2018/11/05 01:05:00.000  -74.407193872  163.437678593    79.9821   6   9   0.0249   0.0214   0.0819  -0.0093   0.0233  -0.0257   4.00    0.0
2018/11/05 01:05:15.000  -74.407193733  163.437678289    79.9702   6  10   0.0262   0.0237   0.0865  -0.0111   0.0270  -0.0261   5.00    0.0
2018/11/05 01:05:30.000  -74.407193577  163.437677531    79.9541   6  10   0.0302   0.0284   0.1016  -0.0142   0.0330  -0.0315   5.00    0.0
2018/11/05 01:05:45.000  -74.407193460  163.437676734    79.9173   6  10   0.0354   0.0343   0.1215  -0.0181   0.0411  -0.0389   5.00    0.0
2018/11/05 01:06:00.000  -74.407193360  163.437676160    79.9055   6  10   0.0416   0.0416   0.1456  -0.0235   0.0519  -0.0488   5.00    0.0
2018/11/05 01:06:15.000  -74.407193473  163.437676500    79.9787   6  10   0.0482   0.0475   0.1730  -0.0278   0.0619  -0.0598   5.00    0.0
2018/11/05 01:06:30.000  -74.407193319  163.437675804    79.9364   6  10   0.0535   0.0529   0.1931  -0.0304   0.0681  -0.0659   5.00    0.0
2018/11/05 01:06:45.000  -74.407193180  163.437675308    79.9325   6  10   0.0595   0.0589   0.2163  -0.0340   0.0761  -0.0739   5.00    0.0
2018/11/05 01:07:00.000  -74.407193183  163.437674830    79.9179   6  10   0.0658   0.0652   0.2408  -0.0380   0.0849  -0.0828   6.00    0.0
2018/11/05 01:07:15.000  -74.407193259  163.437674903    79.9584   6  10   0.0723   0.0716   0.2664  -0.0424   0.0943  -0.0923   4.00    0.0
2018/11/05 01:07:30.000  -74.407193241  163.437674408    79.8848   6  10   0.0792   0.0784   0.2931  -0.0472   0.1044  -0.1026   5.00    0.0
2018/11/05 01:07:45.000  -74.407193169  163.437674340    79.8535   6  10   0.0742   0.0745   0.2727  -0.0463   0.1003  -0.0975   5.00    0.0
2018/11/05 01:08:00.000  -74.407193438  163.437675279    79.9416   6  10   0.0667   0.0655   0.2453  -0.0392   0.0868  -0.0859   5.00    0.0
2018/11/05 01:08:15.000  -74.407193415  163.437675678    79.9373   6  10   0.0592   0.0577   0.2154  -0.0329   0.0736  -0.0732   6.00    0.0
2018/11/05 01:08:30.000  -74.407193414  163.437675921    79.9093   6  10   0.0525   0.0510   0.1889  -0.0280   0.0630  -0.0628   6.00    0.0
2018/11/05 01:08:45.000  -74.407193515  163.437676512    79.9568   6  10   0.0462   0.0446   0.1637  -0.0236   0.0534  -0.0533   6.00    0.0
2018/11/05 01:09:00.000  -74.407193541  163.437676801    79.9694   6  10   0.0402   0.0386   0.1396  -0.0197   0.0446  -0.0443   6.00    0.0
2018/11/05 01:09:15.000  -74.407193576  163.437677351    79.9787   6  10   0.0346   0.0329   0.1168  -0.0163   0.0367  -0.0360   6.00    0.0
2018/11/05 01:09:30.000  -74.407193618  163.437677728    79.9867   6  10   0.0299   0.0284   0.0964  -0.0140   0.0307  -0.0291   7.00    0.0
2018/11/05 01:09:45.000  -74.407193763  163.437678020    79.9816   6  10   0.0249   0.0225   0.0761  -0.0080   0.0208  -0.0185   7.00    0.0
2018/11/05 01:10:00.000  -74.407193842  163.437678364    79.9815   6  10   0.0227   0.0204   0.0651  -0.0056   0.0168  -0.0120   6.00    0.0
2018/11/05 01:10:15.000  -74.407193859  163.437678293    79.9884   6  10   0.0245   0.0223   0.0739  -0.0070   0.0194  -0.0162   6.00    0.0
2018/11/05 01:10:30.000  -74.407193821  163.437678107    80.0309   6  10   0.0284   0.0263   0.0905  -0.0100   0.0249  -0.0233   6.00    0.0
2018/11/05 01:10:45.000  -74.407193803  163.437678363    80.0752   6  10   0.0334   0.0314   0.1110  -0.0133   0.0318  -0.0312   6.00    0.0
2018/11/05 01:11:00.000  -74.407193705  163.437677822    80.0898   6  10   0.0389   0.0370   0.1336  -0.0169   0.0394  -0.0397   6.00    0.0
2018/11/05 01:11:15.000  -74.407193631  163.437677237    80.0616   6  10   0.0448   0.0427   0.1575  -0.0206   0.0473  -0.0486   6.00    0.0
2018/11/05 01:11:30.000  -74.407193565  163.437677193    80.0886   6  10   0.0509   0.0485   0.1821  -0.0243   0.0553  -0.0578   6.00    0.0
2018/11/05 01:11:45.000  -74.407193499  163.437676714    80.1054   6  10   0.0571   0.0543   0.2073  -0.0280   0.0634  -0.0670   6.00    0.0
2018/11/05 01:12:00.000  -74.407193413  163.437676353    80.0616   6  10   0.0634   0.0602   0.2327  -0.0318   0.0715  -0.0763   6.00    0.0
2018/11/05 01:12:15.000  -74.407193284  163.437676026    80.0021   6  10   0.0697   0.0660   0.2584  -0.0355   0.0796  -0.0857   6.00    0.0
2018/11/05 01:12:30.000  -74.407193286  163.437675370    79.9337   6  10   0.0762   0.0719   0.2842  -0.0392   0.0876  -0.0950   6.00    0.0
2018/11/05 01:12:45.000  -74.407193291  163.437675481    79.9364   6  10   0.0697   0.0659   0.2578  -0.0353   0.0789  -0.0853   6.00    0.0
2018/11/05 01:13:00.000  -74.407193331  163.437675683    79.9372   6  10   0.0633   0.0598   0.2320  -0.0313   0.0701  -0.0759   6.00    0.0
2018/11/05 01:13:15.000  -74.407193445  163.437676336    79.9503   6  10   0.0569   0.0538   0.2065  -0.0274   0.0614  -0.0665   7.00    0.0
2018/11/05 01:13:30.000  -74.407193527  163.437676348    80.0038   6  10   0.0507   0.0479   0.1811  -0.0235   0.0529  -0.0571   8.00    0.0
2018/11/05 01:13:45.000  -74.407193599  163.437676413    80.0409   6  10   0.0445   0.0421   0.1562  -0.0196   0.0445  -0.0477   8.00    0.0
2018/11/05 01:14:00.000  -74.407193633  163.437676628    80.0363   6  10   0.0386   0.0364   0.1319  -0.0159   0.0365  -0.0386   8.00    0.0
2018/11/05 01:14:15.000  -74.407193705  163.437677300    80.0736   6  10   0.0330   0.0309   0.1087  -0.0122   0.0289  -0.0296   8.00    0.0
2018/11/05 01:14:30.000  -74.407193713  163.437677504    80.0516   6  10   0.0280   0.0258   0.0875  -0.0086   0.0220  -0.0209   8.00    0.0
2018/11/05 01:14:45.000  -74.407193849  163.437677938    80.0170   6  10   0.0241   0.0219   0.0702  -0.0053   0.0165  -0.0125   7.00    0.0
2018/11/05 01:15:00.000  -74.407193907  163.437678221    79.9784   6  10   0.0222   0.0201   0.0610  -0.0030   0.0135  -0.0057   7.00    0.0
2018/11/05 01:15:15.000  -74.407193836  163.437678229    79.9756   6  10   0.0241   0.0218   0.0697  -0.0049   0.0161  -0.0114   7.00    0.0
2018/11/05 01:15:30.000  -74.407193720  163.437677720    79.9752   6  10   0.0281   0.0257   0.0867  -0.0077   0.0214  -0.0194   7.00    0.0
2018/11/05 01:15:45.000  -74.407193617  163.437677359    79.9824   6  10   0.0331   0.0306   0.1077  -0.0111   0.0278  -0.0279   7.00    0.0
2018/11/05 01:16:00.000  -74.407193566  163.437677081    79.9852   6  10   0.0387   0.0359   0.1308  -0.0144   0.0347  -0.0368   7.00    0.0
2018/11/05 01:16:15.000  -74.407193586  163.437676777    80.0051   6  10   0.0445   0.0413   0.1549  -0.0179   0.0418  -0.0459   7.00    0.0
2018/11/05 01:16:30.000  -74.407193506  163.437676696    79.9584   6  10   0.0506   0.0468   0.1797  -0.0213   0.0490  -0.0552   7.00    0.0
2018/11/05 01:16:45.000  -74.407193453  163.437676328    79.9095   6  10   0.0568   0.0524   0.2049  -0.0248   0.0562  -0.0644   7.00    0.0
2018/11/05 01:17:00.000  -74.407193418  163.437676364    79.8602   6  10   0.0630   0.0580   0.2303  -0.0282   0.0633  -0.0737   6.00    1.0
2018/11/05 01:17:15.000  -74.407193396  163.437675982    79.8633   6  10   0.0694   0.0636   0.2559  -0.0316   0.0703  -0.0829   7.00    1.0
2018/11/05 01:17:30.000  -74.407193379  163.437675551    79.8966   6  10   0.0758   0.0692   0.2815  -0.0350   0.0771  -0.0921   5.00    0.0
2018/11/05 01:17:45.000  -74.407193424  163.437675688    79.9617   6  10   0.0695   0.0636   0.2555  -0.0314   0.0695  -0.0822   5.00    0.0
2018/11/05 01:18:00.000  -74.407193482  163.437675776    79.9810   6  10   0.0634   0.0578   0.2299  -0.0274   0.0619  -0.0723   5.00    0.0
2018/11/05 01:18:15.000  -74.407193472  163.437675826    79.9550   6  10   0.0575   0.0523   0.2047  -0.0231   0.0546  -0.0619   6.00    0.0
2018/11/05 01:18:30.000  -74.407193458  163.437676082    79.9218   6  10   0.0526   0.0470   0.1808  -0.0177   0.0484  -0.0498   6.00    0.0
2018/11/05 01:18:45.000  -74.407193730  163.437676332    79.9106   6  10   0.0443   0.0408   0.1538  -0.0171   0.0387  -0.0443   6.00    0.0
2018/11/05 01:19:00.000  -74.407193781  163.437676773    79.9355   6  10   0.0382   0.0353   0.1288  -0.0139   0.0310  -0.0359   5.00    0.0
2018/11/05 01:19:15.000  -74.407193848  163.437677307    79.9262   6  10   0.0325   0.0300   0.1053  -0.0107   0.0240  -0.0271   5.00    0.0
2018/11/05 01:19:30.000  -74.407193869  163.437677834    79.9129   6  10   0.0275   0.0253   0.0840  -0.0074   0.0177  -0.0184   5.00    0.0
2018/11/05 01:19:45.000  -74.407193917  163.437678105    79.9171   6  10   0.0236   0.0215   0.0668  -0.0037   0.0127  -0.0097   5.00    0.0
2018/11/05 01:20:00.000  -74.407193883  163.437678076    79.9276   6  10   0.0219   0.0195   0.0580   0.0014   0.0100   0.0030   5.00    0.0
2018/11/05 01:20:15.000  -74.407193887  163.437677626    79.8825   6  10   0.0236   0.0214   0.0666  -0.0038   0.0123  -0.0093   5.00    0.0
2018/11/05 01:20:30.000  -74.407193897  163.437677215    79.8649   6  10   0.0274   0.0251   0.0832  -0.0070   0.0169  -0.0180   5.00    0.0
2018/11/05 01:20:45.000  -74.407193857  163.437676700    79.8330   6  10   0.0322   0.0297   0.1040  -0.0101   0.0224  -0.0267   6.00    0.0
2018/11/05 01:21:00.000  -74.407193827  163.437676385    79.8679   6  10   0.0377   0.0347   0.1267  -0.0132   0.0283  -0.0355   6.00    0.0
2018/11/05 01:21:15.000  -74.407193798  163.437675893    79.9025   6  10   0.0435   0.0399   0.1505  -0.0163   0.0343  -0.0445   6.00    0.0
2018/11/05 01:21:30.000  -74.407193736  163.437675708    79.9168   6  10   0.0495   0.0451   0.1749  -0.0194   0.0403  -0.0535   7.00    0.0
2018/11/05 01:21:45.000  -74.407193697  163.437675835    79.9211   6  10   0.0556   0.0504   0.1996  -0.0224   0.0462  -0.0625   7.00    0.0
2018/11/05 01:22:00.000  -74.407193650  163.437676108    79.9534   6  10   0.0618   0.0558   0.2245  -0.0255   0.0520  -0.0715   7.00    0.0
2018/11/05 01:22:15.000  -74.407193558  163.437675856    79.9410   6  10   0.0681   0.0612   0.2495  -0.0285   0.0577  -0.0804   7.00    0.0
2018/11/05 01:22:30.000  -74.407193560  163.437675992    79.9580   6  10   0.0744   0.0666   0.2745  -0.0314   0.0632  -0.0892   7.00    0.0
2018/11/05 01:22:45.000  -74.407193582  163.437675874    79.9781   6  10   0.0680   0.0609   0.2491  -0.0279   0.0562  -0.0805   7.00    0.0
2018/11/05 01:23:00.000  -74.407193639  163.437676108    79.9840   6  10   0.0616   0.0553   0.2235  -0.0245   0.0494  -0.0712   7.00    0.0
2018/11/05 01:23:15.000  -74.407193714  163.437676203    79.9838   6  10   0.0554   0.0499   0.1982  -0.0212   0.0428  -0.0620   8.00    0.0
2018/11/05 01:23:30.000  -74.407193719  163.437676351    79.9996   6  10   0.0492   0.0445   0.1731  -0.0180   0.0363  -0.0528   8.00    0.0
2018/11/05 01:23:45.000  -74.407193730  163.437676278    79.9967   6  10   0.0432   0.0392   0.1485  -0.0148   0.0300  -0.0437   8.00    0.0
2018/11/05 01:24:00.000  -74.407193796  163.437676452    79.9916   6  10   0.0374   0.0341   0.1246  -0.0117   0.0239  -0.0346   8.00    0.0
2018/11/05 01:24:15.000  -74.407193869  163.437676884    79.9798   6  10   0.0319   0.0291   0.1018  -0.0086   0.0181  -0.0256   8.00    0.0
2018/11/05 01:24:30.000  -74.407193898  163.437677433    79.9615   6  10   0.0271   0.0246   0.0811  -0.0052   0.0128  -0.0166   8.00    0.0
2018/11/05 01:24:45.000  -74.407193906  163.437677889    79.9342   6  10   0.0234   0.0211   0.0646   0.0011   0.0086  -0.0067   8.00    0.0
2018/11/05 01:25:00.000  -74.407193871  163.437678088    79.9147   6  10   0.0216   0.0193   0.0564   0.0035   0.0060   0.0072   8.00    0.0
2018/11/05 01:25:15.000  -74.407193823  163.437677897    79.9208   6  10   0.0233   0.0210   0.0646   0.0012   0.0079  -0.0061   7.00    0.0
2018/11/05 01:25:30.000  -74.407193753  163.437677670    79.9456   6  10   0.0270   0.0244   0.0807  -0.0048   0.0118  -0.0160   7.00    0.0
2018/11/05 01:25:45.000  -74.407193751  163.437677273    79.9611   6  10   0.0317   0.0288   0.1009  -0.0077   0.0163  -0.0249   7.00    0.0
2018/11/05 01:26:00.000  -74.407193765  163.437677034    79.9908   6  10   0.0370   0.0335   0.1229  -0.0105   0.0210  -0.0336   7.00    0.0
2018/11/05 01:26:15.000  -74.407193727  163.437676585    79.9969   6  11   0.0388   0.0375   0.1302  -0.0053   0.0107  -0.0246   7.00    0.0
2018/11/05 01:26:30.000  -74.407193663  163.437676445    79.9934   6  11   0.0428   0.0422   0.1440  -0.0040  -0.0029  -0.0230   7.00    0.0
2018/11/05 01:26:45.000  -74.407193619  163.437676392    79.9572   6  11   0.0472   0.0470   0.1606  -0.0034  -0.0105  -0.0241   7.00    0.0
2018/11/05 01:27:00.000  -74.407193629  163.437676376    79.9702   6  11   0.0518   0.0520   0.1783  -0.0033  -0.0148  -0.0263   7.00    0.0
2018/11/05 01:27:15.000  -74.407193586  163.437676734    79.9947   6  11   0.0566   0.0570   0.1966  -0.0035  -0.0184  -0.0291   7.00    0.0
2018/11/05 01:27:30.000  -74.407193610  163.437676996    79.9725   6  11   0.0614   0.0620   0.2154  -0.0038  -0.0219  -0.0322   7.00    0.0
2018/11/05 01:27:45.000  -74.407193599  163.437676865    79.9681   6  11   0.0564   0.0570   0.1968  -0.0022  -0.0208  -0.0287   7.00    0.0
2018/11/05 01:28:00.000  -74.407193518  163.437677016    79.9482   6  11   0.0515   0.0519   0.1779   0.0022  -0.0193  -0.0251   7.00    0.0
2018/11/05 01:28:15.000  -74.407193458  163.437676891    79.9092   6  11   0.0467   0.0469   0.1591   0.0036  -0.0177  -0.0213   7.00    0.0
2018/11/05 01:28:30.000  -74.407193602  163.437677034    79.8886   6  11   0.0419   0.0420   0.1405   0.0043  -0.0160  -0.0172   7.00    0.0
2018/11/05 01:28:45.000  -74.407193754  163.437677382    79.9220   6  11   0.0373   0.0372   0.1222   0.0047  -0.0142  -0.0127   7.00    0.0
2018/11/05 01:29:00.000  -74.407194504  163.437678333    79.9815   1  11   0.0406   0.0380   0.1359  -0.0046   0.0140  -0.0254   6.00    1.0
2018/11/05 01:29:15.000  -74.407194468  163.437678321    79.9914   1  11   0.0348   0.0314   0.1108  -0.0032   0.0170  -0.0211   6.00    1.0
2018/11/05 01:29:30.000  -74.407194476  163.437678484    79.9842   1  11   0.0298   0.0256   0.0874  -0.0011   0.0189  -0.0168   6.00    1.0
2018/11/05 01:29:45.000  -74.407193889  163.437677625    79.9039   6  11   0.0222   0.0208   0.0596   0.0052  -0.0075   0.0121   8.00    0.0
2018/11/05 01:30:00.000  -74.407193905  163.437677823    79.9132   6  11   0.0211   0.0192   0.0538   0.0051  -0.0077   0.0135   8.00    0.0
2018/11/05 01:30:15.000  -74.407193882  163.437677901    79.9293   6  11   0.0222   0.0206   0.0601   0.0052  -0.0085   0.0130   8.00    0.0
2018/11/05 01:30:30.000  -74.407193851  163.437677540    79.9440   6  12   0.0246   0.0231   0.0706   0.0031  -0.0137   0.0093   8.00    0.0
2018/11/05 01:30:45.000  -74.407193796  163.437677129    79.9563   6  12   0.0281   0.0268   0.0842  -0.0007  -0.0179  -0.0021   8.00    0.0
2018/11/05 01:31:00.000  -74.407193740  163.437676998    79.9489   6  12   0.0320   0.0308   0.0996  -0.0034  -0.0222  -0.0118   8.00    0.0
2018/11/05 01:31:15.000  -74.407193693  163.437676772    79.9617   6  12   0.0362   0.0351   0.1163  -0.0051  -0.0266  -0.0179   8.00    0.0
2018/11/05 01:31:30.000  -74.407193609  163.437676612    79.9658   6  12   0.0407   0.0396   0.1336  -0.0067  -0.0312  -0.0235   8.00    0.0
2018/11/05 01:31:45.000  -74.407193533  163.437676795    79.9749   6  12   0.0453   0.0442   0.1515  -0.0082  -0.0359  -0.0288   8.00    0.0
2018/11/05 01:32:00.000  -74.407193535  163.437676636    79.9590   6  12   0.0500   0.0488   0.1697  -0.0097  -0.0406  -0.0341   8.00    0.0
2018/11/05 01:32:15.000  -74.407193548  163.437676827    79.9504   6  12   0.0548   0.0535   0.1882  -0.0112  -0.0454  -0.0392   8.00    0.0
2018/11/05 01:32:30.000  -74.407193624  163.437677257    79.9537   6  12   0.0596   0.0583   0.2069  -0.0126  -0.0503  -0.0443   8.00    0.0
2018/11/05 01:32:45.000  -74.407193659  163.437677378    79.9504   6  12   0.0549   0.0536   0.1888  -0.0107  -0.0456  -0.0395   8.00    0.0
2018/11/05 01:33:00.000  -74.407193618  163.437677399    79.9577   6  12   0.0501   0.0488   0.1708  -0.0091  -0.0412  -0.0345   8.00    0.0
2018/11/05 01:33:15.000  -74.407193557  163.437677542    79.9237   6  12   0.0454   0.0442   0.1528  -0.0073  -0.0368  -0.0294   8.00    0.0
2018/11/05 01:33:30.000  -74.407193525  163.437677081    79.9537   6  12   0.0408   0.0396   0.1352  -0.0056  -0.0324  -0.0241   8.00    0.0
2018/11/05 01:33:45.000  -74.407193493  163.437676979    79.9479   6  12   0.0363   0.0351   0.1179  -0.0038  -0.0281  -0.0185   8.00    0.0
2018/11/05 01:34:00.000  -74.407193659  163.437677516    79.9644   6  12   0.0320   0.0308   0.1013  -0.0012  -0.0240  -0.0121   8.00    0.0
2018/11/05 01:34:15.000  -74.407193742  163.437677658    79.9621   6  12   0.0281   0.0267   0.0859   0.0027  -0.0201   0.0029   8.00    0.0
2018/11/05 01:34:30.000  -74.407193832  163.437677757    79.9567   6  12   0.0246   0.0231   0.0729   0.0037  -0.0170   0.0114   8.00    0.0
2018/11/05 01:34:45.000  -74.407193912  163.437677953    79.9469   6  12   0.0221   0.0204   0.0650   0.0043  -0.0154   0.0155   8.00    0.0
2018/11/05 01:35:00.000  -74.407193994  163.437678013    79.9224   6  12   0.0210   0.0190   0.0662   0.0047  -0.0142   0.0130   0.00    0.0
2018/11/05 01:35:15.000  -74.407194000  163.437678030    79.9636   6  12   0.0220   0.0201   0.0626   0.0054  -0.0112   0.0057   0.00    0.0
2018/11/05 01:35:30.000  -74.407193925  163.437678073    79.9306   6  12   0.0245   0.0227   0.0716   0.0048  -0.0145   0.0016   0.00    0.0
2018/11/05 01:35:45.000  -74.407193776  163.437677622    79.9603   6  12   0.0279   0.0263   0.0853   0.0042  -0.0186  -0.0093   0.00    0.0
2018/11/05 01:36:00.000  -74.407193703  163.437677269    80.0265   6  12   0.0319   0.0303   0.1012   0.0031  -0.0232  -0.0151   3.00    0.0
2018/11/05 01:36:15.000  -74.407193651  163.437677140    80.0516   6  12   0.0361   0.0345   0.1184  -0.0005  -0.0279  -0.0206   4.00    0.0
2018/11/05 01:36:30.000  -74.407193564  163.437676957    80.0425   6  12   0.0406   0.0390   0.1364  -0.0036  -0.0328  -0.0260   5.00    0.0
2018/11/05 01:36:45.000  -74.407193527  163.437676828    80.0537   6  12   0.0452   0.0436   0.1549  -0.0054  -0.0378  -0.0313   4.00    0.0
2018/11/05 01:37:00.000  -74.407193442  163.437676834    80.0817   6  12   0.0499   0.0483   0.1737  -0.0069  -0.0428  -0.0365   6.00    0.0
2018/11/05 01:37:15.000  -74.407193381  163.437677078    80.0855   6  12   0.0547   0.0530   0.1927  -0.0084  -0.0480  -0.0417   6.00    0.0
2018/11/05 01:37:30.000  -74.407193377  163.437677195    80.0473   6  12   0.0596   0.0578   0.2119  -0.0097  -0.0532  -0.0469   6.00    0.0
2018/11/05 01:37:45.000  -74.407193367  163.437677411    80.0549   6  12   0.0547   0.0530   0.1929  -0.0086  -0.0483  -0.0414   6.00    0.0
2018/11/05 01:38:00.000  -74.407193339  163.437677348    80.0547   6  12   0.0499   0.0483   0.1740  -0.0070  -0.0434  -0.0363   6.00    0.0
2018/11/05 01:38:15.000  -74.407193335  163.437677122    80.0314   6  12   0.0452   0.0436   0.1553  -0.0052  -0.0385  -0.0311   6.00    0.0
2018/11/05 01:38:30.000  -74.407193419  163.437677234    80.0050   6  12   0.0406   0.0390   0.1368  -0.0032  -0.0336  -0.0258   6.00    0.0
2018/11/05 01:38:45.000  -74.407193448  163.437677125    79.9797   6  12   0.0361   0.0345   0.1186   0.0017  -0.0288  -0.0204   6.00    0.0
2018/11/05 01:39:00.000  -74.407193594  163.437677269    79.9898   6  12   0.0318   0.0302   0.1009   0.0035  -0.0241  -0.0147   6.00    0.0
2018/11/05 01:39:15.000  -74.407193734  163.437677448    79.9626   6  12   0.0279   0.0263   0.0842   0.0044  -0.0195  -0.0081   6.00    0.0
2018/11/05 01:39:30.000  -74.407193851  163.437677312    79.9251   6  12   0.0244   0.0227   0.0693   0.0050  -0.0152   0.0062   6.00    0.0
2018/11/05 01:39:45.000  -74.407193848  163.437677553    79.9241   6  12   0.0219   0.0200   0.0576   0.0052  -0.0116   0.0100   6.00    0.0
2018/11/05 01:40:00.000  -74.407193904  163.437677646    79.9400   6  12   0.0206   0.0187   0.0518   0.0055  -0.0097   0.0111   6.00    0.0
2018/11/05 01:40:15.000  -74.407193862  163.437677564    79.9589   6  12   0.0218   0.0199   0.0570   0.0055  -0.0115   0.0103   6.00    0.0
2018/11/05 01:40:30.000  -74.407193820  163.437677595    79.9592   6  12   0.0243   0.0226   0.0684   0.0050  -0.0151   0.0068   6.00    0.0
2018/11/05 01:40:45.000  -74.407193751  163.437677659    79.9580   6  12   0.0277   0.0260   0.0833   0.0045  -0.0195  -0.0077   6.00    0.0
2018/11/05 01:41:00.000  -74.407193686  163.437677196    79.9354   6  12   0.0316   0.0300   0.1001   0.0041  -0.0242  -0.0147   6.00    0.0
2018/11/05 01:41:15.000  -74.407193660  163.437677149    79.9370   6  12   0.0359   0.0343   0.1179   0.0032  -0.0292  -0.0206   6.00    0.0
2018/11/05 01:41:30.000  -74.407193680  163.437677592    79.9483   6  12   0.0403   0.0387   0.1363   0.0011  -0.0344  -0.0262   6.00    0.0
2018/11/05 01:41:45.000  -74.407193708  163.437677297    80.0111   6  12   0.0450   0.0433   0.1551  -0.0031  -0.0396  -0.0316   6.00    0.0
2018/11/05 01:42:00.000  -74.407193613  163.437677086    80.0261   6  12   0.0497   0.0480   0.1742  -0.0048  -0.0449  -0.0369   6.00    0.0
2018/11/05 01:42:15.000  -74.407193594  163.437676811    80.0497   6  12   0.0545   0.0527   0.1934  -0.0062  -0.0502  -0.0422   6.00    0.0
2018/11/05 01:42:30.000  -74.407193547  163.437677128    80.0804   6  12   0.0594   0.0576   0.2127  -0.0075  -0.0556  -0.0474   6.00    0.0
2018/11/05 01:42:45.000  -74.407193540  163.437677031    80.0966   6  12   0.0547   0.0528   0.1936  -0.0059  -0.0506  -0.0428   6.00    0.0
2018/11/05 01:43:00.000  -74.407193544  163.437677015    80.0892   6  12   0.0498   0.0481   0.1744  -0.0041  -0.0454  -0.0375   6.00    0.0
2018/11/05 01:43:15.000  -74.407193620  163.437677229    80.0996   6  12   0.0451   0.0434   0.1553  -0.0014  -0.0403  -0.0322   6.00    0.0
2018/11/05 01:43:30.000  -74.407193669  163.437677505    80.0555   6  12   0.0405   0.0388   0.1365   0.0030  -0.0352  -0.0268   6.00    0.0
2018/11/05 01:43:45.000  -74.407193753  163.437677766    79.9973   6  12   0.0360   0.0343   0.1181   0.0042  -0.0302  -0.0212   6.00    0.0
2018/11/05 01:44:00.000  -74.407193822  163.437677381    79.9578   6  12   0.0317   0.0301   0.1004   0.0048  -0.0253  -0.0154   6.00    0.0
2018/11/05 01:44:15.000  -74.407193864  163.437677475    79.9661   6  12   0.0277   0.0261   0.0837   0.0052  -0.0207  -0.0087   6.00    0.0
2018/11/05 01:44:30.000  -74.407193889  163.437677620    79.9697   6  12   0.0243   0.0226   0.0689   0.0054  -0.0165   0.0059   6.00    0.0
