% program   : RTKLIB ver.2.4.3
% inp file  : _by_type/_obs/hillary/20181105_20181107.18o
% inp file  : _by_type/_sp3+clk/igs20261.clk
% inp file  : _by_type/_sp3+clk/igs20261.sp3
% inp file  : _by_type/_nav/hillary/20181105_20181107.18n
% obs start : 2018/11/05 00:00:00.0 GPST (week2026  86400.0s)
% obs end   : 2018/11/07 23:59:45.0 GPST (week2026 345585.0s)
% pos mode  : ppp-kinematic
% solution  : combined
% elev mask : 15.0 deg
% dynamics  : off
% tidecorr  : on
% tropo opt : est ztd+grad
% ephemeris : precise
% navi sys  : gps glonass
% antenna1  :                       ( 0.0000  0.0000  0.0000)
%
% (lat/lon/height=WGS84/ellipsoidal,Q=1:fix,2:float,3:sbas,4:dgps,5:single,6:ppp,ns=# of satellites)
%  GPST                  latitude(deg) longitude(deg)  height(m)   Q  ns   sdn(m)   sde(m)   sdu(m)  sdne(m)  sdeu(m)  sdun(m) age(s)  ratio
2018/11/05 00:00:00.000  -74.393389521  163.452962708    97.6615   6   8   0.0323   0.0258   0.0945  -0.0116  -0.0140  -0.0365   0.00    0.0
2018/11/05 00:00:15.000  -74.393389429  163.452962608    97.6262   6   8   0.0359   0.0289   0.1093  -0.0103  -0.0188  -0.0437   0.00    0.0
2018/11/05 00:00:30.000  -74.393389264  163.452962742    97.5635   6   8   0.0431   0.0350   0.1365  -0.0053  -0.0272  -0.0568   0.00    0.0
2018/11/05 00:00:45.000  -74.393389163  163.452962535    97.5099   6   8   0.0523   0.0428   0.1700   0.0100  -0.0365  -0.0724   0.00    0.0
2018/11/05 00:01:00.000  -74.393389107  163.452962661    97.4977   6   8   0.0625   0.0514   0.2066   0.0164  -0.0461  -0.0892   0.00    0.0
2018/11/05 00:01:15.000  -74.393389466  163.452962857    97.6117   6   8   0.0733   0.0604   0.2447   0.0219  -0.0555  -0.1065   0.00    0.0
2018/11/05 00:01:30.000  -74.393389709  163.452962743    97.7126   6   8   0.0843   0.0695   0.2834   0.0268  -0.0648  -0.1238   0.00    0.0
2018/11/05 00:01:45.000  -74.393389973  163.452962756    97.7576   6   8   0.0953   0.0787   0.3222   0.0315  -0.0737  -0.1409   1.00    0.0
2018/11/05 00:02:00.000  -74.393390110  163.452962747    97.7767   6   8   0.1061   0.0877   0.3605   0.0357  -0.0822  -0.1576   1.00    0.0
2018/11/05 00:02:15.000  -74.393390171  163.452962465    97.7479   6   8   0.1168   0.0965   0.3981   0.0397  -0.0903  -0.1739   3.00    0.0
2018/11/05 00:02:30.000  -74.393390261  163.452962075    97.7675   6   8   0.1271   0.1051   0.4348   0.0434  -0.0979  -0.1895   3.00    0.0
2018/11/05 00:02:45.000  -74.393389963  163.452962582    97.6868   6   8   0.1159   0.0958   0.4021   0.0385  -0.0901  -0.1730   3.00    0.0
2018/11/05 00:03:00.000  -74.393389808  163.452963220    97.6538   6   8   0.1048   0.0870   0.3743   0.0342  -0.0849  -0.1573   4.00    0.0
2018/11/05 00:03:15.000  -74.393389773  163.452963509    97.6631   6   8   0.0940   0.0789   0.3624   0.0307  -0.0864  -0.1433   3.00    0.0
2018/11/05 00:03:30.000  -74.393389988  163.452963256    97.7635   6   8   0.0826   0.0676   0.2723   0.0230  -0.0539  -0.1206   0.00    0.0
2018/11/05 00:03:45.000  -74.393389943  163.452962811    97.6990   6   8   0.0717   0.0586   0.2350   0.0177  -0.0445  -0.1037   0.00    0.0
2018/11/05 00:04:00.000  -74.393389859  163.452962761    97.6653   6   8   0.0612   0.0499   0.1982   0.0119  -0.0352  -0.0871   0.00    0.0
2018/11/05 00:04:15.000  -74.393389677  163.452962890    97.5957   6   9   0.0431   0.0397   0.1239  -0.0183   0.0253  -0.0458   0.00    0.0
2018/11/05 00:04:30.000  -74.393389622  163.452963085    97.6031   6   9   0.0376   0.0330   0.1054  -0.0161   0.0204  -0.0403   1.00    0.0
2018/11/05 00:04:45.000  -74.393389605  163.452963028    97.6129   6   9   0.0334   0.0278   0.0907  -0.0147   0.0169  -0.0359   2.00    0.0
2018/11/05 00:05:00.000  -74.393389596  163.452963056    97.6629   6   9   0.0313   0.0253   0.0834  -0.0139   0.0154  -0.0338   2.00    0.0
2018/11/05 00:05:15.000  -74.393389559  163.452962858    97.6790   6   9   0.0340   0.0281   0.0939  -0.0148   0.0173  -0.0381   2.00    0.0
2018/11/05 00:05:30.000  -74.393389554  163.452963143    97.6920   6   9   0.0389   0.0334   0.1117  -0.0162   0.0202  -0.0446   4.00    0.0
2018/11/05 00:05:45.000  -74.393389431  163.452963190    97.6690   6   9   0.0447   0.0402   0.1326  -0.0179   0.0243  -0.0515   4.00    0.0
2018/11/05 00:06:00.000  -74.393389422  163.452962960    97.6367   6   9   0.0511   0.0476   0.1547  -0.0200   0.0292  -0.0583   4.00    0.0
2018/11/05 00:06:15.000  -74.393389492  163.452962793    97.6258   6   9   0.0578   0.0553   0.1773  -0.0223   0.0344  -0.0648   4.00    0.0
2018/11/05 00:06:30.000  -74.393389590  163.452962026    97.5752   6   9   0.0645   0.0631   0.1999  -0.0247   0.0398  -0.0710   4.00    0.0
2018/11/05 00:06:45.000  -74.393389670  163.452961782    97.5857   6   9   0.0712   0.0708   0.2223  -0.0271   0.0452  -0.0769   4.00    0.0
2018/11/05 00:07:00.000  -74.393389726  163.452961626    97.5572   6   9   0.0779   0.0783   0.2444  -0.0295   0.0505  -0.0826   4.00    0.0
2018/11/05 00:07:15.000  -74.393389623  163.452961542    97.5184   6   9   0.0844   0.0856   0.2661  -0.0318   0.0559  -0.0881   4.00    0.0
2018/11/05 00:07:30.000  -74.393389583  163.452961382    97.4944   6   9   0.0908   0.0928   0.2876  -0.0342   0.0612  -0.0934   3.00    0.0
2018/11/05 00:07:45.000  -74.393389405  163.452962057    97.5081   6   9   0.0846   0.0857   0.2694  -0.0312   0.0557  -0.0898   3.00    0.0
2018/11/05 00:08:00.000  -74.393389357  163.452961958    97.5536   6   9   0.0785   0.0783   0.2517  -0.0281   0.0493  -0.0867   3.00    0.0
2018/11/05 00:08:15.000  -74.393389329  163.452961725    97.5794   6   9   0.0729   0.0710   0.2354  -0.0244   0.0413  -0.0847   3.00    0.0
2018/11/05 00:08:30.000  -74.393389433  163.452962122    97.6468   6   9   0.0681   0.0638   0.2230  -0.0194   0.0293  -0.0851   4.00    0.0
2018/11/05 00:08:45.000  -74.393389399  163.452962274    97.6324   6   9   0.0663   0.0574   0.2241  -0.0042  -0.0235  -0.0932   3.00    0.0
2018/11/05 00:09:00.000  -74.393389473  163.452962130    97.6603   6   9   0.0482   0.0480   0.1474  -0.0227   0.0368  -0.0502   3.00    0.0
2018/11/05 00:09:15.000  -74.393389515  163.452962183    97.6700   6   9   0.0423   0.0413   0.1258  -0.0211   0.0322  -0.0446   3.00    0.0
2018/11/05 00:09:30.000  -74.393389630  163.452962276    97.6997   6   9   0.0381   0.0363   0.1074  -0.0213   0.0302  -0.0411   3.00    0.0
2018/11/05 00:09:45.000  -74.393389622  163.452962213    97.6825   6   9   0.0300   0.0274   0.0858  -0.0119   0.0146  -0.0287   3.00    0.0
2018/11/05 00:10:00.000  -74.393389680  163.452962448    97.6704   6   9   0.0278   0.0249   0.0769  -0.0108   0.0111  -0.0258   3.00    0.0
2018/11/05 00:10:15.000  -74.393389676  163.452962129    97.6232   6   9   0.0307   0.0277   0.0894  -0.0118   0.0142  -0.0314   4.00    0.0
2018/11/05 00:10:30.000  -74.393389718  163.452962297    97.6205   6   9   0.0357   0.0330   0.1104  -0.0130   0.0182  -0.0395   4.00    0.0
2018/11/05 00:10:45.000  -74.393389732  163.452962180    97.6492   6   9   0.0419   0.0397   0.1346  -0.0145   0.0228  -0.0480   4.00    0.0
2018/11/05 00:11:00.000  -74.393389882  163.452962348    97.7233   6   9   0.0486   0.0471   0.1600  -0.0161   0.0276  -0.0565   3.00    0.0
2018/11/05 00:11:15.000  -74.393389829  163.452962337    97.7010   6   9   0.0557   0.0546   0.1861  -0.0176   0.0320  -0.0649   3.00    0.0
2018/11/05 00:11:30.000  -74.393389822  163.452962190    97.7014   6   9   0.0629   0.0622   0.2129  -0.0187   0.0356  -0.0737   3.00    0.0
2018/11/05 00:11:45.000  -74.393389796  163.452961541    97.6780   6   9   0.0704   0.0698   0.2411  -0.0191   0.0378  -0.0836   4.00    0.0
2018/11/05 00:12:00.000  -74.393389945  163.452960913    97.6670   6   9   0.0787   0.0775   0.2729  -0.0175   0.0362  -0.0961   4.00    0.0
2018/11/05 00:12:15.000  -74.393389974  163.452960225    97.6687   6   9   0.0895   0.0857   0.3161  -0.0013   0.0147  -0.1165   4.00    0.0
2018/11/05 00:12:30.000  -74.393389722  163.452959752    97.5789   6   9   0.0872   0.0894   0.2972  -0.0335   0.0703  -0.0932   4.00    0.0
2018/11/05 00:12:45.000  -74.393389629  163.452959916    97.5728   6   9   0.0794   0.0822   0.2692  -0.0311   0.0643  -0.0830   4.00    0.0
2018/11/05 00:13:00.000  -74.393389603  163.452960090    97.5785   6   9   0.0725   0.0752   0.2456  -0.0287   0.0590  -0.0756   4.00    0.0
2018/11/05 00:13:15.000  -74.393389741  163.452960722    97.6055   6   9   0.0659   0.0681   0.2229  -0.0262   0.0534  -0.0693   4.00    0.0
2018/11/05 00:13:30.000  -74.393389738  163.452961107    97.6059   6   9   0.0594   0.0608   0.2006  -0.0237   0.0473  -0.0636   4.00    0.0
2018/11/05 00:13:45.000  -74.393389813  163.452961458    97.6414   6   9   0.0531   0.0536   0.1787  -0.0209   0.0409  -0.0582   4.00    0.0
2018/11/05 00:14:00.000  -74.393389754  163.452961789    97.6533   6   9   0.0471   0.0464   0.1575  -0.0180   0.0339  -0.0534   4.00    0.0
2018/11/05 00:14:15.000  -74.393389753  163.452962366    97.7004   6   9   0.0418   0.0395   0.1386  -0.0149   0.0258  -0.0496   4.00    0.0
2018/11/05 00:14:30.000  -74.393389761  163.452962223    97.6741   6   9   0.0381   0.0335   0.1266  -0.0105   0.0129  -0.0492   4.00    0.0
2018/11/05 00:14:45.000  -74.393389770  163.452962559    97.6639   6   9   0.0292   0.0279   0.0843  -0.0136   0.0212  -0.0268   4.00    0.0
2018/11/05 00:15:00.000  -74.393389725  163.452962832    97.6569   6   9   0.0272   0.0258   0.0756  -0.0130   0.0199  -0.0237   4.00    0.0
2018/11/05 00:15:15.000  -74.393389721  163.452962555    97.6301   6   9   0.0293   0.0288   0.0868  -0.0144   0.0245  -0.0280   4.00    0.0
2018/11/05 00:15:30.000  -74.393389718  163.452962539    97.6304   6   9   0.0335   0.0342   0.1073  -0.0167   0.0318  -0.0343   4.00    0.0
2018/11/05 00:15:45.000  -74.393389978  163.452961915    97.6501   6   9   0.0389   0.0409   0.1312  -0.0193   0.0397  -0.0410   4.00    0.0
2018/11/05 00:16:00.000  -74.393390025  163.452961094    97.6295   6   9   0.0448   0.0482   0.1564  -0.0219   0.0478  -0.0477   4.00    0.0
2018/11/05 00:16:15.000  -74.393390053  163.452960566    97.6247   6   9   0.0509   0.0557   0.1820  -0.0246   0.0560  -0.0542   4.00    0.0
2018/11/05 00:16:30.000  -74.393389960  163.452959775    97.5565   6   9   0.0572   0.0634   0.2081  -0.0274   0.0647  -0.0609   4.00    0.0
2018/11/05 00:16:45.000  -74.393389832  163.452959248    97.5032   6   9   0.0635   0.0712   0.2352  -0.0305   0.0744  -0.0679   4.00    0.0
2018/11/05 00:17:00.000  -74.393389908  163.452958640    97.4826   6   9   0.0699   0.0797   0.2649  -0.0343   0.0865  -0.0761   4.00    0.0
2018/11/05 00:17:15.000  -74.393389887  163.452957517    97.3601   6   9   0.0766   0.0905   0.3037  -0.0401   0.1061  -0.0876   4.00    0.0
2018/11/05 00:17:30.000  -74.393390166  163.452958978    97.5719   6   9   0.0830   0.0896   0.3032  -0.0392   0.0904  -0.0898   4.00    0.0
2018/11/05 00:17:45.000  -74.393389973  163.452959065    97.5051   6   9   0.0762   0.0819   0.2758  -0.0349   0.0800  -0.0801   4.00    0.0
2018/11/05 00:18:00.000  -74.393389914  163.452959565    97.5081   6   9   0.0697   0.0746   0.2511  -0.0316   0.0719  -0.0726   4.00    0.0
2018/11/05 00:18:15.000  -74.393389776  163.452960173    97.5175   6   9   0.0633   0.0675   0.2269  -0.0287   0.0647  -0.0659   4.00    0.0
2018/11/05 00:18:30.000  -74.393389698  163.452960925    97.5269   6   9   0.0569   0.0604   0.2029  -0.0261   0.0577  -0.0594   4.00    0.0
2018/11/05 00:18:45.000  -74.393389699  163.452961646    97.5800   6   9   0.0507   0.0534   0.1786  -0.0236   0.0509  -0.0531   4.00    0.0
2018/11/05 00:19:00.000  -74.393389703  163.452962063    97.6001   6   9   0.0445   0.0463   0.1542  -0.0211   0.0442  -0.0468   4.00    0.0
2018/11/05 00:19:15.000  -74.393389684  163.452962545    97.6322   6   9   0.0387   0.0396   0.1301  -0.0188   0.0375  -0.0404   4.00    0.0
2018/11/05 00:19:30.000  -74.393389648  163.452962610    97.6252   6   9   0.0335   0.0335   0.1074  -0.0167   0.0314  -0.0343   4.00    0.0
2018/11/05 00:19:45.000  -74.393389608  163.452962494    97.6108   6   9   0.0296   0.0289   0.0888  -0.0153   0.0266  -0.0292   4.00    0.0
2018/11/05 00:20:00.000  -74.393389747  163.452962393    97.6302   6  10   0.0274   0.0269   0.0764  -0.0150   0.0260  -0.0248   4.00    0.0
2018/11/05 00:20:15.000  -74.393389727  163.452962280    97.6221   6  10   0.0293   0.0298   0.0871  -0.0167   0.0314  -0.0281   4.00    0.0
2018/11/05 00:20:30.000  -74.393389841  163.452963660    97.6613   1  10   0.0345   0.0348   0.1124  -0.0248   0.0426  -0.0399   4.00    1.0
2018/11/05 00:20:45.000  -74.393389758  163.452961754    97.5662   6  10   0.0378   0.0411   0.1268  -0.0216   0.0485  -0.0371   4.00    0.0
2018/11/05 00:21:00.000  -74.393389773  163.452961716    97.5521   6  10   0.0432   0.0477   0.1494  -0.0243   0.0574  -0.0417   4.00    0.0
2018/11/05 00:21:15.000  -74.393389753  163.452961024    97.4961   6  10   0.0488   0.0546   0.1724  -0.0270   0.0663  -0.0464   4.00    0.0
2018/11/05 00:21:30.000  -74.393389659  163.452960601    97.4743   6  10   0.0546   0.0615   0.1957  -0.0298   0.0754  -0.0514   4.00    0.0
2018/11/05 00:21:45.000  -74.393389580  163.452959753    97.4438   6  10   0.0605   0.0686   0.2195  -0.0328   0.0847  -0.0568   4.00    0.0
2018/11/05 00:22:00.000  -74.393389569  163.452959429    97.4446   6  10   0.0664   0.0757   0.2439  -0.0362   0.0946  -0.0629   4.00    0.0
2018/11/05 00:22:15.000  -74.393389629  163.452958831    97.4151   6  10   0.0724   0.0831   0.2695  -0.0399   0.1054  -0.0699   4.00    0.0
2018/11/05 00:22:30.000  -74.393389536  163.452958267    97.3386   6  10   0.0786   0.0911   0.2976  -0.0443   0.1180  -0.0782   4.00    0.0
2018/11/05 00:22:45.000  -74.393389514  163.452958037    97.2429   6  10   0.0733   0.0892   0.2958  -0.0445   0.1227  -0.0799   4.00    0.0
2018/11/05 00:23:00.000  -74.393389635  163.452959224    97.3286   6  10   0.0702   0.0885   0.2979  -0.0485   0.1296  -0.0886   3.00    0.0
2018/11/05 00:23:15.000  -74.393389729  163.452961349    97.4861   6  10   0.0616   0.0692   0.2253  -0.0355   0.0878  -0.0631   4.00    0.0
2018/11/05 00:23:30.000  -74.393389566  163.452961489    97.4671   6  10   0.0551   0.0616   0.1999  -0.0311   0.0772  -0.0551   3.00    0.0
2018/11/05 00:23:45.000  -74.393389526  163.452961453    97.4402   6  10   0.0492   0.0551   0.1785  -0.0282   0.0696  -0.0500   3.00    0.0
2018/11/05 00:24:00.000  -74.393389568  163.452961852    97.4870   6  10   0.0436   0.0495   0.1606  -0.0262   0.0643  -0.0466   3.00    0.0
2018/11/05 00:24:15.000  -74.393389516  163.452961936    97.4442   6  10   0.0389   0.0462   0.1515  -0.0260   0.0645  -0.0467   3.00    0.0
2018/11/05 00:24:30.000  -74.393389761  163.452964684    97.6310   1  10   0.0359   0.0361   0.1206  -0.0266   0.0480  -0.0442   4.00    1.0
2018/11/05 00:24:45.000  -74.393389833  163.452964250    97.6682   1  10   0.0325   0.0329   0.1106  -0.0262   0.0464  -0.0432   4.00    1.0
2018/11/05 00:25:00.000  -74.393389835  163.452964032    97.6585   1  10   0.0298   0.0268   0.0875  -0.0231   0.0333  -0.0359   4.00    1.0
2018/11/05 00:25:15.000  -74.393389950  163.452964260    97.7309   1  10   0.0327   0.0315   0.1039  -0.0254   0.0422  -0.0412   5.00    1.0
2018/11/05 00:25:30.000  -74.393390001  163.452964383    97.7603   1  10   0.0380   0.0399   0.1350  -0.0299   0.0578  -0.0510   5.00    1.0
2018/11/05 00:25:45.000  -74.393389640  163.452960636    97.5006   6  10   0.0382   0.0457   0.1484  -0.0251   0.0629  -0.0441   3.00    0.0
2018/11/05 00:26:00.000  -74.393389780  163.452961179    97.6042   6  10   0.0433   0.0468   0.1494  -0.0248   0.0568  -0.0431   3.00    0.0
2018/11/05 00:26:15.000  -74.393389718  163.452960643    97.5661   6  10   0.0483   0.0528   0.1704  -0.0265   0.0639  -0.0461   3.00    0.0
2018/11/05 00:26:30.000  -74.393389672  163.452959606    97.4947   6  10   0.0538   0.0591   0.1927  -0.0288   0.0720  -0.0504   3.00    0.0
2018/11/05 00:26:45.000  -74.393389651  163.452958870    97.4360   6  10   0.0595   0.0656   0.2155  -0.0315   0.0804  -0.0556   3.00    0.0
2018/11/05 00:27:00.000  -74.393389788  163.452958612    97.4776   6  10   0.0653   0.0721   0.2387  -0.0345   0.0892  -0.0615   3.00    0.0
2018/11/05 00:27:15.000  -74.393389818  163.452958129    97.4996   6  10   0.0711   0.0787   0.2621  -0.0377   0.0983  -0.0679   3.00    0.0
2018/11/05 00:27:30.000  -74.393389918  163.452957683    97.4838   6  10   0.0770   0.0852   0.2857  -0.0410   0.1075  -0.0747   3.00    0.0
2018/11/05 00:27:45.000  -74.393389768  163.452957943    97.4945   6  10   0.0712   0.0789   0.2644  -0.0379   0.0996  -0.0683   3.00    0.0
2018/11/05 00:28:00.000  -74.393389735  163.452958663    97.4874   6  10   0.0653   0.0723   0.2418  -0.0347   0.0908  -0.0621   3.00    0.0
2018/11/05 00:28:15.000  -74.393389643  163.452959280    97.5194   6  10   0.0594   0.0657   0.2190  -0.0316   0.0821  -0.0562   3.00    0.0
2018/11/05 00:28:30.000  -74.393389615  163.452960283    97.5245   6  10   0.0536   0.0591   0.1961  -0.0287   0.0734  -0.0506   3.00    0.0
2018/11/05 00:28:45.000  -74.393389619  163.452960949    97.4789   6  10   0.0480   0.0526   0.1731  -0.0261   0.0649  -0.0454   3.00    0.0
2018/11/05 00:29:00.000  -74.393389712  163.452961387    97.5534   6  10   0.0425   0.0462   0.1502  -0.0237   0.0564  -0.0406   3.00    0.0
2018/11/05 00:29:15.000  -74.393389782  163.452961358    97.5774   6  10   0.0375   0.0402   0.1280  -0.0216   0.0483  -0.0363   3.00    0.0
2018/11/05 00:29:30.000  -74.393389826  163.452962209    97.6045   6  10   0.0332   0.0349   0.1073  -0.0199   0.0409  -0.0327   3.00    0.0
2018/11/05 00:29:45.000  -74.393389848  163.452962557    97.6153   6  10   0.0303   0.0311   0.0905  -0.0190   0.0347  -0.0298   3.00    0.0
2018/11/05 00:30:00.000  -74.393389755  163.452962108    97.5843   6  10   0.0286   0.0294   0.0826  -0.0183   0.0320  -0.0291   2.00    0.0
2018/11/05 00:30:15.000  -74.393389703  163.452961203    97.5232   6  10   0.0306   0.0325   0.0916  -0.0201   0.0355  -0.0305   2.00    0.0
2018/11/05 00:30:30.000  -74.393389769  163.452960727    97.4511   6  10   0.0331   0.0364   0.1085  -0.0206   0.0412  -0.0329   2.00    0.0
2018/11/05 00:30:45.000  -74.393389802  163.452960169    97.3976   6  10   0.0374   0.0420   0.1287  -0.0224   0.0480  -0.0358   2.00    0.0
2018/11/05 00:31:00.000  -74.393389899  163.452959868    97.3855   6  10   0.0425   0.0482   0.1508  -0.0247   0.0558  -0.0398   2.00    0.0
2018/11/05 00:31:15.000  -74.393389987  163.452959168    97.4045   6  10   0.0479   0.0547   0.1740  -0.0272   0.0642  -0.0447   2.00    0.0
2018/11/05 00:31:30.000  -74.393389896  163.452958668    97.4501   6  10   0.0536   0.0614   0.1979  -0.0301   0.0732  -0.0505   2.00    0.0
2018/11/05 00:31:45.000  -74.393389908  163.452958032    97.4207   6  10   0.0594   0.0681   0.2223  -0.0333   0.0825  -0.0570   2.00    0.0
2018/11/05 00:32:00.000  -74.393389957  163.452957775    97.4952   6  10   0.0653   0.0750   0.2470  -0.0367   0.0920  -0.0641   2.00    0.0
2018/11/05 00:32:15.000  -74.393389868  163.452957314    97.4575   6  10   0.0712   0.0820   0.2720  -0.0403   0.1017  -0.0716   2.00    0.0
2018/11/05 00:32:30.000  -74.393389934  163.452956849    97.4292   6  10   0.0772   0.0893   0.2973  -0.0440   0.1114  -0.0795   2.00    0.0
2018/11/05 00:32:45.000  -74.393389924  163.452956568    97.4319   6  10   0.0715   0.0852   0.2735  -0.0408   0.0999  -0.0718   2.00    0.0
2018/11/05 00:33:00.000  -74.393389965  163.452958378    97.4180   6  10   0.0659   0.0744   0.2490  -0.0376   0.0932  -0.0644   2.00    0.0
2018/11/05 00:33:15.000  -74.393389872  163.452958201    97.4341   6  10   0.0608   0.0683   0.2258  -0.0359   0.0826  -0.0560   2.00    0.0
2018/11/05 00:33:30.000  -74.393389929  163.452959574    97.4626   6  10   0.0553   0.0620   0.2019  -0.0334   0.0736  -0.0497   2.00    0.0
2018/11/05 00:33:45.000  -74.393389966  163.452960197    97.4658   6  10   0.0479   0.0532   0.1770  -0.0270   0.0672  -0.0469   3.00    0.0
2018/11/05 00:34:00.000  -74.393389917  163.452960479    97.5091   6  10   0.0423   0.0467   0.1540  -0.0242   0.0586  -0.0417   3.00    0.0
2018/11/05 00:34:15.000  -74.393389847  163.452960876    97.5173   6  11   0.0364   0.0409   0.1282  -0.0218   0.0512  -0.0409   3.00    0.0
2018/11/05 00:34:30.000  -74.393389840  163.452961383    97.5515   6  11   0.0325   0.0360   0.1105  -0.0204   0.0445  -0.0365   3.00    0.0
2018/11/05 00:34:45.000  -74.393389793  163.452961590    97.5553   6  11   0.0299   0.0329   0.0975  -0.0200   0.0397  -0.0338   4.00    0.0
2018/11/05 00:35:00.000  -74.393389756  163.452961537    97.5675   6  11   0.0288   0.0323   0.0929  -0.0200   0.0394  -0.0342   3.00    0.0
2018/11/05 00:35:15.000  -74.393389546  163.452960779    97.4874   6  11   0.0306   0.0365   0.1076  -0.0221   0.0464  -0.0382   1.00    0.0
2018/11/05 00:35:30.000  -74.393389489  163.452960180    97.4366   6  11   0.0344   0.0411   0.1343  -0.0251   0.0593  -0.0453   2.00    0.0
2018/11/05 00:35:45.000  -74.393389573  163.452960052    97.4600   6  11   0.0442   0.0562   0.1875  -0.0377   0.0887  -0.0701   1.00    0.0
2018/11/05 00:36:00.000  -74.393389711  163.452960394    97.5267   6  11   0.0509   0.0652   0.2290  -0.0436   0.1068  -0.0846   1.00    0.0
2018/11/05 00:36:15.000  -74.393389630  163.452959427    97.4718   6  11   0.0565   0.0738   0.2606  -0.0483   0.1208  -0.0944   1.00    0.0
2018/11/05 00:36:30.000  -74.393389775  163.452959168    97.4816   6  11   0.0632   0.0834   0.2970  -0.0544   0.1371  -0.1067   2.00    0.0
2018/11/05 00:36:45.000  -74.393389846  163.452959221    97.5703   6  11   0.0633   0.0738   0.2513  -0.0446   0.1042  -0.0863   3.00    0.0
2018/11/05 00:37:00.000  -74.393389942  163.452958996    97.5076   6  11   0.0665   0.0773   0.2669  -0.0437   0.1111  -0.0912   2.00    0.0
2018/11/05 00:37:15.000  -74.393389960  163.452958442    97.4820   6  11   0.0715   0.0833   0.2872  -0.0462   0.1189  -0.0973   2.00    0.0
2018/11/05 00:37:30.000  -74.393389961  163.452958191    97.4811   6  11   0.0770   0.0896   0.3092  -0.0493   0.1276  -0.1046   2.00    0.0
2018/11/05 00:37:45.000  -74.393389926  163.452958592    97.4813   6  11   0.0713   0.0828   0.2835  -0.0456   0.1169  -0.0953   2.00    0.0
2018/11/05 00:38:00.000  -74.393390055  163.452959455    97.5343   6  11   0.0665   0.0768   0.2585  -0.0434   0.1067  -0.0871   3.00    0.0
2018/11/05 00:38:15.000  -74.393390056  163.452959904    97.5431   6  11   0.0612   0.0702   0.2348  -0.0404   0.0973  -0.0798   3.00    0.0
2018/11/05 00:38:30.000  -74.393390175  163.452960027    97.5760   6  11   0.0532   0.0608   0.2095  -0.0326   0.0853  -0.0697   3.00    0.0
2018/11/05 00:38:45.000  -74.393390142  163.452960278    97.6055   6  11   0.0473   0.0535   0.1849  -0.0286   0.0747  -0.0613   3.00    0.0
2018/11/05 00:39:00.000  -74.393390188  163.452960641    97.6302   6  11   0.0419   0.0465   0.1614  -0.0251   0.0648  -0.0538   3.00    0.0
2018/11/05 00:39:15.000  -74.393390116  163.452961064    97.6216   6  11   0.0370   0.0399   0.1395  -0.0221   0.0556  -0.0472   4.00    0.0
2018/11/05 00:39:30.000  -74.393390012  163.452961406    97.6078   6  11   0.0329   0.0341   0.1204  -0.0198   0.0477  -0.0419   4.00    1.0
2018/11/05 00:39:45.000  -74.393390031  163.452962019    97.6345   6  11   0.0299   0.0297   0.1065  -0.0183   0.0420  -0.0386   4.00    0.0
2018/11/05 00:40:00.000  -74.393389931  163.452962268    97.6109   6  11   0.0288   0.0280   0.1013  -0.0180   0.0401  -0.0380   4.00    0.0
2018/11/05 00:40:15.000  -74.393390013  163.452962466    97.6619   6  11   0.0308   0.0311   0.1119  -0.0197   0.0450  -0.0403   4.00    0.0
2018/11/05 00:40:30.000  -74.393390056  163.452962023    97.6541   6  11   0.0343   0.0361   0.1283  -0.0219   0.0518  -0.0435   3.00    0.0
2018/11/05 00:40:45.000  -74.393390100  163.452961799    97.7077   6  11   0.0382   0.0419   0.1460  -0.0242   0.0594  -0.0489   4.00    0.0
2018/11/05 00:41:00.000  -74.393390132  163.452961693    97.7543   6  11   0.0431   0.0482   0.1669  -0.0270   0.0676  -0.0542   4.00    0.0
2018/11/05 00:41:15.000  -74.393390092  163.452961049    97.7345   6  11   0.0485   0.0548   0.1893  -0.0301   0.0763  -0.0601   4.00    0.0
2018/11/05 00:41:30.000  -74.393390111  163.452960629    97.7831   6  11   0.0543   0.0615   0.2129  -0.0337   0.0854  -0.0665   4.00    0.0
2018/11/05 00:41:45.000  -74.393390087  163.452960014    97.7669   6  11   0.0608   0.0687   0.2376  -0.0382   0.0946  -0.0729   4.00    0.0
2018/11/05 00:42:00.000  -74.393390120  163.452960015    97.7422   6  11   0.0656   0.0742   0.2650  -0.0394   0.1054  -0.0799   4.00    0.0
2018/11/05 00:42:15.000  -74.393390259  163.452959905    97.7479   6  11   0.0694   0.0805   0.2846  -0.0424   0.1150  -0.0921   4.00    0.0
2018/11/05 00:42:30.000  -74.393390229  163.452959928    97.7462   6  11   0.0749   0.0871   0.3086  -0.0459   0.1250  -0.1010   4.00    0.0
2018/11/05 00:42:45.000  -74.393390232  163.452959986    97.7375   6  11   0.0690   0.0804   0.2846  -0.0421   0.1153  -0.0929   4.00    0.0
2018/11/05 00:43:00.000  -74.393390271  163.452960490    97.7498   6  11   0.0633   0.0741   0.2621  -0.0387   0.1065  -0.0853   4.00    0.0
2018/11/05 00:43:15.000  -74.393390351  163.452960718    97.7834   6  11   0.0578   0.0681   0.2410  -0.0357   0.0987  -0.0784   4.00    0.0
2018/11/05 00:43:30.000  -74.393390309  163.452960882    97.7576   6  11   0.0525   0.0629   0.2226  -0.0334   0.0926  -0.0727   4.00    0.0
2018/11/05 00:43:45.000  -74.393390208  163.452960646    97.7076   6  11   0.0479   0.0594   0.2109  -0.0326   0.0907  -0.0696   4.00    0.0
2018/11/05 00:44:00.000  -74.393390366  163.452962661    97.8897   6  11   0.0439   0.0475   0.1760  -0.0279   0.0708  -0.0623   4.00    0.0
2018/11/05 00:44:15.000  -74.393390198  163.452962609    97.8437   6  11   0.0382   0.0400   0.1491  -0.0234   0.0588  -0.0528   4.00    0.0
2018/11/05 00:44:30.000  -74.393390094  163.452962279    97.7469   6  11   0.0339   0.0340   0.1295  -0.0205   0.0503  -0.0469   4.00    0.0
2018/11/05 00:44:45.000  -74.393390071  163.452962178    97.6885   6  11   0.0310   0.0296   0.1160  -0.0189   0.0447  -0.0434   4.00    0.0
2018/11/05 00:45:00.000  -74.393390141  163.452962421    97.6914   6  11   0.0297   0.0278   0.1109  -0.0184   0.0428  -0.0425   4.00    0.0
2018/11/05 00:45:15.000  -74.393390288  163.452962496    97.7007   6  11   0.0314   0.0306   0.1197  -0.0195   0.0467  -0.0442   4.00    0.0
2018/11/05 00:45:30.000  -74.393390325  163.452962558    97.6914   6  11   0.0340   0.0355   0.1338  -0.0211   0.0535  -0.0486   4.00    0.0
2018/11/05 00:45:45.000  -74.393390488  163.452962235    97.7014   6  11   0.0380   0.0415   0.1522  -0.0232   0.0616  -0.0534   4.00    0.0
2018/11/05 00:46:00.000  -74.393390463  163.452961523    97.6451   6  11   0.0426   0.0482   0.1735  -0.0260   0.0708  -0.0594   4.00    0.0
2018/11/05 00:46:15.000  -74.393390567  163.452960853    97.6713   6  11   0.0477   0.0553   0.1974  -0.0294   0.0812  -0.0665   4.00    0.0
2018/11/05 00:46:30.000  -74.393390519  163.452959952    97.6103   6  11   0.0532   0.0632   0.2244  -0.0336   0.0936  -0.0752   4.00    0.0
2018/11/05 00:46:45.000  -74.393390494  163.452958846    97.5531   6  11   0.0593   0.0731   0.2589  -0.0397   0.1107  -0.0871   4.00    0.0
2018/11/05 00:47:00.000  -74.393390702  163.452959825    97.6937   6  11   0.0666   0.0763   0.2797  -0.0435   0.1151  -0.0981   4.00    0.0
2018/11/05 00:47:15.000  -74.393390525  163.452958848    97.6120   6  11   0.0704   0.0807   0.2918  -0.0438   0.1183  -0.0999   4.00    0.0
2018/11/05 00:47:30.000  -74.393390453  163.452958074    97.5803   6  11   0.0752   0.0863   0.3103  -0.0459   0.1249  -0.1051   4.00    0.0
2018/11/05 00:47:45.000  -74.393390563  163.452958902    97.6820   6  11   0.0694   0.0791   0.2840  -0.0413   0.1135  -0.0957   4.00    0.0
2018/11/05 00:48:00.000  -74.393390628  163.452959567    97.7289   6  11   0.0637   0.0721   0.2581  -0.0369   0.1024  -0.0867   4.00    0.0
2018/11/05 00:48:15.000  -74.393390598  163.452959616    97.7783   6  11   0.0583   0.0653   0.2331  -0.0326   0.0918  -0.0782   4.00    0.0
2018/11/05 00:48:30.000  -74.393390537  163.452959646    97.7352   6  11   0.0533   0.0591   0.2092  -0.0280   0.0818  -0.0703   4.00    0.0
2018/11/05 00:48:45.000  -74.393390383  163.452960177    97.7169   6  11   0.0478   0.0516   0.1865  -0.0256   0.0719  -0.0636   4.00    0.0
2018/11/05 00:49:00.000  -74.393390353  163.452960631    97.7019   6  11   0.0433   0.0455   0.1655  -0.0220   0.0630  -0.0576   5.00    0.0
2018/11/05 00:49:15.000  -74.393390419  163.452961814    97.7858   6  11   0.0383   0.0384   0.1473  -0.0212   0.0551  -0.0530   5.00    0.0
2018/11/05 00:49:30.000  -74.393390379  163.452962138    97.7585   6  11   0.0352   0.0328   0.1335  -0.0194   0.0485  -0.0507   5.00    0.0
2018/11/05 00:49:45.000  -74.393390210  163.452962023    97.6795   6  11   0.0314   0.0291   0.1179  -0.0188   0.0448  -0.0453   4.00    0.0
2018/11/05 00:50:00.000  -74.393390202  163.452962296    97.6555   6  11   0.0294   0.0269   0.1081  -0.0175   0.0410  -0.0417   4.00    0.0
2018/11/05 00:50:15.000  -74.393390301  163.452962173    97.6636   6  11   0.0305   0.0292   0.1140  -0.0180   0.0434  -0.0426   4.00    0.0
2018/11/05 00:50:30.000  -74.393390300  163.452961872    97.6472   6  11   0.0332   0.0335   0.1259  -0.0192   0.0483  -0.0451   4.00    0.0
2018/11/05 00:50:45.000  -74.393390349  163.452960874    97.6219   6  11   0.0369   0.0388   0.1413  -0.0208   0.0543  -0.0486   4.00    0.0
2018/11/05 00:51:00.000  -74.393390395  163.452959874    97.6220   6  11   0.0413   0.0446   0.1592  -0.0228   0.0612  -0.0531   4.00    0.0
2018/11/05 00:51:15.000  -74.393390371  163.452959416    97.6361   6  11   0.0460   0.0507   0.1786  -0.0253   0.0688  -0.0584   4.00    0.0
2018/11/05 00:51:30.000  -74.393390431  163.452959243    97.6785   6  11   0.0509   0.0568   0.1992  -0.0280   0.0768  -0.0645   5.00    0.0
2018/11/05 00:51:45.000  -74.393390262  163.452958765    97.6737   6  11   0.0561   0.0630   0.2204  -0.0309   0.0851  -0.0711   5.00    0.0
2018/11/05 00:52:00.000  -74.393390344  163.452958817    97.6996   6  11   0.0613   0.0693   0.2422  -0.0340   0.0936  -0.0780   5.00    0.0
2018/11/05 00:52:15.000  -74.393390274  163.452958521    97.7003   6  11   0.0667   0.0756   0.2643  -0.0372   0.1023  -0.0852   5.00    0.0
2018/11/05 00:52:30.000  -74.393390201  163.452958322    97.6724   6  11   0.0721   0.0819   0.2866  -0.0405   0.1110  -0.0925   5.00    0.0
2018/11/05 00:52:45.000  -74.393390200  163.452957986    97.6769   6  11   0.0669   0.0755   0.2641  -0.0374   0.1014  -0.0843   5.00    0.0
2018/11/05 00:53:00.000  -74.393390062  163.452958281    97.7050   6  11   0.0620   0.0695   0.2425  -0.0349   0.0913  -0.0753   6.00    0.0
2018/11/05 00:53:15.000  -74.393390078  163.452959624    97.6852   6  11   0.0557   0.0626   0.2186  -0.0301   0.0841  -0.0701   6.00    0.0
2018/11/05 00:53:30.000  -74.393390087  163.452959769    97.6771   6  11   0.0504   0.0565   0.1973  -0.0268   0.0761  -0.0635   6.00    0.0
2018/11/05 00:53:45.000  -74.393390178  163.452960080    97.6605   6  11   0.0454   0.0508   0.1774  -0.0239   0.0688  -0.0575   6.00    0.0
2018/11/05 00:54:00.000  -74.393390220  163.452960327    97.6288   6  11   0.0410   0.0460   0.1595  -0.0211   0.0629  -0.0523   6.00    0.0
2018/11/05 00:54:15.000  -74.393390093  163.452961167    97.6076   6  11   0.0365   0.0400   0.1451  -0.0219   0.0579  -0.0499   5.00    0.0
2018/11/05 00:54:30.000  -74.393390168  163.452961838    97.6423   6  11   0.0330   0.0319   0.1257  -0.0188   0.0469  -0.0454   5.00    0.0
2018/11/05 00:54:45.000  -74.393390161  163.452963380    97.6495   1  11   0.0373   0.0270   0.1259  -0.0229   0.0421  -0.0579   5.00    1.0
2018/11/05 00:55:00.000  -74.393390213  163.452963878    97.6987   1  11   0.0366   0.0250   0.1205  -0.0228   0.0404  -0.0576   5.00    1.0
2018/11/05 00:55:15.000  -74.393390172  163.452962207    97.6045   6  11   0.0295   0.0271   0.1088  -0.0163   0.0396  -0.0400   5.00    0.0
2018/11/05 00:55:30.000  -74.393390176  163.452961543    97.5716   6  11   0.0329   0.0315   0.1232  -0.0181   0.0451  -0.0447   6.00    0.0
2018/11/05 00:55:45.000  -74.393390152  163.452960996    97.5645   6  11   0.0372   0.0369   0.1402  -0.0202   0.0516  -0.0502   6.00    0.0
2018/11/05 00:56:00.000  -74.393390126  163.452960099    97.5436   6  11   0.0420   0.0428   0.1590  -0.0227   0.0589  -0.0562   6.00    0.0
2018/11/05 00:56:15.000  -74.393390162  163.452959427    97.5579   6  11   0.0470   0.0489   0.1789  -0.0254   0.0667  -0.0626   6.00    0.0
2018/11/05 00:56:30.000  -74.393390202  163.452959446    97.6036   6  11   0.0521   0.0550   0.1994  -0.0283   0.0747  -0.0694   6.00    0.0
2018/11/05 00:56:45.000  -74.393390188  163.452959375    97.6207   6  11   0.0574   0.0612   0.2202  -0.0313   0.0830  -0.0763   6.00    0.0
2018/11/05 00:57:00.000  -74.393390160  163.452958766    97.5868   6  11   0.0626   0.0674   0.2413  -0.0344   0.0913  -0.0833   6.00    0.0
2018/11/05 00:57:15.000  -74.393390111  163.452958596    97.5847   6  11   0.0680   0.0736   0.2624  -0.0374   0.0997  -0.0904   6.00    0.0
2018/11/05 00:57:30.000  -74.393390066  163.452958165    97.5325   6  11   0.0733   0.0799   0.2835  -0.0405   0.1081  -0.0975   6.00    0.0
2018/11/05 00:57:45.000  -74.393389999  163.452958567    97.5024   6  11   0.0680   0.0738   0.2622  -0.0376   0.0997  -0.0906   6.00    0.0
2018/11/05 00:58:00.000  -74.393390018  163.452959271    97.4925   6  11   0.0631   0.0678   0.2427  -0.0349   0.0920  -0.0847   6.00    0.0
2018/11/05 00:58:15.000  -74.393390077  163.452959370    97.4839   6  11   0.0584   0.0621   0.2242  -0.0325   0.0849  -0.0795   6.00    0.0
2018/11/05 00:58:30.000  -74.393390131  163.452959421    97.4893   6  11   0.0539   0.0575   0.2075  -0.0305   0.0793  -0.0750   6.00    0.0
2018/11/05 00:58:45.000  -74.393390309  163.452959970    97.5456   6  11   0.0517   0.0484   0.1948  -0.0272   0.0681  -0.0752   6.00    0.0
2018/11/05 00:59:00.000  -74.393390272  163.452960537    97.5267   6  10   0.0562   0.0442   0.2164  -0.0320   0.0731  -0.0933   5.00    0.0
2018/11/05 00:59:15.000  -74.393390365  163.452961452    97.6035   6  10   0.0462   0.0368   0.1751  -0.0250   0.0578  -0.0738   5.00    0.0
2018/11/05 00:59:30.000  -74.393390214  163.452961781    97.5729   6  10   0.0374   0.0302   0.1383  -0.0188   0.0444  -0.0562   5.00    0.0
2018/11/05 00:59:45.000  -74.393390178  163.452963066    97.5678   1  10   0.0375   0.0241   0.1259  -0.0187   0.0331  -0.0575   4.00    1.0
2018/11/05 01:00:00.000  -74.393390313  163.452963412    97.6782   1  10   0.0331   0.0206   0.1035  -0.0155   0.0235  -0.0480   4.00    1.0
2018/11/05 01:00:15.000  -74.393390301  163.452963740    97.6586   1  10   0.0376   0.0242   0.1289  -0.0184   0.0325  -0.0584   4.00    1.0
2018/11/05 01:00:30.000  -74.393390120  163.452962075    97.5919   6  10   0.0356   0.0295   0.1299  -0.0158   0.0383  -0.0510   5.00    0.0
2018/11/05 01:00:45.000  -74.393390152  163.452961244    97.5783   6  10   0.0434   0.0354   0.1621  -0.0203   0.0483  -0.0660   5.00    0.0
2018/11/05 01:01:00.000  -74.393390200  163.452961006    97.5677   6  10   0.0520   0.0417   0.1971  -0.0253   0.0594  -0.0822   5.00    0.0
2018/11/05 01:01:15.000  -74.393390101  163.452960354    97.5430   6  10   0.0611   0.0483   0.2337  -0.0306   0.0708  -0.0989   5.00    0.0
2018/11/05 01:01:30.000  -74.393390011  163.452959828    97.5235   6  10   0.0704   0.0548   0.2717  -0.0359   0.0824  -0.1161   5.00    0.0
2018/11/05 01:01:45.000  -74.393389990  163.452959551    97.5434   6  10   0.0798   0.0614   0.3117  -0.0412   0.0940  -0.1337   5.00    0.0
2018/11/05 01:02:00.000  -74.393389985  163.452958987    97.5518   6  10   0.0895   0.0680   0.3578  -0.0464   0.1053  -0.1523   5.00    0.0
2018/11/05 01:02:15.000  -74.393389921  163.452958563    97.5426   6   9   0.1012   0.0747   0.4271  -0.0519   0.1180  -0.1792   5.00    0.0
2018/11/05 01:02:30.000  -74.393389951  163.452958409    97.5446   6   9   0.1112   0.0815   0.4715  -0.0567   0.1288  -0.1984   5.00    0.0
2018/11/05 01:02:45.000  -74.393390178  163.452958501    97.6709   6   9   0.1022   0.0755   0.4319  -0.0486   0.1116  -0.1816   5.00    0.0
2018/11/05 01:03:00.000  -74.393389863  163.452959308    97.5333   6   9   0.0916   0.0669   0.3862  -0.0452   0.1031  -0.1613   5.00    0.0
2018/11/05 01:03:15.000  -74.393389830  163.452959294    97.5325   6   9   0.0809   0.0599   0.3386  -0.0401   0.0916  -0.1402   5.00    0.0
2018/11/05 01:03:30.000  -74.393389876  163.452959537    97.5356   6   9   0.0708   0.0531   0.2939  -0.0347   0.0795  -0.1206   5.00    0.0
2018/11/05 01:03:45.000  -74.393390028  163.452960085    97.6190   6   9   0.0611   0.0465   0.2505  -0.0292   0.0675  -0.1017   5.00    0.0
2018/11/05 01:04:00.000  -74.393390061  163.452960201    97.6181   6   9   0.0517   0.0400   0.2083  -0.0240   0.0559  -0.0832   5.00    0.0
2018/11/05 01:04:15.000  -74.393390135  163.452960840    97.6750   6   9   0.0428   0.0338   0.1678  -0.0189   0.0448  -0.0654   5.00    0.0
2018/11/05 01:04:30.000  -74.393390239  163.452961324    97.6551   6   9   0.0348   0.0280   0.1303  -0.0144   0.0349  -0.0488   5.00    0.0
2018/11/05 01:04:45.000  -74.393390228  163.452961518    97.6042   6   9   0.0285   0.0235   0.0989  -0.0106   0.0270  -0.0345   6.00    0.0
2018/11/05 01:05:00.000  -74.393390202  163.452961739    97.6022   6   9   0.0254   0.0216   0.0813  -0.0084   0.0228  -0.0263   6.00    0.0
2018/11/05 01:05:15.000  -74.393390061  163.452961375    97.5859   6  10   0.0269   0.0238   0.0867  -0.0108   0.0266  -0.0274   6.00    0.0
2018/11/05 01:05:30.000  -74.393389993  163.452960683    97.5812   6  10   0.0307   0.0284   0.1017  -0.0136   0.0326  -0.0324   6.00    0.0
2018/11/05 01:05:45.000  -74.393389897  163.452959509    97.5207   6  10   0.0357   0.0344   0.1215  -0.0176   0.0407  -0.0396   6.00    0.0
2018/11/05 01:06:00.000  -74.393389786  163.452958963    97.4839   6  10   0.0419   0.0417   0.1455  -0.0231   0.0516  -0.0493   6.00    0.0
2018/11/05 01:06:15.000  -74.393389947  163.452959479    97.5587   6  10   0.0485   0.0475   0.1732  -0.0275   0.0618  -0.0604   6.00    0.0
2018/11/05 01:06:30.000  -74.393389833  163.452958515    97.5043   6  10   0.0538   0.0530   0.1931  -0.0301   0.0680  -0.0664   6.00    0.0
2018/11/05 01:06:45.000  -74.393389751  163.452958097    97.5158   6  10   0.0598   0.0590   0.2163  -0.0337   0.0760  -0.0743   6.00    0.0
2018/11/05 01:07:00.000  -74.393389764  163.452957380    97.4724   6  10   0.0660   0.0652   0.2408  -0.0377   0.0848  -0.0832   6.00    0.0
2018/11/05 01:07:15.000  -74.393389828  163.452957390    97.5072   6  10   0.0725   0.0717   0.2664  -0.0421   0.0942  -0.0927   6.00    0.0
2018/11/05 01:07:30.000  -74.393389851  163.452957050    97.4981   6  10   0.0794   0.0785   0.2931  -0.0469   0.1044  -0.1029   6.00    0.0
2018/11/05 01:07:45.000  -74.393389830  163.452957150    97.4636   6  10   0.0743   0.0746   0.2727  -0.0460   0.1002  -0.0977   6.00    0.0
2018/11/05 01:08:00.000  -74.393390140  163.452958172    97.5667   6  10   0.0667   0.0653   0.2444  -0.0385   0.0860  -0.0857   6.00    0.0
2018/11/05 01:08:15.000  -74.393390041  163.452958405    97.5455   6  10   0.0592   0.0575   0.2145  -0.0321   0.0726  -0.0729   6.00    0.0
2018/11/05 01:08:30.000  -74.393389988  163.452958844    97.5252   6  10   0.0525   0.0507   0.1879  -0.0270   0.0619  -0.0625   6.00    0.0
2018/11/05 01:08:45.000  -74.393390007  163.452959474    97.5485   6  10   0.0462   0.0442   0.1625  -0.0225   0.0521  -0.0528   6.00    0.0
2018/11/05 01:09:00.000  -74.393390039  163.452960094    97.5864   6  10   0.0401   0.0380   0.1381  -0.0182   0.0428  -0.0436   7.00    0.0
2018/11/05 01:09:15.000  -74.393390129  163.452960754    97.6197   6  10   0.0344   0.0321   0.1148  -0.0140   0.0341  -0.0348   7.00    0.0
2018/11/05 01:09:30.000  -74.393390157  163.452961226    97.6312   6  10   0.0293   0.0267   0.0933  -0.0101   0.0262  -0.0265   7.00    0.0
2018/11/05 01:09:45.000  -74.393390192  163.452961420    97.5968   6  10   0.0253   0.0224   0.0752  -0.0065   0.0196  -0.0188   7.00    0.0
2018/11/05 01:10:00.000  -74.393390287  163.452961909    97.6173   6  10   0.0232   0.0204   0.0649  -0.0039   0.0160  -0.0134   7.00    0.0
2018/11/05 01:10:15.000  -74.393390568  163.452962943    97.6831   1  10   0.0297   0.0231   0.0927  -0.0127   0.0336  -0.0308   5.00    1.0
2018/11/05 01:10:30.000  -74.393390612  163.452963183    97.7205   1  10   0.0350   0.0287   0.1177  -0.0163   0.0406  -0.0399   5.00    1.0
2018/11/05 01:10:45.000  -74.393390286  163.452961375    97.6852   6  10   0.0337   0.0315   0.1109  -0.0126   0.0314  -0.0319   7.00    0.0
2018/11/05 01:11:00.000  -74.393390224  163.452960818    97.6866   6  10   0.0392   0.0370   0.1336  -0.0163   0.0391  -0.0403   7.00    0.0
2018/11/05 01:11:15.000  -74.393390203  163.452960304    97.6673   6  10   0.0451   0.0428   0.1575  -0.0201   0.0471  -0.0491   6.00    0.0
2018/11/05 01:11:30.000  -74.393390181  163.452959951    97.6786   6  10   0.0511   0.0485   0.1821  -0.0238   0.0552  -0.0582   6.00    0.0
2018/11/05 01:11:45.000  -74.393390100  163.452959340    97.6762   6  10   0.0573   0.0544   0.2072  -0.0276   0.0633  -0.0674   6.00    0.0
2018/11/05 01:12:00.000  -74.393390088  163.452958954    97.6452   6  10   0.0636   0.0602   0.2327  -0.0314   0.0715  -0.0767   6.00    0.0
2018/11/05 01:12:15.000  -74.393389988  163.452958590    97.5823   6  10   0.0699   0.0661   0.2584  -0.0352   0.0795  -0.0860   6.00    0.0
2018/11/05 01:12:30.000  -74.393389937  163.452957978    97.4945   6  10   0.0764   0.0719   0.2842  -0.0389   0.0875  -0.0953   7.00    0.0
2018/11/05 01:12:45.000  -74.393390001  163.452958106    97.5160   6  10   0.0699   0.0659   0.2577  -0.0350   0.0788  -0.0856   7.00    0.0
2018/11/05 01:13:00.000  -74.393390023  163.452958239    97.5042   6  10   0.0635   0.0599   0.2320  -0.0309   0.0700  -0.0762   7.00    0.0
2018/11/05 01:13:15.000  -74.393390048  163.452958884    97.5409   6  10   0.0571   0.0539   0.2064  -0.0270   0.0613  -0.0668   7.00    0.0
2018/11/05 01:13:30.000  -74.393390155  163.452959358    97.5934   6  10   0.0509   0.0480   0.1811  -0.0230   0.0527  -0.0575   7.00    0.0
2018/11/05 01:13:45.000  -74.393390210  163.452959323    97.6358   6  10   0.0448   0.0421   0.1561  -0.0191   0.0443  -0.0482   7.00    0.0
2018/11/05 01:14:00.000  -74.393390198  163.452959746    97.6272   6  10   0.0389   0.0364   0.1318  -0.0152   0.0362  -0.0391   7.00    0.0
2018/11/05 01:14:15.000  -74.393390176  163.452960421    97.6653   6  10   0.0334   0.0309   0.1086  -0.0114   0.0285  -0.0302   6.00    0.0
2018/11/05 01:14:30.000  -74.393390144  163.452960693    97.6427   6  10   0.0284   0.0259   0.0874  -0.0076   0.0215  -0.0218   6.00    0.0
2018/11/05 01:14:45.000  -74.393390237  163.452961164    97.5912   6  10   0.0247   0.0220   0.0700  -0.0035   0.0158  -0.0140   6.00    0.0
2018/11/05 01:15:00.000  -74.393390301  163.452961674    97.5732   6  10   0.0227   0.0200   0.0608   0.0013   0.0128  -0.0082   6.00    0.0
2018/11/05 01:15:15.000  -74.393390289  163.452961734    97.5684   6  10   0.0247   0.0219   0.0695  -0.0030   0.0156  -0.0129   6.00    0.0
2018/11/05 01:15:30.000  -74.393390232  163.452961064    97.5764   6  10   0.0286   0.0258   0.0866  -0.0066   0.0210  -0.0203   6.00    0.0
2018/11/05 01:15:45.000  -74.393390201  163.452960707    97.5922   6  10   0.0335   0.0307   0.1077  -0.0102   0.0275  -0.0286   6.00    0.0
2018/11/05 01:16:00.000  -74.393390207  163.452960135    97.5993   6  10   0.0390   0.0359   0.1307  -0.0138   0.0345  -0.0374   6.00    0.0
2018/11/05 01:16:15.000  -74.393390215  163.452959798    97.5992   6  10   0.0448   0.0413   0.1549  -0.0173   0.0417  -0.0464   6.00    0.0
2018/11/05 01:16:30.000  -74.393390126  163.452959408    97.5256   6  10   0.0508   0.0468   0.1797  -0.0208   0.0489  -0.0556   6.00    0.0
2018/11/05 01:16:45.000  -74.393390129  163.452959147    97.4952   6  10   0.0570   0.0524   0.2049  -0.0243   0.0561  -0.0648   6.00    0.0
2018/11/05 01:17:00.000  -74.393390127  163.452958859    97.4153   6  10   0.0632   0.0580   0.2303  -0.0278   0.0632  -0.0740   6.00    0.0
2018/11/05 01:17:15.000  -74.393390082  163.452958508    97.4364   6  10   0.0696   0.0636   0.2559  -0.0312   0.0702  -0.0832   6.00    0.0
2018/11/05 01:17:30.000  -74.393390070  163.452957910    97.4770   6  10   0.0760   0.0692   0.2815  -0.0346   0.0771  -0.0924   6.00    0.0
2018/11/05 01:17:45.000  -74.393390130  163.452958114    97.5705   6  10   0.0697   0.0636   0.2555  -0.0310   0.0695  -0.0825   6.00    0.0
2018/11/05 01:18:00.000  -74.393390165  163.452958179    97.5497   6  10   0.0636   0.0578   0.2299  -0.0270   0.0618  -0.0726   7.00    0.0
2018/11/05 01:18:15.000  -74.393390189  163.452958419    97.5367   6  10   0.0577   0.0523   0.2047  -0.0227   0.0545  -0.0623   7.00    0.0
2018/11/05 01:18:30.000  -74.393390203  163.452958517    97.4932   6  10   0.0528   0.0470   0.1808  -0.0170   0.0483  -0.0502   6.00    0.0
2018/11/05 01:18:45.000  -74.393390299  163.452959289    97.5031   6  10   0.0446   0.0408   0.1537  -0.0165   0.0385  -0.0448   5.00    0.0
2018/11/05 01:19:00.000  -74.393390361  163.452959973    97.5328   6  10   0.0385   0.0354   0.1286  -0.0132   0.0308  -0.0364   5.00    0.0
2018/11/05 01:19:15.000  -74.393390414  163.452960619    97.5456   6  10   0.0329   0.0301   0.1051  -0.0097   0.0237  -0.0278   5.00    1.0
2018/11/05 01:19:30.000  -74.393390355  163.452961259    97.5285   6  10   0.0280   0.0255   0.0837  -0.0059   0.0173  -0.0193   5.00    0.0
2018/11/05 01:19:45.000  -74.393390348  163.452961624    97.5417   6  10   0.0242   0.0216   0.0665   0.0011   0.0121  -0.0113   5.00    0.0
2018/11/05 01:20:00.000  -74.393390341  163.452961701    97.5484   6  10   0.0224   0.0199   0.0577   0.0044   0.0094  -0.0052   5.00    0.0
2018/11/05 01:20:15.000  -74.393390351  163.452961197    97.5048   6  10   0.0241   0.0216   0.0663   0.0017   0.0118  -0.0111   5.00    0.0
2018/11/05 01:20:30.000  -74.393390394  163.452960698    97.4963   6  10   0.0278   0.0252   0.0831  -0.0055   0.0165  -0.0190   5.00    0.0
2018/11/05 01:20:45.000  -74.393390451  163.452960120    97.4613   6  10   0.0326   0.0297   0.1038  -0.0092   0.0221  -0.0274   5.00    0.0
2018/11/05 01:21:00.000  -74.393390450  163.452959677    97.4973   6  10   0.0380   0.0347   0.1266  -0.0125   0.0281  -0.0361   5.00    0.0
2018/11/05 01:21:15.000  -74.393390474  163.452959013    97.5312   6  10   0.0438   0.0398   0.1505  -0.0157   0.0342  -0.0450   5.00    0.0
2018/11/05 01:21:30.000  -74.393390467  163.452958649    97.5422   6  10   0.0497   0.0451   0.1749  -0.0189   0.0402  -0.0539   6.00    0.0
2018/11/05 01:21:45.000  -74.393390453  163.452958723    97.5633   6  10   0.0558   0.0504   0.1996  -0.0220   0.0461  -0.0629   6.00    0.0
2018/11/05 01:22:00.000  -74.393390429  163.452958942    97.5710   6  10   0.0620   0.0557   0.2245  -0.0251   0.0520  -0.0718   6.00    0.0
2018/11/05 01:22:15.000  -74.393390339  163.452958689    97.5808   6  10   0.0683   0.0611   0.2495  -0.0281   0.0576  -0.0807   6.00    0.0
2018/11/05 01:22:30.000  -74.393390295  163.452958559    97.5698   6  10   0.0746   0.0665   0.2745  -0.0311   0.0632  -0.0895   6.00    0.0
2018/11/05 01:22:45.000  -74.393390314  163.452958595    97.6050   6  10   0.0682   0.0608   0.2490  -0.0275   0.0561  -0.0808   6.00    0.0
2018/11/05 01:23:00.000  -74.393390406  163.452958900    97.6059   6  10   0.0618   0.0553   0.2235  -0.0241   0.0494  -0.0715   6.00    0.0
2018/11/05 01:23:15.000  -74.393390450  163.452959160    97.6250   6  10   0.0556   0.0498   0.1981  -0.0208   0.0427  -0.0624   6.00    0.0
2018/11/05 01:23:30.000  -74.393390434  163.452959256    97.6461   6  10   0.0494   0.0445   0.1731  -0.0174   0.0362  -0.0532   6.00    0.0
2018/11/05 01:23:45.000  -74.393390403  163.452959423    97.6184   6  10   0.0434   0.0392   0.1485  -0.0141   0.0298  -0.0441   6.00    0.0
2018/11/05 01:24:00.000  -74.393390429  163.452959645    97.6125   6  10   0.0377   0.0341   0.1245  -0.0108   0.0236  -0.0351   6.00    0.0
2018/11/05 01:24:15.000  -74.393390503  163.452960148    97.6257   6  10   0.0323   0.0292   0.1017  -0.0074   0.0178  -0.0263   6.00    0.0
2018/11/05 01:24:30.000  -74.393390474  163.452960626    97.6063   6  10   0.0275   0.0248   0.0810  -0.0030   0.0124  -0.0176   6.00    0.0
2018/11/05 01:24:45.000  -74.393390409  163.452961201    97.5817   6  10   0.0239   0.0213   0.0645   0.0042   0.0077  -0.0087   6.00    0.0
2018/11/05 01:25:00.000  -74.393390328  163.452961485    97.5515   6  10   0.0222   0.0196   0.0564   0.0054   0.0048   0.0048   6.00    0.0
2018/11/05 01:25:15.000  -74.393390270  163.452961297    97.5495   6  10   0.0239   0.0212   0.0647   0.0046   0.0071  -0.0081   6.00    0.0
2018/11/05 01:25:30.000  -74.393390653  163.452962253    97.6299   1  10   0.0339   0.0266   0.1031  -0.0103   0.0286  -0.0329   5.00    1.0
2018/11/05 01:25:45.000  -74.393390318  163.452960509    97.5857   6  10   0.0321   0.0288   0.1010  -0.0065   0.0159  -0.0255   6.00    0.0
2018/11/05 01:26:00.000  -74.393390359  163.452960237    97.6013   6  10   0.0374   0.0335   0.1231  -0.0097   0.0207  -0.0341   6.00    0.0
2018/11/05 01:26:15.000  -74.393390324  163.452959678    97.5780   6  11   0.0392   0.0375   0.1305  -0.0035   0.0101  -0.0256   6.00    0.0
2018/11/05 01:26:30.000  -74.393390309  163.452959541    97.5713   6  11   0.0431   0.0422   0.1442   0.0008  -0.0046  -0.0240   6.00    0.0
2018/11/05 01:26:45.000  -74.393390275  163.452959398    97.5512   6  11   0.0474   0.0470   0.1607   0.0022  -0.0111  -0.0250   6.00    0.0
2018/11/05 01:27:00.000  -74.393390325  163.452959246    97.5560   6  11   0.0520   0.0519   0.1784   0.0024  -0.0152  -0.0271   6.00    0.0
2018/11/05 01:27:15.000  -74.393390262  163.452959646    97.5750   6  11   0.0567   0.0569   0.1967   0.0022  -0.0188  -0.0298   6.00    0.0
2018/11/05 01:27:30.000  -74.393390338  163.452959406    97.5562   6  11   0.0616   0.0619   0.2155   0.0016  -0.0222  -0.0329   6.00    0.0
2018/11/05 01:27:45.000  -74.393390246  163.452959371    97.5683   6  11   0.0566   0.0569   0.1969   0.0035  -0.0212  -0.0295   6.00    0.0
2018/11/05 01:28:00.000  -74.393390189  163.452959720    97.5327   6  11   0.0517   0.0519   0.1780   0.0047  -0.0197  -0.0259   6.00    0.0
2018/11/05 01:28:15.000  -74.393390093  163.452959728    97.4947   6  11   0.0469   0.0469   0.1593   0.0055  -0.0181  -0.0222   6.00    0.0
2018/11/05 01:28:30.000  -74.393390182  163.452959841    97.4807   6  11   0.0422   0.0420   0.1407   0.0060  -0.0164  -0.0182   6.00    0.0
2018/11/05 01:28:45.000  -74.393390348  163.452960267    97.5135   6  11   0.0377   0.0372   0.1224   0.0062  -0.0147  -0.0140   6.00    0.0
2018/11/05 01:29:00.000  -74.393390367  163.452960673    97.5555   6  11   0.0333   0.0325   0.1045   0.0064  -0.0130  -0.0091   6.00    0.0
2018/11/05 01:29:15.000  -74.393390351  163.452961001    97.5493   6  11   0.0292   0.0281   0.0876   0.0065  -0.0113   0.0025   6.00    0.0
2018/11/05 01:29:30.000  -74.393390346  163.452961344    97.5364   6  11   0.0256   0.0241   0.0723   0.0066  -0.0097   0.0087   6.00    0.0
2018/11/05 01:29:45.000  -74.393390375  163.452961424    97.5030   6  11   0.0229   0.0209   0.0605   0.0066  -0.0087   0.0114   6.00    0.0
2018/11/05 01:30:00.000  -74.393390364  163.452961691    97.5110   6  11   0.0215   0.0194   0.0554   0.0068  -0.0089   0.0132   6.00    0.0
2018/11/05 01:30:15.000  -74.393390313  163.452961509    97.5342   6  11   0.0230   0.0208   0.0633   0.0064  -0.0106   0.0139   6.00    0.0
2018/11/05 01:30:30.000  -74.393390310  163.452961115    97.5531   6  12   0.0253   0.0235   0.0760   0.0047  -0.0162   0.0116   6.00    0.0
2018/11/05 01:30:45.000  -74.393390254  163.452960606    97.5651   6  12   0.0287   0.0271   0.0935   0.0027  -0.0216   0.0100   7.00    0.0
2018/11/05 01:31:00.000  -74.393390234  163.452960236    97.5599   6  12   0.0326   0.0314   0.1169  -0.0038  -0.0286   0.0091   7.00    0.0
2018/11/05 01:31:15.000  -74.393390286  163.452960089    97.5416   6  12   0.0367   0.0355   0.1352   0.0017  -0.0320  -0.0225   0.00    0.0
2018/11/05 01:31:30.000  -74.393390263  163.452959960    97.5441   6  12   0.0410   0.0398   0.1465  -0.0046  -0.0347  -0.0260   0.00    0.0
2018/11/05 01:31:45.000  -74.393390203  163.452960010    97.5535   6  12   0.0455   0.0443   0.1613  -0.0068  -0.0384  -0.0304   0.00    0.0
2018/11/05 01:32:00.000  -74.393390220  163.452959841    97.5284   6  12   0.0502   0.0489   0.1776  -0.0086  -0.0426  -0.0352   2.00    0.0
2018/11/05 01:32:15.000  -74.393390298  163.452959966    97.5397   6  12   0.0549   0.0536   0.1949  -0.0103  -0.0470  -0.0401   4.00    0.0
2018/11/05 01:32:30.000  -74.393390343  163.452960385    97.5481   6  12   0.0598   0.0583   0.2126  -0.0119  -0.0516  -0.0450   4.00    0.0
2018/11/05 01:32:45.000  -74.393390370  163.452960458    97.5419   6  12   0.0550   0.0536   0.1946  -0.0099  -0.0468  -0.0403   5.00    0.0
2018/11/05 01:33:00.000  -74.393390275  163.452960496    97.5309   6  12   0.0503   0.0489   0.1765  -0.0079  -0.0423  -0.0355   5.00    0.0
2018/11/05 01:33:15.000  -74.393390209  163.452960581    97.5159   6  12   0.0456   0.0442   0.1586  -0.0059  -0.0378  -0.0307   5.00    0.0
2018/11/05 01:33:30.000  -74.393390145  163.452960070    97.5259   6  12   0.0411   0.0396   0.1409  -0.0034  -0.0333  -0.0258   5.00    0.0
2018/11/05 01:33:45.000  -74.393390123  163.452960177    97.5140   6  12   0.0366   0.0352   0.1235   0.0026  -0.0288  -0.0207   6.00    0.0
2018/11/05 01:34:00.000  -74.393390219  163.452960600    97.5585   6  12   0.0325   0.0309   0.1068   0.0044  -0.0244  -0.0153   5.00    0.0
2018/11/05 01:34:15.000  -74.393390250  163.452961076    97.5693   6  12   0.0286   0.0269   0.0913   0.0054  -0.0203  -0.0089   6.00    0.0
2018/11/05 01:34:30.000  -74.393390343  163.452961198    97.5736   6  12   0.0253   0.0233   0.0782   0.0059  -0.0168   0.0068   6.00    0.0
2018/11/05 01:34:45.000  -74.393390415  163.452961426    97.5737   6  12   0.0229   0.0206   0.0707   0.0060  -0.0151   0.0133   5.00    0.0
2018/11/05 01:35:00.000  -74.393390479  163.452961443    97.5208   6  12   0.0217   0.0192   0.0659   0.0062  -0.0139   0.0122   0.00    0.0
2018/11/05 01:35:15.000  -74.393390496  163.452961356    97.5596   6  12   0.0227   0.0204   0.0617   0.0071  -0.0107  -0.0005   0.00    0.0
2018/11/05 01:35:30.000  -74.393390464  163.452961255    97.5189   6  12   0.0252   0.0231   0.0711   0.0067  -0.0139  -0.0042   0.00    0.0
2018/11/05 01:35:45.000  -74.393390360  163.452960619    97.5460   6  12   0.0285   0.0266   0.0850   0.0063  -0.0181  -0.0101   0.00    0.0
2018/11/05 01:36:00.000  -74.393390336  163.452960241    97.6055   6  12   0.0323   0.0306   0.1011   0.0056  -0.0226  -0.0155   3.00    0.0
2018/11/05 01:36:15.000  -74.393390296  163.452959743    97.6213   6  12   0.0365   0.0349   0.1184   0.0047  -0.0274  -0.0209   4.00    0.0
2018/11/05 01:36:30.000  -74.393390229  163.452959463    97.6305   6  12   0.0409   0.0393   0.1364   0.0030  -0.0324  -0.0262   6.00    0.0
2018/11/05 01:36:45.000  -74.393390208  163.452959363    97.6267   6  12   0.0455   0.0438   0.1549  -0.0027  -0.0374  -0.0315   6.00    0.0
2018/11/05 01:37:00.000  -74.393390203  163.452959440    97.6441   6  12   0.0502   0.0485   0.1737  -0.0051  -0.0425  -0.0367   5.00    0.0
2018/11/05 01:37:15.000  -74.393390145  163.452959638    97.6203   6  12   0.0549   0.0532   0.1927  -0.0070  -0.0477  -0.0419   6.00    0.0
2018/11/05 01:37:30.000  -74.393390180  163.452959693    97.6244   6  12   0.0598   0.0580   0.2119  -0.0086  -0.0529  -0.0471   6.00    0.0
2018/11/05 01:37:45.000  -74.393390136  163.452960176    97.6282   6  12   0.0550   0.0533   0.1929  -0.0072  -0.0480  -0.0415   6.00    0.0
2018/11/05 01:38:00.000  -74.393390095  163.452960254    97.6160   6  12   0.0502   0.0486   0.1741  -0.0049  -0.0430  -0.0364   6.00    0.0
2018/11/05 01:38:15.000  -74.393390102  163.452960158    97.5896   6  12   0.0455   0.0439   0.1554   0.0005  -0.0380  -0.0311   6.00    0.0
2018/11/05 01:38:30.000  -74.393390165  163.452960311    97.5730   6  12   0.0410   0.0394   0.1370   0.0047  -0.0329  -0.0256   6.00    0.0
2018/11/05 01:38:45.000  -74.393390138  163.452960270    97.5476   6  12   0.0367   0.0352   0.1190   0.0065  -0.0275  -0.0197   6.00    0.0
2018/11/05 01:39:00.000  -74.393390221  163.452960336    97.5742   6  12   0.0327   0.0313   0.1019   0.0085  -0.0213  -0.0120   6.00    0.0
2018/11/05 01:39:15.000  -74.393390221  163.452960670    97.5788   6  12   0.0284   0.0264   0.0840   0.0062  -0.0193  -0.0093   5.00    0.0
2018/11/05 01:39:30.000  -74.393390322  163.452960653    97.5563   6  12   0.0250   0.0228   0.0686   0.0065  -0.0154   0.0029   5.00    0.0
2018/11/05 01:39:45.000  -74.393390324  163.452960941    97.5613   6  12   0.0224   0.0201   0.0566   0.0069  -0.0119   0.0080   5.00    0.0
2018/11/05 01:40:00.000  -74.393390300  163.452960955    97.5875   6  12   0.0213   0.0188   0.0506   0.0071  -0.0101   0.0097   5.00    0.0
2018/11/05 01:40:15.000  -74.393390254  163.452960867    97.6022   6  12   0.0224   0.0201   0.0560   0.0069  -0.0119   0.0088   5.00    0.0
2018/11/05 01:40:30.000  -74.393390268  163.452960687    97.6060   6  12   0.0249   0.0228   0.0677   0.0066  -0.0154   0.0045   6.00    0.0
2018/11/05 01:40:45.000  -74.393390283  163.452960522    97.5912   6  12   0.0282   0.0262   0.0827   0.0062  -0.0198  -0.0092   5.00    0.0
2018/11/05 01:41:00.000  -74.393390269  163.452960069    97.5572   6  12   0.0320   0.0302   0.0996   0.0057  -0.0245  -0.0155   5.00    0.0
2018/11/05 01:41:15.000  -74.393390288  163.452960059    97.5391   6  12   0.0362   0.0344   0.1175   0.0050  -0.0295  -0.0212   6.00    0.0
2018/11/05 01:41:30.000  -74.393390341  163.452960427    97.5440   6  12   0.0406   0.0388   0.1360   0.0040  -0.0346  -0.0266   5.00    0.0
2018/11/05 01:41:45.000  -74.393390407  163.452960229    97.6004   6  12   0.0452   0.0434   0.1549   0.0020  -0.0398  -0.0320   6.00    0.0
2018/11/05 01:42:00.000  -74.393390289  163.452959888    97.6210   6  12   0.0499   0.0481   0.1739  -0.0031  -0.0451  -0.0373   6.00    0.0
2018/11/05 01:42:15.000  -74.393390315  163.452959623    97.6422   6  12   0.0547   0.0529   0.1932  -0.0050  -0.0504  -0.0425   6.00    0.0
2018/11/05 01:42:30.000  -74.393390231  163.452959681    97.6636   6  12   0.0596   0.0577   0.2125  -0.0065  -0.0557  -0.0477   6.00    0.0
2018/11/05 01:42:45.000  -74.393390207  163.452959531    97.6976   6  12   0.0549   0.0529   0.1934  -0.0046  -0.0508  -0.0431   5.00    0.0
2018/11/05 01:43:00.000  -74.393390187  163.452959521    97.6885   6  12   0.0501   0.0482   0.1741  -0.0017  -0.0456  -0.0379   6.00    0.0
2018/11/05 01:43:15.000  -74.393390214  163.452959421    97.7178   6  12   0.0454   0.0435   0.1550   0.0035  -0.0405  -0.0326   6.00    0.0
2018/11/05 01:43:30.000  -74.393390211  163.452959981    97.6912   6  12   0.0408   0.0389   0.1362   0.0049  -0.0355  -0.0273   6.00    0.0
2018/11/05 01:43:45.000  -74.393390264  163.452960294    97.6297   6  12   0.0363   0.0345   0.1177   0.0057  -0.0305  -0.0218   6.00    0.0
2018/11/05 01:44:00.000  -74.393390331  163.452960119    97.5940   6  12   0.0321   0.0302   0.0999   0.0062  -0.0256  -0.0162   6.00    0.0
2018/11/05 01:44:15.000  -74.393390354  163.452960377    97.6088   6  12   0.0282   0.0263   0.0830   0.0067  -0.0211  -0.0101   6.00    0.0
2018/11/05 01:44:30.000  -74.393390358  163.452960701    97.6061   6  12   0.0249   0.0229   0.0681   0.0069  -0.0168   0.0030   6.00    0.0
