% program   : RTKLIB ver.2.4.3
% inp file  : _by_type/_obs/hillary/20181112_20181114.18o
% inp file  : _by_type/_sp3+clk/igs20271.clk
% inp file  : _by_type/_sp3+clk/igs20271.sp3
% inp file  : _by_type/_nav/hillary/20181112_20181114.18n
% obs start : 2018/11/12 00:00:00.0 GPST (week2027  86400.0s)
% obs end   : 2018/11/14 23:59:45.0 GPST (week2027 345585.0s)
% pos mode  : ppp-kinematic
% solution  : combined
% elev mask : 15.0 deg
% dynamics  : off
% tidecorr  : on
% tropo opt : est ztd+grad
% ephemeris : precise
% navi sys  : gps glonass
% antenna1  :                       ( 0.0000  0.0000  0.0000)
%
% (lat/lon/height=WGS84/ellipsoidal,Q=1:fix,2:float,3:sbas,4:dgps,5:single,6:ppp,ns=# of satellites)
%  GPST                  latitude(deg) longitude(deg)  height(m)   Q  ns   sdn(m)   sde(m)   sdu(m)  sdne(m)  sdeu(m)  sdun(m) age(s)  ratio
2018/11/12 00:00:00.000  -74.393415703  163.452925666    97.4919   6  10   0.0273   0.0322   0.1177  -0.0211   0.0457  -0.0338   0.00    0.0
2018/11/12 00:00:15.000  -74.393415671  163.452925788    97.4765   6  10   0.0300   0.0364   0.1391  -0.0233   0.0548  -0.0384   0.00    0.0
2018/11/12 00:00:30.000  -74.393415556  163.452925529    97.4094   6  10   0.0353   0.0435   0.1744  -0.0270   0.0687  -0.0450   0.00    0.0
2018/11/12 00:00:45.000  -74.393415451  163.452925202    97.3834   6  10   0.0420   0.0521   0.2078  -0.0318   0.0831  -0.0555   0.00    0.0
2018/11/12 00:01:00.000  -74.393415407  163.452925032    97.3404   6  10   0.0499   0.0617   0.2524  -0.0368   0.0999  -0.0636   0.00    0.0
2018/11/12 00:01:15.000  -74.393415519  163.452925143    97.4073   6  10   0.0583   0.0717   0.2930  -0.0425   0.1162  -0.0740   0.00    0.0
2018/11/12 00:01:30.000  -74.393415702  163.452924984    97.4379   6  10   0.0668   0.0803   0.2823  -0.0504   0.1204  -0.0936   0.00    0.0
2018/11/12 00:01:45.000  -74.393415620  163.452924348    97.3945   6  10   0.0762   0.0925   0.3284  -0.0582   0.1412  -0.1091   0.00    0.0
2018/11/12 00:02:00.000  -74.393415594  163.452924089    97.3149   6  10   0.0865   0.1072   0.3847  -0.0681   0.1679  -0.1289   0.00    0.0
2018/11/12 00:02:15.000  -74.393415384  163.452923170    97.1872   6  10   0.0999   0.1301   0.4757  -0.0851   0.2142  -0.1628   0.00    0.0
2018/11/12 00:02:30.000  -74.393415622  163.452924409    97.3258   6  10   0.0967   0.1069   0.3700  -0.0624   0.1427  -0.1134   0.00    0.0
2018/11/12 00:02:45.000  -74.393415454  163.452924572    97.3763   6  10   0.0906   0.1004   0.3355  -0.0612   0.1275  -0.1007   1.00    0.0
2018/11/12 00:03:00.000  -74.393415449  163.452924949    97.3729   6  10   0.0778   0.0852   0.3027  -0.0478   0.1171  -0.0932   1.00    0.0
2018/11/12 00:03:15.000  -74.393415647  163.452925423    97.4366   6  10   0.0697   0.0762   0.2703  -0.0430   0.1044  -0.0834   1.00    0.0
2018/11/12 00:03:30.000  -74.393415631  163.452925397    97.3968   6  10   0.0616   0.0674   0.2378  -0.0383   0.0917  -0.0736   3.00    0.0
2018/11/12 00:03:45.000  -74.393415728  163.452925968    97.4312   6  10   0.0537   0.0586   0.2054  -0.0337   0.0789  -0.0638   4.00    0.0
2018/11/12 00:04:00.000  -74.393415838  163.452926431    97.5065   6  10   0.0461   0.0500   0.1734  -0.0292   0.0661  -0.0541   6.00    0.0
2018/11/12 00:04:15.000  -74.393415874  163.452926487    97.5524   6  10   0.0389   0.0419   0.1426  -0.0250   0.0535  -0.0448   6.00    0.0
2018/11/12 00:04:30.000  -74.393415799  163.452926449    97.5518   1  10   0.0314   0.0295   0.1126  -0.0173   0.0419  -0.0381   5.00    2.0
2018/11/12 00:04:45.000  -74.393415732  163.452926484    97.5274   1  10   0.0279   0.0272   0.0896  -0.0183   0.0278  -0.0293   5.00    1.0
2018/11/12 00:05:00.000  -74.393415825  163.452926246    97.5426   1  10   0.0256   0.0244   0.0776  -0.0172   0.0212  -0.0258   5.00    1.0
2018/11/12 00:05:15.000  -74.393415886  163.452926069    97.5070   1  10   0.0283   0.0282   0.0901  -0.0191   0.0286  -0.0298   5.00    1.0
2018/11/12 00:05:30.000  -74.393415872  163.452925727    97.4737   6  11   0.0324   0.0350   0.1140  -0.0216   0.0429  -0.0386   6.00    0.0
2018/11/12 00:05:45.000  -74.393415758  163.452925235    97.3949   6  11   0.0384   0.0422   0.1419  -0.0253   0.0551  -0.0479   5.00    0.0
2018/11/12 00:06:00.000  -74.393415698  163.452924865    97.3456   6  11   0.0451   0.0502   0.1724  -0.0292   0.0677  -0.0577   5.00    0.0
2018/11/12 00:06:15.000  -74.393415620  163.452924388    97.3106   6  11   0.0522   0.0583   0.2047  -0.0332   0.0804  -0.0671   5.00    0.0
2018/11/12 00:06:30.000  -74.393415500  163.452923852    97.2340   6  11   0.0596   0.0666   0.2421  -0.0368   0.0938  -0.0747   5.00    0.0
2018/11/12 00:06:45.000  -74.393415489  163.452924281    97.3012   6  11   0.0661   0.0743   0.2537  -0.0415   0.1018  -0.0893   0.00    0.0
2018/11/12 00:07:00.000  -74.393415304  163.452924006    97.2343   6  11   0.0730   0.0820   0.2819  -0.0452   0.1127  -0.0987   0.00    0.0
2018/11/12 00:07:15.000  -74.393415244  163.452923925    97.2171   6  11   0.0798   0.0896   0.3095  -0.0489   0.1233  -0.1078   0.00    0.0
2018/11/12 00:07:30.000  -74.393415251  163.452924201    97.2361   6  11   0.0865   0.0970   0.3365  -0.0524   0.1336  -0.1166   0.00    0.0
2018/11/12 00:07:45.000  -74.393415286  163.452924274    97.2206   6  11   0.0800   0.0904   0.3142  -0.0495   0.1255  -0.1094   2.00    0.0
2018/11/12 00:08:00.000  -74.393415402  163.452924113    97.2215   6  11   0.0731   0.0826   0.2871  -0.0459   0.1150  -0.1004   4.00    0.0
2018/11/12 00:08:15.000  -74.393415597  163.452925290    97.3347   6  11   0.0662   0.0749   0.2593  -0.0422   0.1041  -0.0911   4.00    0.0
2018/11/12 00:08:30.000  -74.393415700  163.452925600    97.4157   6  11   0.0593   0.0671   0.2310  -0.0386   0.0931  -0.0816   4.00    0.0
2018/11/12 00:08:45.000  -74.393415654  163.452926038    97.4415   6  11   0.0527   0.0594   0.2021  -0.0353   0.0818  -0.0722   4.00    0.0
2018/11/12 00:09:00.000  -74.393415601  163.452925984    97.4344   6  11   0.0470   0.0526   0.1733  -0.0330   0.0710  -0.0633   4.00    0.0
2018/11/12 00:09:15.000  -74.393415564  163.452926179    97.4445   6  11   0.0382   0.0425   0.1431  -0.0256   0.0568  -0.0512   3.00    0.0
2018/11/12 00:09:30.000  -74.393415603  163.452926508    97.4982   6  11   0.0325   0.0353   0.1157  -0.0221   0.0450  -0.0419   3.00    0.0
2018/11/12 00:09:45.000  -74.393415658  163.452926404    97.5215   6  11   0.0280   0.0296   0.0926  -0.0192   0.0345  -0.0343   3.00    0.0
2018/11/12 00:10:00.000  -74.393415851  163.452925894    97.5222   6  11   0.0259   0.0265   0.0794  -0.0176   0.0276  -0.0301   4.00    0.0
2018/11/12 00:10:15.000  -74.393415982  163.452925203    97.4882   6  11   0.0282   0.0297   0.0928  -0.0191   0.0344  -0.0347   4.00    0.0
2018/11/12 00:10:30.000  -74.393416024  163.452924525    97.4874   6  11   0.0327   0.0353   0.1154  -0.0217   0.0445  -0.0421   3.00    0.0
2018/11/12 00:10:45.000  -74.393416034  163.452924868    97.5545   6  11   0.0383   0.0422   0.1416  -0.0247   0.0554  -0.0507   4.00    0.0
2018/11/12 00:11:00.000  -74.393416012  163.452925029    97.5778   6  11   0.0446   0.0496   0.1689  -0.0277   0.0662  -0.0596   3.00    0.0
2018/11/12 00:11:15.000  -74.393415808  163.452924552    97.4972   6  11   0.0514   0.0572   0.1962  -0.0305   0.0766  -0.0686   3.00    0.0
2018/11/12 00:11:30.000  -74.393415721  163.452924929    97.5034   6  11   0.0588   0.0651   0.2234  -0.0324   0.0863  -0.0780   3.00    0.0
2018/11/12 00:11:45.000  -74.393415661  163.452924444    97.4690   6  11   0.0655   0.0725   0.2497  -0.0352   0.0962  -0.0864   3.00    0.0
2018/11/12 00:12:00.000  -74.393415655  163.452924589    97.5044   6  11   0.0710   0.0794   0.2752  -0.0395   0.1066  -0.0937   5.00    0.0
2018/11/12 00:12:15.000  -74.393415622  163.452924633    97.4934   6  11   0.0784   0.0870   0.3012  -0.0410   0.1157  -0.1028   4.00    0.0
2018/11/12 00:12:30.000  -74.393415486  163.452924568    97.4433   6  11   0.0820   0.0928   0.3258  -0.0477   0.1269  -0.1087   4.00    0.0
2018/11/12 00:12:45.000  -74.393415552  163.452925122    97.4975   6  11   0.0757   0.0855   0.3003  -0.0443   0.1171  -0.1005   4.00    0.0
2018/11/12 00:13:00.000  -74.393415572  163.452924949    97.4923   6  11   0.0692   0.0782   0.2746  -0.0409   0.1071  -0.0921   4.00    0.0
2018/11/12 00:13:15.000  -74.393415723  163.452924520    97.4902   6  11   0.0627   0.0709   0.2485  -0.0376   0.0971  -0.0837   4.00    0.0
2018/11/12 00:13:30.000  -74.393415853  163.452924794    97.5378   6  11   0.0562   0.0635   0.2220  -0.0343   0.0869  -0.0752   4.00    0.0
2018/11/12 00:13:45.000  -74.393415944  163.452925065    97.5430   6  11   0.0498   0.0560   0.1952  -0.0310   0.0765  -0.0667   4.00    0.0
2018/11/12 00:14:00.000  -74.393415930  163.452925470    97.5466   6  11   0.0434   0.0486   0.1680  -0.0278   0.0658  -0.0580   5.00    0.0
2018/11/12 00:14:15.000  -74.393415903  163.452925489    97.5067   6  11   0.0373   0.0414   0.1409  -0.0246   0.0550  -0.0493   5.00    0.0
2018/11/12 00:14:30.000  -74.393416042  163.452926474    97.6058   1  11   0.0324   0.0319   0.1217  -0.0202   0.0488  -0.0452   5.00    1.0
2018/11/12 00:14:45.000  -74.393415998  163.452926123    97.5600   1  11   0.0275   0.0250   0.0972  -0.0165   0.0382  -0.0369   4.00    1.0
2018/11/12 00:15:00.000  -74.393416026  163.452926243    97.5747   1  11   0.0247   0.0211   0.0832  -0.0142   0.0316  -0.0320   5.00    1.0
2018/11/12 00:15:15.000  -74.393415878  163.452925681    97.4932   1  11   0.0279   0.0264   0.0980  -0.0175   0.0388  -0.0377   4.00    1.0
2018/11/12 00:15:30.000  -74.393415819  163.452926133    97.4838   1  11   0.0329   0.0355   0.1231  -0.0217   0.0503  -0.0468   4.00    2.0
2018/11/12 00:15:45.000  -74.393415627  163.452925111    97.3676   6  11   0.0370   0.0443   0.1366  -0.0247   0.0524  -0.0471   4.00    0.0
2018/11/12 00:16:00.000  -74.393415611  163.452924575    97.3278   6  11   0.0426   0.0473   0.1609  -0.0263   0.0621  -0.0542   4.00    0.0
2018/11/12 00:16:15.000  -74.393415616  163.452924109    97.2725   6  11   0.0485   0.0542   0.1853  -0.0289   0.0714  -0.0614   4.00    0.0
2018/11/12 00:16:30.000  -74.393415685  163.452923614    97.2577   6  11   0.0545   0.0613   0.2099  -0.0316   0.0807  -0.0686   4.00    0.0
2018/11/12 00:16:45.000  -74.393415642  163.452923057    97.2254   6  11   0.0605   0.0682   0.2344  -0.0345   0.0900  -0.0760   4.00    0.0
2018/11/12 00:17:00.000  -74.393415568  163.452922998    97.1919   6  11   0.0665   0.0752   0.2590  -0.0375   0.0995  -0.0836   5.00    0.0
2018/11/12 00:17:15.000  -74.393415613  163.452922819    97.1768   6  11   0.0725   0.0820   0.2837  -0.0406   0.1090  -0.0914   5.00    0.0
2018/11/12 00:17:30.000  -74.393415674  163.452922988    97.1953   6  11   0.0784   0.0888   0.3083  -0.0439   0.1186  -0.0993   5.00    0.0
2018/11/12 00:17:45.000  -74.393415648  163.452923006    97.2184   6  11   0.0721   0.0818   0.2824  -0.0404   0.1083  -0.0905   5.00    0.0
2018/11/12 00:18:00.000  -74.393415812  163.452923872    97.3337   6  11   0.0660   0.0747   0.2574  -0.0372   0.0984  -0.0823   5.00    0.0
2018/11/12 00:18:15.000  -74.393415770  163.452923706    97.3484   6  11   0.0600   0.0677   0.2326  -0.0342   0.0885  -0.0744   5.00    0.0
2018/11/12 00:18:30.000  -74.393415803  163.452923622    97.3461   6  11   0.0541   0.0608   0.2078  -0.0316   0.0787  -0.0666   5.00    0.0
2018/11/12 00:18:45.000  -74.393415805  163.452923664    97.3284   6  11   0.0488   0.0542   0.1834  -0.0298   0.0686  -0.0585   5.00    0.0
2018/11/12 00:19:00.000  -74.393415832  163.452924047    97.3327   6  11   0.0421   0.0466   0.1589  -0.0258   0.0601  -0.0525   5.00    0.0
2018/11/12 00:19:15.000  -74.393415852  163.452924598    97.3939   6  11   0.0370   0.0401   0.1353  -0.0239   0.0504  -0.0452   5.00    0.0
2018/11/12 00:19:30.000  -74.393415997  163.452925866    97.5482   1  11   0.0328   0.0321   0.1243  -0.0207   0.0502  -0.0477   5.00    2.0
2018/11/12 00:19:45.000  -74.393415991  163.452925989    97.5394   1  11   0.0284   0.0257   0.1019  -0.0179   0.0405  -0.0403   5.00    1.0
2018/11/12 00:20:00.000  -74.393415888  163.452925552    97.5141   6  11   0.0254   0.0251   0.0835  -0.0172   0.0286  -0.0304   5.00    0.0
2018/11/12 00:20:15.000  -74.393415979  163.452925220    97.5485   6  11   0.0274   0.0277   0.0950  -0.0183   0.0334  -0.0340   5.00    0.0
2018/11/12 00:20:30.000  -74.393416010  163.452925037    97.5226   6  11   0.0311   0.0326   0.1129  -0.0198   0.0405  -0.0387   5.00    0.0
2018/11/12 00:20:45.000  -74.393416025  163.452924844    97.5196   6  11   0.0357   0.0387   0.1334  -0.0217   0.0483  -0.0437   5.00    0.0
2018/11/12 00:21:00.000  -74.393416089  163.452924781    97.5333   6  11   0.0410   0.0452   0.1553  -0.0237   0.0564  -0.0491   5.00    0.0
2018/11/12 00:21:15.000  -74.393416084  163.452924752    97.5231   6  11   0.0465   0.0519   0.1781  -0.0260   0.0648  -0.0549   5.00    0.0
2018/11/12 00:21:30.000  -74.393416195  163.452924940    97.5666   6  11   0.0522   0.0587   0.2017  -0.0286   0.0734  -0.0610   5.00    0.0
2018/11/12 00:21:45.000  -74.393416168  163.452924550    97.5503   6  11   0.0580   0.0655   0.2259  -0.0313   0.0820  -0.0674   5.00    0.0
2018/11/12 00:22:00.000  -74.393416261  163.452924549    97.5500   6  11   0.0638   0.0723   0.2515  -0.0343   0.0904  -0.0736   5.00    0.0
2018/11/12 00:22:15.000  -74.393416393  163.452924096    97.5403   6  11   0.0698   0.0791   0.2815  -0.0378   0.0979  -0.0787   5.00    0.0
2018/11/12 00:22:30.000  -74.393416303  163.452923229    97.4791   6  11   0.0752   0.0854   0.3042  -0.0404   0.1091  -0.0892   0.00    0.0
2018/11/12 00:22:45.000  -74.393416260  163.452923098    97.4530   6  11   0.0697   0.0789   0.2855  -0.0375   0.0978  -0.0789   0.00    0.0
2018/11/12 00:23:00.000  -74.393416188  163.452923119    97.4580   6  11   0.0635   0.0719   0.2539  -0.0337   0.0904  -0.0742   0.00    0.0
2018/11/12 00:23:15.000  -74.393416169  163.452923594    97.4735   6  11   0.0579   0.0652   0.2354  -0.0310   0.0793  -0.0646   0.00    0.0
2018/11/12 00:23:30.000  -74.393416096  163.452923891    97.4677   6  11   0.0519   0.0581   0.2044  -0.0278   0.0723  -0.0605   0.00    0.0
2018/11/12 00:23:45.000  -74.393416081  163.452924467    97.4978   6  11   0.0463   0.0514   0.1866  -0.0255   0.0620  -0.0523   0.00    0.0
2018/11/12 00:24:00.000  -74.393416095  163.452925153    97.5262   6  11   0.0406   0.0444   0.1536  -0.0227   0.0560  -0.0498   0.00    0.0
2018/11/12 00:24:15.000  -74.393415982  163.452925164    97.4719   6  11   0.0355   0.0379   0.1326  -0.0208   0.0477  -0.0444   0.00    0.0
2018/11/12 00:24:30.000  -74.393416140  163.452926091    97.5551   1  11   0.0346   0.0328   0.1294  -0.0223   0.0518  -0.0513   4.00    1.0
2018/11/12 00:24:45.000  -74.393416141  163.452926218    97.5571   1  11   0.0304   0.0266   0.1096  -0.0198   0.0438  -0.0454   4.00    1.0
2018/11/12 00:25:00.000  -74.393416116  163.452926284    97.5619   1  11   0.0284   0.0233   0.0986  -0.0184   0.0392  -0.0420   4.00    1.0
2018/11/12 00:25:15.000  -74.393416005  163.452925386    97.5016   6  11   0.0281   0.0269   0.1029  -0.0178   0.0335  -0.0373   5.00    0.0
2018/11/12 00:25:30.000  -74.393416006  163.452925235    97.4922   6  11   0.0317   0.0317   0.1190  -0.0191   0.0398  -0.0417   5.00    0.0
2018/11/12 00:25:45.000  -74.393415863  163.452924486    97.4203   6  11   0.0361   0.0374   0.1366  -0.0205   0.0467  -0.0461   6.00    0.0
2018/11/12 00:26:00.000  -74.393415769  163.452924303    97.3637   6  11   0.0410   0.0437   0.1554  -0.0222   0.0542  -0.0506   6.00    0.0
2018/11/12 00:26:15.000  -74.393415746  163.452924136    97.3470   6  11   0.0461   0.0501   0.1750  -0.0240   0.0619  -0.0556   5.00    0.0
2018/11/12 00:26:30.000  -74.393415740  163.452923947    97.3315   6  11   0.0514   0.0566   0.1952  -0.0262   0.0700  -0.0610   6.00    0.0
2018/11/12 00:26:45.000  -74.393415667  163.452923721    97.3149   6  11   0.0568   0.0630   0.2158  -0.0286   0.0782  -0.0667   6.00    0.0
2018/11/12 00:27:00.000  -74.393415820  163.452923749    97.3484   6  11   0.0622   0.0694   0.2367  -0.0311   0.0865  -0.0729   6.00    0.0
2018/11/12 00:27:15.000  -74.393415947  163.452923179    97.3837   6  11   0.0677   0.0758   0.2578  -0.0338   0.0949  -0.0793   6.00    0.0
2018/11/12 00:27:30.000  -74.393416050  163.452923271    97.4062   6  11   0.0731   0.0821   0.2789  -0.0366   0.1033  -0.0859   6.00    0.0
2018/11/12 00:27:45.000  -74.393416048  163.452923292    97.3930   6  11   0.0677   0.0756   0.2572  -0.0336   0.0944  -0.0793   6.00    0.0
2018/11/12 00:28:00.000  -74.393415971  163.452923273    97.3547   6  11   0.0621   0.0690   0.2355  -0.0307   0.0854  -0.0725   6.00    0.0
2018/11/12 00:28:15.000  -74.393416037  163.452923907    97.3743   6  11   0.0567   0.0624   0.2146  -0.0279   0.0767  -0.0663   6.00    0.0
2018/11/12 00:28:30.000  -74.393416066  163.452924094    97.3681   6  11   0.0513   0.0559   0.1947  -0.0254   0.0681  -0.0605   6.00    0.0
2018/11/12 00:28:45.000  -74.393416080  163.452924371    97.3576   6  11   0.0462   0.0493   0.1762  -0.0233   0.0599  -0.0555   6.00    0.0
2018/11/12 00:29:00.000  -74.393416012  163.452924645    97.3752   6  11   0.0413   0.0429   0.1600  -0.0215   0.0520  -0.0512   6.00    0.0
2018/11/12 00:29:15.000  -74.393415994  163.452925116    97.4220   6  11   0.0370   0.0367   0.1486  -0.0201   0.0445  -0.0472   6.00    0.0
2018/11/12 00:29:30.000  -74.393415949  163.452924945    97.3800   6  11   0.0334   0.0310   0.1370  -0.0191   0.0396  -0.0470   0.00    0.0
2018/11/12 00:29:45.000  -74.393415952  163.452925022    97.3966   6  11   0.0310   0.0264   0.1298  -0.0183   0.0356  -0.0475   0.00    0.0
2018/11/12 00:30:00.000  -74.393416044  163.452925754    97.5034   6  10   0.0284   0.0239   0.1122  -0.0172   0.0311  -0.0418   0.00    0.0
2018/11/12 00:30:15.000  -74.393416189  163.452926566    97.5813   6  10   0.0319   0.0266   0.1301  -0.0188   0.0368  -0.0490   0.00    0.0
2018/11/12 00:30:30.000  -74.393416202  163.452926867    97.5884   6  10   0.0386   0.0317   0.1582  -0.0217   0.0460  -0.0606   0.00    0.0
2018/11/12 00:30:45.000  -74.393416197  163.452926580    97.5809   6  10   0.0469   0.0380   0.1911  -0.0254   0.0568  -0.0744   3.00    0.0
2018/11/12 00:31:00.000  -74.393416347  163.452926464    97.6505   6  10   0.0562   0.0448   0.2265  -0.0295   0.0685  -0.0896   3.00    0.0
2018/11/12 00:31:15.000  -74.393416315  163.452926182    97.6881   6  10   0.0668   0.0519   0.2635  -0.0334   0.0807  -0.1055   4.00    0.0
2018/11/12 00:31:30.000  -74.393416325  163.452926009    97.7279   6  10   0.0772   0.0589   0.3016  -0.0381   0.0930  -0.1228   4.00    0.0
2018/11/12 00:31:45.000  -74.393416197  163.452925322    97.6382   6  10   0.0873   0.0658   0.3405  -0.0431   0.1053  -0.1402   5.00    0.0
2018/11/12 00:32:00.000  -74.393415969  163.452924933    97.5117   6  10   0.0975   0.0726   0.3807  -0.0482   0.1178  -0.1579   5.00    0.0
2018/11/12 00:32:15.000  -74.393415861  163.452924518    97.4686   6  10   0.1078   0.0794   0.4240  -0.0534   0.1305  -0.1764   5.00    0.0
2018/11/12 00:32:30.000  -74.393416026  163.452924119    97.4551   6  10   0.1139   0.0854   0.4776  -0.0619   0.1438  -0.1975   5.00    0.0
2018/11/12 00:32:45.000  -74.393416111  163.452924010    97.4336   6  10   0.1049   0.0786   0.4200  -0.0573   0.1316  -0.1811   0.00    0.0
2018/11/12 00:33:00.000  -74.393416128  163.452924024    97.4746   6  10   0.0936   0.0713   0.3708  -0.0507   0.1160  -0.1590   0.00    0.0
2018/11/12 00:33:15.000  -74.393416257  163.452924774    97.5231   6  10   0.0832   0.0642   0.3319  -0.0446   0.1018  -0.1403   0.00    0.0
2018/11/12 00:33:30.000  -74.393416383  163.452925595    97.6146   6  10   0.0734   0.0572   0.3031  -0.0389   0.0877  -0.1238   3.00    0.0
2018/11/12 00:33:45.000  -74.393416528  163.452925907    97.6737   6   9   0.0651   0.0504   0.2758  -0.0343   0.0771  -0.1117   3.00    0.0
2018/11/12 00:34:00.000  -74.393416337  163.452925726    97.5897   6   9   0.0554   0.0435   0.2326  -0.0293   0.0647  -0.0937   4.00    0.0
2018/11/12 00:34:15.000  -74.393416344  163.452925874    97.5884   6   9   0.0461   0.0368   0.1910  -0.0246   0.0529  -0.0766   3.00    0.0
2018/11/12 00:34:30.000  -74.393416344  163.452925806    97.6159   6   9   0.0376   0.0307   0.1526  -0.0206   0.0421  -0.0608   3.00    0.0
2018/11/12 00:34:45.000  -74.393416245  163.452925493    97.5336   6   9   0.0308   0.0257   0.1203  -0.0174   0.0331  -0.0475   4.00    0.0
2018/11/12 00:35:00.000  -74.393416269  163.452925979    97.5483   6   9   0.0272   0.0230   0.1020  -0.0155   0.0276  -0.0398   4.00    0.0
2018/11/12 00:35:15.000  -74.393416158  163.452925819    97.5341   6   9   0.0304   0.0257   0.1173  -0.0166   0.0309  -0.0461   4.00    0.0
2018/11/12 00:35:30.000  -74.393416149  163.452925777    97.5507   6   9   0.0368   0.0310   0.1466  -0.0186   0.0372  -0.0581   4.00    0.0
2018/11/12 00:35:45.000  -74.393416017  163.452925403    97.5397   6   9   0.0452   0.0378   0.1833  -0.0205   0.0440  -0.0735   4.00    0.0
2018/11/12 00:36:00.000  -74.393415882  163.452925146    97.5064   6   9   0.0538   0.0427   0.2214  -0.0260   0.0572  -0.0889   4.00    0.0
2018/11/12 00:36:15.000  -74.393415726  163.452924397    97.4170   6   9   0.0627   0.0491   0.2598  -0.0302   0.0677  -0.1048   4.00    0.0
2018/11/12 00:36:30.000  -74.393415754  163.452924151    97.4236   6  10   0.0583   0.0554   0.2226  -0.0324   0.0739  -0.0793   4.00    0.0
2018/11/12 00:36:45.000  -74.393415866  163.452923731    97.4475   6  10   0.0633   0.0613   0.2392  -0.0347   0.0799  -0.0829   4.00    0.0
2018/11/12 00:37:00.000  -74.393415941  163.452923694    97.4569   6  10   0.0690   0.0673   0.2595  -0.0376   0.0872  -0.0888   4.00    0.0
2018/11/12 00:37:15.000  -74.393415903  163.452924210    97.4910   6  10   0.0750   0.0734   0.2815  -0.0410   0.0952  -0.0959   4.00    0.0
2018/11/12 00:37:30.000  -74.393415976  163.452923984    97.5071   6  10   0.0811   0.0795   0.3044  -0.0445   0.1034  -0.1036   4.00    0.0
2018/11/12 00:37:45.000  -74.393416004  163.452923704    97.4563   6  10   0.0745   0.0731   0.2793  -0.0404   0.0939  -0.0944   5.00    0.0
2018/11/12 00:38:00.000  -74.393416077  163.452923858    97.4053   6  10   0.0679   0.0669   0.2540  -0.0364   0.0847  -0.0852   5.00    0.0
2018/11/12 00:38:15.000  -74.393416172  163.452924453    97.4701   6  10   0.0614   0.0609   0.2289  -0.0325   0.0756  -0.0763   5.00    0.0
2018/11/12 00:38:30.000  -74.393416213  163.452924869    97.5407   6  10   0.0549   0.0561   0.2039  -0.0288   0.0672  -0.0675   5.00    0.0
2018/11/12 00:38:45.000  -74.393416253  163.452925349    97.5286   6  10   0.0485   0.0469   0.1791  -0.0256   0.0573  -0.0593   4.00    0.0
2018/11/12 00:39:00.000  -74.393416334  163.452925381    97.5318   6  10   0.0421   0.0404   0.1548  -0.0223   0.0484  -0.0513   4.00    0.0
2018/11/12 00:39:15.000  -74.393416364  163.452925777    97.5497   6  10   0.0361   0.0342   0.1315  -0.0193   0.0401  -0.0440   4.00    0.0
2018/11/12 00:39:30.000  -74.393416456  163.452926661    97.5506   1  10   0.0332   0.0316   0.1200  -0.0210   0.0401  -0.0422   5.00    1.0
2018/11/12 00:39:45.000  -74.393416402  163.452926528    97.5297   1  10   0.0273   0.0260   0.0934  -0.0177   0.0311  -0.0320   5.00    1.0
2018/11/12 00:40:00.000  -74.393416374  163.452926222    97.5387   1  10   0.0242   0.0232   0.0774  -0.0161   0.0260  -0.0255   5.00    1.0
2018/11/12 00:40:15.000  -74.393416319  163.452926346    97.5349   1  10   0.0273   0.0260   0.0932  -0.0176   0.0308  -0.0318   5.00    1.0
2018/11/12 00:40:30.000  -74.393416364  163.452926940    97.6058   1  10   0.0331   0.0283   0.1173  -0.0203   0.0351  -0.0415   5.00    2.0
2018/11/12 00:40:45.000  -74.393416222  163.452926139    97.6288   6  10   0.0352   0.0336   0.1247  -0.0183   0.0372  -0.0406   5.00    0.0
2018/11/12 00:41:00.000  -74.393416224  163.452926163    97.6597   6  10   0.0410   0.0394   0.1463  -0.0208   0.0446  -0.0471   6.00    0.0
2018/11/12 00:41:15.000  -74.393416228  163.452926248    97.6562   6  10   0.0471   0.0454   0.1692  -0.0237   0.0524  -0.0544   5.00    0.0
2018/11/12 00:41:30.000  -74.393416103  163.452925455    97.6005   6  10   0.0533   0.0515   0.1930  -0.0268   0.0604  -0.0624   5.00    0.0
2018/11/12 00:41:45.000  -74.393416075  163.452925515    97.5937   6  10   0.0596   0.0575   0.2175  -0.0301   0.0685  -0.0708   5.00    0.0
2018/11/12 00:42:00.000  -74.393415983  163.452925230    97.5774   6  10   0.0659   0.0634   0.2423  -0.0336   0.0767  -0.0795   5.00    0.0
2018/11/12 00:42:15.000  -74.393415921  163.452925205    97.5380   6  10   0.0723   0.0693   0.2674  -0.0371   0.0848  -0.0885   5.00    0.0
2018/11/12 00:42:30.000  -74.393415975  163.452924824    97.4873   6  10   0.0787   0.0753   0.2927  -0.0407   0.0929  -0.0975   5.00    0.0
2018/11/12 00:42:45.000  -74.393416024  163.452924735    97.4780   6  10   0.0721   0.0690   0.2655  -0.0368   0.0838  -0.0874   5.00    0.0
2018/11/12 00:43:00.000  -74.393416032  163.452924945    97.4459   6  10   0.0656   0.0629   0.2403  -0.0331   0.0749  -0.0784   5.00    0.0
2018/11/12 00:43:15.000  -74.393416086  163.452925256    97.4507   6  10   0.0592   0.0567   0.2153  -0.0294   0.0662  -0.0695   5.00    0.0
2018/11/12 00:43:30.000  -74.393416074  163.452925061    97.4284   6  10   0.0529   0.0506   0.1906  -0.0259   0.0576  -0.0609   5.00    0.0
2018/11/12 00:43:45.000  -74.393416024  163.452924824    97.4172   6  10   0.0467   0.0445   0.1663  -0.0227   0.0492  -0.0527   5.00    0.0
2018/11/12 00:44:00.000  -74.393416079  163.452925271    97.4398   6  10   0.0406   0.0385   0.1427  -0.0197   0.0412  -0.0450   5.00    0.0
2018/11/12 00:44:15.000  -74.393416139  163.452925568    97.4509   6  10   0.0348   0.0327   0.1203  -0.0171   0.0336  -0.0381   5.00    0.0
2018/11/12 00:44:30.000  -74.393416483  163.452926413    97.5395   1  10   0.0341   0.0282   0.1171  -0.0175   0.0280  -0.0424   6.00    1.0
2018/11/12 00:44:45.000  -74.393416587  163.452926255    97.5550   1  10   0.0287   0.0225   0.0911  -0.0142   0.0164  -0.0334   6.00    1.0
2018/11/12 00:45:00.000  -74.393416594  163.452926478    97.5686   1  10   0.0260   0.0197   0.0765  -0.0127   0.0073  -0.0284   6.00    1.0
2018/11/12 00:45:15.000  -74.393416505  163.452926064    97.5494   1  10   0.0291   0.0203   0.0894  -0.0139   0.0266  -0.0371   6.00    2.0
2018/11/12 00:45:30.000  -74.393416499  163.452925837    97.5333   1  10   0.0353   0.0276   0.1180  -0.0189   0.0371  -0.0472   6.00    2.0
2018/11/12 00:45:45.000  -74.393416204  163.452924725    97.4166   6  10   0.0348   0.0324   0.1175  -0.0170   0.0323  -0.0378   6.00    0.0
2018/11/12 00:46:00.000  -74.393416113  163.452924366    97.3854   6  10   0.0403   0.0380   0.1388  -0.0192   0.0388  -0.0442   6.00    0.0
2018/11/12 00:46:15.000  -74.393416134  163.452924520    97.3782   6  10   0.0463   0.0437   0.1619  -0.0218   0.0459  -0.0518   6.00    0.0
2018/11/12 00:46:30.000  -74.393416163  163.452924609    97.3835   6  10   0.0524   0.0494   0.1860  -0.0247   0.0532  -0.0600   6.00    0.0
2018/11/12 00:46:45.000  -74.393416174  163.452924295    97.3875   6  10   0.0587   0.0551   0.2106  -0.0277   0.0605  -0.0685   6.00    0.0
2018/11/12 00:47:00.000  -74.393416170  163.452924265    97.3846   6  10   0.0649   0.0608   0.2357  -0.0308   0.0677  -0.0773   6.00    0.0
2018/11/12 00:47:15.000  -74.393416135  163.452924715    97.4356   6  10   0.0713   0.0664   0.2609  -0.0341   0.0749  -0.0863   6.00    0.0
2018/11/12 00:47:30.000  -74.393416005  163.452924257    97.4189   6  10   0.0776   0.0721   0.2864  -0.0373   0.0820  -0.0953   6.00    0.0
2018/11/12 00:47:45.000  -74.393416014  163.452924671    97.4489   6  10   0.0713   0.0664   0.2617  -0.0337   0.0739  -0.0867   6.00    0.0
2018/11/12 00:48:00.000  -74.393415967  163.452924741    97.4471   6  10   0.0649   0.0605   0.2360  -0.0302   0.0657  -0.0775   6.00    0.0
2018/11/12 00:48:15.000  -74.393415908  163.452925272    97.4159   6  10   0.0585   0.0546   0.2105  -0.0267   0.0576  -0.0684   6.00    0.0
2018/11/12 00:48:30.000  -74.393415898  163.452925167    97.4139   6  10   0.0522   0.0488   0.1853  -0.0235   0.0497  -0.0595   6.00    0.0
2018/11/12 00:48:45.000  -74.393415983  163.452925327    97.4368   6  10   0.0459   0.0430   0.1606  -0.0204   0.0419  -0.0508   6.00    0.0
2018/11/12 00:49:00.000  -74.393416092  163.452925766    97.4521   6  10   0.0399   0.0372   0.1365  -0.0176   0.0343  -0.0426   6.00    0.0
2018/11/12 00:49:15.000  -74.393416166  163.452925790    97.4747   6  10   0.0340   0.0317   0.1137  -0.0151   0.0269  -0.0350   6.00    0.0
2018/11/12 00:49:30.000  -74.393416433  163.452926254    97.5650   1  10   0.0331   0.0243   0.1116  -0.0128   0.0272  -0.0420   6.00    2.0
2018/11/12 00:49:45.000  -74.393416497  163.452925923    97.5707   1  10   0.0275   0.0177   0.0842  -0.0089   0.0186  -0.0331   6.00    2.0
2018/11/12 00:50:00.000  -74.393416589  163.452925917    97.5836   1  10   0.0248   0.0141   0.0689  -0.0059   0.0134  -0.0284   6.00    2.0
2018/11/12 00:50:15.000  -74.393416489  163.452925409    97.5212   1  10   0.0293   0.0210   0.0974  -0.0128   0.0283  -0.0399   6.00    1.0
2018/11/12 00:50:30.000  -74.393416398  163.452925121    97.5008   1  10   0.0350   0.0265   0.1246  -0.0153   0.0330  -0.0491   6.00    1.0
2018/11/12 00:50:45.000  -74.393416186  163.452924792    97.4362   6  10   0.0342   0.0315   0.1136  -0.0138   0.0231  -0.0356   6.00    0.0
2018/11/12 00:51:00.000  -74.393416206  163.452924748    97.4307   6  10   0.0401   0.0369   0.1368  -0.0158   0.0292  -0.0437   6.00    0.0
2018/11/12 00:51:15.000  -74.393416248  163.452925086    97.4656   6  10   0.0462   0.0424   0.1612  -0.0180   0.0353  -0.0523   6.00    0.0
2018/11/12 00:51:30.000  -74.393416197  163.452925006    97.4685   6  10   0.0525   0.0479   0.1863  -0.0204   0.0414  -0.0613   6.00    0.0
2018/11/12 00:51:45.000  -74.393416170  163.452925020    97.4705   6  10   0.0589   0.0534   0.2120  -0.0230   0.0473  -0.0706   6.00    0.0
2018/11/12 00:52:00.000  -74.393416214  163.452925293    97.4919   6  10   0.0655   0.0588   0.2383  -0.0255   0.0529  -0.0804   6.00    0.0
2018/11/12 00:52:15.000  -74.393416192  163.452925257    97.4427   6  10   0.0722   0.0644   0.2654  -0.0280   0.0581  -0.0906   6.00    0.0
2018/11/12 00:52:30.000  -74.393416160  163.452924859    97.3686   6  10   0.0793   0.0699   0.2939  -0.0301   0.0624  -0.1017   6.00    0.0
2018/11/12 00:52:45.000  -74.393416189  163.452924731    97.3860   6  10   0.0748   0.0649   0.2772  -0.0241   0.0497  -0.0987   6.00    0.0
2018/11/12 00:53:00.000  -74.393416338  163.452924722    97.4651   6  10   0.0669   0.0583   0.2498  -0.0253   0.0512  -0.0865   5.00    0.0
2018/11/12 00:53:15.000  -74.393416251  163.452924852    97.4779   6  10   0.0591   0.0527   0.2154  -0.0228   0.0455  -0.0721   5.00    0.0
2018/11/12 00:53:30.000  -74.393416252  163.452925511    97.5183   6  10   0.0523   0.0472   0.1865  -0.0201   0.0392  -0.0610   5.00    0.0
2018/11/12 00:53:45.000  -74.393416288  163.452925240    97.5100   6  10   0.0458   0.0417   0.1597  -0.0176   0.0327  -0.0510   5.00    0.0
2018/11/12 00:54:00.000  -74.393416304  163.452924971    97.4987   6  10   0.0396   0.0362   0.1344  -0.0152   0.0261  -0.0419   5.00    0.0
2018/11/12 00:54:15.000  -74.393416335  163.452924983    97.4678   6  10   0.0337   0.0309   0.1106  -0.0131   0.0196  -0.0335   5.00    0.0
2018/11/12 00:54:30.000  -74.393416542  163.452925149    97.5269   1  10   0.0338   0.0260   0.1156  -0.0135   0.0286  -0.0443   6.00    1.0
2018/11/12 00:54:45.000  -74.393416499  163.452925218    97.5126   1  10   0.0286   0.0204   0.0914  -0.0107   0.0238  -0.0369   6.00    1.0
2018/11/12 00:55:00.000  -74.393416277  163.452925491    97.4328   6  10   0.0224   0.0200   0.0632  -0.0096  -0.0053  -0.0174   5.00    0.0
2018/11/12 00:55:15.000  -74.393416298  163.452925071    97.4414   6  10   0.0244   0.0220   0.0729  -0.0101   0.0045  -0.0210   5.00    0.0
2018/11/12 00:55:30.000  -74.393416246  163.452925455    97.3722   6  10   0.0287   0.0262   0.0895  -0.0103   0.0080  -0.0269   5.00    0.0
2018/11/12 00:55:45.000  -74.393416229  163.452925607    97.3677   6  10   0.0345   0.0314   0.1125  -0.0098   0.0082  -0.0361   5.00    0.0
2018/11/12 00:56:00.000  -74.393416288  163.452925522    97.4402   6  10   0.0410   0.0364   0.1421  -0.0114   0.0148  -0.0479   5.00    0.0
2018/11/12 00:56:15.000  -74.393416256  163.452925540    97.4540   6  10   0.0476   0.0421   0.1661  -0.0107   0.0140  -0.0571   5.00    0.0
2018/11/12 00:56:30.000  -74.393416321  163.452925209    97.4259   6  10   0.0519   0.0463   0.1852  -0.0179   0.0314  -0.0606   5.00    0.0
2018/11/12 00:56:45.000  -74.393416261  163.452925116    97.4175   6  10   0.0574   0.0515   0.2042  -0.0204   0.0370  -0.0660   5.00    0.0
2018/11/12 00:57:00.000  -74.393416269  163.452925036    97.3872   6  10   0.0633   0.0568   0.2264  -0.0229   0.0420  -0.0732   5.00    0.0
2018/11/12 00:57:15.000  -74.393416264  163.452924973    97.3922   6  10   0.0693   0.0620   0.2495  -0.0254   0.0467  -0.0809   5.00    0.0
2018/11/12 00:57:30.000  -74.393416259  163.452925448    97.4036   6  11   0.0659   0.0652   0.2337  -0.0130   0.0165  -0.0521   5.00    0.0
2018/11/12 00:57:45.000  -74.393416240  163.452925210    97.3658   6  11   0.0595   0.0597   0.2073  -0.0091  -0.0084  -0.0403   5.00    0.0
2018/11/12 00:58:00.000  -74.393416194  163.452925276    97.3540   6  11   0.0539   0.0545   0.1852  -0.0069  -0.0133  -0.0327   5.00    0.0
2018/11/12 00:58:15.000  -74.393416163  163.452925204    97.3818   6  11   0.0487   0.0494   0.1646  -0.0059  -0.0144  -0.0268   5.00    0.0
2018/11/12 00:58:30.000  -74.393416212  163.452925433    97.4233   6  11   0.0436   0.0443   0.1448  -0.0058  -0.0142  -0.0217   5.00    0.0
2018/11/12 00:58:45.000  -74.393416203  163.452925095    97.4103   6  11   0.0386   0.0393   0.1257  -0.0061  -0.0136  -0.0172   6.00    0.0
2018/11/12 00:59:00.000  -74.393416219  163.452925025    97.3915   6  11   0.0339   0.0343   0.1072  -0.0069  -0.0126  -0.0131   6.00    0.0
2018/11/12 00:59:15.000  -74.393416266  163.452924976    97.3908   6  11   0.0294   0.0294   0.0897  -0.0076  -0.0116  -0.0097   6.00    0.0
2018/11/12 00:59:30.000  -74.393416339  163.452925095    97.4055   6  11   0.0253   0.0249   0.0738  -0.0083  -0.0105  -0.0070   6.00    0.0
2018/11/12 00:59:45.000  -74.393416346  163.452925056    97.4150   6  11   0.0222   0.0213   0.0610  -0.0088  -0.0096  -0.0050   6.00    0.0
2018/11/12 01:00:00.000  -74.393416293  163.452925351    97.4377   6  11   0.0209   0.0196   0.0543  -0.0089  -0.0090  -0.0039   6.00    0.0
2018/11/12 01:00:15.000  -74.393416294  163.452925409    97.4510   6  11   0.0223   0.0214   0.0599  -0.0090  -0.0100  -0.0035   6.00    0.0
2018/11/12 01:00:30.000  -74.393416514  163.452925988    97.5213   1  11   0.0267   0.0275   0.0898  -0.0091  -0.0095  -0.0275   8.00    1.0
2018/11/12 01:00:45.000  -74.393416513  163.452926227    97.4968   1  11   0.0322   0.0334   0.1120  -0.0095  -0.0144  -0.0297   8.00    1.0
2018/11/12 01:01:00.000  -74.393416202  163.452926193    97.4454   6  11   0.0335   0.0344   0.1027  -0.0069  -0.0154  -0.0053   6.00    0.0
2018/11/12 01:01:15.000  -74.393416193  163.452926434    97.4634   6  11   0.0380   0.0392   0.1204  -0.0058  -0.0179  -0.0093   7.00    0.0
2018/11/12 01:01:30.000  -74.393416075  163.452925879    97.4912   6  12   0.0418   0.0422   0.1338  -0.0114  -0.0300  -0.0221   7.00    0.0
2018/11/12 01:01:45.000  -74.393416024  163.452925840    97.4493   6  12   0.0465   0.0469   0.1506  -0.0121  -0.0350  -0.0269   7.00    0.0
2018/11/12 01:02:00.000  -74.393416000  163.452925370    97.4587   6  12   0.0512   0.0515   0.1684  -0.0130  -0.0398  -0.0318   7.00    0.0
2018/11/12 01:02:15.000  -74.393415949  163.452925101    97.4890   6  12   0.0559   0.0563   0.1866  -0.0140  -0.0446  -0.0368   7.00    0.0
2018/11/12 01:02:30.000  -74.393415958  163.452925095    97.5077   6  12   0.0607   0.0610   0.2050  -0.0151  -0.0494  -0.0417   7.00    0.0
2018/11/12 01:02:45.000  -74.393415987  163.452925180    97.4937   6  12   0.0561   0.0564   0.1874  -0.0141  -0.0454  -0.0375   7.00    0.0
2018/11/12 01:03:00.000  -74.393416061  163.452925053    97.5064   6  12   0.0514   0.0518   0.1695  -0.0134  -0.0414  -0.0328   7.00    0.0
2018/11/12 01:03:15.000  -74.393416163  163.452924896    97.4685   6  12   0.0468   0.0475   0.1517  -0.0132  -0.0375  -0.0280   7.00    0.0
2018/11/12 01:03:30.000  -74.393416198  163.452925040    97.4496   6  12   0.0425   0.0441   0.1341  -0.0144  -0.0344  -0.0229   7.00    0.0
2018/11/12 01:03:45.000  -74.393416257  163.452925322    97.4442   6  12   0.0376   0.0373   0.1164  -0.0103  -0.0287  -0.0198   6.00    0.0
2018/11/12 01:04:00.000  -74.393416494  163.452925742    97.4943   1  12   0.0404   0.0369   0.1322  -0.0110  -0.0367  -0.0326   7.00    1.0
2018/11/12 01:04:15.000  -74.393416531  163.452925621    97.4703   1  12   0.0363   0.0308   0.1099  -0.0086  -0.0319  -0.0300   7.00    1.0
2018/11/12 01:04:30.000  -74.393416623  163.452925323    97.4573   1  12   0.0289   0.0253   0.0863  -0.0090  -0.0266  -0.0198   7.00    1.0
2018/11/12 01:04:45.000  -74.393416425  163.452925269    97.4131   6  12   0.0231   0.0201   0.0592  -0.0081  -0.0148  -0.0097   5.00    0.0
2018/11/12 01:05:00.000  -74.393416424  163.452925545    97.4531   6  12   0.0212   0.0185   0.0534  -0.0084  -0.0131  -0.0066   5.00    0.0
2018/11/12 01:05:15.000  -74.393416364  163.452925373    97.4631   6  12   0.0228   0.0201   0.0588  -0.0083  -0.0148  -0.0078   5.00    0.0
2018/11/12 01:05:30.000  -74.393416376  163.452925407    97.4374   6  12   0.0261   0.0235   0.0699  -0.0082  -0.0177  -0.0107   5.00    0.0
2018/11/12 01:05:45.000  -74.393416314  163.452925661    97.4729   6  12   0.0307   0.0276   0.0846  -0.0073  -0.0216  -0.0157   5.00    0.0
2018/11/12 01:06:00.000  -74.393416479  163.452925923    97.5173   6  12   0.0359   0.0320   0.1026  -0.0063  -0.0261  -0.0232   5.00    0.0
2018/11/12 01:06:15.000  -74.393416476  163.452925889    97.5181   6  12   0.0382   0.0365   0.1192  -0.0085  -0.0298  -0.0240   5.00    0.0
2018/11/12 01:06:30.000  -74.393416454  163.452925687    97.5369   6  12   0.0426   0.0411   0.1364  -0.0089  -0.0342  -0.0271   5.00    0.0
2018/11/12 01:06:45.000  -74.393416469  163.452925772    97.5082   6  12   0.0473   0.0458   0.1545  -0.0095  -0.0389  -0.0314   6.00    0.0
2018/11/12 01:07:00.000  -74.393416452  163.452925800    97.4497   6  12   0.0521   0.0505   0.1731  -0.0103  -0.0437  -0.0361   6.00    0.0
2018/11/12 01:07:15.000  -74.393416307  163.452925418    97.4406   6  12   0.0572   0.0552   0.1920  -0.0113  -0.0487  -0.0409   6.00    0.0
2018/11/12 01:07:30.000  -74.393416291  163.452925332    97.4465   6  12   0.0625   0.0600   0.2111  -0.0126  -0.0537  -0.0458   6.00    0.0
2018/11/12 01:07:45.000  -74.393416268  163.452925312    97.4424   6  12   0.0593   0.0553   0.1925  -0.0129  -0.0490  -0.0405   6.00    0.0
2018/11/12 01:08:00.000  -74.393416362  163.452925497    97.4651   6  12   0.0560   0.0506   0.1739  -0.0135  -0.0443  -0.0361   5.00    0.0
2018/11/12 01:08:15.000  -74.393416448  163.452925869    97.4169   6  12   0.0488   0.0458   0.1553  -0.0109  -0.0396  -0.0317   5.00    0.0
2018/11/12 01:08:30.000  -74.393416368  163.452925384    97.3884   6  12   0.0448   0.0411   0.1370  -0.0104  -0.0351  -0.0261   5.00    0.0
2018/11/12 01:08:45.000  -74.393416350  163.452925758    97.3976   6  12   0.0386   0.0365   0.1189  -0.0091  -0.0306  -0.0221   5.00    0.0
2018/11/12 01:09:00.000  -74.393416300  163.452925780    97.3911   6  12   0.0348   0.0319   0.1015  -0.0091  -0.0265  -0.0165   5.00    0.0
2018/11/12 01:09:15.000  -74.393416407  163.452925673    97.3822   6  12   0.0285   0.0275   0.0850  -0.0080  -0.0225  -0.0134   5.00    0.0
2018/11/12 01:09:30.000  -74.393416477  163.452925605    97.3919   6  12   0.0246   0.0234   0.0703  -0.0080  -0.0190  -0.0091   5.00    0.0
2018/11/12 01:09:45.000  -74.393416486  163.452925831    97.4048   6  12   0.0218   0.0203   0.0589  -0.0078  -0.0164  -0.0057   5.00    0.0
2018/11/12 01:10:00.000  -74.393416411  163.452925660    97.4238   6  12   0.0206   0.0187   0.0532  -0.0080  -0.0151  -0.0029   5.00    0.0
2018/11/12 01:10:15.000  -74.393416276  163.452925529    97.4407   6  12   0.0222   0.0203   0.0590  -0.0082  -0.0167  -0.0043   5.00    0.0
2018/11/12 01:10:30.000  -74.393416222  163.452925502    97.4393   6  12   0.0252   0.0236   0.0705  -0.0085  -0.0197  -0.0078   5.00    0.0
2018/11/12 01:10:45.000  -74.393416146  163.452924965    97.4378   6  12   0.0291   0.0276   0.0853  -0.0087  -0.0235  -0.0118   5.00    0.0
2018/11/12 01:11:00.000  -74.393416185  163.452924662    97.4574   6  12   0.0335   0.0320   0.1020  -0.0088  -0.0277  -0.0163   5.00    0.0
2018/11/12 01:11:15.000  -74.393416088  163.452924524    97.4506   6  12   0.0383   0.0365   0.1197  -0.0090  -0.0322  -0.0209   5.00    0.0
2018/11/12 01:11:30.000  -74.393416032  163.452924545    97.4176   6  12   0.0441   0.0411   0.1381  -0.0096  -0.0370  -0.0256   5.00    0.0
2018/11/12 01:11:45.000  -74.393416081  163.452924603    97.4390   6  12   0.0470   0.0457   0.1568  -0.0093  -0.0418  -0.0323   5.00    0.0
2018/11/12 01:12:00.000  -74.393416024  163.452925047    97.4222   6  12   0.0513   0.0504   0.1759  -0.0091  -0.0469  -0.0371   5.00    0.0
2018/11/12 01:12:15.000  -74.393416089  163.452925260    97.4083   6  12   0.0559   0.0552   0.1951  -0.0094  -0.0522  -0.0420   5.00    0.0
2018/11/12 01:12:30.000  -74.393416112  163.452925304    97.4152   6  12   0.0607   0.0600   0.2144  -0.0100  -0.0574  -0.0471   5.00    0.0
2018/11/12 01:12:45.000  -74.393416257  163.452925894    97.4266   6  12   0.0558   0.0554   0.1949  -0.0094  -0.0526  -0.0418   5.00    0.0
2018/11/12 01:13:00.000  -74.393416338  163.452926357    97.4009   6  12   0.0510   0.0508   0.1761  -0.0092  -0.0481  -0.0365   5.00    0.0
2018/11/12 01:13:15.000  -74.393416328  163.452926503    97.3919   6  12   0.0462   0.0465   0.1577  -0.0097  -0.0442  -0.0308   5.00    0.0
2018/11/12 01:13:30.000  -74.393416302  163.452926569    97.4027   6  12   0.0418   0.0431   0.1404  -0.0116  -0.0419  -0.0238   5.00    0.0
2018/11/12 01:13:45.000  -74.393416311  163.452927067    97.3556   6  12   0.0373   0.0395   0.1245  -0.0124  -0.0400  -0.0163   5.00    0.0
2018/11/12 01:14:00.000  -74.393416317  163.452926682    97.3190   6  12   0.0321   0.0321   0.1031  -0.0070  -0.0295  -0.0174   5.00    0.0
2018/11/12 01:14:15.000  -74.393416378  163.452925863    97.3724   6  12   0.0279   0.0275   0.0859  -0.0067  -0.0244  -0.0140   5.00    0.0
2018/11/12 01:14:30.000  -74.393416459  163.452925534    97.3752   6  12   0.0242   0.0235   0.0711  -0.0067  -0.0204  -0.0110   5.00    0.0
2018/11/12 01:14:45.000  -74.393416331  163.452925342    97.4148   6  12   0.0217   0.0204   0.0600  -0.0073  -0.0173  -0.0098   5.00    0.0
2018/11/12 01:15:00.000  -74.393416371  163.452925318    97.4240   6  12   0.0194   0.0188   0.0549  -0.0063  -0.0165  -0.0066   4.00    0.0
2018/11/12 01:15:15.000  -74.393416322  163.452925549    97.3909   6  12   0.0207   0.0204   0.0603  -0.0065  -0.0180  -0.0076   4.00    0.0
2018/11/12 01:15:30.000  -74.393416302  163.452925521    97.3667   6  12   0.0236   0.0237   0.0714  -0.0063  -0.0207  -0.0104   4.00    0.0
2018/11/12 01:15:45.000  -74.393416228  163.452925641    97.3775   6  12   0.0275   0.0277   0.0858  -0.0063  -0.0243  -0.0141   4.00    0.0
2018/11/12 01:16:00.000  -74.393416160  163.452925824    97.3769   6  12   0.0317   0.0320   0.1021  -0.0062  -0.0284  -0.0184   5.00    0.0
2018/11/12 01:16:15.000  -74.393416151  163.452925337    97.4065   6  12   0.0362   0.0365   0.1195  -0.0061  -0.0329  -0.0230   5.00    0.0
2018/11/12 01:16:30.000  -74.393416150  163.452925078    97.4080   6  12   0.0409   0.0411   0.1376  -0.0063  -0.0377  -0.0279   0.00    0.0
2018/11/12 01:16:45.000  -74.393416124  163.452925086    97.4011   6  12   0.0457   0.0458   0.1561  -0.0069  -0.0426  -0.0328   0.00    0.0
2018/11/12 01:17:00.000  -74.393416184  163.452925507    97.4307   6  12   0.0505   0.0506   0.1748  -0.0078  -0.0476  -0.0379   0.00    0.0
2018/11/12 01:17:15.000  -74.393416214  163.452925996    97.3631   6  12   0.0555   0.0555   0.1937  -0.0091  -0.0527  -0.0430   2.00    0.0
2018/11/12 01:17:30.000  -74.393416126  163.452925865    97.3570   6  12   0.0605   0.0606   0.2127  -0.0111  -0.0578  -0.0481   4.00    0.0
2018/11/12 01:17:45.000  -74.393416057  163.452925917    97.3667   6  12   0.0562   0.0571   0.1935  -0.0141  -0.0523  -0.0434   4.00    0.0
2018/11/12 01:18:00.000  -74.393416120  163.452926232    97.3809   6  12   0.0522   0.0536   0.1747  -0.0169  -0.0462  -0.0394   4.00    0.0
2018/11/12 01:18:15.000  -74.393416128  163.452925240    97.4043   6  12   0.0471   0.0484   0.1558  -0.0150  -0.0414  -0.0343   4.00    0.0
2018/11/12 01:18:30.000  -74.393416020  163.452925233    97.4012   6  12   0.0421   0.0433   0.1373  -0.0132  -0.0367  -0.0292   3.00    0.0
2018/11/12 01:18:45.000  -74.393416018  163.452925709    97.4014   6  12   0.0373   0.0383   0.1193  -0.0115  -0.0322  -0.0242   5.00    0.0
2018/11/12 01:19:00.000  -74.393416161  163.452925765    97.4080   6  12   0.0325   0.0334   0.1021  -0.0100  -0.0281  -0.0195   5.00    0.0
2018/11/12 01:19:15.000  -74.393416313  163.452925806    97.4420   6  12   0.0275   0.0273   0.0860  -0.0049  -0.0247  -0.0147   3.00    0.0
2018/11/12 01:19:30.000  -74.393416352  163.452925952    97.4142   6  12   0.0237   0.0235   0.0721  -0.0045  -0.0215  -0.0110   3.00    0.0
2018/11/12 01:19:45.000  -74.393416432  163.452925587    97.3773   6  12   0.0208   0.0209   0.0619  -0.0043  -0.0194  -0.0087   5.00    0.0
2018/11/12 01:20:00.000  -74.393416651  163.452925471    97.4412   1  12   0.0222   0.0173   0.0544  -0.0057   0.0033  -0.0182   7.00    1.0
2018/11/12 01:20:15.000  -74.393416407  163.452925370    97.3785   6  12   0.0211   0.0195   0.0636  -0.0052  -0.0181  -0.0065   3.00    0.0
2018/11/12 01:20:30.000  -74.393416336  163.452925261    97.3647   6  12   0.0240   0.0228   0.0750  -0.0055  -0.0213  -0.0089   3.00    0.0
2018/11/12 01:20:45.000  -74.393416251  163.452925196    97.3619   6  12   0.0278   0.0268   0.0892  -0.0051  -0.0252  -0.0125   4.00    0.0
2018/11/12 01:21:00.000  -74.393416249  163.452925356    97.4048   6  12   0.0319   0.0311   0.1051  -0.0046  -0.0295  -0.0169   4.00    0.0
2018/11/12 01:21:15.000  -74.393416204  163.452925356    97.4218   6  12   0.0364   0.0356   0.1219  -0.0041  -0.0341  -0.0216   5.00    0.0
2018/11/12 01:21:30.000  -74.393416302  163.452925276    97.4185   6  12   0.0409   0.0402   0.1392  -0.0035  -0.0389  -0.0265   6.00    0.0
2018/11/12 01:21:45.000  -74.393416324  163.452925243    97.4343   6  12   0.0456   0.0449   0.1570  -0.0030  -0.0439  -0.0315   6.00    0.0
2018/11/12 01:22:00.000  -74.393416204  163.452925566    97.4137   6  12   0.0503   0.0496   0.1749  -0.0028  -0.0490  -0.0364   6.00    0.0
2018/11/12 01:22:15.000  -74.393416142  163.452925707    97.4084   6  12   0.0552   0.0543   0.1930  -0.0028  -0.0542  -0.0413   6.00    0.0
2018/11/12 01:22:30.000  -74.393416092  163.452925863    97.4304   6  12   0.0601   0.0591   0.2111  -0.0031  -0.0594  -0.0462   6.00    0.0
2018/11/12 01:22:45.000  -74.393416168  163.452926247    97.4121   6  12   0.0552   0.0541   0.1929  -0.0036  -0.0539  -0.0410   7.00    0.0
2018/11/12 01:23:00.000  -74.393416241  163.452926227    97.4313   6  12   0.0505   0.0494   0.1750  -0.0039  -0.0489  -0.0358   7.00    0.0
2018/11/12 01:23:15.000  -74.393416303  163.452926170    97.4097   6  12   0.0460   0.0447   0.1578  -0.0047  -0.0440  -0.0305   7.00    0.0
2018/11/12 01:23:30.000  -74.393416265  163.452925788    97.4100   6  12   0.0418   0.0401   0.1416  -0.0060  -0.0394  -0.0251   7.00    0.0
2018/11/12 01:23:45.000  -74.393416286  163.452925836    97.3908   6  12   0.0384   0.0357   0.1275  -0.0083  -0.0352  -0.0193   7.00    0.0
2018/11/12 01:24:00.000  -74.393416267  163.452926249    97.3567   6  12   0.0348   0.0314   0.1186  -0.0095  -0.0322  -0.0107   6.00    0.0
2018/11/12 01:24:15.000  -74.393416630  163.452926145    97.4552   1  12   0.0296   0.0295   0.1055  -0.0047  -0.0340  -0.0261   5.00    2.0
2018/11/12 01:24:30.000  -74.393416617  163.452925856    97.4475   1  12   0.0238   0.0239   0.0840  -0.0039  -0.0285  -0.0213   5.00    2.0
2018/11/12 01:24:45.000  -74.393416610  163.452925471    97.4413   1  12   0.0228   0.0199   0.0690  -0.0087  -0.0225  -0.0232   5.00    1.0
2018/11/12 01:25:00.000  -74.393416602  163.452925475    97.4052   1  12   0.0213   0.0178   0.0604  -0.0085  -0.0198  -0.0223   5.00    1.0
2018/11/12 01:25:15.000  -74.393416617  163.452925437    97.4141   1  12   0.0236   0.0201   0.0706  -0.0090  -0.0226  -0.0244   5.00    1.0
2018/11/12 01:25:30.000  -74.393416633  163.452925184    97.3932   1  12   0.0278   0.0250   0.0883  -0.0096  -0.0276  -0.0278   5.00    1.0
2018/11/12 01:25:45.000  -74.393416639  163.452924830    97.4072   1  12   0.0332   0.0307   0.1093  -0.0106  -0.0332  -0.0321   5.00    1.0
2018/11/12 01:26:00.000  -74.393416606  163.452925036    97.4109   1  12   0.0393   0.0371   0.1320  -0.0116  -0.0394  -0.0371   4.00    1.0
2018/11/12 01:26:15.000  -74.393416237  163.452925462    97.3287   6  12   0.0362   0.0357   0.1157  -0.0053  -0.0324  -0.0223   5.00    0.0
2018/11/12 01:26:30.000  -74.393416247  163.452925212    97.3440   6  12   0.0408   0.0404   0.1324  -0.0058  -0.0370  -0.0267   6.00    0.0
2018/11/12 01:26:45.000  -74.393416220  163.452924840    97.3403   6  12   0.0456   0.0451   0.1494  -0.0068  -0.0416  -0.0313   5.00    0.0
2018/11/12 01:27:00.000  -74.393416272  163.452924919    97.3494   6  12   0.0506   0.0501   0.1667  -0.0088  -0.0461  -0.0363   5.00    0.0
2018/11/12 01:27:15.000  -74.393416195  163.452925392    97.3451   6  12   0.0561   0.0557   0.1843  -0.0131  -0.0499  -0.0421   6.00    0.0
2018/11/12 01:27:30.000  -74.393416176  163.452925446    97.3381   6  12   0.0609   0.0597   0.2018  -0.0118  -0.0553  -0.0470   5.00    1.0
2018/11/12 01:27:45.000  -74.393416246  163.452925710    97.3172   6  12   0.0554   0.0545   0.1834  -0.0072  -0.0513  -0.0409   5.00    0.0
2018/11/12 01:28:00.000  -74.393416220  163.452925797    97.2707   6  12   0.0504   0.0496   0.1655  -0.0049  -0.0466  -0.0357   5.00    0.0
2018/11/12 01:28:15.000  -74.393416293  163.452926044    97.2269   6  12   0.0455   0.0448   0.1481  -0.0034  -0.0419  -0.0308   5.00    0.0
2018/11/12 01:28:30.000  -74.393416254  163.452926270    97.2191   6  12   0.0408   0.0401   0.1311  -0.0028  -0.0373  -0.0261   5.00    0.0
2018/11/12 01:28:45.000  -74.393416247  163.452926292    97.1849   6  12   0.0362   0.0356   0.1147  -0.0028  -0.0328  -0.0218   5.00    0.0
2018/11/12 01:29:00.000  -74.393416699  163.452925937    97.2949   1  12   0.0394   0.0370   0.1311  -0.0093  -0.0413  -0.0360   4.00    1.0
2018/11/12 01:29:15.000  -74.393416724  163.452925929    97.3070   1  12   0.0337   0.0310   0.1102  -0.0091  -0.0358  -0.0318   4.00    1.0
2018/11/12 01:29:30.000  -74.393416743  163.452926162    97.2906   1  12   0.0288   0.0258   0.0922  -0.0090  -0.0312  -0.0285   4.00    1.0
2018/11/12 01:29:45.000  -74.393416645  163.452925883    97.3533   1  12   0.0254   0.0219   0.0794  -0.0090  -0.0283  -0.0264   4.00    1.0
2018/11/12 01:30:00.000  -74.393416579  163.452925323    97.4108   1  12   0.0242   0.0189   0.0706  -0.0087  -0.0240  -0.0272   4.00    1.0
2018/11/12 01:30:15.000  -74.393416545  163.452925169    97.4328   1  12   0.0279   0.0222   0.0845  -0.0098  -0.0286  -0.0306   4.00    1.0
2018/11/12 01:30:30.000  -74.393416500  163.452925608    97.3966   1  12   0.0333   0.0262   0.1008  -0.0104  -0.0315  -0.0355   4.00    1.0
2018/11/12 01:30:45.000  -74.393416550  163.452925870    97.3263   1  12   0.0397   0.0326   0.1224  -0.0123  -0.0378  -0.0388   3.00    1.0
2018/11/12 01:31:00.000  -74.393416191  163.452926565    97.2224   6  12   0.0350   0.0327   0.1056  -0.0070  -0.0314  -0.0160   7.00    0.0
2018/11/12 01:31:15.000  -74.393416186  163.452926284    97.2355   6  12   0.0403   0.0374   0.1219  -0.0063  -0.0352  -0.0149   7.00    0.0
2018/11/12 01:31:30.000  -74.393416242  163.452926056    97.2415   6  11   0.0462   0.0421   0.1396  -0.0066  -0.0394  -0.0102   7.00    0.0
2018/11/12 01:31:45.000  -74.393416130  163.452926348    97.2669   6  11   0.0523   0.0470   0.1564  -0.0086  -0.0441  -0.0099   7.00    0.0
2018/11/12 01:32:00.000  -74.393416227  163.452926513    97.2409   6  11   0.0588   0.0521   0.1736  -0.0119  -0.0486  -0.0128   6.00    0.0
2018/11/12 01:32:15.000  -74.393416249  163.452926523    97.2202   6  11   0.0636   0.0571   0.1910  -0.0115  -0.0537  -0.0126   6.00    0.0
2018/11/12 01:32:30.000  -74.393416229  163.452926613    97.2289   6  11   0.0701   0.0623   0.2089  -0.0138  -0.0589  -0.0112   6.00    0.0
2018/11/12 01:32:45.000  -74.393416280  163.452926749    97.2330   6  11   0.0673   0.0588   0.1946  -0.0199  -0.0567   0.0124   6.00    0.0
2018/11/12 01:33:00.000  -74.393416161  163.452926469    97.2322   6  11   0.0631   0.0566   0.1847  -0.0244  -0.0566   0.0228   6.00    0.0
2018/11/12 01:33:15.000  -74.393416132  163.452926678    97.2630   6  10   0.0538   0.0534   0.1816  -0.0215  -0.0649   0.0364   5.00    0.0
2018/11/12 01:33:30.000  -74.393416122  163.452926312    97.2494   6  10   0.0467   0.0471   0.1608  -0.0161  -0.0579   0.0310   5.00    0.0
2018/11/12 01:33:45.000  -74.393416235  163.452925797    97.2506   6  10   0.0407   0.0413   0.1414  -0.0120  -0.0511   0.0250   5.00    0.0
2018/11/12 01:34:00.000  -74.393416174  163.452925671    97.2951   6  10   0.0353   0.0360   0.1238  -0.0074  -0.0451   0.0170   5.00    0.0
2018/11/12 01:34:15.000  -74.393416148  163.452925664    97.2883   6  10   0.0306   0.0313   0.1101   0.0052  -0.0409  -0.0099   5.00    0.0
2018/11/12 01:34:30.000  -74.393416363  163.452925498    97.3790   1   9   0.0300   0.0309   0.1262   0.0090  -0.0503  -0.0323   4.00    1.0
2018/11/12 01:34:45.000  -74.393416445  163.452925413    97.3843   1   9   0.0234   0.0238   0.0936   0.0041  -0.0374  -0.0248   4.00    1.0
2018/11/12 01:35:00.000  -74.393416600  163.452925311    97.4102   1   9   0.0201   0.0200   0.0761  -0.0035  -0.0307  -0.0209   4.00    1.0
2018/11/12 01:35:15.000  -74.393416578  163.452925466    97.3720   1   9   0.0233   0.0238   0.0943   0.0041  -0.0378  -0.0252   4.00    1.0
2018/11/12 01:35:30.000  -74.393416515  163.452925990    97.2952   1   9   0.0301   0.0311   0.1278   0.0094  -0.0511  -0.0332   4.00    1.0
2018/11/12 01:35:45.000  -74.393416348  163.452926461    97.1785   6   9   0.0319   0.0331   0.1278   0.0122  -0.0490  -0.0273   4.00    0.0
2018/11/12 01:36:00.000  -74.393416323  163.452926382    97.2363   6   9   0.0380   0.0397   0.1563   0.0152  -0.0608  -0.0343   4.00    0.0
2018/11/12 01:36:15.000  -74.393416375  163.452925937    97.3352   6   9   0.0443   0.0466   0.1861   0.0184  -0.0732  -0.0417   4.00    0.0
2018/11/12 01:36:30.000  -74.393416485  163.452925734    97.3934   6   9   0.0509   0.0537   0.2167   0.0216  -0.0859  -0.0493   6.00    0.0
2018/11/12 01:36:45.000  -74.393416387  163.452925938    97.4345   6   9   0.0575   0.0609   0.2478   0.0248  -0.0988  -0.0570   6.00    0.0
2018/11/12 01:37:00.000  -74.393416421  163.452925691    97.4298   6   9   0.0643   0.0683   0.2792   0.0281  -0.1120  -0.0648   6.00    0.0
2018/11/12 01:37:15.000  -74.393416345  163.452926110    97.3681   6   9   0.0711   0.0757   0.3110   0.0314  -0.1252  -0.0726   6.00    0.0
2018/11/12 01:37:30.000  -74.393416348  163.452925537    97.3671   6   9   0.0780   0.0832   0.3428   0.0347  -0.1386  -0.0805   5.00    0.0
2018/11/12 01:37:45.000  -74.393416260  163.452925991    97.3333   6   9   0.0714   0.0762   0.3125   0.0318  -0.1264  -0.0730   5.00    0.0
2018/11/12 01:38:00.000  -74.393416226  163.452925967    97.3315   6   9   0.0646   0.0690   0.2814   0.0287  -0.1137  -0.0654   5.00    0.0
2018/11/12 01:38:15.000  -74.393416137  163.452926090    97.3384   6   9   0.0578   0.0618   0.2505   0.0257  -0.1010  -0.0579   5.00    0.0
2018/11/12 01:38:30.000  -74.393415947  163.452926340    97.3262   6   9   0.0512   0.0547   0.2198   0.0226  -0.0884  -0.0505   5.00    0.0
2018/11/12 01:38:45.000  -74.393415934  163.452926547    97.2997   6   9   0.0447   0.0477   0.1897   0.0195  -0.0759  -0.0431   6.00    0.0
2018/11/12 01:39:00.000  -74.393416092  163.452926405    97.2890   6   9   0.0383   0.0408   0.1602   0.0164  -0.0636  -0.0360   6.00    0.0
2018/11/12 01:39:15.000  -74.393416314  163.452925872    97.2975   6   9   0.0322   0.0341   0.1321   0.0134  -0.0518  -0.0293   6.00    0.0
2018/11/12 01:39:30.000  -74.393416489  163.452924983    97.4165   1   9   0.0298   0.0322   0.1345   0.0126  -0.0549  -0.0350   5.00    2.0
2018/11/12 01:39:45.000  -74.393416563  163.452924817    97.4313   1   9   0.0228   0.0247   0.1018   0.0085  -0.0416  -0.0272   5.00    2.0
2018/11/12 01:40:00.000  -74.393416644  163.452924999    97.4522   1   9   0.0219   0.0212   0.0845   0.0089  -0.0337  -0.0197   5.00    1.0
2018/11/12 01:40:15.000  -74.393416791  163.452924542    97.5193   1   9   0.0253   0.0254   0.1038   0.0106  -0.0416  -0.0255   5.00    1.0
2018/11/12 01:40:30.000  -74.393416919  163.452924022    97.5649   1   9   0.0320   0.0332   0.1376   0.0140  -0.0557  -0.0345   5.00    1.0
2018/11/12 01:40:45.000  -74.393416649  163.452924926    97.3877   6   9   0.0323   0.0348   0.1333   0.0134  -0.0528  -0.0301   6.00    0.0
2018/11/12 01:41:00.000  -74.393416670  163.452924636    97.3683   6   9   0.0384   0.0416   0.1616   0.0166  -0.0650  -0.0369   6.00    0.0
2018/11/12 01:41:15.000  -74.393416678  163.452924451    97.3681   6   9   0.0448   0.0488   0.1912   0.0199  -0.0777  -0.0441   6.00    0.0
2018/11/12 01:41:30.000  -74.393416543  163.452924882    97.3161   6   9   0.0513   0.0561   0.2215   0.0233  -0.0908  -0.0515   6.00    0.0
2018/11/12 01:41:45.000  -74.393416512  163.452925021    97.3375   6   9   0.0580   0.0636   0.2523   0.0267  -0.1041  -0.0591   6.00    0.0
2018/11/12 01:42:00.000  -74.393416313  163.452925362    97.3236   6   9   0.0648   0.0712   0.2835   0.0301  -0.1175  -0.0667   6.00    0.0
2018/11/12 01:42:15.000  -74.393416209  163.452925315    97.3182   6   9   0.0717   0.0788   0.3148   0.0335  -0.1311  -0.0744   6.00    0.0
2018/11/12 01:42:30.000  -74.393416253  163.452925708    97.3425   6   9   0.0786   0.0865   0.3462   0.0370  -0.1446  -0.0821   6.00    0.0
2018/11/12 01:42:45.000  -74.393416163  163.452925992    97.3212   6   9   0.0718   0.0792   0.3147   0.0334  -0.1315  -0.0742   6.00    0.0
2018/11/12 01:43:00.000  -74.393416289  163.452925922    97.3050   6   9   0.0651   0.0722   0.2835   0.0296  -0.1185  -0.0663   6.00    0.0
2018/11/12 01:43:15.000  -74.393416375  163.452925485    97.3420   6   9   0.0586   0.0660   0.2529   0.0249  -0.1063  -0.0581   6.00    0.0
2018/11/12 01:43:30.000  -74.393416471  163.452924963    97.3621   6   9   0.0517   0.0570   0.2219   0.0230  -0.0923  -0.0512   6.00    0.0
2018/11/12 01:43:45.000  -74.393416483  163.452924743    97.3657   6   9   0.0450   0.0491   0.1916   0.0205  -0.0787  -0.0446   6.00    0.0
2018/11/12 01:44:00.000  -74.393416433  163.452924663    97.3572   6   9   0.0387   0.0417   0.1625   0.0176  -0.0659  -0.0380   6.00    0.0
2018/11/12 01:44:15.000  -74.393416333  163.452924926    97.3104   6   9   0.0326   0.0347   0.1351   0.0147  -0.0537  -0.0319   6.00    0.0
2018/11/12 01:44:30.000  -74.393416471  163.452924248    97.4130   1   9   0.0316   0.0324   0.1405   0.0179  -0.0559  -0.0418   5.00    2.0
