% program   : RTKLIB ver.2.4.3
% inp file  : _by_type/_obs/tuati/20181114.18o
% inp file  : _by_type/_sp3+clk/igs20273.clk
% inp file  : _by_type/_sp3+clk/igs20273.sp3
% inp file  : _by_type/_nav/tuati/20181114.18n
% obs start : 2018/11/14 00:00:00.0 GPST (week2027 259200.0s)
% obs end   : 2018/11/14 23:59:30.0 GPST (week2027 345570.0s)
% pos mode  : ppp-kinematic
% solution  : combined
% elev mask : 15.0 deg
% dynamics  : off
% tidecorr  : on
% tropo opt : est ztd+grad
% ephemeris : precise
% navi sys  : gps glonass
% antenna1  :                       ( 0.0000  0.0000  0.0000)
%
% (lat/lon/height=WGS84/ellipsoidal,Q=1:fix,2:float,3:sbas,4:dgps,5:single,6:ppp,ns=# of satellites)
%  GPST                  latitude(deg) longitude(deg)  height(m)   Q  ns   sdn(m)   sde(m)   sdu(m)  sdne(m)  sdeu(m)  sdun(m) age(s)  ratio
2018/11/14 00:00:00.000  -74.425557520  163.418436729    64.7289   6  11   0.0336   0.0304   0.1012  -0.0195   0.0286  -0.0327   0.00    0.0
2018/11/14 00:00:30.000  -74.425557369  163.418436138    64.6449   6  11   0.0401   0.0387   0.1382  -0.0242   0.0451  -0.0435   0.00    0.0
2018/11/14 00:01:00.000  -74.425557407  163.418436600    64.6769   6  11   0.0524   0.0550   0.1941  -0.0338   0.0708  -0.0657   0.00    0.0
2018/11/14 00:01:30.000  -74.425557183  163.418436405    64.6121   6  11   0.0661   0.0717   0.2588  -0.0421   0.1006  -0.0906   0.00    0.0
2018/11/14 00:02:00.000  -74.425557069  163.418436155    64.5190   6  11   0.0815   0.0901   0.3262  -0.0522   0.1290  -0.1148   0.00    0.0
2018/11/14 00:02:30.000  -74.425557060  163.418434838    64.3890   6  11   0.0971   0.1083   0.3927  -0.0621   0.1564  -0.1385   0.00    0.0
2018/11/14 00:03:00.000  -74.425557421  163.418435895    64.5647   6  11   0.0813   0.0897   0.3261  -0.0519   0.1282  -0.1144   0.00    0.0
2018/11/14 00:03:30.000  -74.425557521  163.418436137    64.6015   6  11   0.0659   0.0714   0.2602  -0.0420   0.0995  -0.0900   0.00    0.0
2018/11/14 00:04:00.000  -74.425557620  163.418436932    64.6788   6  11   0.0520   0.0542   0.1981  -0.0329   0.0702  -0.0654   1.00    0.0
2018/11/14 00:04:30.000  -74.425557407  163.418436253    64.5602   6  11   0.0399   0.0385   0.1415  -0.0239   0.0451  -0.0451   0.00    0.0
2018/11/14 00:05:00.000  -74.425557428  163.418436328    64.6473   6  11   0.0338   0.0299   0.1097  -0.0187   0.0283  -0.0313   0.00    0.0
2018/11/14 00:05:30.000  -74.425557317  163.418435415    64.5736   6  11   0.0421   0.0391   0.1536  -0.0250   0.0438  -0.0366   0.00    0.0
2018/11/14 00:06:00.000  -74.425557256  163.418435643    64.5055   6  11   0.0540   0.0542   0.2032  -0.0330   0.0709  -0.0600   0.00    0.0
2018/11/14 00:06:30.000  -74.425557445  163.418435751    64.5536   6  11   0.0718   0.0722   0.2686  -0.0446   0.0952  -0.0729   0.00    0.0
2018/11/14 00:07:00.000  -74.425557459  163.418436358    64.5110   6  11   0.0844   0.0869   0.3353  -0.0479   0.1216  -0.0877   0.00    0.0
2018/11/14 00:07:30.000  -74.425557310  163.418435011    64.3895   6  11   0.0968   0.1028   0.3870  -0.0552   0.1441  -0.1105   0.00    0.0
2018/11/14 00:08:00.000  -74.425557380  163.418435444    64.4444   6  11   0.0826   0.0863   0.3186  -0.0491   0.1171  -0.0953   0.00    0.0
2018/11/14 00:08:30.000  -74.425557431  163.418435736    64.5033   6  11   0.0658   0.0704   0.2530  -0.0409   0.0942  -0.0835   1.00    0.0
2018/11/14 00:09:00.000  -74.425557608  163.418436009    64.5578   6  11   0.0523   0.0536   0.1983  -0.0309   0.0697  -0.0613   3.00    0.0
2018/11/14 00:09:30.000  -74.425557583  163.418436314    64.6148   6  11   0.0393   0.0380   0.1421  -0.0217   0.0438  -0.0465   3.00    0.0
2018/11/14 00:10:00.000  -74.425557493  163.418435631    64.6360   6  11   0.0338   0.0299   0.1137  -0.0178   0.0277  -0.0324   3.00    0.0
2018/11/14 00:10:30.000  -74.425557564  163.418435281    64.6044   6  11   0.0397   0.0377   0.1474  -0.0217   0.0440  -0.0425   4.00    0.0
2018/11/14 00:11:00.000  -74.425557366  163.418434095    64.4249   6  11   0.0514   0.0523   0.2063  -0.0284   0.0652  -0.0560   4.00    0.0
2018/11/14 00:11:30.000  -74.425557365  163.418433507    64.4013   6  11   0.0651   0.0683   0.2640  -0.0345   0.0881  -0.0709   0.00    0.0
2018/11/14 00:12:00.000  -74.425557350  163.418433136    64.4466   6  11   0.0761   0.0853   0.3128  -0.0412   0.1040  -0.0956   0.00    0.0
2018/11/14 00:12:30.000  -74.425557320  163.418432814    64.4118   6  11   0.0880   0.0979   0.3482  -0.0478   0.1294  -0.1156   0.00    0.0
2018/11/14 00:13:00.000  -74.425557170  163.418433780    64.4579   6  11   0.0746   0.0844   0.2935  -0.0393   0.1076  -0.0975   0.00    0.0
2018/11/14 00:13:30.000  -74.425557237  163.418434315    64.5201   6  11   0.0609   0.0656   0.2391  -0.0352   0.0885  -0.0786   0.00    0.0
2018/11/14 00:14:00.000  -74.425557410  163.418434820    64.6601   6  11   0.0485   0.0503   0.1864  -0.0283   0.0665  -0.0606   2.00    0.0
2018/11/14 00:14:30.000  -74.425557475  163.418434897    64.6421   6  11   0.0382   0.0367   0.1404  -0.0222   0.0450  -0.0436   3.00    0.0
2018/11/14 00:15:00.000  -74.425557494  163.418435334    64.6624   6  11   0.0322   0.0295   0.1145  -0.0183   0.0309  -0.0341   3.00    0.0
2018/11/14 00:15:30.000  -74.425557478  163.418435758    64.6487   6  11   0.0388   0.0372   0.1461  -0.0223   0.0446  -0.0459   4.00    0.0
2018/11/14 00:16:00.000  -74.425557398  163.418435342    64.5747   6  11   0.0498   0.0507   0.1911  -0.0276   0.0644  -0.0604   4.00    0.0
2018/11/14 00:16:30.000  -74.425557293  163.418435006    64.5735   6  11   0.0625   0.0655   0.2385  -0.0327   0.0839  -0.0742   4.00    0.0
2018/11/14 00:17:00.000  -74.425556914  163.418434146    64.5070   6  11   0.0769   0.0811   0.2867  -0.0370   0.1026  -0.0854   4.00    0.0
2018/11/14 00:17:30.000  -74.425556820  163.418433750    64.4641   6  11   0.0886   0.0922   0.3325  -0.0460   0.1183  -0.0995   4.00    0.0
2018/11/14 00:18:00.000  -74.425557051  163.418434431    64.5330   6  11   0.0755   0.0780   0.2844  -0.0401   0.0998  -0.0860   4.00    0.0
2018/11/14 00:18:30.000  -74.425557301  163.418433948    64.5742   6  11   0.0599   0.0634   0.2352  -0.0334   0.0814  -0.0753   4.00    0.0
2018/11/14 00:19:00.000  -74.425557486  163.418434934    64.6739   6  11   0.0485   0.0492   0.1905  -0.0282   0.0621  -0.0606   4.00    0.0
2018/11/14 00:19:30.000  -74.425557481  163.418435352    64.6714   6  11   0.0393   0.0368   0.1534  -0.0238   0.0433  -0.0468   4.00    0.0
2018/11/14 00:20:00.000  -74.425557609  163.418435354    64.7068   6  11   0.0339   0.0308   0.1345  -0.0211   0.0299  -0.0370   4.00    0.0
2018/11/14 00:20:30.000  -74.425557545  163.418434376    64.7518   6  11   0.0446   0.0397   0.1850  -0.0279   0.0475  -0.0639   4.00    0.0
2018/11/14 00:21:00.000  -74.425557351  163.418434313    64.6469   6  11   0.0611   0.0562   0.2554  -0.0377   0.0677  -0.0930   0.00    0.0
2018/11/14 00:21:30.000  -74.425557282  163.418433961    64.5581   6  11   0.0785   0.0631   0.3339  -0.0404   0.0877  -0.1243   0.00    0.0
2018/11/14 00:22:00.000  -74.425557226  163.418433935    64.4979   6  10   0.1057   0.0798   0.4745  -0.0570   0.1262  -0.1834   0.00    0.0
2018/11/14 00:22:30.000  -74.425557076  163.418434312    64.4609   6  10   0.1257   0.0939   0.5630  -0.0677   0.1532  -0.2204   1.00    0.0
2018/11/14 00:23:00.000  -74.425557225  163.418433761    64.4885   6  10   0.1106   0.0794   0.5407  -0.0582   0.1312  -0.2016   1.00    0.0
2018/11/14 00:23:30.000  -74.425557831  163.418434580    64.7821   6  10   0.0939   0.0643   0.3528  -0.0488   0.1063  -0.1529   0.00    0.0
2018/11/14 00:24:00.000  -74.425557938  163.418434565    64.7701   6  10   0.0652   0.0491   0.2900  -0.0357   0.0804  -0.1153   0.00    0.0
2018/11/14 00:24:30.000  -74.425557811  163.418434902    64.7525   6  10   0.0456   0.0358   0.1767  -0.0255   0.0536  -0.0735   0.00    0.0
2018/11/14 00:25:00.000  -74.425557697  163.418435214    64.6949   6  10   0.0364   0.0293   0.1381  -0.0210   0.0408  -0.0551   0.00    0.0
2018/11/14 00:25:30.000  -74.425557362  163.418433888    64.5478   6  10   0.0522   0.0388   0.1945  -0.0308   0.0592  -0.0843   0.00    0.0
2018/11/14 00:26:00.000  -74.425557376  163.418434212    64.5874   6   9   0.0751   0.0546   0.2767  -0.0440   0.0843  -0.1229   1.00    0.0
2018/11/14 00:26:30.000  -74.425556954  163.418433882    64.5196   6   9   0.1028   0.0737   0.3668  -0.0605   0.1135  -0.1670   2.00    0.0
2018/11/14 00:27:00.000  -74.425557319  163.418434910    64.6315   6   9   0.1134   0.0913   0.4595  -0.0701   0.1425  -0.1982   3.00    0.0
2018/11/14 00:27:30.000  -74.425557079  163.418435229    64.5031   6   9   0.1256   0.0918   0.5243  -0.0656   0.1439  -0.2199   3.00    0.0
2018/11/14 00:28:00.000  -74.425557421  163.418436234    64.6218   6   9   0.1034   0.0757   0.4330  -0.0517   0.1145  -0.1794   4.00    0.0
2018/11/14 00:28:30.000  -74.425557623  163.418435222    64.7575   6  10   0.0632   0.0604   0.2398  -0.0359   0.0800  -0.0834   4.00    0.0
2018/11/14 00:29:00.000  -74.425557674  163.418435056    64.7173   6  10   0.0481   0.0461   0.1844  -0.0269   0.0594  -0.0627   4.00    0.0
2018/11/14 00:29:30.000  -74.425557822  163.418435434    64.6888   6  10   0.0352   0.0336   0.1379  -0.0194   0.0411  -0.0454   4.00    0.0
2018/11/14 00:30:00.000  -74.425557852  163.418435296    64.7123   6  10   0.0286   0.0273   0.1176  -0.0157   0.0314  -0.0364   4.00    0.0
2018/11/14 00:30:30.000  -74.425557769  163.418435789    64.7433   6  10   0.0355   0.0338   0.1484  -0.0198   0.0408  -0.0454   4.00    0.0
2018/11/14 00:31:00.000  -74.425557603  163.418435158    64.7265   6  10   0.0477   0.0455   0.1991  -0.0261   0.0565  -0.0608   4.00    0.0
2018/11/14 00:31:30.000  -74.425557392  163.418434415    64.6344   6  10   0.0613   0.0582   0.2533  -0.0326   0.0723  -0.0775   4.00    0.0
2018/11/14 00:32:00.000  -74.425557148  163.418434016    64.5048   6  10   0.0747   0.0707   0.3077  -0.0390   0.0874  -0.0944   4.00    0.0
2018/11/14 00:32:30.000  -74.425556915  163.418433900    64.4170   6  10   0.0879   0.0829   0.3626  -0.0453   0.1023  -0.1113   4.00    0.0
2018/11/14 00:33:00.000  -74.425557075  163.418434047    64.4492   6  10   0.0747   0.0702   0.3436  -0.0385   0.0861  -0.0950   4.00    0.0
2018/11/14 00:33:30.000  -74.425557336  163.418433975    64.5774   6  10   0.0612   0.0575   0.2586  -0.0320   0.0710  -0.0788   0.00    0.0
2018/11/14 00:34:00.000  -74.425557488  163.418434398    64.6717   6  10   0.0478   0.0448   0.2302  -0.0255   0.0555  -0.0628   0.00    0.0
2018/11/14 00:34:30.000  -74.425557599  163.418434367    64.6421   6  10   0.0358   0.0336   0.1405  -0.0197   0.0378  -0.0442   0.00    0.0
2018/11/14 00:35:00.000  -74.425557805  163.418435134    64.6456   6  10   0.0305   0.0286   0.1270  -0.0179   0.0297  -0.0371   0.00    0.0
2018/11/14 00:35:30.000  -74.425557592  163.418434780    64.6284   6  10   0.0394   0.0371   0.1326  -0.0246   0.0448  -0.0506   0.00    0.0
2018/11/14 00:36:00.000  -74.425557505  163.418434544    64.5470   6  10   0.0533   0.0491   0.1795  -0.0322   0.0592  -0.0674   0.00    0.0
2018/11/14 00:36:30.000  -74.425557239  163.418434336    64.4792   6  10   0.0690   0.0634   0.2306  -0.0413   0.0752  -0.0861   0.00    0.0
2018/11/14 00:37:00.000  -74.425557049  163.418434473    64.4745   6  10   0.0877   0.0801   0.2832  -0.0536   0.0939  -0.1083   2.00    0.0
2018/11/14 00:37:30.000  -74.425557168  163.418434895    64.5116   6  10   0.1050   0.0906   0.3385  -0.0614   0.1108  -0.1323   3.00    0.0
2018/11/14 00:38:00.000  -74.425557467  163.418434804    64.5159   6  10   0.0815   0.0801   0.2831  -0.0507   0.0933  -0.1048   3.00    0.0
2018/11/14 00:38:30.000  -74.425557577  163.418435115    64.5216   6  10   0.0638   0.0559   0.2268  -0.0314   0.0653  -0.0806   3.00    0.0
2018/11/14 00:39:00.000  -74.425557621  163.418435152    64.5306   6  10   0.0528   0.0431   0.1763  -0.0250   0.0500  -0.0659   3.00    0.0
2018/11/14 00:39:30.000  -74.425557728  163.418434927    64.5999   6  10   0.0382   0.0318   0.1272  -0.0179   0.0354  -0.0474   3.00    0.0
2018/11/14 00:40:00.000  -74.425557842  163.418434963    64.6485   6  10   0.0298   0.0262   0.0997  -0.0143   0.0269  -0.0358   3.00    0.0
2018/11/14 00:40:30.000  -74.425557694  163.418435086    64.5737   6  10   0.0383   0.0341   0.1263  -0.0200   0.0375  -0.0472   4.00    0.0
2018/11/14 00:41:00.000  -74.425557438  163.418435086    64.5644   6  10   0.0529   0.0446   0.1718  -0.0250   0.0490  -0.0650   5.00    0.0
2018/11/14 00:41:30.000  -74.425557239  163.418435359    64.5730   6  10   0.0686   0.0578   0.2217  -0.0314   0.0632  -0.0843   5.00    0.0
2018/11/14 00:42:00.000  -74.425557159  163.418435162    64.5589   6  10   0.0743   0.0661   0.2647  -0.0342   0.0710  -0.0921   5.00    0.0
2018/11/14 00:42:30.000  -74.425557109  163.418435979    64.6001   6  10   0.0867   0.0771   0.3114  -0.0390   0.0817  -0.1073   5.00    0.0
2018/11/14 00:43:00.000  -74.425557165  163.418435611    64.5750   6  10   0.0733   0.0654   0.2622  -0.0327   0.0674  -0.0896   5.00    0.0
2018/11/14 00:43:30.000  -74.425557278  163.418435039    64.5267   6  10   0.0600   0.0538   0.2131  -0.0273   0.0540  -0.0727   5.00    0.0
2018/11/14 00:44:00.000  -74.425557533  163.418434605    64.5690   6  10   0.0475   0.0433   0.1650  -0.0235   0.0424  -0.0568   5.00    0.0
2018/11/14 00:44:30.000  -74.425557723  163.418434571    64.5442   6  10   0.0335   0.0300   0.1189  -0.0136   0.0262  -0.0385   5.00    0.0
2018/11/14 00:45:00.000  -74.425557855  163.418434846    64.6399   6  10   0.0268   0.0243   0.0957  -0.0107   0.0185  -0.0293   5.00    0.0
2018/11/14 00:45:30.000  -74.425557875  163.418435107    64.6178   6  10   0.0335   0.0300   0.1207  -0.0135   0.0247  -0.0383   5.00    0.0
2018/11/14 00:46:00.000  -74.425557729  163.418434625    64.6138   6  10   0.0454   0.0403   0.1630  -0.0181   0.0346  -0.0531   6.00    0.0
2018/11/14 00:46:30.000  -74.425557651  163.418435308    64.5990   6  10   0.0582   0.0515   0.2084  -0.0227   0.0444  -0.0685   5.00    0.0
2018/11/14 00:47:00.000  -74.425557458  163.418435556    64.5407   6  10   0.0710   0.0626   0.2540  -0.0271   0.0537  -0.0839   6.00    0.0
2018/11/14 00:47:30.000  -74.425557374  163.418436102    64.5037   6  10   0.0835   0.0734   0.2999  -0.0316   0.0626  -0.0994   6.00    0.0
2018/11/14 00:48:00.000  -74.425557498  163.418435813    64.5138   6  10   0.0709   0.0622   0.2528  -0.0261   0.0505  -0.0832   6.00    0.0
2018/11/14 00:48:30.000  -74.425557487  163.418435134    64.4815   6  10   0.0579   0.0509   0.2060  -0.0211   0.0392  -0.0672   6.00    0.0
2018/11/14 00:49:00.000  -74.425557590  163.418434792    64.5549   6  10   0.0450   0.0397   0.1606  -0.0164   0.0284  -0.0514   6.00    0.0
2018/11/14 00:49:30.000  -74.425557653  163.418434831    64.5512   6  11   0.0308   0.0292   0.1105  -0.0093   0.0089  -0.0268   6.00    0.0
2018/11/14 00:50:00.000  -74.425557804  163.418434771    64.6137   6  11   0.0262   0.0246   0.1000  -0.0095   0.0035  -0.0240   7.00    0.0
2018/11/14 00:50:30.000  -74.425557822  163.418435383    64.5788   6  11   0.0317   0.0318   0.1378  -0.0129  -0.0207  -0.0213   7.00    0.0
2018/11/14 00:51:00.000  -74.425557717  163.418434830    64.5168   6  11   0.0412   0.0439   0.1947  -0.0168  -0.0398  -0.0084   0.00    0.0
2018/11/14 00:51:30.000  -74.425557544  163.418435165    64.5430   6  11   0.0502   0.0494   0.1811  -0.0090  -0.0194  -0.0353   0.00    0.0
2018/11/14 00:52:00.000  -74.425557410  163.418435673    64.5148   6  11   0.0603   0.0597   0.2151  -0.0075  -0.0246  -0.0403   0.00    0.0
2018/11/14 00:52:30.000  -74.425557339  163.418435789    64.4523   6  11   0.0703   0.0698   0.2499  -0.0053  -0.0303  -0.0460   0.00    0.0
2018/11/14 00:53:00.000  -74.425557402  163.418435227    64.4959   6  12   0.0593   0.0568   0.2027  -0.0149  -0.0413  -0.0490   4.00    0.0
2018/11/14 00:53:30.000  -74.425557486  163.418434967    64.5171   6  12   0.0496   0.0467   0.1673  -0.0132  -0.0331  -0.0429   5.00    0.0
2018/11/14 00:54:00.000  -74.425557615  163.418435063    64.5251   6  12   0.0404   0.0369   0.1341  -0.0117  -0.0241  -0.0373   5.00    0.0
2018/11/14 00:54:30.000  -74.425557739  163.418434997    64.5445   6  12   0.0330   0.0284   0.1075  -0.0110  -0.0146  -0.0335   5.00    0.0
2018/11/14 00:55:00.000  -74.425557820  163.418435008    64.5630   6  12   0.0274   0.0244   0.0937  -0.0101  -0.0127  -0.0256   5.00    0.0
2018/11/14 00:55:30.000  -74.425557779  163.418434938    64.4913   6  12   0.0317   0.0281   0.1279  -0.0095  -0.0231  -0.0297   5.00    0.0
2018/11/14 00:56:00.000  -74.425557700  163.418435388    64.5326   6  12   0.0414   0.0364   0.1308  -0.0122  -0.0190  -0.0405   0.00    0.0
2018/11/14 00:56:30.000  -74.425557685  163.418435775    64.4927   6  12   0.0524   0.0462   0.1694  -0.0153  -0.0278  -0.0519   0.00    0.0
2018/11/14 00:57:00.000  -74.425557477  163.418436128    64.4961   6  12   0.0653   0.0562   0.2114  -0.0197  -0.0341  -0.0679   1.00    0.0
2018/11/14 00:57:30.000  -74.425557513  163.418436320    64.4022   6  12   0.0738   0.0657   0.2466  -0.0201  -0.0455  -0.0742   1.00    0.0
2018/11/14 00:58:00.000  -74.425557473  163.418435590    64.3606   6  12   0.0662   0.0562   0.2137  -0.0202  -0.0338  -0.0703   4.00    0.0
2018/11/14 00:58:30.000  -74.425557472  163.418435032    64.4305   6  12   0.0549   0.0463   0.1739  -0.0170  -0.0258  -0.0581   5.00    0.0
2018/11/14 00:59:00.000  -74.425557686  163.418434814    64.4610   6  12   0.0399   0.0362   0.1255  -0.0109  -0.0215  -0.0360   6.00    0.0
2018/11/14 00:59:30.000  -74.425557966  163.418434556    64.6386   1  12   0.0346   0.0261   0.0981  -0.0079   0.0142  -0.0371   6.00    1.0
2018/11/14 01:00:00.000  -74.425557959  163.418434401    64.6961   1  12   0.0282   0.0204   0.0708  -0.0047   0.0194  -0.0286   6.00    1.0
2018/11/14 01:00:30.000  -74.425557946  163.418434038    64.6943   1  12   0.0317   0.0275   0.0920  -0.0071  -0.0041  -0.0286   7.00    1.0
2018/11/14 01:01:00.000  -74.425557986  163.418433000    64.6616   1  12   0.0422   0.0401   0.1375  -0.0128  -0.0295  -0.0366   6.00    1.0
2018/11/14 01:01:30.000  -74.425557679  163.418434322    64.4828   6  12   0.0481   0.0477   0.1569  -0.0151  -0.0355  -0.0360   5.00    0.0
2018/11/14 01:02:00.000  -74.425557598  163.418434408    64.4454   6  12   0.0578   0.0575   0.1935  -0.0172  -0.0455  -0.0436   5.00    0.0
2018/11/14 01:02:30.000  -74.425557610  163.418435263    64.4980   6  12   0.0675   0.0674   0.2306  -0.0193  -0.0561  -0.0515   5.00    0.0
2018/11/14 01:03:00.000  -74.425557572  163.418434864    64.5580   6  12   0.0586   0.0602   0.1964  -0.0214  -0.0510  -0.0406   6.00    0.0
2018/11/14 01:03:30.000  -74.425557519  163.418434611    64.5400   6  12   0.0485   0.0490   0.1581  -0.0168  -0.0360  -0.0370   6.00    0.0
2018/11/14 01:04:00.000  -74.425557660  163.418434205    64.5280   6  12   0.0390   0.0385   0.1215  -0.0134  -0.0255  -0.0304   5.00    0.0
2018/11/14 01:04:30.000  -74.425557917  163.418433986    64.6370   1  12   0.0324   0.0280   0.0933  -0.0067  -0.0058  -0.0305   6.00    1.0
2018/11/14 01:05:00.000  -74.425557966  163.418434435    64.6921   1  12   0.0270   0.0204   0.0699   0.0051   0.0146  -0.0264   7.00    1.0
2018/11/14 01:05:30.000  -74.425557951  163.418434927    64.7752   1  12   0.0324   0.0272   0.0954  -0.0028  -0.0126  -0.0309   7.00    1.0
2018/11/14 01:06:00.000  -74.425557558  163.418435352    64.6803   6  12   0.0385   0.0377   0.1234  -0.0108  -0.0305  -0.0287   5.00    0.0
2018/11/14 01:06:30.000  -74.425557730  163.418435235    64.5799   6  12   0.0480   0.0489   0.1612  -0.0151  -0.0444  -0.0327   5.00    0.0
2018/11/14 01:07:00.000  -74.425557577  163.418435909    64.5749   6  12   0.0577   0.0605   0.2014  -0.0192  -0.0597  -0.0369   5.00    0.0
2018/11/14 01:07:30.000  -74.425557430  163.418435970    64.5479   6  12   0.0665   0.0673   0.2346  -0.0155  -0.0639  -0.0496   6.00    0.0
2018/11/14 01:08:00.000  -74.425557456  163.418435359    64.6506   6  12   0.0570   0.0573   0.1964  -0.0137  -0.0529  -0.0419   6.00    0.0
2018/11/14 01:08:30.000  -74.425557439  163.418435610    64.6362   6  12   0.0479   0.0492   0.1624  -0.0150  -0.0471  -0.0319   6.00    0.0
2018/11/14 01:09:00.000  -74.425557620  163.418435523    64.5828   6  12   0.0387   0.0388   0.1259  -0.0118  -0.0356  -0.0271   6.00    0.0
2018/11/14 01:09:30.000  -74.425557938  163.418434130    64.6945   1  12   0.0331   0.0283   0.0985  -0.0033  -0.0193  -0.0316   7.00    1.0
2018/11/14 01:10:00.000  -74.425557920  163.418434197    64.6952   1  12   0.0283   0.0209   0.0731   0.0065   0.0132  -0.0302   7.00    1.0
2018/11/14 01:10:30.000  -74.425557856  163.418434388    64.6818   1  12   0.0342   0.0279   0.0990   0.0014  -0.0155  -0.0352   7.00    1.0
2018/11/14 01:11:00.000  -74.425557409  163.418435008    64.5160   6  12   0.0391   0.0374   0.1236  -0.0096  -0.0316  -0.0309   6.00    0.0
2018/11/14 01:11:30.000  -74.425557436  163.418435476    64.5183   6  12   0.0479   0.0472   0.1587  -0.0114  -0.0429  -0.0357   6.00    0.0
2018/11/14 01:12:00.000  -74.425557464  163.418435801    64.5493   6  12   0.0571   0.0574   0.1953  -0.0136  -0.0551  -0.0412   6.00    0.0
2018/11/14 01:12:30.000  -74.425557464  163.418435491    64.5521   6  12   0.0669   0.0690   0.2352  -0.0181  -0.0710  -0.0455   7.00    0.0
2018/11/14 01:13:00.000  -74.425557379  163.418435574    64.5074   6  12   0.0570   0.0560   0.1936  -0.0089  -0.0523  -0.0438   7.00    0.0
2018/11/14 01:13:30.000  -74.425557338  163.418435328    64.5204   6  12   0.0481   0.0458   0.1564  -0.0074  -0.0398  -0.0384   7.00    0.0
2018/11/14 01:14:00.000  -74.425557403  163.418434914    64.5280   6  12   0.0407   0.0365   0.1224  -0.0083  -0.0290  -0.0347   7.00    0.0
2018/11/14 01:14:30.000  -74.425557838  163.418434018    64.6959   1  12   0.0331   0.0274   0.0983   0.0085  -0.0157  -0.0353   5.00    1.0
2018/11/14 01:15:00.000  -74.425558000  163.418433945    64.6978   1  12   0.0287   0.0220   0.0771   0.0084   0.0093  -0.0324   5.00    1.0
2018/11/14 01:15:30.000  -74.425557920  163.418434606    64.7025   1  12   0.0347   0.0292   0.1025   0.0052  -0.0168  -0.0380   5.00    1.0
2018/11/14 01:16:00.000  -74.425557534  163.418435718    64.5137   6  12   0.0388   0.0380   0.1228  -0.0084  -0.0294  -0.0324   6.00    0.0
2018/11/14 01:16:30.000  -74.425557435  163.418435282    64.5027   6  12   0.0475   0.0477   0.1554  -0.0107  -0.0366  -0.0384   6.00    0.0
2018/11/14 01:17:00.000  -74.425557397  163.418435254    64.4413   6  12   0.0566   0.0557   0.1878  -0.0097  -0.0479  -0.0447   6.00    0.0
2018/11/14 01:17:30.000  -74.425557296  163.418435304    64.4407   6  12   0.0659   0.0650   0.2211  -0.0105  -0.0577  -0.0521   6.00    0.0
2018/11/14 01:18:00.000  -74.425557280  163.418435450    64.4825   6  12   0.0574   0.0569   0.1877  -0.0143  -0.0466  -0.0456   6.00    0.0
2018/11/14 01:18:30.000  -74.425557502  163.418435650    64.5077   6  12   0.0472   0.0456   0.1543  -0.0049  -0.0407  -0.0368   6.00    0.0
2018/11/14 01:19:00.000  -74.425557616  163.418435616    64.5229   6  12   0.0386   0.0368   0.1238  -0.0030  -0.0336  -0.0310   6.00    0.0
2018/11/14 01:19:30.000  -74.425558030  163.418434191    64.6873   1  12   0.0355   0.0300   0.1108   0.0080  -0.0283  -0.0379   5.00    1.0
2018/11/14 01:20:00.000  -74.425558034  163.418434311    64.6700   1  12   0.0311   0.0221   0.0861   0.0107  -0.0071  -0.0384   5.00    1.0
2018/11/14 01:20:30.000  -74.425557893  163.418434521    64.6538   1  12   0.0384   0.0292   0.1133   0.0094  -0.0227  -0.0445   5.00    1.0
2018/11/14 01:21:00.000  -74.425557344  163.418435543    64.4457   6  12   0.0407   0.0372   0.1265  -0.0026  -0.0330  -0.0324   6.00    0.0
2018/11/14 01:21:30.000  -74.425557350  163.418435735    64.3567   6  12   0.0490   0.0459   0.1556  -0.0007  -0.0411  -0.0352   6.00    0.0
2018/11/14 01:22:00.000  -74.425557322  163.418436041    64.3337   6  12   0.0578   0.0549   0.1860   0.0044  -0.0495  -0.0398   6.00    0.0
2018/11/14 01:22:30.000  -74.425557511  163.418435913    64.3809   6  12   0.0671   0.0639   0.2173   0.0069  -0.0583  -0.0455   6.00    0.0
2018/11/14 01:23:00.000  -74.425557587  163.418435454    64.4291   6  12   0.0599   0.0557   0.1889   0.0081  -0.0475  -0.0343   7.00    0.0
2018/11/14 01:23:30.000  -74.425557689  163.418435388    64.4234   6  11   0.0522   0.0478   0.1598  -0.0069  -0.0381  -0.0311   6.00    0.0
2018/11/14 01:24:00.000  -74.425557672  163.418435552    64.4657   6  11   0.0434   0.0376   0.1308   0.0038  -0.0363  -0.0270   5.00    0.0
2018/11/14 01:24:30.000  -74.425558094  163.418434351    64.6828   1  11   0.0413   0.0319   0.1268   0.0100  -0.0360  -0.0426   4.00    1.0
2018/11/14 01:25:00.000  -74.425558057  163.418434335    64.6821   1  10   0.0348   0.0240   0.1025   0.0140  -0.0213  -0.0464   4.00    1.0
2018/11/14 01:25:30.000  -74.425557382  163.418435594    64.4549   6  10   0.0387   0.0319   0.1223   0.0092  -0.0385  -0.0400   4.00    0.0
2018/11/14 01:26:00.000  -74.425557398  163.418436367    64.4169   6   9   0.0539   0.0441   0.1807   0.0159  -0.0629  -0.0572   4.00    0.0
2018/11/14 01:26:30.000  -74.425557590  163.418436452    64.4765   6   9   0.0589   0.0574   0.2342   0.0218  -0.0869  -0.0596   4.00    0.0
2018/11/14 01:27:00.000  -74.425557415  163.418436511    64.5345   6   9   0.0713   0.0712   0.2943   0.0278  -0.1118  -0.0729   4.00    0.0
2018/11/14 01:27:30.000  -74.425557296  163.418436371    64.3922   6   9   0.0843   0.0856   0.3563   0.0341  -0.1377  -0.0876   4.00    0.0
2018/11/14 01:28:00.000  -74.425557124  163.418436169    64.3492   6   9   0.0716   0.0715   0.2993   0.0282  -0.1128  -0.0768   4.00    0.0
2018/11/14 01:28:30.000  -74.425557243  163.418435381    64.3694   6   9   0.0606   0.0580   0.2510   0.0225  -0.0888  -0.0716   4.00    0.0
2018/11/14 01:29:00.000  -74.425557667  163.418434220    64.6272   6   9   0.0444   0.0451   0.1808   0.0189  -0.0678  -0.0465   4.00    0.0
2018/11/14 01:29:30.000  -74.425558058  163.418433300    64.7427   1   9   0.0331   0.0356   0.1393   0.0183  -0.0500  -0.0390   4.00    1.0
2018/11/14 01:30:00.000  -74.425558095  163.418433938    64.6793   1   9   0.0237   0.0266   0.0963   0.0156  -0.0292  -0.0304   4.00    1.0
2018/11/14 01:30:30.000  -74.425557629  163.418435328    64.4923   6   9   0.0337   0.0362   0.1394   0.0177  -0.0523  -0.0418   5.00    0.0
2018/11/14 01:31:00.000  -74.425557599  163.418434808    64.4614   6   9   0.0476   0.0460   0.2008   0.0212  -0.0715  -0.0609   4.00    0.0
2018/11/14 01:31:30.000  -74.425557826  163.418434383    64.5394   6   9   0.0583   0.0601   0.2501   0.0281  -0.0973  -0.0676   4.00    0.0
2018/11/14 01:32:00.000  -74.425557634  163.418435075    64.4514   6   9   0.0711   0.0744   0.3072   0.0343  -0.1225  -0.0800   4.00    0.0
2018/11/14 01:32:30.000  -74.425557727  163.418435630    64.4293   6   9   0.0842   0.0891   0.3665   0.0407  -0.1484  -0.0933   4.00    0.0
2018/11/14 01:33:00.000  -74.425557835  163.418434755    64.4920   6   9   0.0707   0.0746   0.3044   0.0342  -0.1227  -0.0779   4.00    0.0
2018/11/14 01:33:30.000  -74.425557603  163.418435035    64.4480   6   9   0.0573   0.0603   0.2432   0.0277  -0.0971  -0.0625   4.00    0.0
2018/11/14 01:34:00.000  -74.425557511  163.418435457    64.3925   6   9   0.0441   0.0463   0.1834   0.0210  -0.0715  -0.0473   5.00    0.0
2018/11/14 01:34:30.000  -74.425557664  163.418435076    64.4678   6   9   0.0316   0.0332   0.1274   0.0142  -0.0461  -0.0330   4.00    0.0
2018/11/14 01:35:00.000  -74.425558217  163.418433513    64.7326   1   9   0.0233   0.0252   0.0969   0.0136  -0.0247  -0.0296   5.00    1.0
2018/11/14 01:35:30.000  -74.425557816  163.418434100    64.4928   6   9   0.0333   0.0334   0.1355   0.0155  -0.0478  -0.0396   4.00    0.0
2018/11/14 01:36:00.000  -74.425557634  163.418434732    64.4112   6   9   0.0468   0.0466   0.1958   0.0228  -0.0736  -0.0579   4.00    0.0
2018/11/14 01:36:30.000  -74.425557664  163.418435397    64.3827   6   9   0.0607   0.0609   0.2589   0.0302  -0.0999  -0.0761   4.00    0.0
2018/11/14 01:37:00.000  -74.425557527  163.418435740    64.2937   6   9   0.0755   0.0758   0.3273   0.0382  -0.1276  -0.0970   4.00    0.0
2018/11/14 01:37:30.000  -74.425557279  163.418435938    64.1421   6   9   0.0922   0.0912   0.4069   0.0476  -0.1577  -0.1248   5.00    0.0
2018/11/14 01:38:00.000  -74.425557491  163.418435593    64.2803   6   8   0.0914   0.0794   0.4241   0.0519  -0.1505  -0.1529   5.00    0.0
2018/11/14 01:38:30.000  -74.425557544  163.418435170    64.4149   6   8   0.0728   0.0640   0.3333   0.0413  -0.1185  -0.1196   5.00    0.0
2018/11/14 01:39:00.000  -74.425557777  163.418434097    64.6137   6   9   0.0425   0.0457   0.1795   0.0184  -0.0682  -0.0427   5.00    0.0
2018/11/14 01:39:30.000  -74.425557881  163.418433438    64.6507   6   9   0.0311   0.0332   0.1276   0.0134  -0.0455  -0.0318   5.00    0.0
2018/11/14 01:40:00.000  -74.425558082  163.418433286    64.6682   1   9   0.0244   0.0261   0.1067   0.0140  -0.0279  -0.0343   5.00    1.0
2018/11/14 01:40:30.000  -74.425557630  163.418434235    64.4523   6   9   0.0346   0.0345   0.1419   0.0165  -0.0506  -0.0440   5.00    0.0
2018/11/14 01:41:00.000  -74.425557307  163.418435677    64.2664   6   9   0.0495   0.0480   0.2057   0.0248  -0.0770  -0.0663   5.00    0.0
2018/11/14 01:41:30.000  -74.425557323  163.418435458    64.3346   6   9   0.0685   0.0639   0.3068   0.0374  -0.1126  -0.1052   5.00    0.0
2018/11/14 01:42:00.000  -74.425557219  163.418436407    64.1960   6   9   0.0818   0.0783   0.3641   0.0437  -0.1369  -0.1206   5.00    0.0
2018/11/14 01:42:30.000  -74.425557127  163.418436670    64.1656   6   9   0.0980   0.0940   0.4390   0.0527  -0.1664  -0.1456   5.00    0.0
2018/11/14 01:43:00.000  -74.425557981  163.418433628    64.6110   6   9   0.0716   0.0778   0.3137   0.0312  -0.1242  -0.0825   5.00    0.0
2018/11/14 01:43:30.000  -74.425557849  163.418433100    64.6218   6   9   0.0561   0.0613   0.2441   0.0266  -0.0965  -0.0615   5.00    0.0
2018/11/14 01:44:00.000  -74.425557788  163.418433738    64.5275   6   9   0.0429   0.0466   0.1825   0.0206  -0.0706  -0.0460   5.00    0.0
2018/11/14 01:44:30.000  -74.425557921  163.418433558    64.5167   6   9   0.0314   0.0337   0.1300   0.0150  -0.0470  -0.0342   5.00    0.0
2018/11/14 01:45:00.000  -74.425558208  163.418433172    64.6729   1   9   0.0246   0.0263   0.1127   0.0155  -0.0300  -0.0375   5.00    1.0
2018/11/14 01:45:30.000  -74.425557873  163.418435193    64.4570   6   9   0.0337   0.0339   0.1355   0.0172  -0.0487  -0.0414   5.00    0.0
2018/11/14 01:46:00.000  -74.425558104  163.418434062    64.5668   6   9   0.0458   0.0464   0.1862   0.0235  -0.0713  -0.0550   5.00    1.0
2018/11/14 01:46:30.000  -74.425557831  163.418435110    64.4008   6   9   0.0581   0.0603   0.2422   0.0300  -0.0954  -0.0685   5.00    0.0
2018/11/14 01:47:00.000  -74.425557903  163.418435365    64.4032   6   9   0.0707   0.0747   0.3018   0.0367  -0.1205  -0.0831   5.00    0.0
2018/11/14 01:47:30.000  -74.425557885  163.418434367    64.4315   6   9   0.0836   0.0894   0.3636   0.0437  -0.1463  -0.0987   5.00    0.0
2018/11/14 01:48:00.000  -74.425557911  163.418434847    64.5029   6   9   0.0733   0.0754   0.3121   0.0395  -0.1237  -0.0927   5.00    0.0
2018/11/14 01:48:30.000  -74.425557787  163.418435476    64.3777   6   9   0.0647   0.0617   0.2661   0.0360  -0.1024  -0.0895   5.00    0.0
2018/11/14 01:49:00.000  -74.425558241  163.418434440    64.5598   6   9   0.0494   0.0478   0.2098   0.0281  -0.0783  -0.0703   5.00    0.0
2018/11/14 01:49:30.000  -74.425558205  163.418433981    64.5755   6   9   0.0389   0.0349   0.1562   0.0217  -0.0547  -0.0574   5.00    0.0
2018/11/14 01:50:00.000  -74.425558254  163.418433140    64.6964   1   9   0.0204   0.0266   0.0911   0.0138  -0.0255  -0.0233   5.00    1.0
2018/11/14 01:50:30.000  -74.425558156  163.418433237    64.6557   1   9   0.0306   0.0370   0.1369   0.0187  -0.0503  -0.0346   5.00    1.0
2018/11/14 01:51:00.000  -74.425558005  163.418434241    64.5658   6   9   0.0414   0.0454   0.1659   0.0214  -0.0657  -0.0405   5.00    0.0
2018/11/14 01:51:30.000  -74.425558055  163.418434903    64.5425   6   9   0.0540   0.0592   0.2239   0.0288  -0.0904  -0.0568   5.00    0.0
2018/11/14 01:52:00.000  -74.425558025  163.418434301    64.5272   6   9   0.0670   0.0737   0.2849   0.0366  -0.1160  -0.0742   5.00    0.0
2018/11/14 01:52:30.000  -74.425558068  163.418434290    64.5444   6   9   0.0803   0.0884   0.3475   0.0446  -0.1420  -0.0923   5.00    0.0
2018/11/14 01:53:00.000  -74.425557864  163.418435895    64.4438   6   9   0.0674   0.0735   0.2852   0.0374  -0.1160  -0.0762   5.00    0.0
2018/11/14 01:53:30.000  -74.425557690  163.418437040    64.2864   6   9   0.0546   0.0591   0.2239   0.0300  -0.0902  -0.0597   5.00    0.0
2018/11/14 01:54:00.000  -74.425557765  163.418437014    64.2993   6   9   0.0418   0.0452   0.1647   0.0225  -0.0650  -0.0430   5.00    0.0
2018/11/14 01:54:30.000  -74.425558005  163.418435203    64.4967   1   9   0.0311   0.0371   0.1373   0.0196  -0.0501  -0.0375   5.00    1.0
2018/11/14 01:55:00.000  -74.425558296  163.418432965    64.6647   1   9   0.0207   0.0271   0.0910   0.0138  -0.0252  -0.0241   5.00    1.0
2018/11/14 01:55:30.000  -74.425558150  163.418433561    64.6106   1   9   0.0313   0.0371   0.1372   0.0198  -0.0499  -0.0378   5.00    1.0
2018/11/14 01:56:00.000  -74.425558270  163.418433512    64.5640   6   9   0.0418   0.0444   0.1611   0.0224  -0.0627  -0.0428   5.00    0.0
2018/11/14 01:56:30.000  -74.425558309  163.418433741    64.5548   6   9   0.0549   0.0581   0.2200   0.0308  -0.0877  -0.0619   5.00    0.0
2018/11/14 01:57:00.000  -74.425558646  163.418432655    64.7245   6   9   0.0685   0.0724   0.2813   0.0395  -0.1133  -0.0817   5.00    0.0
2018/11/14 01:57:30.000  -74.425558765  163.418431820    64.8757   6   9   0.0824   0.0870   0.3435   0.0484  -0.1391  -0.1021   5.00    0.0
2018/11/14 01:58:00.000  -74.425558873  163.418431275    64.9406   6   9   0.0689   0.0724   0.2807   0.0403  -0.1130  -0.0838   5.00    0.0
2018/11/14 01:58:30.000  -74.425558763  163.418431237    64.9057   6   9   0.0555   0.0580   0.2186   0.0319  -0.0869  -0.0646   5.00    0.0
2018/11/14 01:59:00.000  -74.425558623  163.418432057    64.7583   6   9   0.0423   0.0442   0.1591   0.0234  -0.0615  -0.0456   5.00    0.0
2018/11/14 01:59:30.000  -74.425558543  163.418431754    64.7418   1   9   0.0320   0.0324   0.1362   0.0200  -0.0489  -0.0405   5.00    2.0
2018/11/14 02:00:00.000  -74.425558263  163.418432436    64.7102   1   9   0.0211   0.0199   0.0904   0.0129  -0.0240  -0.0246   5.00    2.0
2018/11/14 02:00:30.000  -74.425558111  163.418433170    64.6284   1   9   0.0322   0.0323   0.1359   0.0200  -0.0478  -0.0407   5.00    2.0
2018/11/14 02:01:00.000  -74.425558445  163.418433046    64.6348   6   9   0.0424   0.0435   0.1560   0.0232  -0.0592  -0.0457   5.00    0.0
2018/11/14 02:01:30.000  -74.425558545  163.418431818    64.7254   6   9   0.0560   0.0569   0.2134   0.0322  -0.0836  -0.0664   4.00    0.0
2018/11/14 02:02:00.000  -74.425558612  163.418431056    64.7888   6   9   0.0702   0.0708   0.2726   0.0415  -0.1084  -0.0876   4.00    0.0
2018/11/14 02:02:30.000  -74.425558581  163.418432016    64.6807   6   9   0.0847   0.0850   0.3322   0.0509  -0.1330  -0.1091   4.00    0.0
2018/11/14 02:03:00.000  -74.425558396  163.418432859    64.5758   6   9   0.0705   0.0703   0.2700   0.0417  -0.1069  -0.0881   4.00    0.0
2018/11/14 02:03:30.000  -74.425558400  163.418432450    64.6563   6   9   0.0565   0.0562   0.2095   0.0325  -0.0813  -0.0673   4.00    0.0
2018/11/14 02:04:00.000  -74.425558507  163.418433170    64.6549   6   9   0.0429   0.0428   0.1520   0.0234  -0.0564  -0.0467   4.00    0.0
2018/11/14 02:04:30.000  -74.425558452  163.418432677    64.7136   1   9   0.0348   0.0321   0.1349   0.0184  -0.0457  -0.0389   4.00    1.0
2018/11/14 02:05:00.000  -74.425558342  163.418432599    64.7428   1   9   0.0246   0.0207   0.0931   0.0092  -0.0219  -0.0198   4.00    1.0
2018/11/14 02:05:30.000  -74.425558141  163.418433016    64.7035   1   9   0.0357   0.0329   0.1378   0.0168  -0.0444  -0.0396   4.00    1.0
2018/11/14 02:06:00.000  -74.425558295  163.418432393    64.7476   6   9   0.0436   0.0430   0.1512   0.0216  -0.0534  -0.0468   5.00    0.0
2018/11/14 02:06:30.000  -74.425558683  163.418431242    64.8006   6   9   0.0581   0.0565   0.2056   0.0299  -0.0773  -0.0677   4.00    0.0
2018/11/14 02:07:00.000  -74.425558691  163.418432123    64.6824   6   9   0.0721   0.0695   0.2611   0.0405  -0.1005  -0.0897   3.00    0.0
2018/11/14 02:07:30.000  -74.425558829  163.418431741    64.7104   6   9   0.0869   0.0827   0.3165   0.0506  -0.1233  -0.1118   3.00    0.0
2018/11/14 02:08:00.000  -74.425558873  163.418431614    64.7484   6   9   0.0723   0.0685   0.2590   0.0412  -0.0981  -0.0909   3.00    0.0
2018/11/14 02:08:30.000  -74.425558894  163.418431641    64.7793   6   9   0.0578   0.0548   0.2040   0.0318  -0.0728  -0.0703   3.00    0.0
2018/11/14 02:09:00.000  -74.425558721  163.418431584    64.7778   6   9   0.0439   0.0421   0.1554   0.0220  -0.0462  -0.0513   3.00    0.0
2018/11/14 02:09:30.000  -74.425558452  163.418432565    64.6980   6   8   0.0310   0.0307   0.1085   0.0143  -0.0252  -0.0327   3.00    0.0
2018/11/14 02:10:00.000  -74.425558345  163.418432568    64.7620   1   8   0.0208   0.0204   0.0946   0.0109  -0.0110  -0.0284   3.00    2.0
2018/11/14 02:10:30.000  -74.425558776  163.418431862    64.8853   6   8   0.0312   0.0313   0.1081   0.0133  -0.0244  -0.0319   3.00    0.0
2018/11/14 02:11:00.000  -74.425558814  163.418432145    64.8652   6   8   0.0453   0.0420   0.1658   0.0216  -0.0436  -0.0573   2.00    0.0
2018/11/14 02:11:30.000  -74.425559097  163.418431208    64.9830   6   8   0.0611   0.0543   0.2291   0.0298  -0.0628  -0.0843   2.00    0.0
2018/11/14 02:12:00.000  -74.425558988  163.418431715    64.9509   6   8   0.0775   0.0673   0.2944   0.0382  -0.0819  -0.1119   2.00    0.0
2018/11/14 02:12:30.000  -74.425559016  163.418431235    64.9930   6   8   0.0945   0.0806   0.3602   0.0466  -0.1005  -0.1397   3.00    0.0
2018/11/14 02:13:00.000  -74.425558865  163.418431879    64.9029   6   8   0.0783   0.0669   0.2934   0.0381  -0.0799  -0.1131   3.00    0.0
2018/11/14 02:13:30.000  -74.425558656  163.418432350    64.8217   6   8   0.0621   0.0536   0.2273   0.0296  -0.0593  -0.0860   4.00    0.0
2018/11/14 02:14:00.000  -74.425558409  163.418432879    64.7128   6   8   0.0462   0.0410   0.1637   0.0215  -0.0388  -0.0590   4.00    0.0
2018/11/14 02:14:30.000  -74.425558570  163.418432442    64.7260   6   8   0.0316   0.0301   0.1067   0.0141  -0.0181  -0.0330   4.00    0.0
2018/11/14 02:15:00.000  -74.425558381  163.418432662    64.7785   1   8   0.0212   0.0205   0.0951   0.0107   0.0140  -0.0280   4.00    2.0
2018/11/14 02:15:30.000  -74.425558733  163.418432117    64.7983   6   8   0.0319   0.0302   0.1085   0.0145  -0.0123  -0.0307   4.00    0.0
2018/11/14 02:16:00.000  -74.425559060  163.418431582    64.8509   6   8   0.0470   0.0408   0.1654   0.0217  -0.0320  -0.0572   4.00    0.0
2018/11/14 02:16:30.000  -74.425558877  163.418431964    64.7319   6   9   0.0627   0.0528   0.2122   0.0294  -0.0504  -0.0899   4.00    0.0
2018/11/14 02:17:00.000  -74.425559149  163.418431984    64.7659   6   9   0.0799   0.0654   0.2684   0.0374  -0.0661  -0.1186   4.00    0.0
2018/11/14 02:17:30.000  -74.425559365  163.418431676    64.8519   6   9   0.0975   0.0784   0.3273   0.0453  -0.0817  -0.1477   4.00    0.0
2018/11/14 02:18:00.000  -74.425559175  163.418432125    64.8322   6   9   0.0805   0.0655   0.2686   0.0372  -0.0625  -0.1189   4.00    0.0
2018/11/14 02:18:30.000  -74.425559276  163.418432133    64.7868   6   9   0.0637   0.0536   0.2130   0.0300  -0.0400  -0.0888   4.00    0.0
2018/11/14 02:19:00.000  -74.425558916  163.418433271    64.8177   6   8   0.0469   0.0416   0.1596   0.0217  -0.0166  -0.0608   4.00    0.0
2018/11/14 02:19:30.000  -74.425558803  163.418432031    64.9036   1   8   0.0373   0.0350   0.1357   0.0210  -0.0107  -0.0533   4.00    1.0
2018/11/14 02:20:00.000  -74.425558469  163.418432448    64.7535   1   8   0.0237   0.0257   0.0870   0.0149   0.0147  -0.0315   4.00    1.0
2018/11/14 02:20:30.000  -74.425558291  163.418432354    64.6983   1   8   0.0374   0.0357   0.1360   0.0203  -0.0078  -0.0536   3.00    1.0
2018/11/14 02:21:00.000  -74.425558259  163.418432925    64.5715   6   8   0.0469   0.0419   0.1579   0.0200  -0.0101  -0.0612   4.00    0.0
2018/11/14 02:21:30.000  -74.425558034  163.418434007    64.4327   6   8   0.0639   0.0547   0.2208   0.0275  -0.0207  -0.0896   4.00    0.0
2018/11/14 02:22:00.000  -74.425557972  163.418433886    64.4055   6   8   0.0815   0.0684   0.2859   0.0348  -0.0278  -0.1185   4.00    0.0
2018/11/14 02:22:30.000  -74.425558170  163.418433318    64.4915   6   8   0.0994   0.0825   0.3522   0.0419  -0.0324  -0.1476   4.00    0.0
2018/11/14 02:23:00.000  -74.425558419  163.418432775    64.5453   6   8   0.0820   0.0699   0.2887   0.0331  -0.0207  -0.1194   4.00    0.0
2018/11/14 02:23:30.000  -74.425558593  163.418431755    64.7104   6   8   0.0643   0.0553   0.2239   0.0261   0.0058  -0.0909   3.00    0.0
2018/11/14 02:24:00.000  -74.425558469  163.418431521    64.7153   6   9   0.0449   0.0407   0.1391   0.0147   0.0321  -0.0526   3.00    0.0
2018/11/14 02:24:30.000  -74.425558358  163.418432532    64.7386   1   9   0.0352   0.0346   0.1151   0.0162   0.0303  -0.0448   5.00    1.0
2018/11/14 02:25:00.000  -74.425558393  163.418432429    64.7437   1   9   0.0235   0.0260   0.0791   0.0134   0.0217  -0.0299   5.00    1.0
2018/11/14 02:25:30.000  -74.425558064  163.418433124    64.6573   1   9   0.0355   0.0349   0.1171   0.0155   0.0318  -0.0460   5.00    1.0
2018/11/14 02:26:00.000  -74.425558323  163.418433718    64.6714   6   9   0.0433   0.0402   0.1305   0.0112   0.0382  -0.0476   5.00    0.0
2018/11/14 02:26:30.000  -74.425558328  163.418433745    64.5808   6   9   0.0582   0.0523   0.1791   0.0127   0.0531  -0.0687   5.00    0.0
2018/11/14 02:27:00.000  -74.425558203  163.418434675    64.4819   6   9   0.0737   0.0652   0.2305   0.0136   0.0690  -0.0909   5.00    0.0
2018/11/14 02:27:30.000  -74.425558186  163.418435293    64.5088   6   9   0.0896   0.0787   0.2835   0.0140   0.0855  -0.1136   5.00    0.0
2018/11/14 02:28:00.000  -74.425558325  163.418434953    64.6240   6   9   0.0739   0.0655   0.2335   0.0119   0.0708  -0.0924   5.00    0.0
2018/11/14 02:28:30.000  -74.425558518  163.418434035    64.6607   6   9   0.0585   0.0527   0.1833   0.0102   0.0560  -0.0709   5.00    0.0
2018/11/14 02:29:00.000  -74.425558489  163.418433458    64.7068   6   9   0.0436   0.0407   0.1342   0.0090   0.0413  -0.0497   5.00    0.0
2018/11/14 02:29:30.000  -74.425558336  163.418432921    64.7745   1   9   0.0363   0.0359   0.1216   0.0130   0.0363  -0.0493   3.00    1.0
2018/11/14 02:30:00.000  -74.425558492  163.418432516    64.7868   1   9   0.0252   0.0276   0.0847   0.0104   0.0270  -0.0348   2.00    1.0
2018/11/14 02:30:30.000  -74.425558488  163.418432221    64.7330   6   9   0.0305   0.0318   0.0948  -0.0045   0.0333  -0.0331   5.00    0.0
2018/11/14 02:31:00.000  -74.425558559  163.418432712    64.6742   6   9   0.0451   0.0420   0.1459  -0.0088   0.0485  -0.0563   3.00    0.0
2018/11/14 02:31:30.000  -74.425558781  163.418432217    64.6368   6   9   0.0599   0.0544   0.1945  -0.0110   0.0639  -0.0769   3.00    0.0
2018/11/14 02:32:00.000  -74.425559028  163.418432089    64.6999   6   9   0.0758   0.0681   0.2479  -0.0153   0.0814  -0.0999   4.00    0.0
2018/11/14 02:32:30.000  -74.425559056  163.418433474    64.7214   6   9   0.0924   0.0828   0.3037  -0.0218   0.1006  -0.1241   4.00    0.0
2018/11/14 02:33:00.000  -74.425558914  163.418432848    64.6693   6   9   0.0768   0.0701   0.2500  -0.0214   0.0846  -0.1020   4.00    0.0
2018/11/14 02:33:30.000  -74.425558836  163.418433029    64.7096   6   9   0.0607   0.0560   0.1958  -0.0163   0.0665  -0.0786   4.00    0.0
2018/11/14 02:34:00.000  -74.425558976  163.418433292    64.7838   6   9   0.0450   0.0426   0.1425  -0.0106   0.0483  -0.0554   4.00    0.0
2018/11/14 02:34:30.000  -74.425558638  163.418432563    64.7692   1   9   0.0376   0.0372   0.1242   0.0096   0.0378  -0.0523   3.00    1.0
2018/11/14 02:35:00.000  -74.425558577  163.418432287    64.7906   1   9   0.0261   0.0278   0.0843   0.0104   0.0243  -0.0363   3.00    1.0
2018/11/14 02:35:30.000  -74.425558393  163.418432093    64.8233   1   9   0.0395   0.0387   0.1390   0.0098   0.0371  -0.0593   3.00    1.0
2018/11/14 02:36:00.000  -74.425558504  163.418432922    64.7674   6   9   0.0465   0.0435   0.1582  -0.0031   0.0421  -0.0625   3.00    0.0
2018/11/14 02:36:30.000  -74.425558685  163.418431973    64.7572   6   9   0.0614   0.0558   0.2067  -0.0117   0.0646  -0.0837   3.00    0.0
2018/11/14 02:37:00.000  -74.425558559  163.418433856    64.7516   6   9   0.0768   0.0694   0.2592  -0.0184   0.0857  -0.1057   3.00    0.0
2018/11/14 02:37:30.000  -74.425558586  163.418434066    64.6811   6   9   0.0930   0.0838   0.3155  -0.0246   0.1068  -0.1295   3.00    0.0
2018/11/14 02:38:00.000  -74.425558728  163.418433964    64.7944   6   9   0.0766   0.0698   0.2587  -0.0202   0.0882  -0.1051   3.00    0.0
2018/11/14 02:38:30.000  -74.425558529  163.418434206    64.7633   6   9   0.0604   0.0559   0.2021  -0.0157   0.0696  -0.0808   3.00    0.0
2018/11/14 02:39:00.000  -74.425558630  163.418432602    64.7305   6   9   0.0449   0.0429   0.1475  -0.0114   0.0519  -0.0574   3.00    0.0
2018/11/14 02:39:30.000  -74.425558383  163.418432808    64.6640   6   9   0.0311   0.0322   0.0995  -0.0091   0.0373  -0.0370   3.00    0.0
2018/11/14 02:40:00.000  -74.425558604  163.418431815    64.7566   1   9   0.0273   0.0284   0.0844   0.0065   0.0282  -0.0384   3.00    1.0
2018/11/14 02:40:30.000  -74.425558868  163.418431199    64.6647   6   9   0.0313   0.0325   0.0978  -0.0107   0.0375  -0.0366   2.00    0.0
2018/11/14 02:41:00.000  -74.425558945  163.418431463    64.6789   6   9   0.0468   0.0468   0.1573  -0.0208   0.0620  -0.0631   2.00    0.0
2018/11/14 02:41:30.000  -74.425559081  163.418431398    64.7037   6   9   0.0636   0.0610   0.2182  -0.0288   0.0841  -0.0901   3.00    0.0
2018/11/14 02:42:00.000  -74.425559528  163.418432004    64.8033   6   9   0.0782   0.0736   0.2680  -0.0307   0.1006  -0.1105   3.00    0.0
2018/11/14 02:42:30.000  -74.425559529  163.418431781    64.8577   6   9   0.0942   0.0878   0.3226  -0.0352   0.1201  -0.1336   3.00    0.0
2018/11/14 02:43:00.000  -74.425559531  163.418430848    64.8485   6  10   0.0748   0.0559   0.2091   0.0123   0.0482  -0.0916   3.00    0.0
2018/11/14 02:43:30.000  -74.425559292  163.418431054    64.7985   6  10   0.0589   0.0443   0.1612   0.0108   0.0357  -0.0697   4.00    0.0
2018/11/14 02:44:00.000  -74.425558865  163.418431235    64.7510   6  10   0.0438   0.0343   0.1174   0.0083   0.0264  -0.0490   4.00    0.0
2018/11/14 02:44:30.000  -74.425558637  163.418431744    64.7260   6  10   0.0302   0.0261   0.0782   0.0061   0.0182  -0.0301   4.00    0.0
2018/11/14 02:45:00.000  -74.425558732  163.418431976    64.7281   6  10   0.0224   0.0220   0.0546   0.0028   0.0133  -0.0182   4.00    0.0
2018/11/14 02:45:30.000  -74.425558956  163.418431221    64.7444   6  10   0.0303   0.0272   0.0774   0.0006   0.0183  -0.0295   4.00    0.0
2018/11/14 02:46:00.000  -74.425559165  163.418430723    64.7860   6  10   0.0454   0.0362   0.1193  -0.0070   0.0268  -0.0515   3.00    0.0
2018/11/14 02:46:30.000  -74.425559242  163.418430738    64.7391   6  10   0.0608   0.0452   0.1634  -0.0015   0.0341  -0.0733   3.00    0.0
2018/11/14 02:47:00.000  -74.425559428  163.418430789    64.7272   6  10   0.0771   0.0558   0.2097   0.0075   0.0407  -0.0961   3.00    0.0
2018/11/14 02:47:30.000  -74.425559373  163.418430396    64.6679   6  10   0.0938   0.0668   0.2569   0.0106   0.0482  -0.1192   2.00    0.0
2018/11/14 02:48:00.000  -74.425559344  163.418430719    64.7537   6  10   0.0769   0.0559   0.2098   0.0038   0.0426  -0.0960   2.00    0.0
2018/11/14 02:48:30.000  -74.425559047  163.418431209    64.7303   6  10   0.0605   0.0465   0.1641  -0.0039   0.0337  -0.0733   3.00    0.0
2018/11/14 02:49:00.000  -74.425558997  163.418431456    64.7316   6  10   0.0451   0.0375   0.1195  -0.0077   0.0254  -0.0512   3.00    0.0
2018/11/14 02:49:30.000  -74.425558677  163.418432033    64.8046   1  10   0.0375   0.0301   0.0985   0.0164  -0.0085  -0.0471   3.00    1.0
2018/11/14 02:50:00.000  -74.425558644  163.418432039    64.7823   1  10   0.0270   0.0234   0.0676   0.0141  -0.0090  -0.0340   3.00    1.0
2018/11/14 02:50:30.000  -74.425558606  163.418431639    64.6715   6  10   0.0292   0.0247   0.0724   0.0082   0.0141  -0.0270   3.00    0.0
2018/11/14 02:51:00.000  -74.425558634  163.418432437    64.6473   6  10   0.0422   0.0329   0.1086   0.0115   0.0198  -0.0443   3.00    0.0
2018/11/14 02:51:30.000  -74.425558772  163.418432845    64.6203   6  10   0.0569   0.0419   0.1489   0.0151   0.0266  -0.0639   4.00    0.0
2018/11/14 02:52:00.000  -74.425558995  163.418432728    64.6357   6  10   0.0721   0.0514   0.1893   0.0175   0.0360  -0.0832   4.00    0.0
2018/11/14 02:52:30.000  -74.425558949  163.418432172    64.6723   6  10   0.0876   0.0614   0.2307   0.0201   0.0449  -0.1029   4.00    0.0
2018/11/14 02:53:00.000  -74.425559204  163.418431352    64.6872   6  10   0.0721   0.0513   0.1889   0.0168   0.0376  -0.0832   4.00    0.0
2018/11/14 02:53:30.000  -74.425559167  163.418430930    64.7661   6  10   0.0568   0.0415   0.1474   0.0135   0.0305  -0.0633   4.00    0.0
2018/11/14 02:54:00.000  -74.425558936  163.418431536    64.7766   6  10   0.0422   0.0324   0.1075   0.0105   0.0229  -0.0442   4.00    0.0
2018/11/14 02:54:30.000  -74.425558645  163.418431533    64.8191   1  10   0.0384   0.0301   0.0978   0.0152  -0.0029  -0.0480   4.00    1.0
2018/11/14 02:55:00.000  -74.425558505  163.418431856    64.7593   1  10   0.0284   0.0234   0.0693   0.0134  -0.0108  -0.0360   4.00    1.0
2018/11/14 02:55:30.000  -74.425558499  163.418431734    64.6550   6  10   0.0294   0.0243   0.0714   0.0078   0.0150  -0.0272   4.00    0.0
2018/11/14 02:56:00.000  -74.425558644  163.418431489    64.5981   6  11   0.0412   0.0319   0.1027   0.0071   0.0272  -0.0410   5.00    0.0
2018/11/14 02:56:30.000  -74.425558595  163.418431192    64.5608   6  11   0.0541   0.0412   0.1360  -0.0031   0.0397  -0.0552   5.00    0.0
2018/11/14 02:57:00.000  -74.425558659  163.418431666    64.6233   6  11   0.0680   0.0518   0.1721  -0.0104   0.0518  -0.0713   5.00    0.0
2018/11/14 02:57:30.000  -74.425558708  163.418431579    64.6217   6  11   0.0824   0.0623   0.2093  -0.0153   0.0644  -0.0880   6.00    0.0
2018/11/14 02:58:00.000  -74.425558776  163.418431030    64.6049   6  11   0.0681   0.0521   0.1725  -0.0120   0.0534  -0.0714   6.00    0.0
2018/11/14 02:58:30.000  -74.425558612  163.418431211    64.5660   6  11   0.0540   0.0410   0.1359  -0.0064   0.0418  -0.0549   6.00    0.0
2018/11/14 02:59:00.000  -74.425558406  163.418430965    64.5662   6  12   0.0395   0.0314   0.0996  -0.0046   0.0295  -0.0407   6.00    0.0
2018/11/14 02:59:30.000  -74.425558448  163.418431430    64.6501   1  12   0.0380   0.0274   0.0939   0.0113   0.0200  -0.0480   4.00    1.0
2018/11/14 03:00:00.000  -74.425558546  163.418432216    64.7414   1  12   0.0304   0.0215   0.0715   0.0134   0.0050  -0.0395   4.00    1.0
2018/11/14 03:00:30.000  -74.425558623  163.418432094    64.7383   1  12   0.0444   0.0281   0.1063   0.0156   0.0116  -0.0588   4.00    1.0
2018/11/14 03:01:00.000  -74.425558592  163.418431850    64.6283   6  12   0.0420   0.0314   0.1031   0.0046   0.0283  -0.0457   5.00    0.0
2018/11/14 03:01:30.000  -74.425558571  163.418431851    64.6063   6  12   0.0564   0.0406   0.1409  -0.0054   0.0399  -0.0652   5.00    0.0
2018/11/14 03:02:00.000  -74.425558713  163.418431301    64.5961   6  12   0.0732   0.0506   0.1826  -0.0095   0.0513  -0.0880   6.00    0.0
2018/11/14 03:02:30.000  -74.425558781  163.418430633    64.6055   6  12   0.1079   0.0613   0.2557   0.0146   0.0562  -0.1396   5.00    0.0
2018/11/14 03:03:00.000  -74.425558606  163.418430811    64.5619   6  12   0.0734   0.0506   0.1861  -0.0119   0.0521  -0.0902   6.00    0.0
2018/11/14 03:03:30.000  -74.425558445  163.418431041    64.5637   6  12   0.0566   0.0408   0.1441  -0.0080   0.0407  -0.0673   5.00    0.0
2018/11/14 03:04:00.000  -74.425558445  163.418431176    64.6043   6  12   0.0429   0.0318   0.1076   0.0047   0.0278  -0.0493   6.00    0.0
2018/11/14 03:04:30.000  -74.425558353  163.418432012    64.7024   1  12   0.0385   0.0284   0.0968   0.0122   0.0169  -0.0502   4.00    1.0
2018/11/14 03:05:00.000  -74.425558466  163.418431997    64.6940   6  12   0.0251   0.0193   0.0587   0.0070   0.0050  -0.0266   5.00    0.0
2018/11/14 03:05:30.000  -74.425558398  163.418431841    64.7103   1  12   0.0406   0.0289   0.1024   0.0138   0.0124  -0.0541   3.00    1.0
2018/11/14 03:06:00.000  -74.425558445  163.418431138    64.5936   6  12   0.0422   0.0321   0.1074   0.0065   0.0266  -0.0482   5.00    0.0
2018/11/14 03:06:30.000  -74.425558714  163.418430804    64.5341   6  12   0.0545   0.0419   0.1418  -0.0010   0.0385  -0.0639   5.00    0.0
2018/11/14 03:07:00.000  -74.425558579  163.418430849    64.4985   6  12   0.0676   0.0525   0.1778  -0.0085   0.0506  -0.0806   5.00    0.0
2018/11/14 03:07:30.000  -74.425558632  163.418431111    64.5765   6  12   0.0803   0.0628   0.2128  -0.0167   0.0647  -0.0960   5.00    0.0
2018/11/14 03:08:00.000  -74.425558683  163.418431390    64.5944   6  12   0.0668   0.0525   0.1758  -0.0118   0.0525  -0.0782   5.00    0.0
2018/11/14 03:08:30.000  -74.425558579  163.418431132    64.5767   6  12   0.0537   0.0416   0.1395  -0.0097   0.0415  -0.0604   5.00    0.0
2018/11/14 03:09:00.000  -74.425558421  163.418431467    64.6342   6  11   0.0416   0.0319   0.1063  -0.0047   0.0290  -0.0455   5.00    0.0
2018/11/14 03:09:30.000  -74.425558282  163.418431814    64.7371   1  11   0.0425   0.0290   0.1081   0.0135   0.0118  -0.0574   3.00    1.0
2018/11/14 03:10:00.000  -74.425558377  163.418431975    64.7168   1  11   0.0365   0.0231   0.0922   0.0167  -0.0188  -0.0527   2.00    1.0
2018/11/14 03:10:30.000  -74.425558441  163.418431778    64.6550   6  11   0.0338   0.0242   0.0846   0.0086   0.0110  -0.0398   5.00    0.0
2018/11/14 03:11:00.000  -74.425558327  163.418430984    64.5963   6  11   0.0466   0.0333   0.1202   0.0111   0.0202  -0.0565   5.00    0.0
2018/11/14 03:11:30.000  -74.425558304  163.418430662    64.5616   6  11   0.0608   0.0435   0.1588   0.0116   0.0309  -0.0746   5.00    0.0
2018/11/14 03:12:00.000  -74.425558552  163.418431137    64.5557   6  11   0.0751   0.0542   0.1971   0.0037   0.0442  -0.0917   5.00    0.0
2018/11/14 03:12:30.000  -74.425558608  163.418430763    64.5072   6  10   0.0917   0.0651   0.2440  -0.0146   0.0554  -0.1131   4.00    0.0
2018/11/14 03:13:00.000  -74.425558823  163.418430528    64.5534   6   9   0.1068   0.0545   0.2792   0.0263   0.0038  -0.1522   2.00    0.0
2018/11/14 03:13:30.000  -74.425558581  163.418431358    64.5544   6   9   0.0837   0.0434   0.2190   0.0210   0.0044  -0.1185   2.00    0.0
2018/11/14 03:14:00.000  -74.425558433  163.418431672    64.7363   1  10   0.0417   0.0414   0.1214   0.0132   0.0253  -0.0409   2.00    1.0
2018/11/14 03:14:30.000  -74.425558450  163.418431696    64.7161   1  10   0.0280   0.0285   0.0815   0.0091   0.0173  -0.0307   2.00    1.0
2018/11/14 03:15:00.000  -74.425558465  163.418431298    64.7587   1  10   0.0202   0.0221   0.0591   0.0073   0.0133  -0.0253   2.00    1.0
2018/11/14 03:15:30.000  -74.425558362  163.418430431    64.7822   1  10   0.0279   0.0287   0.0817   0.0089   0.0174  -0.0306   2.00    1.0
2018/11/14 03:16:00.000  -74.425558205  163.418429914    64.8116   1  10   0.0416   0.0416   0.1232   0.0129   0.0253  -0.0414   2.00    1.0
2018/11/14 03:16:30.000  -74.425558364  163.418429449    64.6253   6  10   0.0459   0.0424   0.1315   0.0150   0.0253  -0.0420   3.00    0.0
2018/11/14 03:17:00.000  -74.425558363  163.418429692    64.5477   6  10   0.0568   0.0532   0.1656   0.0185   0.0319  -0.0523   3.00    0.0
2018/11/14 03:17:30.000  -74.425558475  163.418429681    64.5410   6  10   0.0681   0.0643   0.2010   0.0220   0.0386  -0.0632   3.00    0.0
2018/11/14 03:18:00.000  -74.425558478  163.418429806    64.5451   6  10   0.0568   0.0533   0.1677   0.0184   0.0320  -0.0532   3.00    0.0
2018/11/14 03:18:30.000  -74.425558525  163.418429391    64.5150   6  10   0.0459   0.0426   0.1343   0.0149   0.0254  -0.0431   3.00    0.0
2018/11/14 03:19:00.000  -74.425558415  163.418430135    64.6877   1  10   0.0415   0.0418   0.1269   0.0125   0.0257  -0.0426   2.00    1.0
2018/11/14 03:19:30.000  -74.425558394  163.418430660    64.7431   1  10   0.0273   0.0289   0.0832   0.0081   0.0180  -0.0304   2.00    1.0
2018/11/14 03:20:00.000  -74.425558368  163.418430680    64.7371   1  10   0.0195   0.0221   0.0580   0.0062   0.0140  -0.0240   2.00    1.0
2018/11/14 03:20:30.000  -74.425558511  163.418430893    64.7455   1  10   0.0272   0.0290   0.0835   0.0080   0.0181  -0.0304   2.00    1.0
2018/11/14 03:21:00.000  -74.425558576  163.418430684    64.7037   1  10   0.0414   0.0420   0.1291   0.0123   0.0257  -0.0435   2.00    1.0
2018/11/14 03:21:30.000  -74.425558901  163.418430910    64.5988   6  10   0.0454   0.0426   0.1360   0.0148   0.0253  -0.0432   3.00    0.0
2018/11/14 03:22:00.000  -74.425558936  163.418430303    64.5573   6  10   0.0566   0.0534   0.1730   0.0184   0.0317  -0.0551   3.00    0.0
2018/11/14 03:22:30.000  -74.425558966  163.418429842    64.5483   6  10   0.0682   0.0646   0.2115   0.0219   0.0381  -0.0677   3.00    0.0
2018/11/14 03:23:00.000  -74.425558893  163.418430183    64.5891   6  10   0.0569   0.0535   0.1753   0.0186   0.0315  -0.0563   3.00    0.0
2018/11/14 03:23:30.000  -74.425558860  163.418430597    64.6520   6  10   0.0457   0.0427   0.1391   0.0151   0.0249  -0.0448   3.00    0.0
2018/11/14 03:24:00.000  -74.425558497  163.418430713    64.7651   1  10   0.0417   0.0422   0.1333   0.0123   0.0254  -0.0454   2.00    1.0
2018/11/14 03:24:30.000  -74.425558542  163.418430838    64.7707   1  10   0.0304   0.0256   0.0845  -0.0052   0.0037  -0.0287   5.00    1.0
2018/11/14 03:25:00.000  -74.425558443  163.418430758    64.7282   1  10   0.0234   0.0173   0.0559  -0.0073  -0.0111  -0.0198   5.00    1.0
2018/11/14 03:25:30.000  -74.425558553  163.418431040    64.6715   1  10   0.0303   0.0255   0.0848  -0.0050   0.0035  -0.0288   5.00    1.0
2018/11/14 03:26:00.000  -74.425558517  163.418430257    64.6017   1  10   0.0440   0.0397   0.1351   0.0082   0.0179  -0.0450   5.00    1.0
2018/11/14 03:26:30.000  -74.425558800  163.418429812    64.5713   6  10   0.0457   0.0427   0.1419   0.0152   0.0242  -0.0462   4.00    0.0
2018/11/14 03:27:00.000  -74.425558728  163.418428907    64.5633   6  10   0.0573   0.0537   0.1820   0.0189   0.0302  -0.0598   4.00    0.0
2018/11/14 03:27:30.000  -74.425558704  163.418428734    64.5907   6  10   0.0692   0.0649   0.2233   0.0225   0.0362  -0.0741   4.00    0.0
2018/11/14 03:28:00.000  -74.425558693  163.418428415    64.5873   6  10   0.0574   0.0539   0.1839   0.0190   0.0296  -0.0606   4.00    0.0
2018/11/14 03:28:30.000  -74.425558697  163.418428563    64.5808   6  10   0.0460   0.0430   0.1447   0.0154   0.0234  -0.0475   4.00    0.0
2018/11/14 03:29:00.000  -74.425558690  163.418429385    64.6104   6  10   0.0350   0.0327   0.1066   0.0117   0.0175  -0.0346   4.00    0.0
