% program   : RTKLIB ver.2.4.3
% inp file  : _by_type/_obs/tuati/20181112.18o
% inp file  : _by_type/_sp3+clk/igs20271.clk
% inp file  : _by_type/_sp3+clk/igs20271.sp3
% inp file  : _by_type/_nav/tuati/20181112.18n
% obs start : 2018/11/12 00:00:00.0 GPST (week2027  86400.0s)
% obs end   : 2018/11/12 23:59:30.0 GPST (week2027 172770.0s)
% pos mode  : ppp-kinematic
% solution  : combined
% elev mask : 15.0 deg
% dynamics  : off
% tidecorr  : on
% tropo opt : est ztd+grad
% ephemeris : precise
% navi sys  : gps glonass
% antenna1  :                       ( 0.0000  0.0000  0.0000)
%
% (lat/lon/height=WGS84/ellipsoidal,Q=1:fix,2:float,3:sbas,4:dgps,5:single,6:ppp,ns=# of satellites)
%  GPST                  latitude(deg) longitude(deg)  height(m)   Q  ns   sdn(m)   sde(m)   sdu(m)  sdne(m)  sdeu(m)  sdun(m) age(s)  ratio
2018/11/12 00:00:00.000  -74.425551101  163.418445887    64.5983   6  10   0.0501   0.0518   0.1725  -0.0405   0.0639  -0.0528   0.00    0.0
2018/11/12 00:00:30.000  -74.425550873  163.418445610    64.5267   6  10   0.0557   0.0618   0.2267  -0.0456   0.0882  -0.0653   0.00    0.0
2018/11/12 00:01:00.000  -74.425550659  163.418444770    64.4395   6  10   0.0668   0.0789   0.3129  -0.0539   0.1241  -0.0838   0.00    0.0
2018/11/12 00:01:30.000  -74.425550943  163.418444718    64.5210   6  10   0.0810   0.0989   0.4021  -0.0642   0.1615  -0.1057   0.00    0.0
2018/11/12 00:02:00.000  -74.425550900  163.418444354    64.5100   6  10   0.0976   0.1180   0.4181  -0.0791   0.1811  -0.1402   0.00    0.0
2018/11/12 00:02:30.000  -74.425550625  163.418443182    64.3753   6  10   0.1185   0.1510   0.5487  -0.1012   0.2453  -0.1869   0.00    0.0
2018/11/12 00:03:00.000  -74.425550849  163.418445259    64.6118   6  10   0.0934   0.1005   0.3238  -0.0668   0.1224  -0.1010   0.00    0.0
2018/11/12 00:03:30.000  -74.425551056  163.418445805    64.5562   6  10   0.0760   0.0795   0.2619  -0.0532   0.0998  -0.0852   0.00    0.0
2018/11/12 00:04:00.000  -74.425551277  163.418446748    64.6510   6  10   0.0641   0.0653   0.2051  -0.0472   0.0763  -0.0688   0.00    0.0
2018/11/12 00:04:30.000  -74.425551250  163.418446830    64.6573   6  10   0.0557   0.0547   0.1615  -0.0431   0.0562  -0.0550   1.00    0.0
2018/11/12 00:05:00.000  -74.425551189  163.418446352    64.6523   6  10   0.0529   0.0509   0.1369  -0.0426   0.0418  -0.0497   0.00    0.0
2018/11/12 00:05:30.000  -74.425551238  163.418445898    64.6175   6  11   0.0537   0.0516   0.1643  -0.0399   0.0637  -0.0623   0.00    0.0
2018/11/12 00:06:00.000  -74.425551063  163.418445249    64.5154   6  11   0.0631   0.0633   0.2110  -0.0451   0.0832  -0.0762   0.00    0.0
2018/11/12 00:06:30.000  -74.425550970  163.418444612    64.4786   6  11   0.0748   0.0773   0.2698  -0.0507   0.1051  -0.0894   0.00    0.0
2018/11/12 00:07:00.000  -74.425550861  163.418444612    64.4535   6  11   0.0881   0.0922   0.3368  -0.0562   0.1281  -0.0999   0.00    0.0
2018/11/12 00:07:30.000  -74.425550793  163.418444579    64.4823   6  11   0.1010   0.1066   0.3741  -0.0634   0.1445  -0.1195   0.00    0.0
2018/11/12 00:08:00.000  -74.425550947  163.418444973    64.4950   6  11   0.0857   0.0925   0.3125  -0.0577   0.1269  -0.1148   0.00    0.0
2018/11/12 00:08:30.000  -74.425551140  163.418446032    64.6176   6  11   0.0740   0.0780   0.2602  -0.0520   0.1062  -0.0987   0.00    0.0
2018/11/12 00:09:00.000  -74.425551007  163.418446526    64.5929   6  11   0.0643   0.0651   0.2105  -0.0477   0.0867  -0.0843   0.00    0.0
2018/11/12 00:09:30.000  -74.425550976  163.418446851    64.6208   6  11   0.0548   0.0519   0.1679  -0.0411   0.0673  -0.0705   0.00    0.0
2018/11/12 00:10:00.000  -74.425551041  163.418445797    64.5833   6  11   0.0516   0.0465   0.1483  -0.0391   0.0581  -0.0655   1.00    0.0
2018/11/12 00:10:30.000  -74.425551181  163.418444251    64.5019   6  11   0.0568   0.0526   0.1793  -0.0420   0.0706  -0.0737   3.00    0.0
2018/11/12 00:11:00.000  -74.425551077  163.418444291    64.5527   6  11   0.0649   0.0635   0.2181  -0.0455   0.0868  -0.0866   3.00    0.0
2018/11/12 00:11:30.000  -74.425550790  163.418444157    64.4675   6  11   0.0754   0.0767   0.2650  -0.0485   0.1041  -0.1002   3.00    0.0
2018/11/12 00:12:00.000  -74.425550699  163.418443569    64.4457   6  11   0.0866   0.0906   0.3131  -0.0521   0.1221  -0.1141   4.00    0.0
2018/11/12 00:12:30.000  -74.425550691  163.418443831    64.4034   6  11   0.0983   0.1045   0.3616  -0.0561   0.1402  -0.1284   4.00    0.0
2018/11/12 00:13:00.000  -74.425550719  163.418443908    64.4329   6  11   0.0864   0.0901   0.3137  -0.0517   0.1220  -0.1134   4.00    0.0
2018/11/12 00:13:30.000  -74.425550881  163.418444178    64.4851   6  11   0.0735   0.0753   0.2667  -0.0496   0.1050  -0.0977   3.00    0.0
2018/11/12 00:14:00.000  -74.425550920  163.418444499    64.4730   6  11   0.0645   0.0626   0.2253  -0.0454   0.0882  -0.0843   3.00    0.0
2018/11/12 00:14:30.000  -74.425550940  163.418445336    64.4893   6  11   0.0572   0.0522   0.1794  -0.0428   0.0714  -0.0781   3.00    0.0
2018/11/12 00:15:00.000  -74.425550980  163.418445356    64.4750   6  11   0.0540   0.0469   0.1615  -0.0409   0.0627  -0.0736   3.00    0.0
2018/11/12 00:15:30.000  -74.425550652  163.418444734    64.3503   6  11   0.0581   0.0524   0.1867  -0.0430   0.0715  -0.0790   3.00    0.0
2018/11/12 00:16:00.000  -74.425550587  163.418444130    64.2381   6  11   0.0659   0.0628   0.2265  -0.0453   0.0829  -0.0851   3.00    0.0
2018/11/12 00:16:30.000  -74.425550729  163.418443336    64.1763   6  11   0.0731   0.0733   0.2659  -0.0483   0.1006  -0.0957   0.00    0.0
2018/11/12 00:17:00.000  -74.425550578  163.418443061    64.1113   6  11   0.0834   0.0860   0.3101  -0.0520   0.1165  -0.1061   0.00    0.0
2018/11/12 00:17:30.000  -74.425550563  163.418443022    64.1614   6  11   0.0942   0.0989   0.3558  -0.0564   0.1332  -0.1175   0.00    0.0
2018/11/12 00:18:00.000  -74.425550729  163.418443620    64.2652   6  11   0.0849   0.0857   0.3131  -0.0523   0.1148  -0.1011   1.00    0.0
2018/11/12 00:18:30.000  -74.425550850  163.418443304    64.2570   6  11   0.0732   0.0732   0.2670  -0.0487   0.0987  -0.0946   3.00    0.0
2018/11/12 00:19:00.000  -74.425550926  163.418443649    64.2497   6  11   0.0630   0.0598   0.2306  -0.0431   0.0852  -0.0864   3.00    0.0
2018/11/12 00:19:30.000  -74.425551025  163.418444905    64.3777   6  11   0.0565   0.0504   0.2019  -0.0411   0.0742  -0.0822   3.00    0.0
2018/11/12 00:20:00.000  -74.425551006  163.418445034    64.3934   6  11   0.0542   0.0462   0.1918  -0.0406   0.0697  -0.0819   3.00    0.0
2018/11/12 00:20:30.000  -74.425551112  163.418444310    64.3858   6  11   0.0590   0.0518   0.2229  -0.0431   0.0810  -0.0906   0.00    0.0
2018/11/12 00:21:00.000  -74.425551070  163.418444400    64.4215   6  11   0.0649   0.0610   0.2548  -0.0452   0.0929  -0.1000   0.00    0.0
2018/11/12 00:21:30.000  -74.425551052  163.418444836    64.4480   6  11   0.0728   0.0719   0.2902  -0.0474   0.1047  -0.1073   0.00    0.0
2018/11/12 00:22:00.000  -74.425551100  163.418444459    64.4777   6  11   0.0818   0.0838   0.3286  -0.0502   0.1176  -0.1154   1.00    0.0
2018/11/12 00:22:30.000  -74.425551089  163.418443348    64.3939   6  11   0.0914   0.0959   0.3695  -0.0537   0.1315  -0.1247   3.00    0.0
2018/11/12 00:23:00.000  -74.425551067  163.418443415    64.3746   6  11   0.0819   0.0836   0.3377  -0.0500   0.1150  -0.1130   3.00    0.0
2018/11/12 00:23:30.000  -74.425551086  163.418444141    64.3504   6  11   0.0725   0.0712   0.2910  -0.0463   0.1051  -0.1090   0.00    0.0
2018/11/12 00:24:00.000  -74.425551106  163.418444817    64.3698   6  11   0.0652   0.0604   0.2618  -0.0443   0.0942  -0.1030   0.00    0.0
2018/11/12 00:24:30.000  -74.425551077  163.418445004    64.3396   6  11   0.0605   0.0523   0.2417  -0.0429   0.0866  -0.0993   0.00    0.0
2018/11/12 00:25:00.000  -74.425551097  163.418444818    64.3107   6  11   0.0570   0.0484   0.2359  -0.0443   0.0847  -0.0986   2.00    0.0
2018/11/12 00:25:30.000  -74.425551023  163.418444323    64.2795   6  11   0.0620   0.0547   0.2637  -0.0471   0.0948  -0.1083   2.00    0.0
2018/11/12 00:26:00.000  -74.425550860  163.418444074    64.2068   6  11   0.0679   0.0599   0.2793  -0.0465   0.0948  -0.1120   3.00    0.0
2018/11/12 00:26:30.000  -74.425550811  163.418443973    64.1397   6  11   0.0752   0.0701   0.3092  -0.0478   0.1045  -0.1184   2.00    0.0
2018/11/12 00:27:00.000  -74.425550892  163.418443746    64.1453   6  11   0.0834   0.0812   0.3409  -0.0498   0.1158  -0.1251   2.00    0.0
2018/11/12 00:27:30.000  -74.425551074  163.418443694    64.2413   6  11   0.0921   0.0928   0.3742  -0.0524   0.1282  -0.1326   3.00    0.0
2018/11/12 00:28:00.000  -74.425550986  163.418443515    64.1933   6  11   0.0835   0.0806   0.3416  -0.0492   0.1143  -0.1252   3.00    0.0
2018/11/12 00:28:30.000  -74.425551152  163.418444104    64.2016   6  11   0.0756   0.0690   0.3136  -0.0469   0.1019  -0.1191   4.00    0.0
2018/11/12 00:29:00.000  -74.425551188  163.418444679    64.2290   6  11   0.0690   0.0586   0.2929  -0.0454   0.0912  -0.1142   5.00    0.0
2018/11/12 00:29:30.000  -74.425551096  163.418444558    64.2380   6  11   0.0650   0.0514   0.2799  -0.0452   0.0860  -0.1147   0.00    0.0
2018/11/12 00:30:00.000  -74.425551260  163.418445543    64.3681   6  10   0.0629   0.0452   0.2672  -0.0445   0.0847  -0.1129   0.00    0.0
2018/11/12 00:30:30.000  -74.425551436  163.418446830    64.4588   6  10   0.0692   0.0499   0.3005  -0.0466   0.0924  -0.1242   0.00    0.0
2018/11/12 00:31:00.000  -74.425551433  163.418446323    64.4223   6  10   0.0811   0.0593   0.3549  -0.0497   0.1055  -0.1419   0.00    0.0
2018/11/12 00:31:30.000  -74.425551419  163.418446136    64.4397   6  10   0.0954   0.0707   0.4234  -0.0555   0.1223  -0.1660   0.00    0.0
2018/11/12 00:32:00.000  -74.425551094  163.418445100    64.1728   6  10   0.1130   0.0833   0.5042  -0.0612   0.1420  -0.1937   2.00    0.0
2018/11/12 00:32:30.000  -74.425551120  163.418444555    64.0604   6  10   0.1288   0.0952   0.6064  -0.0711   0.1612  -0.2318   3.00    0.0
2018/11/12 00:33:00.000  -74.425551552  163.418445222    64.4193   6  10   0.1167   0.0833   0.5180  -0.0663   0.1523  -0.2129   0.00    0.0
2018/11/12 00:33:30.000  -74.425551887  163.418446578    64.5580   6  10   0.0993   0.0704   0.4488  -0.0556   0.1277  -0.1783   0.00    0.0
2018/11/12 00:34:00.000  -74.425551731  163.418446165    64.4378   6   9   0.0818   0.0576   0.3807  -0.0505   0.1068  -0.1550   0.00    0.0
2018/11/12 00:34:30.000  -74.425551716  163.418445998    64.4516   6   9   0.0697   0.0477   0.3293  -0.0452   0.0917  -0.1338   2.00    0.0
2018/11/12 00:35:00.000  -74.425551517  163.418445937    64.3329   6   9   0.0623   0.0422   0.2958  -0.0413   0.0804  -0.1183   3.00    0.0
2018/11/12 00:35:30.000  -74.425551441  163.418446412    64.3092   6   9   0.0666   0.0474   0.3293  -0.0412   0.0810  -0.1263   4.00    0.0
2018/11/12 00:36:00.000  -74.425551234  163.418446759    64.3509   6   9   0.0789   0.0591   0.3141  -0.0448   0.0864  -0.1369   0.00    0.0
2018/11/12 00:36:30.000  -74.425551122  163.418445494    64.2077   6   9   0.0926   0.0689   0.3823  -0.0533   0.1096  -0.1616   0.00    0.0
2018/11/12 00:37:00.000  -74.425551609  163.418444679    64.4136   6  10   0.0907   0.0834   0.3436  -0.0580   0.1219  -0.1354   1.00    0.0
2018/11/12 00:37:30.000  -74.425551791  163.418445725    64.4630   6  10   0.0996   0.0906   0.3760  -0.0590   0.1265  -0.1416   0.00    0.0
2018/11/12 00:38:00.000  -74.425551949  163.418445711    64.4275   6  10   0.0864   0.0763   0.3210  -0.0501   0.1045  -0.1223   3.00    0.0
2018/11/12 00:38:30.000  -74.425551946  163.418446518    64.5234   6  10   0.0748   0.0633   0.2695  -0.0433   0.0851  -0.1063   4.00    0.0
2018/11/12 00:39:00.000  -74.425551964  163.418446122    64.4689   6  10   0.0648   0.0514   0.2222  -0.0380   0.0673  -0.0931   5.00    0.0
2018/11/12 00:39:30.000  -74.425551846  163.418446532    64.4645   6  10   0.0569   0.0416   0.1825  -0.0340   0.0520  -0.0825   5.00    0.0
2018/11/12 00:40:00.000  -74.425551719  163.418446267    64.4442   6  10   0.0523   0.0368   0.1570  -0.0316   0.0422  -0.0744   5.00    0.0
2018/11/12 00:40:30.000  -74.425551591  163.418446567    64.4554   6  10   0.0560   0.0410   0.1740  -0.0331   0.0488  -0.0783   5.00    0.0
2018/11/12 00:41:00.000  -74.425551599  163.418447040    64.5201   6  10   0.0632   0.0499   0.2041  -0.0355   0.0594  -0.0844   5.00    0.0
2018/11/12 00:41:30.000  -74.425551500  163.418446437    64.4675   6  10   0.0724   0.0605   0.2417  -0.0389   0.0722  -0.0930   5.00    0.0
2018/11/12 00:42:00.000  -74.425551383  163.418445938    64.4001   6  10   0.0827   0.0717   0.2839  -0.0434   0.0862  -0.1042   5.00    0.0
2018/11/12 00:42:30.000  -74.425551324  163.418445458    64.3222   6  10   0.0938   0.0830   0.3289  -0.0486   0.1008  -0.1175   5.00    0.0
2018/11/12 00:43:00.000  -74.425551485  163.418445816    64.2771   6  10   0.0832   0.0710   0.2817  -0.0429   0.0840  -0.1034   5.00    0.0
2018/11/12 00:43:30.000  -74.425551437  163.418445805    64.2804   6  10   0.0746   0.0595   0.2384  -0.0383   0.0682  -0.0924   5.00    0.0
2018/11/12 00:44:00.000  -74.425551515  163.418445959    64.3136   6  10   0.0637   0.0488   0.2031  -0.0345   0.0553  -0.0853   4.00    0.0
2018/11/12 00:44:30.000  -74.425551571  163.418446184    64.3568   6  10   0.0568   0.0400   0.1720  -0.0318   0.0433  -0.0785   4.00    0.0
2018/11/12 00:45:00.000  -74.425551557  163.418446007    64.3755   6  10   0.0536   0.0362   0.1539  -0.0308   0.0372  -0.0743   5.00    0.0
2018/11/12 00:45:30.000  -74.425551457  163.418445822    64.2906   6  10   0.0610   0.0428   0.1835  -0.0351   0.0490  -0.0869   4.00    0.0
2018/11/12 00:46:00.000  -74.425551268  163.418445295    64.1844   6  10   0.0707   0.0541   0.2217  -0.0396   0.0606  -0.0993   4.00    0.0
2018/11/12 00:46:30.000  -74.425551331  163.418445945    64.1234   6  10   0.0810   0.0632   0.2685  -0.0401   0.0646  -0.1133   4.00    0.0
2018/11/12 00:47:00.000  -74.425551676  163.418445062    64.2848   6  10   0.0877   0.0778   0.2945  -0.0491   0.0846  -0.1144   4.00    0.0
2018/11/12 00:47:30.000  -74.425551649  163.418446081    64.3660   6  10   0.0978   0.0827   0.3345  -0.0498   0.0944  -0.1254   3.00    0.0
2018/11/12 00:48:00.000  -74.425551461  163.418446296    64.3439   6  10   0.0880   0.0697   0.2830  -0.0426   0.0758  -0.1095   3.00    0.0
2018/11/12 00:48:30.000  -74.425551694  163.418447105    64.3963   6  10   0.0740   0.0581   0.2413  -0.0368   0.0620  -0.0964   3.00    0.0
2018/11/12 00:49:00.000  -74.425551879  163.418447496    64.4631   6  10   0.0637   0.0470   0.1978  -0.0316   0.0456  -0.0834   3.00    0.0
2018/11/12 00:49:30.000  -74.425551891  163.418447280    64.4868   6  10   0.0560   0.0379   0.1618  -0.0279   0.0301  -0.0737   3.00    0.0
2018/11/12 00:50:00.000  -74.425551895  163.418446791    64.4707   6  10   0.0524   0.0336   0.1436  -0.0262   0.0204  -0.0689   3.00    0.0
2018/11/12 00:50:30.000  -74.425551688  163.418445994    64.3719   6  10   0.0566   0.0396   0.1619  -0.0289   0.0311  -0.0740   3.00    0.0
2018/11/12 00:51:00.000  -74.425551661  163.418446003    64.3789   6  10   0.0648   0.0513   0.1946  -0.0342   0.0466  -0.0828   4.00    0.0
2018/11/12 00:51:30.000  -74.425551697  163.418446441    64.3817   6  10   0.0757   0.0617   0.2352  -0.0398   0.0606  -0.0953   4.00    0.0
2018/11/12 00:52:00.000  -74.425551590  163.418446320    64.3719   6  10   0.0867   0.0733   0.2778  -0.0452   0.0731  -0.1081   4.00    0.0
2018/11/12 00:52:30.000  -74.425551430  163.418445614    64.2848   6  10   0.0992   0.0875   0.3238  -0.0534   0.0885  -0.1241   4.00    0.0
2018/11/12 00:53:00.000  -74.425551507  163.418445829    64.2878   6  10   0.0890   0.0680   0.2786  -0.0399   0.0654  -0.1107   4.00    0.0
2018/11/12 00:53:30.000  -74.425551735  163.418446930    64.4296   6  10   0.0802   0.0566   0.2410  -0.0356   0.0535  -0.1026   4.00    0.0
2018/11/12 00:54:00.000  -74.425551773  163.418446029    64.4247   6  10   0.0642   0.0460   0.1946  -0.0288   0.0361  -0.0826   4.00    0.0
2018/11/12 00:54:30.000  -74.425551741  163.418445859    64.3764   6  10   0.0569   0.0379   0.1620  -0.0259   0.0232  -0.0742   4.00    0.0
2018/11/12 00:55:00.000  -74.425551540  163.418445789    64.3535   6  10   0.0539   0.0321   0.1466  -0.0262   0.0190  -0.0710   4.00    0.0
2018/11/12 00:55:30.000  -74.425551465  163.418446076    64.2644   6  10   0.0582   0.0358   0.1682  -0.0207  -0.0136  -0.0778   4.00    0.0
2018/11/12 00:56:00.000  -74.425551859  163.418446136    64.4249   6  10   0.0632   0.0450   0.2075  -0.0214   0.0102  -0.0864   3.00    0.0
2018/11/12 00:56:30.000  -74.425551681  163.418446159    64.3189   6  10   0.0736   0.0555   0.2516  -0.0204   0.0134  -0.1004   3.00    0.0
2018/11/12 00:57:00.000  -74.425551626  163.418445956    64.2991   6  10   0.0853   0.0662   0.2992  -0.0195   0.0134  -0.1167   3.00    0.0
2018/11/12 00:57:30.000  -74.425551758  163.418446470    64.4126   6  11   0.0808   0.0727   0.2746  -0.0169  -0.0148  -0.0791   3.00    0.0
2018/11/12 00:58:00.000  -74.425551644  163.418446027    64.3359   6  11   0.0709   0.0624   0.2330  -0.0168  -0.0126  -0.0683   4.00    0.0
2018/11/12 00:58:30.000  -74.425551661  163.418446237    64.3646   6  11   0.0623   0.0534   0.1990  -0.0169   0.0053  -0.0621   4.00    0.0
2018/11/12 00:59:00.000  -74.425551669  163.418446180    64.3580   6  11   0.0548   0.0421   0.1656  -0.0192  -0.0212  -0.0595   3.00    0.0
2018/11/12 00:59:30.000  -74.425551706  163.418446318    64.3559   6  11   0.0492   0.0342   0.1412  -0.0199  -0.0220  -0.0572   3.00    0.0
2018/11/12 01:00:00.000  -74.425551622  163.418446550    64.3654   6  11   0.0466   0.0305   0.1279  -0.0201  -0.0228  -0.0552   3.00    0.0
2018/11/12 01:00:30.000  -74.425551588  163.418446906    64.3751   6  11   0.0494   0.0352   0.1425  -0.0197  -0.0234  -0.0578   2.00    0.0
2018/11/12 01:01:00.000  -74.425551612  163.418447580    64.3997   6  11   0.0523   0.0433   0.1564  -0.0150  -0.0318  -0.0514   2.00    0.0
2018/11/12 01:01:30.000  -74.425551442  163.418447232    64.3938   6  12   0.0590   0.0508   0.1779  -0.0158  -0.0448  -0.0561   3.00    0.0
2018/11/12 01:02:00.000  -74.425551363  163.418446990    64.3811   6  12   0.0669   0.0605   0.2086  -0.0150  -0.0526  -0.0614   3.00    0.0
2018/11/12 01:02:30.000  -74.425551244  163.418446826    64.3917   6  12   0.0756   0.0712   0.2427  -0.0112  -0.0636  -0.0690   3.00    1.0
2018/11/12 01:03:00.000  -74.425551450  163.418446312    64.4426   6  12   0.0676   0.0626   0.2133  -0.0104  -0.0592  -0.0643   2.00    0.0
2018/11/12 01:03:30.000  -74.425551591  163.418446134    64.3967   6  12   0.0592   0.0516   0.1780  -0.0194  -0.0461  -0.0550   2.00    0.0
2018/11/12 01:04:00.000  -74.425551595  163.418446742    64.3936   6  12   0.0523   0.0406   0.1494  -0.0165  -0.0391  -0.0518   3.00    0.0
2018/11/12 01:04:30.000  -74.425551756  163.418446446    64.3513   6  12   0.0479   0.0338   0.1279  -0.0166  -0.0353  -0.0501   2.00    0.0
2018/11/12 01:05:00.000  -74.425551759  163.418447162    64.3911   6  12   0.0459   0.0298   0.1186  -0.0162  -0.0329  -0.0499   2.00    0.0
2018/11/12 01:05:30.000  -74.425551623  163.418446675    64.3195   6  12   0.0500   0.0344   0.1306  -0.0170  -0.0358  -0.0526   3.00    0.0
2018/11/12 01:06:00.000  -74.425551661  163.418447182    64.4070   6  12   0.0570   0.0432   0.1547  -0.0183  -0.0424  -0.0563   2.00    0.0
2018/11/12 01:06:30.000  -74.425551595  163.418447537    64.3664   6  12   0.0647   0.0501   0.1834  -0.0146  -0.0470  -0.0624   5.00    0.0
2018/11/12 01:07:00.000  -74.425551572  163.418447586    64.3076   6  12   0.0710   0.0588   0.2143  -0.0165  -0.0529  -0.0659   5.00    0.0
2018/11/12 01:07:30.000  -74.425551390  163.418447334    64.2555   6  12   0.0802   0.0680   0.2466  -0.0186  -0.0600  -0.0699   5.00    0.0
2018/11/12 01:08:00.000  -74.425551493  163.418447302    64.2775   6  12   0.0728   0.0599   0.2159  -0.0186  -0.0502  -0.0652   4.00    0.0
2018/11/12 01:08:30.000  -74.425551490  163.418447083    64.2182   6  12   0.0646   0.0496   0.1841  -0.0180  -0.0478  -0.0624   4.00    0.0
2018/11/12 01:09:00.000  -74.425551402  163.418447329    64.2163   6  12   0.0578   0.0420   0.1580  -0.0177  -0.0432  -0.0601   5.00    0.0
2018/11/12 01:09:30.000  -74.425551423  163.418447310    64.2206   6  12   0.0525   0.0332   0.1394  -0.0146  -0.0391  -0.0604   4.00    0.0
2018/11/12 01:10:00.000  -74.425551257  163.418447212    64.2457   6  12   0.0521   0.0299   0.1331  -0.0149  -0.0376  -0.0619   4.00    0.0
2018/11/12 01:10:30.000  -74.425550826  163.418447225    64.1600   6  12   0.0588   0.0348   0.1485  -0.0160  -0.0412  -0.0688   5.00    0.0
2018/11/12 01:11:00.000  -74.425550769  163.418446539    64.1542   6  12   0.0665   0.0436   0.1721  -0.0173  -0.0480  -0.0745   5.00    0.0
2018/11/12 01:11:30.000  -74.425550800  163.418446779    64.0991   6  12   0.0744   0.0541   0.2011  -0.0195  -0.0581  -0.0778   5.00    0.0
2018/11/12 01:12:00.000  -74.425551004  163.418447371    64.1098   6  12   0.0788   0.0647   0.2356  -0.0170  -0.0693  -0.0844   5.00    0.0
2018/11/12 01:12:30.000  -74.425551006  163.418447380    64.1418   6  12   0.0884   0.0758   0.2720  -0.0211  -0.0802  -0.0925   5.00    0.0
2018/11/12 01:13:00.000  -74.425551577  163.418448231    64.2036   6  12   0.0751   0.0708   0.2387  -0.0104  -0.0797  -0.0798   5.00    0.0
2018/11/12 01:13:30.000  -74.425552055  163.418448703    64.3460   6  12   0.0582   0.0548   0.2080  -0.0020  -0.0677  -0.0670   3.00    0.0
2018/11/12 01:14:00.000  -74.425552085  163.418448855    64.2686   6  12   0.0499   0.0424   0.1762   0.0135  -0.0549  -0.0647   3.00    0.0
2018/11/12 01:14:30.000  -74.425552175  163.418447704    64.3440   6  12   0.0400   0.0342   0.1510   0.0132  -0.0502  -0.0557   3.00    0.0
2018/11/12 01:15:00.000  -74.425552028  163.418447425    64.3707   6  12   0.0350   0.0303   0.1390   0.0122  -0.0477  -0.0511   3.00    0.0
2018/11/12 01:15:30.000  -74.425551943  163.418447640    64.2900   6  12   0.0404   0.0348   0.1503   0.0097  -0.0494  -0.0549   3.00    0.0
2018/11/12 01:16:00.000  -74.425551823  163.418448224    64.2918   6  12   0.0468   0.0428   0.1685   0.0075  -0.0536  -0.0567   3.00    0.0
2018/11/12 01:16:30.000  -74.425551760  163.418447243    64.3080   6  12   0.0556   0.0517   0.1939   0.0061  -0.0592  -0.0615   3.00    0.0
2018/11/12 01:17:00.000  -74.425551675  163.418447329    64.2798   6  12   0.0648   0.0611   0.2232   0.0069  -0.0665  -0.0674   5.00    0.0
2018/11/12 01:17:30.000  -74.425551561  163.418447859    64.2034   6  12   0.0745   0.0715   0.2552   0.0111  -0.0757  -0.0746   4.00    0.0
2018/11/12 01:18:00.000  -74.425551565  163.418447887    64.2234   6  12   0.0653   0.0617   0.2227  -0.0160  -0.0648  -0.0657   5.00    0.0
2018/11/12 01:18:30.000  -74.425551576  163.418447133    64.2842   6  12   0.0573   0.0544   0.1950  -0.0190  -0.0601  -0.0586   4.00    0.0
2018/11/12 01:19:00.000  -74.425551665  163.418447462    64.2974   6  12   0.0493   0.0430   0.1692  -0.0126  -0.0506  -0.0583   4.00    0.0
2018/11/12 01:19:30.000  -74.425551846  163.418447702    64.2986   6  12   0.0366   0.0328   0.1483   0.0127  -0.0493  -0.0499   4.00    0.0
2018/11/12 01:20:00.000  -74.425551869  163.418447052    64.2603   6  12   0.0336   0.0299   0.1417   0.0127  -0.0482  -0.0487   4.00    0.0
2018/11/12 01:20:30.000  -74.425551756  163.418446645    64.2388   6  12   0.0389   0.0320   0.1557   0.0124  -0.0486  -0.0524   4.00    0.0
2018/11/12 01:21:00.000  -74.425551597  163.418446806    64.2126   6  12   0.0474   0.0407   0.1826   0.0123  -0.0576  -0.0568   5.00    0.0
2018/11/12 01:21:30.000  -74.425551586  163.418446819    64.2062   6  12   0.0568   0.0512   0.2118   0.0109  -0.0682  -0.0610   5.00    0.0
2018/11/12 01:22:00.000  -74.425551411  163.418447309    64.1427   6  12   0.0660   0.0578   0.2373   0.0160  -0.0712  -0.0697   5.00    0.0
2018/11/12 01:22:30.000  -74.425551242  163.418447416    64.1287   6  12   0.0757   0.0666   0.2676   0.0185  -0.0790  -0.0779   5.00    0.0
2018/11/12 01:23:00.000  -74.425551325  163.418448245    64.1376   6  12   0.0702   0.0574   0.2443   0.0206  -0.0724  -0.0771   5.00    0.0
2018/11/12 01:23:30.000  -74.425551728  163.418447026    64.2481   6  12   0.0557   0.0479   0.2196   0.0078  -0.0627  -0.0542   5.00    0.0
2018/11/12 01:24:00.000  -74.425551795  163.418447274    64.3131   6  12   0.0460   0.0394   0.1951   0.0086  -0.0573  -0.0494   0.00    0.0
2018/11/12 01:24:30.000  -74.425551843  163.418446798    64.3590   6  12   0.0359   0.0306   0.1395   0.0127  -0.0431  -0.0483   0.00    0.0
2018/11/12 01:25:00.000  -74.425551811  163.418446532    64.3148   6  12   0.0331   0.0268   0.1289   0.0124  -0.0397  -0.0473   0.00    0.0
2018/11/12 01:25:30.000  -74.425551739  163.418446294    64.2749   6  12   0.0375   0.0321   0.1414   0.0107  -0.0435  -0.0489   0.00    0.0
2018/11/12 01:26:00.000  -74.425551672  163.418445947    64.2629   6  12   0.0449   0.0404   0.1616   0.0096  -0.0490  -0.0515   1.00    0.0
2018/11/12 01:26:30.000  -74.425551607  163.418446158    64.2195   6  12   0.0537   0.0501   0.1860   0.0105  -0.0556  -0.0554   5.00    0.0
2018/11/12 01:27:00.000  -74.425551606  163.418445736    64.2070   6  12   0.0624   0.0581   0.2132  -0.0044  -0.0617  -0.0601   4.00    0.0
2018/11/12 01:27:30.000  -74.425551545  163.418446442    64.1608   6  12   0.0723   0.0681   0.2427  -0.0126  -0.0682  -0.0672   4.00    0.0
2018/11/12 01:28:00.000  -74.425551772  163.418447217    64.1458   6  12   0.0619   0.0569   0.2119   0.0092  -0.0624  -0.0587   4.00    0.0
2018/11/12 01:28:30.000  -74.425551759  163.418447259    64.1357   6  12   0.0543   0.0478   0.1842   0.0071  -0.0556  -0.0531   5.00    0.0
2018/11/12 01:29:00.000  -74.425551905  163.418447334    64.1475   6  12   0.0429   0.0392   0.1605   0.0112  -0.0502  -0.0476   4.00    0.0
2018/11/12 01:29:30.000  -74.425551982  163.418447257    64.1788   6  12   0.0363   0.0324   0.1436   0.0108  -0.0464  -0.0448   4.00    0.0
2018/11/12 01:30:00.000  -74.425551879  163.418446604    64.3222   6  12   0.0334   0.0279   0.1342   0.0123  -0.0425  -0.0455   4.00    0.0
2018/11/12 01:30:30.000  -74.425551823  163.418446297    64.3381   6  12   0.0383   0.0317   0.1423  -0.0056  -0.0416  -0.0416   4.00    0.0
2018/11/12 01:31:00.000  -74.425551664  163.418447326    64.1456   6  12   0.0498   0.0422   0.1722  -0.0126  -0.0534  -0.0411   4.00    0.0
2018/11/12 01:31:30.000  -74.425551587  163.418446670    64.1480   6  11   0.0619   0.0544   0.2081  -0.0210  -0.0686  -0.0314   3.00    0.0
2018/11/12 01:32:00.000  -74.425551499  163.418447596    64.0744   6  11   0.0726   0.0663   0.2441  -0.0270  -0.0825  -0.0169   3.00    0.0
2018/11/12 01:32:30.000  -74.425551312  163.418446920    64.0944   6  11   0.0838   0.0753   0.2674  -0.0293  -0.0839  -0.0297   3.00    0.0
2018/11/12 01:33:00.000  -74.425551592  163.418447866    64.0949   6  11   0.0769   0.0682   0.2427  -0.0334  -0.0780  -0.0302   4.00    0.0
2018/11/12 01:33:30.000  -74.425551590  163.418447311    64.1280   6  10   0.0563   0.0557   0.2144  -0.0163  -0.0713  -0.0318   4.00    0.0
2018/11/12 01:34:00.000  -74.425551750  163.418446788    64.2254   6  10   0.0435   0.0447   0.1873   0.0140  -0.0672  -0.0381   4.00    0.0
2018/11/12 01:34:30.000  -74.425552095  163.418446563    64.3915   6   9   0.0314   0.0338   0.1553   0.0112  -0.0527  -0.0327   4.00    0.0
2018/11/12 01:35:00.000  -74.425552311  163.418446322    64.4114   6   9   0.0240   0.0276   0.1353   0.0067  -0.0433  -0.0244   4.00    0.0
2018/11/12 01:35:30.000  -74.425552042  163.418447193    64.1926   6   9   0.0322   0.0348   0.1667   0.0113  -0.0555  -0.0361   4.00    0.0
2018/11/12 01:36:00.000  -74.425552003  163.418447064    64.2171   6   9   0.0451   0.0471   0.2112   0.0175  -0.0753  -0.0495   4.00    0.0
2018/11/12 01:36:30.000  -74.425552072  163.418446736    64.3546   6   9   0.0584   0.0606   0.2619   0.0240  -0.0978  -0.0626   4.00    0.0
2018/11/12 01:37:00.000  -74.425551842  163.418446985    64.3421   6   9   0.0716   0.0746   0.3170   0.0305  -0.1219  -0.0761   4.00    0.0
2018/11/12 01:37:30.000  -74.425551768  163.418446832    64.3311   6   9   0.0849   0.0890   0.3749   0.0370  -0.1471  -0.0901   5.00    0.0
2018/11/12 01:38:00.000  -74.425551716  163.418447301    64.2496   6   9   0.0721   0.0758   0.3202   0.0308  -0.1242  -0.0771   5.00    0.0
2018/11/12 01:38:30.000  -74.425551536  163.418447458    64.2859   6   9   0.0595   0.0637   0.2682   0.0231  -0.1021  -0.0645   5.00    0.0
2018/11/12 01:39:00.000  -74.425551828  163.418447298    64.2675   6   9   0.0468   0.0501   0.2223   0.0172  -0.0807  -0.0543   5.00    0.0
2018/11/12 01:39:30.000  -74.425552049  163.418446384    64.2716   6   9   0.0356   0.0370   0.1880   0.0129  -0.0621  -0.0479   5.00    0.0
2018/11/12 01:40:00.000  -74.425552344  163.418446314    64.3244   6   9   0.0254   0.0300   0.1715   0.0116  -0.0552  -0.0369   5.00    0.0
2018/11/12 01:40:30.000  -74.425552486  163.418445682    64.3296   6   9   0.0349   0.0382   0.2208   0.0167  -0.0722  -0.0534   5.00    0.0
2018/11/12 01:41:00.000  -74.425552252  163.418446257    64.0552   6   9   0.0491   0.0514   0.2810   0.0228  -0.0950  -0.0704   5.00    0.0
2018/11/12 01:41:30.000  -74.425551936  163.418447016    63.9070   6   9   0.0638   0.0663   0.3487   0.0291  -0.1215  -0.0877   5.00    0.0
2018/11/12 01:42:00.000  -74.425551541  163.418447330    63.8429   6   9   0.0800   0.0832   0.4287   0.0348  -0.1528  -0.1069   5.00    0.0
2018/11/12 01:42:30.000  -74.425551802  163.418445920    64.5920   6   9   0.0914   0.1018   0.4655   0.0398  -0.1808  -0.1147   0.00    0.0
2018/11/12 01:43:00.000  -74.425552045  163.418445876    64.5484   6   9   0.0756   0.0845   0.3777   0.0338  -0.1474  -0.0933   0.00    0.0
2018/11/12 01:43:30.000  -74.425552355  163.418445246    64.5970   6   9   0.0609   0.0679   0.2994   0.0273  -0.1162  -0.0739   0.00    0.0
2018/11/12 01:44:00.000  -74.425552468  163.418444490    64.6401   6   9   0.0461   0.0495   0.2288   0.0232  -0.0853  -0.0576   3.00    0.0
2018/11/12 01:44:30.000  -74.425552314  163.418445159    64.4838   6   9   0.0330   0.0355   0.1706   0.0160  -0.0592  -0.0422   3.00    0.0
2018/11/12 01:45:00.000  -74.425552376  163.418445740    64.4529   6   9   0.0253   0.0278   0.1382   0.0113  -0.0443  -0.0320   4.00    0.0
2018/11/12 01:45:30.000  -74.425552076  163.418447181    64.2641   6   9   0.0352   0.0353   0.1710   0.0172  -0.0585  -0.0479   4.00    0.0
2018/11/12 01:46:00.000  -74.425551580  163.418447890    64.0373   6   9   0.0513   0.0484   0.2308   0.0257  -0.0824  -0.0720   4.00    0.0
2018/11/12 01:46:30.000  -74.425551784  163.418447250    64.1742   6   8   0.0738   0.0649   0.3454   0.0409  -0.1212  -0.1203   4.00    0.0
2018/11/12 01:47:00.000  -74.425552061  163.418447378    64.2769   6   9   0.0697   0.0750   0.3139   0.0304  -0.1209  -0.0735   4.00    0.0
2018/11/12 01:47:30.000  -74.425551844  163.418446853    64.3053   6   9   0.0813   0.0888   0.3594   0.0339  -0.1418  -0.0784   3.00    0.0
2018/11/12 01:48:00.000  -74.425551978  163.418446425    64.3264   6   9   0.0683   0.0748   0.3021   0.0293  -0.1184  -0.0662   3.00    0.0
2018/11/12 01:48:30.000  -74.425552242  163.418446011    64.3670   6   9   0.0556   0.0609   0.2483   0.0244  -0.0957  -0.0551   3.00    0.0
2018/11/12 01:49:00.000  -74.425552437  163.418444785    64.4870   6   9   0.0432   0.0473   0.1991   0.0195  -0.0741  -0.0456   3.00    0.0
2018/11/12 01:49:30.000  -74.425552349  163.418445578    64.3808   6   9   0.0320   0.0351   0.1584   0.0151  -0.0549  -0.0381   3.00    0.0
2018/11/12 01:50:00.000  -74.425552275  163.418445717    64.3583   6   9   0.0255   0.0283   0.1376   0.0124  -0.0445  -0.0328   3.00    0.0
2018/11/12 01:50:30.000  -74.425552313  163.418445536    64.4089   6   9   0.0346   0.0365   0.1695   0.0176  -0.0589  -0.0420   3.00    0.0
2018/11/12 01:51:00.000  -74.425552347  163.418444934    64.5566   6   9   0.0472   0.0499   0.2036   0.0249  -0.0788  -0.0581   0.00    0.0
2018/11/12 01:51:30.000  -74.425552423  163.418445496    64.5554   6   9   0.0596   0.0649   0.2528   0.0312  -0.1010  -0.0688   0.00    0.0
2018/11/12 01:52:00.000  -74.425552285  163.418445635    64.4952   6   9   0.0714   0.0763   0.3053   0.0344  -0.1211  -0.0786   1.00    0.0
2018/11/12 01:52:30.000  -74.425552336  163.418445518    64.4495   6   9   0.0840   0.0903   0.3632   0.0404  -0.1451  -0.0917   2.00    0.0
2018/11/12 01:53:00.000  -74.425552297  163.418445813    64.4309   6   9   0.0741   0.0760   0.3156   0.0369  -0.1232  -0.0886   2.00    0.0
2018/11/12 01:53:30.000  -74.425552068  163.418446131    64.3335   6   9   0.0658   0.0622   0.2745   0.0344  -0.1032  -0.0894   3.00    0.0
2018/11/12 01:54:00.000  -74.425552457  163.418445845    64.4988   6   9   0.0493   0.0480   0.2157   0.0262  -0.0792  -0.0681   3.00    0.0
2018/11/12 01:54:30.000  -74.425552384  163.418445330    64.4345   6   9   0.0392   0.0348   0.1651   0.0205  -0.0563  -0.0581   3.00    0.0
2018/11/12 01:55:00.000  -74.425552602  163.418444400    64.6383   1   9   0.0298   0.0236   0.1338   0.0153  -0.0443  -0.0424   5.00    1.0
2018/11/12 01:55:30.000  -74.425552045  163.418446324    64.2766   6   9   0.0369   0.0344   0.1525   0.0175  -0.0521  -0.0503   4.00    0.0
2018/11/12 01:56:00.000  -74.425551864  163.418446878    64.0666   6   9   0.0509   0.0474   0.2063   0.0256  -0.0754  -0.0686   4.00    0.0
2018/11/12 01:56:30.000  -74.425551753  163.418448440    63.9498   6   9   0.0657   0.0617   0.2684   0.0342  -0.1010  -0.0888   4.00    0.0
2018/11/12 01:57:00.000  -74.425551674  163.418448150    63.9066   6   9   0.0826   0.0768   0.3432   0.0447  -0.1302  -0.1164   4.00    0.0
2018/11/12 01:57:30.000  -74.425552065  163.418446358    64.1991   6   9   0.1243   0.0994   0.5422   0.0762  -0.1956  -0.2153   4.00    0.0
2018/11/12 01:58:00.000  -74.425552370  163.418445313    64.3823   6   9   0.0749   0.0765   0.3275   0.0413  -0.1272  -0.0994   4.00    0.0
2018/11/12 01:58:30.000  -74.425552585  163.418444921    64.4551   6   9   0.0595   0.0614   0.2523   0.0310  -0.0977  -0.0736   3.00    0.0
2018/11/12 01:59:00.000  -74.425552517  163.418445378    64.4675   6   9   0.0462   0.0479   0.1880   0.0209  -0.0716  -0.0535   3.00    0.0
2018/11/12 01:59:30.000  -74.425552227  163.418446430    64.3371   6   9   0.0338   0.0331   0.1339   0.0156  -0.0462  -0.0403   3.00    0.0
2018/11/12 02:00:00.000  -74.425552632  163.418444302    64.6721   1   9   0.0311   0.0229   0.1369   0.0153  -0.0419  -0.0457   5.00    1.0
2018/11/12 02:00:30.000  -74.425553050  163.418443705    64.7085   6   9   0.0378   0.0342   0.1465   0.0168  -0.0495  -0.0503   3.00    0.0
2018/11/12 02:01:00.000  -74.425552944  163.418444197    64.6435   6   9   0.0519   0.0462   0.2000   0.0268  -0.0725  -0.0705   3.00    0.0
2018/11/12 02:01:30.000  -74.425552941  163.418444448    64.5522   6   9   0.0691   0.0605   0.2678   0.0371  -0.0994  -0.0970   4.00    0.0
2018/11/12 02:02:00.000  -74.425553346  163.418443184    64.6960   6   9   0.1014   0.0794   0.4086   0.0600  -0.1479  -0.1662   3.00    0.0
2018/11/12 02:02:30.000  -74.425553320  163.418442826    64.7224   6   9   0.1079   0.0927   0.4447   0.0639  -0.1664  -0.1689   3.00    0.0
2018/11/12 02:03:00.000  -74.425552682  163.418445202    64.4378   6   9   0.0959   0.0776   0.3790   0.0555  -0.1389  -0.1506   3.00    0.0
2018/11/12 02:03:30.000  -74.425552356  163.418446776    64.2518   6   9   0.0614   0.0601   0.2521   0.0348  -0.0962  -0.0816   3.00    0.0
2018/11/12 02:04:00.000  -74.425552424  163.418446022    64.3329   6   9   0.0461   0.0453   0.1820   0.0244  -0.0675  -0.0565   3.00    0.0
2018/11/12 02:04:30.000  -74.425552499  163.418445211    64.4337   6   9   0.0334   0.0322   0.1262   0.0157  -0.0424  -0.0385   3.00    0.0
2018/11/12 02:05:00.000  -74.425552764  163.418444040    64.7507   1   9   0.0292   0.0209   0.1228   0.0134  -0.0339  -0.0396   5.00    1.0
2018/11/12 02:05:30.000  -74.425552528  163.418443959    64.5880   6   9   0.0363   0.0319   0.1283   0.0165  -0.0419  -0.0444   4.00    0.0
2018/11/12 02:06:00.000  -74.425552587  163.418443741    64.6461   6   9   0.0525   0.0445   0.1854   0.0261  -0.0659  -0.0684   5.00    0.0
2018/11/12 02:06:30.000  -74.425552590  163.418444976    64.5458   6   9   0.0606   0.0588   0.2393   0.0347  -0.0917  -0.0783   5.00    0.0
2018/11/12 02:07:00.000  -74.425552644  163.418445718    64.4201   6   9   0.0736   0.0726   0.2927   0.0424  -0.1145  -0.0943   5.00    0.0
2018/11/12 02:07:30.000  -74.425552673  163.418446079    64.3418   6   9   0.0870   0.0868   0.3501   0.0509  -0.1385  -0.1125   5.00    0.0
2018/11/12 02:08:00.000  -74.425552676  163.418445768    64.4095   6   9   0.0731   0.0721   0.2870   0.0420  -0.1122  -0.0917   5.00    0.0
2018/11/12 02:08:30.000  -74.425552583  163.418445915    64.3538   6   9   0.0588   0.0576   0.2242   0.0329  -0.0862  -0.0706   4.00    0.0
2018/11/12 02:09:00.000  -74.425552597  163.418444765    64.4844   6   9   0.0446   0.0437   0.1640   0.0237  -0.0609  -0.0493   4.00    0.0
2018/11/12 02:09:30.000  -74.425552498  163.418444030    64.7165   1   9   0.0343   0.0315   0.1353   0.0177  -0.0466  -0.0363   5.00    1.0
2018/11/12 02:10:00.000  -74.425552730  163.418443928    64.7344   1   9   0.0211   0.0187   0.0885   0.0012  -0.0275  -0.0243   5.00    2.0
2018/11/12 02:10:30.000  -74.425553065  163.418442393    64.9295   1   9   0.0323   0.0306   0.1328   0.0145  -0.0475  -0.0405   5.00    2.0
2018/11/12 02:11:00.000  -74.425552888  163.418442482    64.7171   6   9   0.0439   0.0429   0.1570   0.0227  -0.0571  -0.0464   6.00    0.0
2018/11/12 02:11:30.000  -74.425552621  163.418443411    64.5364   6   9   0.0578   0.0562   0.2124   0.0319  -0.0806  -0.0670   6.00    0.0
2018/11/12 02:12:00.000  -74.425552660  163.418442746    64.5727   6   9   0.0721   0.0700   0.2698   0.0413  -0.1046  -0.0882   7.00    0.0
2018/11/12 02:12:30.000  -74.425552775  163.418444075    64.4312   6   9   0.0866   0.0840   0.3276   0.0508  -0.1285  -0.1097   7.00    0.0
2018/11/12 02:13:00.000  -74.425552989  163.418442927    64.6262   6   9   0.0723   0.0696   0.2672   0.0415  -0.1032  -0.0887   7.00    0.0
2018/11/12 02:13:30.000  -74.425552989  163.418442098    64.7227   6   9   0.0581   0.0556   0.2084   0.0322  -0.0783  -0.0678   6.00    0.0
2018/11/12 02:14:00.000  -74.425552777  163.418442648    64.7111   6   9   0.0442   0.0423   0.1528   0.0229  -0.0543  -0.0472   6.00    0.0
2018/11/12 02:14:30.000  -74.425552794  163.418442764    64.8440   1   9   0.0332   0.0299   0.1300   0.0143  -0.0441  -0.0419   5.00    2.0
2018/11/12 02:15:00.000  -74.425552781  163.418443974    64.7399   1   9   0.0224   0.0188   0.0892  -0.0053  -0.0233  -0.0254   5.00    2.0
2018/11/12 02:15:30.000  -74.425552801  163.418444291    64.7298   1   9   0.0348   0.0313   0.1356   0.0105  -0.0426  -0.0432   5.00    2.0
2018/11/12 02:16:00.000  -74.425552694  163.418443868    64.4776   6   9   0.0457   0.0436   0.1551   0.0187  -0.0501  -0.0476   5.00    0.0
2018/11/12 02:16:30.000  -74.425552545  163.418444194    64.3493   6   9   0.0590   0.0554   0.2097   0.0304  -0.0709  -0.0705   5.00    0.0
2018/11/12 02:17:00.000  -74.425552639  163.418443615    64.3676   6   9   0.0739   0.0686   0.2678   0.0398  -0.0921  -0.0938   5.00    0.0
2018/11/12 02:17:30.000  -74.425552579  163.418443536    64.3237   6   9   0.0897   0.0824   0.3322   0.0486  -0.1117  -0.1197   5.00    0.0
2018/11/12 02:18:00.000  -74.425552632  163.418444220    64.4025   6   8   0.0777   0.0688   0.2996   0.0382  -0.0854  -0.1096   5.00    0.0
2018/11/12 02:18:30.000  -74.425552979  163.418444623    64.5068   6   8   0.0621   0.0551   0.2332   0.0297  -0.0638  -0.0839   5.00    0.0
2018/11/12 02:19:00.000  -74.425553011  163.418444313    64.5596   6   8   0.0467   0.0419   0.1694   0.0213  -0.0428  -0.0584   6.00    0.0
2018/11/12 02:19:30.000  -74.425552988  163.418443813    64.6323   6   8   0.0323   0.0302   0.1125   0.0137  -0.0228  -0.0339   6.00    0.0
2018/11/12 02:20:00.000  -74.425552785  163.418443649    64.7664   1   8   0.0229   0.0220   0.0934  -0.0074  -0.0216  -0.0276   5.00    1.0
2018/11/12 02:20:30.000  -74.425552602  163.418444180    64.5978   6   8   0.0324   0.0307   0.1118   0.0129  -0.0209  -0.0331   6.00    0.0
2018/11/12 02:21:00.000  -74.425552712  163.418443848    64.5656   6   8   0.0470   0.0424   0.1676   0.0202  -0.0396  -0.0585   6.00    0.0
2018/11/12 02:21:30.000  -74.425553325  163.418443230    64.7067   6   8   0.0631   0.0552   0.2296   0.0283  -0.0585  -0.0855   6.00    0.0
2018/11/12 02:22:00.000  -74.425553558  163.418442502    64.8084   6   8   0.0799   0.0688   0.2937   0.0363  -0.0773  -0.1131   6.00    0.0
2018/11/12 02:22:30.000  -74.425553726  163.418442980    64.7903   6   8   0.0971   0.0837   0.3584   0.0437  -0.0962  -0.1409   6.00    0.0
2018/11/12 02:23:00.000  -74.425553731  163.418443157    64.7771   6   8   0.0807   0.0685   0.2934   0.0364  -0.0757  -0.1148   5.00    0.0
2018/11/12 02:23:30.000  -74.425553498  163.418443418    64.7698   6   8   0.0642   0.0544   0.2283   0.0284  -0.0549  -0.0876   5.00    0.0
2018/11/12 02:24:00.000  -74.425553565  163.418442703    64.7922   6   8   0.0480   0.0415   0.1662   0.0204  -0.0347  -0.0606   5.00    0.0
2018/11/12 02:24:30.000  -74.425552866  163.418443811    64.7449   1   9   0.0373   0.0316   0.1316   0.0112  -0.0296  -0.0544   3.00    1.0
2018/11/12 02:25:00.000  -74.425552927  163.418443364    64.6484   6   9   0.0234   0.0242   0.0728   0.0071   0.0121  -0.0193   5.00    0.0
2018/11/12 02:25:30.000  -74.425552938  163.418443725    64.5776   6   9   0.0327   0.0319   0.1049   0.0114   0.0068  -0.0368   5.00    0.0
2018/11/12 02:26:00.000  -74.425552904  163.418444427    64.4922   6   9   0.0480   0.0445   0.1567   0.0186  -0.0218  -0.0628   5.00    0.0
2018/11/12 02:26:30.000  -74.425553100  163.418443937    64.4663   6   9   0.0650   0.0580   0.2148   0.0265  -0.0376  -0.0905   5.00    0.0
2018/11/12 02:27:00.000  -74.425553269  163.418444180    64.3595   6   9   0.0825   0.0709   0.2775   0.0359  -0.0489  -0.1182   5.00    0.0
2018/11/12 02:27:30.000  -74.425553170  163.418445218    64.4215   6   8   0.1002   0.0854   0.3507   0.0448  -0.0486  -0.1460   4.00    0.0
2018/11/12 02:28:00.000  -74.425553074  163.418445097    64.4087   6   8   0.0828   0.0727   0.2883   0.0348  -0.0323  -0.1179   4.00    0.0
2018/11/12 02:28:30.000  -74.425552781  163.418445619    64.3583   6   8   0.0656   0.0596   0.2270   0.0254  -0.0072  -0.0906   4.00    0.0
2018/11/12 02:29:00.000  -74.425552388  163.418446002    64.3007   6   8   0.0486   0.0441   0.1698   0.0183   0.0252  -0.0645   4.00    0.0
2018/11/12 02:29:30.000  -74.425552629  163.418444899    64.4760   6   8   0.0330   0.0303   0.1097   0.0126   0.0176  -0.0378   2.00    0.0
2018/11/12 02:30:00.000  -74.425552974  163.418443399    64.7113   6   8   0.0236   0.0234   0.0736   0.0079   0.0172  -0.0204   2.00    0.0
2018/11/12 02:30:30.000  -74.425553157  163.418442858    64.6985   6   8   0.0328   0.0307   0.1095   0.0117   0.0212  -0.0375   2.00    0.0
2018/11/12 02:31:00.000  -74.425553375  163.418442131    64.6759   6   8   0.0484   0.0427   0.1674   0.0179   0.0247  -0.0641   2.00    0.0
2018/11/12 02:31:30.000  -74.425553365  163.418441959    64.6731   6   8   0.0656   0.0557   0.2316   0.0245   0.0281  -0.0929   2.00    0.0
2018/11/12 02:32:00.000  -74.425553426  163.418442820    64.6323   6   8   0.0833   0.0694   0.2983   0.0308   0.0335  -0.1224   3.00    0.0
2018/11/12 02:32:30.000  -74.425553800  163.418441389    64.7442   6   9   0.0952   0.0810   0.3207   0.0253   0.0736  -0.1306   4.00    0.0
2018/11/12 02:33:00.000  -74.425553549  163.418441930    64.6701   6   9   0.0789   0.0693   0.2691   0.0142   0.0723  -0.1073   4.00    0.0
2018/11/12 02:33:30.000  -74.425553485  163.418442020    64.6710   6   9   0.0629   0.0547   0.2105   0.0150   0.0519  -0.0827   3.00    0.0
2018/11/12 02:34:00.000  -74.425553460  163.418442078    64.6859   6   9   0.0479   0.0419   0.1628   0.0151   0.0319  -0.0621   3.00    0.0
2018/11/12 02:34:30.000  -74.425553370  163.418442181    64.7610   6   9   0.0330   0.0300   0.1082   0.0113   0.0211  -0.0383   4.00    0.0
2018/11/12 02:35:00.000  -74.425552863  163.418443707    64.8016   1   9   0.0241   0.0242   0.0832   0.0132   0.0153  -0.0326   4.00    1.0
2018/11/12 02:35:30.000  -74.425552825  163.418443625    64.5758   6   9   0.0327   0.0300   0.1058   0.0112   0.0214  -0.0370   4.00    0.0
2018/11/12 02:36:00.000  -74.425552928  163.418443297    64.5326   6   9   0.0462   0.0410   0.1462   0.0117   0.0394  -0.0549   4.00    0.0
2018/11/12 02:36:30.000  -74.425552854  163.418442663    64.4733   6   9   0.0605   0.0535   0.1926   0.0116   0.0560  -0.0741   4.00    0.0
2018/11/12 02:37:00.000  -74.425553037  163.418442305    64.4951   6   9   0.0758   0.0667   0.2434   0.0106   0.0732  -0.0957   5.00    0.0
2018/11/12 02:37:30.000  -74.425553121  163.418442780    64.5821   6   9   0.0915   0.0803   0.2965   0.0079   0.0908  -0.1183   5.00    0.0
2018/11/12 02:38:00.000  -74.425553173  163.418442442    64.6307   6   9   0.0760   0.0670   0.2454   0.0075   0.0751  -0.0967   5.00    0.0
2018/11/12 02:38:30.000  -74.425553310  163.418443682    64.6863   6   9   0.0605   0.0539   0.1937   0.0076   0.0595  -0.0747   4.00    0.0
2018/11/12 02:39:00.000  -74.425553298  163.418443868    64.7150   6   9   0.0454   0.0414   0.1428   0.0079   0.0439  -0.0528   5.00    0.0
2018/11/12 02:39:30.000  -74.425552954  163.418443143    64.6755   6   9   0.0317   0.0298   0.0949   0.0077   0.0286  -0.0320   4.00    0.0
2018/11/12 02:40:00.000  -74.425552913  163.418443502    64.6811   6   9   0.0234   0.0227   0.0630   0.0071   0.0175  -0.0172   4.00    0.0
2018/11/12 02:40:30.000  -74.425552893  163.418442421    64.5585   6   9   0.0320   0.0299   0.0939   0.0064   0.0290  -0.0313   4.00    0.0
2018/11/12 02:41:00.000  -74.425552919  163.418443072    64.5488   6   9   0.0466   0.0418   0.1424  -0.0052   0.0462  -0.0529   4.00    0.0
2018/11/12 02:41:30.000  -74.425553051  163.418442897    64.5799   6   9   0.0613   0.0547   0.1966  -0.0099   0.0647  -0.0768   4.00    0.0
2018/11/12 02:42:00.000  -74.425553185  163.418442398    64.5574   6   9   0.0769   0.0684   0.2521  -0.0147   0.0834  -0.1003   4.00    0.0
2018/11/12 02:42:30.000  -74.425553229  163.418443145    64.6085   6   9   0.0930   0.0826   0.3090  -0.0199   0.1028  -0.1246   5.00    0.0
2018/11/12 02:43:00.000  -74.425553086  163.418443646    64.5851   6   9   0.0771   0.0689   0.2541  -0.0161   0.0853  -0.1013   5.00    0.0
2018/11/12 02:43:30.000  -74.425553045  163.418443241    64.5761   6   9   0.0612   0.0553   0.1991  -0.0114   0.0672  -0.0777   4.00    0.0
2018/11/12 02:44:00.000  -74.425553029  163.418443127    64.6605   6   9   0.0456   0.0422   0.1452  -0.0052   0.0490  -0.0545   4.00    0.0
2018/11/12 02:44:30.000  -74.425552858  163.418443769    64.8113   1   9   0.0376   0.0350   0.1266   0.0094   0.0378  -0.0534   4.00    1.0
2018/11/12 02:45:00.000  -74.425552847  163.418443934    64.7597   1   9   0.0251   0.0250   0.0800   0.0117   0.0190  -0.0348   5.00    1.0
2018/11/12 02:45:30.000  -74.425552863  163.418443320    64.7437   1   9   0.0389   0.0354   0.1338   0.0110   0.0357  -0.0574   5.00    1.0
2018/11/12 02:46:00.000  -74.425553064  163.418443467    64.5493   6   9   0.0460   0.0429   0.1521  -0.0027   0.0476  -0.0576   5.00    0.0
2018/11/12 02:46:30.000  -74.425553107  163.418443665    64.5622   6   9   0.0623   0.0560   0.2093  -0.0128   0.0689  -0.0834   5.00    0.0
2018/11/12 02:47:00.000  -74.425553564  163.418443908    64.6149   6   9   0.0779   0.0703   0.2633  -0.0203   0.0903  -0.1060   5.00    0.0
2018/11/12 02:47:30.000  -74.425553709  163.418444206    64.6487   6   9   0.0942   0.0850   0.3203  -0.0270   0.1117  -0.1304   5.00    0.0
2018/11/12 02:48:00.000  -74.425553693  163.418443685    64.7046   6   9   0.0773   0.0705   0.2619  -0.0214   0.0918  -0.1052   5.00    0.0
2018/11/12 02:48:30.000  -74.425553583  163.418443303    64.7293   6   9   0.0611   0.0564   0.2040  -0.0158   0.0720  -0.0803   5.00    0.0
2018/11/12 02:49:00.000  -74.425553389  163.418442817    64.6855   6   9   0.0454   0.0427   0.1473  -0.0095   0.0524  -0.0558   5.00    0.0
2018/11/12 02:49:30.000  -74.425553109  163.418443828    64.7974   1   9   0.0376   0.0355   0.1250   0.0041   0.0413  -0.0534   6.00    1.0
2018/11/12 02:50:00.000  -74.425552860  163.418443468    64.7367   1   9   0.0265   0.0253   0.0786   0.0107   0.0207  -0.0360   6.00    1.0
2018/11/12 02:50:30.000  -74.425552902  163.418442627    64.7194   1   9   0.0435   0.0359   0.1339   0.0103   0.0389  -0.0626   5.00    1.0
2018/11/12 02:51:00.000  -74.425553527  163.418442111    64.6363   6  10   0.0490   0.0351   0.1232   0.0172   0.0202  -0.0544   4.00    0.0
2018/11/12 02:51:30.000  -74.425553738  163.418441589    64.6748   6  10   0.0642   0.0439   0.1661   0.0214   0.0198  -0.0760   4.00    0.0
2018/11/12 02:52:00.000  -74.425553906  163.418441943    64.7247   6  10   0.0777   0.0530   0.2029   0.0244   0.0253  -0.0921   4.00    0.0
2018/11/12 02:52:30.000  -74.425553957  163.418441904    64.7014   6  10   0.0924   0.0626   0.2423   0.0281   0.0296  -0.1102   4.00    0.0
2018/11/12 02:53:00.000  -74.425553719  163.418442751    64.6305   6  10   0.0768   0.0527   0.2007   0.0229   0.0277  -0.0902   4.00    0.0
2018/11/12 02:53:30.000  -74.425553480  163.418443326    64.5560   6  10   0.0612   0.0430   0.1594   0.0179   0.0251  -0.0702   4.00    0.0
2018/11/12 02:54:00.000  -74.425553237  163.418443182    64.5324   6  10   0.0460   0.0336   0.1189   0.0134   0.0211  -0.0505   4.00    0.0
2018/11/12 02:54:30.000  -74.425552998  163.418443002    64.7635   1  10   0.0360   0.0287   0.0968   0.0137   0.0138  -0.0447   5.00    1.0
2018/11/12 02:55:00.000  -74.425552899  163.418443329    64.7789   1  10   0.0247   0.0229   0.0656   0.0119   0.0090  -0.0306   5.00    1.0
2018/11/12 02:55:30.000  -74.425553285  163.418442366    64.6910   6  10   0.0318   0.0252   0.0788   0.0097   0.0160  -0.0306   4.00    0.0
2018/11/12 02:56:00.000  -74.425553448  163.418441924    64.6410   6  10   0.0446   0.0332   0.1139   0.0127   0.0217  -0.0469   4.00    0.0
2018/11/12 02:56:30.000  -74.425553728  163.418441530    64.6670   6  10   0.0590   0.0422   0.1530   0.0161   0.0276  -0.0655   4.00    0.0
2018/11/12 02:57:00.000  -74.425553673  163.418441916    64.6538   6  10   0.0741   0.0518   0.1938   0.0196   0.0338  -0.0850   3.00    0.0
2018/11/12 02:57:30.000  -74.425553641  163.418442099    64.5940   6  10   0.0896   0.0617   0.2354   0.0230   0.0407  -0.1048   3.00    0.0
2018/11/12 02:58:00.000  -74.425553579  163.418442194    64.6443   6  10   0.0743   0.0520   0.1947   0.0191   0.0358  -0.0855   5.00    0.0
2018/11/12 02:58:30.000  -74.425553639  163.418442168    64.6789   6  10   0.0592   0.0424   0.1538   0.0153   0.0302  -0.0661   5.00    0.0
2018/11/12 02:59:00.000  -74.425553341  163.418442880    64.6583   6  10   0.0449   0.0333   0.1145   0.0120   0.0238  -0.0476   4.00    0.0
2018/11/12 02:59:30.000  -74.425553054  163.418443646    64.6825   6  10   0.0324   0.0253   0.0793   0.0096   0.0166  -0.0318   4.00    0.0
2018/11/12 03:00:00.000  -74.425552816  163.418443238    64.7750   1  10   0.0292   0.0237   0.0719   0.0134  -0.0076  -0.0375   5.00    1.0
2018/11/12 03:00:30.000  -74.425552802  163.418443782    64.7447   1  10   0.0505   0.0307   0.1195   0.0222  -0.0206  -0.0671   5.00    1.0
2018/11/12 03:01:00.000  -74.425553313  163.418442699    64.6075   6  10   0.0492   0.0334   0.1231   0.0148   0.0200  -0.0567   4.00    0.0
2018/11/12 03:01:30.000  -74.425553452  163.418442575    64.6319   6  10   0.0623   0.0425   0.1591   0.0167   0.0298  -0.0722   5.00    0.0
2018/11/12 03:02:00.000  -74.425553629  163.418442633    64.6627   6  10   0.0765   0.0523   0.1978   0.0187   0.0393  -0.0896   5.00    0.0
2018/11/12 03:02:30.000  -74.425553575  163.418442307    64.5672   6  10   0.0912   0.0624   0.2378   0.0207   0.0489  -0.1079   5.00    0.0
2018/11/12 03:03:00.000  -74.425553339  163.418441744    64.5650   6  10   0.0760   0.0524   0.1967   0.0176   0.0411  -0.0886   4.00    0.0
2018/11/12 03:03:30.000  -74.425553366  163.418442042    64.6301   6  10   0.0608   0.0426   0.1561   0.0144   0.0333  -0.0694   4.00    0.0
2018/11/12 03:04:00.000  -74.425553268  163.418441709    64.6625   6  10   0.0463   0.0333   0.1169   0.0114   0.0253  -0.0510   4.00    0.0
2018/11/12 03:04:30.000  -74.425552783  163.418442706    64.7659   1  11   0.0350   0.0288   0.0916   0.0071   0.0223  -0.0417   5.00    1.0
2018/11/12 03:05:00.000  -74.425552761  163.418443468    64.7609   1  11   0.0253   0.0232   0.0654   0.0087   0.0107  -0.0309   5.00    1.0
2018/11/12 03:05:30.000  -74.425553021  163.418443189    64.6289   6  11   0.0324   0.0248   0.0768   0.0062   0.0200  -0.0312   5.00    0.0
2018/11/12 03:06:00.000  -74.425553137  163.418443141    64.6253   6  11   0.0445   0.0326   0.1081   0.0054   0.0310  -0.0448   6.00    0.0
2018/11/12 03:06:30.000  -74.425553173  163.418442789    64.5531   6  11   0.0579   0.0417   0.1430  -0.0019   0.0426  -0.0605   6.00    0.0
2018/11/12 03:07:00.000  -74.425553223  163.418442685    64.5865   6  12   0.0699   0.0511   0.1784  -0.0125   0.0535  -0.0795   6.00    0.0
2018/11/12 03:07:30.000  -74.425553219  163.418441901    64.5967   6  12   0.0832   0.0611   0.2156  -0.0178   0.0653  -0.0975   5.00    0.0
2018/11/12 03:08:00.000  -74.425553222  163.418441846    64.5912   6  12   0.0709   0.0511   0.1803  -0.0124   0.0532  -0.0823   5.00    0.0
2018/11/12 03:08:30.000  -74.425553151  163.418441846    64.6543   6  12   0.0608   0.0416   0.1483   0.0013   0.0404  -0.0703   5.00    0.0
2018/11/12 03:09:00.000  -74.425552919  163.418441975    64.6974   6  12   0.0464   0.0324   0.1139   0.0019   0.0301  -0.0530   5.00    0.0
2018/11/12 03:09:30.000  -74.425552691  163.418443133    64.8236   1  12   0.0438   0.0289   0.1048   0.0113   0.0191  -0.0559   5.00    1.0
2018/11/12 03:10:00.000  -74.425552825  163.418443035    64.7555   1  12   0.0248   0.0229   0.0635   0.0062   0.0140  -0.0295   5.00    2.0
2018/11/12 03:10:30.000  -74.425552859  163.418441980    64.7947   1  12   0.0360   0.0289   0.0914   0.0030   0.0243  -0.0426   4.00    1.0
2018/11/12 03:11:00.000  -74.425552927  163.418441663    64.6351   6  12   0.0414   0.0323   0.1056  -0.0081   0.0323  -0.0442   5.00    0.0
2018/11/12 03:11:30.000  -74.425553004  163.418441424    64.6344   6  12   0.0535   0.0414   0.1398  -0.0128   0.0443  -0.0599   5.00    0.0
2018/11/12 03:12:00.000  -74.425553046  163.418440956    64.6334   6  12   0.0664   0.0513   0.1756  -0.0176   0.0566  -0.0765   5.00    0.0
2018/11/12 03:12:30.000  -74.425553186  163.418441342    64.6509   6  12   0.0796   0.0615   0.2122  -0.0224   0.0692  -0.0935   5.00    0.0
2018/11/12 03:13:00.000  -74.425552913  163.418441739    64.6130   6  12   0.0662   0.0514   0.1757  -0.0179   0.0572  -0.0765   6.00    0.0
2018/11/12 03:13:30.000  -74.425552661  163.418441001    64.5409   6  12   0.0534   0.0416   0.1399  -0.0134   0.0451  -0.0599   6.00    0.0
2018/11/12 03:14:00.000  -74.425552684  163.418441677    64.5486   6  12   0.0414   0.0324   0.1060  -0.0088   0.0330  -0.0446   6.00    0.0
2018/11/12 03:14:30.000  -74.425552785  163.418442126    64.5992   6  12   0.0312   0.0245   0.0765  -0.0037   0.0212  -0.0319   6.00    0.0
2018/11/12 03:15:00.000  -74.425552824  163.418442313    64.6628   6  12   0.0258   0.0205   0.0598   0.0045   0.0123  -0.0255   6.00    0.0
2018/11/12 03:15:30.000  -74.425552722  163.418441497    64.6515   6  12   0.0351   0.0246   0.0844   0.0038   0.0194  -0.0398   6.00    0.0
2018/11/12 03:16:00.000  -74.425552875  163.418441519    64.5991   6  12   0.0491   0.0325   0.1194  -0.0038   0.0306  -0.0583   6.00    0.0
2018/11/12 03:16:30.000  -74.425553065  163.418441144    64.6034   6  12   0.0692   0.0419   0.1690  -0.0073   0.0417  -0.0875   6.00    0.0
2018/11/12 03:17:00.000  -74.425553210  163.418440884    64.5712   6  12   0.0846   0.0520   0.2082  -0.0125   0.0538  -0.1070   6.00    0.0
2018/11/12 03:17:30.000  -74.425553004  163.418440626    64.4839   6  11   0.1032   0.0625   0.2558  -0.0180   0.0657  -0.1317   5.00    0.0
2018/11/12 03:18:00.000  -74.425552917  163.418441331    64.4863   6  11   0.0893   0.0523   0.2180  -0.0122   0.0530  -0.1142   5.00    0.0
2018/11/12 03:18:30.000  -74.425552945  163.418441453    64.5666   6  11   0.0598   0.0421   0.1522  -0.0137   0.0446  -0.0699   5.00    0.0
2018/11/12 03:19:00.000  -74.425552921  163.418441753    64.6122   6  11   0.0443   0.0327   0.1123  -0.0094   0.0327  -0.0492   5.00    0.0
2018/11/12 03:19:30.000  -74.425552912  163.418441987    64.6747   6  11   0.0322   0.0247   0.0797  -0.0045   0.0208  -0.0340   5.00    0.0
2018/11/12 03:20:00.000  -74.425552851  163.418441980    64.6768   6  11   0.0257   0.0206   0.0611   0.0042   0.0120  -0.0259   5.00    0.0
2018/11/12 03:20:30.000  -74.425552925  163.418441560    64.6555   6  11   0.0345   0.0249   0.0864   0.0031   0.0183  -0.0393   5.00    0.0
2018/11/12 03:21:00.000  -74.425552990  163.418440833    64.6018   6   9   0.0565   0.0334   0.1451   0.0084   0.0232  -0.0743   4.00    0.0
2018/11/12 03:21:30.000  -74.425552930  163.418440548    64.5430   6   9   0.0777   0.0432   0.2019   0.0103   0.0313  -0.1059   4.00    0.0
2018/11/12 03:22:00.000  -74.425552990  163.418440393    64.5998   6  10   0.0842   0.0538   0.2245   0.0144   0.0375  -0.1097   4.00    0.0
2018/11/12 03:22:30.000  -74.425553005  163.418441148    64.6285   6  10   0.0934   0.0647   0.2529   0.0184   0.0438  -0.1172   4.00    0.0
2018/11/12 03:23:00.000  -74.425552952  163.418440728    64.6326   6  10   0.0859   0.0537   0.2297   0.0143   0.0376  -0.1131   4.00    0.0
2018/11/12 03:23:30.000  -74.425553104  163.418441308    64.6845   6  10   0.0539   0.0432   0.1502   0.0125   0.0293  -0.0599   4.00    0.0
2018/11/12 03:24:00.000  -74.425553113  163.418441434    64.6518   6  10   0.0408   0.0334   0.1120   0.0092   0.0226  -0.0433   4.00    1.0
2018/11/12 03:24:30.000  -74.425553036  163.418441516    64.6987   6  10   0.0307   0.0252   0.0804   0.0059   0.0162  -0.0319   4.00    0.0
2018/11/12 03:25:00.000  -74.425552971  163.418441381    64.6915   6  10   0.0255   0.0210   0.0619   0.0060   0.0110  -0.0262   4.00    0.0
2018/11/12 03:25:30.000  -74.425553296  163.418442406    64.7268   6  10   0.0328   0.0252   0.0851   0.0071   0.0153  -0.0368   4.00    0.0
2018/11/12 03:26:00.000  -74.425553351  163.418442532    64.7553   6  10   0.0451   0.0334   0.1213   0.0105   0.0212  -0.0528   4.00    0.0
2018/11/12 03:26:30.000  -74.425553002  163.418442193    64.6632   6  10   0.0520   0.0433   0.1506   0.0129   0.0287  -0.0578   4.00    0.0
2018/11/12 03:27:00.000  -74.425553016  163.418441557    64.6950   6  10   0.0624   0.0539   0.1836   0.0167   0.0348  -0.0673   4.00    0.0
2018/11/12 03:27:30.000  -74.425553054  163.418441223    64.6588   6  10   0.0731   0.0649   0.2180   0.0204   0.0412  -0.0771   4.00    0.0
2018/11/12 03:28:00.000  -74.425553106  163.418440695    64.5821   6  10   0.0611   0.0541   0.1811   0.0171   0.0342  -0.0641   4.00    0.0
2018/11/12 03:28:30.000  -74.425553148  163.418440302    64.5365   6  10   0.0490   0.0435   0.1445   0.0136   0.0277  -0.0506   4.00    0.0
2018/11/12 03:29:00.000  -74.425552999  163.418439640    64.5281   6  10   0.0373   0.0336   0.1082   0.0100   0.0216  -0.0369   4.00    0.0
