% program   : RTKLIB ver.2.4.3
% inp file  : _by_type/_obs/hillary/20181109_20181111.18o
% inp file  : _by_type/_sp3+clk/igs20265.clk
% inp file  : _by_type/_sp3+clk/igs20265.sp3
% inp file  : _by_type/_nav/hillary/20181109_20181111.18n
% obs start : 2018/11/09 00:00:00.0 GPST (week2026 432000.0s)
% obs end   : 2018/11/11 23:59:45.0 GPST (week2027  86385.0s)
% pos mode  : ppp-kinematic
% solution  : combined
% elev mask : 15.0 deg
% dynamics  : off
% tidecorr  : on
% tropo opt : est ztd+grad
% ephemeris : precise
% navi sys  : gps glonass
% antenna1  :                       ( 0.0000  0.0000  0.0000)
%
% (lat/lon/height=WGS84/ellipsoidal,Q=1:fix,2:float,3:sbas,4:dgps,5:single,6:ppp,ns=# of satellites)
%  GPST                  latitude(deg) longitude(deg)  height(m)   Q  ns   sdn(m)   sde(m)   sdu(m)  sdne(m)  sdeu(m)  sdun(m) age(s)  ratio
2018/11/09 00:00:00.000  -74.393404952  163.452941128    97.5333   6   9   0.0206   0.0190   0.0644  -0.0079   0.0137  -0.0185   0.00    0.0
2018/11/09 00:00:15.000  -74.393404917  163.452941502    97.5430   6   9   0.0236   0.0227   0.0781  -0.0100   0.0190  -0.0234   0.00    0.0
2018/11/09 00:00:30.000  -74.393404824  163.452941439    97.4994   6   9   0.0293   0.0293   0.1017  -0.0134   0.0270  -0.0317   0.00    0.0
2018/11/09 00:00:45.000  -74.393404705  163.452941440    97.5058   6   9   0.0365   0.0373   0.1299  -0.0172   0.0360  -0.0411   0.00    0.0
2018/11/09 00:01:00.000  -74.393404653  163.452941515    97.5074   6   9   0.0444   0.0459   0.1603  -0.0213   0.0455  -0.0511   0.00    0.0
2018/11/09 00:01:15.000  -74.393404721  163.452941674    97.5420   6   9   0.0526   0.0548   0.1918  -0.0255   0.0551  -0.0614   1.00    0.0
2018/11/09 00:01:30.000  -74.393404774  163.452940936    97.5545   6   9   0.0610   0.0638   0.2238  -0.0297   0.0649  -0.0717   1.00    0.0
2018/11/09 00:01:45.000  -74.393404780  163.452940987    97.5579   6   9   0.0695   0.0728   0.2559  -0.0339   0.0745  -0.0821   2.00    0.0
2018/11/09 00:02:00.000  -74.393404756  163.452940585    97.5355   6   9   0.0778   0.0816   0.2878  -0.0379   0.0840  -0.0923   3.00    0.0
2018/11/09 00:02:15.000  -74.393404822  163.452939720    97.5282   6   9   0.0861   0.0903   0.3192  -0.0418   0.0933  -0.1023   3.00    0.0
2018/11/09 00:02:30.000  -74.393404752  163.452938892    97.5206   6   9   0.0942   0.0987   0.3499  -0.0456   0.1023  -0.1120   3.00    0.0
2018/11/09 00:02:45.000  -74.393404813  163.452938743    97.4494   6   9   0.0855   0.0897   0.3183  -0.0416   0.0935  -0.1018   3.00    0.0
2018/11/09 00:03:00.000  -74.393404905  163.452938897    97.4090   6   9   0.0771   0.0809   0.2877  -0.0377   0.0848  -0.0919   3.00    0.0
2018/11/09 00:03:15.000  -74.393404825  163.452939300    97.3941   6   9   0.0687   0.0720   0.2567  -0.0337   0.0759  -0.0820   4.00    0.0
2018/11/09 00:03:30.000  -74.393404870  163.452939175    97.4327   6  10   0.0581   0.0623   0.1997  -0.0326   0.0749  -0.0590   3.00    0.0
2018/11/09 00:03:45.000  -74.393404912  163.452939332    97.4345   6  10   0.0502   0.0536   0.1726  -0.0280   0.0643  -0.0509   5.00    0.0
2018/11/09 00:04:00.000  -74.393405079  163.452940032    97.5057   6  10   0.0424   0.0450   0.1457  -0.0235   0.0536  -0.0428   4.00    0.0
2018/11/09 00:04:15.000  -74.393405124  163.452940968    97.5396   6  10   0.0350   0.0367   0.1195  -0.0191   0.0430  -0.0349   3.00    0.0
2018/11/09 00:04:30.000  -74.393405100  163.452941183    97.5762   6  10   0.0282   0.0290   0.0949  -0.0149   0.0327  -0.0274   4.00    0.0
2018/11/09 00:04:45.000  -74.393404962  163.452941103    97.5382   6  10   0.0228   0.0225   0.0742  -0.0113   0.0237  -0.0208   4.00    0.0
2018/11/09 00:05:00.000  -74.393404965  163.452941298    97.5230   6  10   0.0200   0.0192   0.0623  -0.0093   0.0181  -0.0168   4.00    0.0
2018/11/09 00:05:15.000  -74.393405046  163.452941665    97.5626   6  10   0.0228   0.0226   0.0743  -0.0115   0.0238  -0.0209   3.00    0.0
2018/11/09 00:05:30.000  -74.393405057  163.452941744    97.5412   6  10   0.0281   0.0290   0.0953  -0.0150   0.0331  -0.0273   3.00    0.0
2018/11/09 00:05:45.000  -74.393405022  163.452941685    97.5485   6  10   0.0347   0.0366   0.1201  -0.0190   0.0434  -0.0347   3.00    0.0
2018/11/09 00:06:00.000  -74.393405069  163.452941486    97.5333   6  10   0.0419   0.0448   0.1464  -0.0232   0.0540  -0.0421   3.00    0.0
2018/11/09 00:06:15.000  -74.393405035  163.452940931    97.4682   6  10   0.0492   0.0530   0.1730  -0.0272   0.0643  -0.0493   3.00    0.0
2018/11/09 00:06:30.000  -74.393405068  163.452940557    97.4445   6  10   0.0566   0.0612   0.1993  -0.0311   0.0742  -0.0562   3.00    0.0
2018/11/09 00:06:45.000  -74.393405019  163.452939984    97.4002   6  10   0.0638   0.0691   0.2253  -0.0347   0.0838  -0.0628   3.00    0.0
2018/11/09 00:07:00.000  -74.393404993  163.452939915    97.3623   6  10   0.0709   0.0769   0.2507  -0.0382   0.0931  -0.0692   3.00    0.0
2018/11/09 00:07:15.000  -74.393405107  163.452939814    97.3819   6  10   0.0778   0.0845   0.2756  -0.0416   0.1020  -0.0753   3.00    0.0
2018/11/09 00:07:30.000  -74.393404948  163.452939650    97.3922   6  10   0.0846   0.0918   0.3001  -0.0449   0.1108  -0.0814   3.00    0.0
2018/11/09 00:07:45.000  -74.393405031  163.452940123    97.4141   6  10   0.0776   0.0843   0.2776  -0.0416   0.1026  -0.0760   3.00    0.0
2018/11/09 00:08:00.000  -74.393405051  163.452940171    97.4017   6  10   0.0706   0.0767   0.2538  -0.0382   0.0941  -0.0701   3.00    0.0
2018/11/09 00:08:15.000  -74.393405123  163.452940494    97.4213   6  10   0.0634   0.0689   0.2293  -0.0347   0.0852  -0.0640   3.00    0.0
2018/11/09 00:08:30.000  -74.393405174  163.452940302    97.4477   6  10   0.0562   0.0610   0.2040  -0.0311   0.0760  -0.0576   3.00    0.0
2018/11/09 00:08:45.000  -74.393405106  163.452940144    97.4088   6  10   0.0489   0.0529   0.1781  -0.0273   0.0663  -0.0508   3.00    0.0
2018/11/09 00:09:00.000  -74.393405067  163.452940374    97.4321   6  10   0.0417   0.0448   0.1516  -0.0233   0.0563  -0.0436   3.00    0.0
2018/11/09 00:09:15.000  -74.393405033  163.452940306    97.4624   6  10   0.0346   0.0368   0.1251  -0.0193   0.0459  -0.0362   3.00    0.0
2018/11/09 00:09:30.000  -74.393405035  163.452940603    97.5018   6  10   0.0281   0.0292   0.0995  -0.0154   0.0356  -0.0287   3.00    0.0
2018/11/09 00:09:45.000  -74.393404962  163.452940527    97.4796   6  10   0.0228   0.0229   0.0774  -0.0120   0.0263  -0.0220   3.00    0.0
2018/11/09 00:10:00.000  -74.393405082  163.452940810    97.5439   6  10   0.0200   0.0194   0.0644  -0.0098   0.0206  -0.0178   3.00    0.0
2018/11/09 00:10:15.000  -74.393405203  163.452940779    97.5573   6  10   0.0227   0.0228   0.0771  -0.0121   0.0264  -0.0219   3.00    0.0
2018/11/09 00:10:30.000  -74.393405347  163.452940290    97.5454   6  10   0.0277   0.0291   0.0988  -0.0151   0.0354  -0.0280   3.00    0.0
2018/11/09 00:10:45.000  -74.393405480  163.452940103    97.5842   6  10   0.0340   0.0365   0.1236  -0.0187   0.0453  -0.0345   3.00    0.0
2018/11/09 00:11:00.000  -74.393405353  163.452940043    97.5799   6  10   0.0407   0.0442   0.1491  -0.0222   0.0550  -0.0407   3.00    0.0
2018/11/09 00:11:15.000  -74.393405290  163.452940056    97.5722   6  10   0.0475   0.0520   0.1744  -0.0255   0.0645  -0.0465   3.00    0.0
2018/11/09 00:11:30.000  -74.393405191  163.452939857    97.5374   6  10   0.0542   0.0596   0.1996  -0.0288   0.0737  -0.0521   3.00    0.0
2018/11/09 00:11:45.000  -74.393405208  163.452940361    97.5268   6  10   0.0609   0.0671   0.2245  -0.0320   0.0828  -0.0577   3.00    0.0
2018/11/09 00:12:00.000  -74.393405062  163.452939532    97.3981   6  10   0.0675   0.0745   0.2493  -0.0352   0.0920  -0.0636   3.00    0.0
2018/11/09 00:12:15.000  -74.393405069  163.452939157    97.3370   6  10   0.0740   0.0818   0.2741  -0.0385   0.1011  -0.0697   3.00    0.0
2018/11/09 00:12:30.000  -74.393405122  163.452938937    97.3069   6  10   0.0803   0.0889   0.2988  -0.0419   0.1104  -0.0761   3.00    0.0
2018/11/09 00:12:45.000  -74.393405093  163.452939459    97.3281   6  10   0.0740   0.0817   0.2753  -0.0386   0.1018  -0.0701   3.00    0.0
2018/11/09 00:13:00.000  -74.393405066  163.452939286    97.3225   6  10   0.0674   0.0744   0.2515  -0.0353   0.0930  -0.0644   3.00    0.0
2018/11/09 00:13:15.000  -74.393405121  163.452939696    97.3577   6  10   0.0608   0.0670   0.2274  -0.0321   0.0841  -0.0587   3.00    0.0
2018/11/09 00:13:30.000  -74.393405215  163.452940050    97.3827   6  10   0.0541   0.0595   0.2028  -0.0288   0.0752  -0.0531   3.00    0.0
2018/11/09 00:13:45.000  -74.393405174  163.452940015    97.3961   6  10   0.0473   0.0518   0.1778  -0.0256   0.0660  -0.0473   3.00    0.0
2018/11/09 00:14:00.000  -74.393405102  163.452940179    97.4045   6  10   0.0406   0.0442   0.1522  -0.0222   0.0566  -0.0414   3.00    0.0
2018/11/09 00:14:15.000  -74.393405093  163.452940425    97.4333   6  10   0.0340   0.0365   0.1265  -0.0188   0.0469  -0.0351   3.00    0.0
2018/11/09 00:14:30.000  -74.393405065  163.452940452    97.4418   6  10   0.0278   0.0292   0.1013  -0.0153   0.0371  -0.0286   3.00    0.0
2018/11/09 00:14:45.000  -74.393405116  163.452940564    97.4724   6  10   0.0228   0.0230   0.0791  -0.0123   0.0281  -0.0224   3.00    0.0
2018/11/09 00:15:00.000  -74.393405095  163.452940811    97.5096   6  10   0.0201   0.0197   0.0659  -0.0102   0.0224  -0.0184   3.00    0.0
2018/11/09 00:15:15.000  -74.393405062  163.452940952    97.5027   6  10   0.0225   0.0229   0.0774  -0.0121   0.0273  -0.0215   3.00    0.0
2018/11/09 00:15:30.000  -74.393404915  163.452940805    97.4305   6  10   0.0273   0.0288   0.0986  -0.0148   0.0359  -0.0267   3.00    0.0
2018/11/09 00:15:45.000  -74.393404778  163.452940309    97.3864   6  10   0.0332   0.0359   0.1226  -0.0178   0.0451  -0.0321   3.00    0.0
2018/11/09 00:16:00.000  -74.393404752  163.452940140    97.3923   6  10   0.0395   0.0433   0.1474  -0.0208   0.0544  -0.0375   3.00    0.0
2018/11/09 00:16:15.000  -74.393404815  163.452940291    97.4369   6  10   0.0460   0.0508   0.1726  -0.0239   0.0637  -0.0429   3.00    0.0
2018/11/09 00:16:30.000  -74.393404869  163.452940405    97.4886   6  10   0.0525   0.0582   0.1980  -0.0271   0.0732  -0.0488   3.00    0.0
2018/11/09 00:16:45.000  -74.393404915  163.452940033    97.4568   6  10   0.0591   0.0656   0.2236  -0.0304   0.0829  -0.0551   3.00    0.0
2018/11/09 00:17:00.000  -74.393404995  163.452940636    97.5062   6  10   0.0655   0.0729   0.2494  -0.0339   0.0927  -0.0620   3.00    0.0
2018/11/09 00:17:15.000  -74.393405061  163.452940490    97.5428   6  10   0.0719   0.0800   0.2753  -0.0375   0.1027  -0.0693   3.00    0.0
2018/11/09 00:17:30.000  -74.393405044  163.452940315    97.5023   6  10   0.0783   0.0871   0.3013  -0.0412   0.1128  -0.0769   3.00    0.0
2018/11/09 00:17:45.000  -74.393405033  163.452940287    97.4387   6  11   0.0690   0.0801   0.2633  -0.0372   0.1037  -0.0804   3.00    0.0
2018/11/09 00:18:00.000  -74.393405092  163.452941060    97.5110   6  11   0.0627   0.0729   0.2388  -0.0336   0.0939  -0.0728   3.00    0.0
2018/11/09 00:18:15.000  -74.393405094  163.452941222    97.5303   6  11   0.0564   0.0656   0.2146  -0.0302   0.0843  -0.0652   3.00    0.0
2018/11/09 00:18:30.000  -74.393405137  163.452941344    97.5305   6  11   0.0502   0.0582   0.1906  -0.0268   0.0747  -0.0578   3.00    0.0
2018/11/09 00:18:45.000  -74.393405185  163.452941479    97.5710   6  11   0.0439   0.0507   0.1666  -0.0236   0.0651  -0.0505   3.00    0.0
2018/11/09 00:19:00.000  -74.393405174  163.452941146    97.5535   6  11   0.0378   0.0433   0.1427  -0.0205   0.0556  -0.0433   4.00    0.0
2018/11/09 00:19:15.000  -74.393405062  163.452940644    97.5155   6  11   0.0318   0.0359   0.1191  -0.0175   0.0461  -0.0362   4.00    0.0
2018/11/09 00:19:30.000  -74.393405099  163.452940730    97.5291   6  11   0.0264   0.0289   0.0963  -0.0146   0.0368  -0.0292   4.00    0.0
2018/11/09 00:19:45.000  -74.393405164  163.452940667    97.5139   6  11   0.0220   0.0229   0.0763  -0.0119   0.0282  -0.0228   4.00    0.0
2018/11/09 00:20:00.000  -74.393405132  163.452940706    97.5035   6  11   0.0196   0.0196   0.0643  -0.0104   0.0226  -0.0189   4.00    0.0
2018/11/09 00:20:15.000  -74.393405140  163.452941107    97.5300   6  11   0.0217   0.0229   0.0753  -0.0118   0.0277  -0.0222   4.00    0.0
2018/11/09 00:20:30.000  -74.393405223  163.452941512    97.5457   6  11   0.0259   0.0286   0.0941  -0.0140   0.0357  -0.0277   4.00    0.0
2018/11/09 00:20:45.000  -74.393405232  163.452940955    97.5012   6  11   0.0312   0.0354   0.1160  -0.0166   0.0446  -0.0340   4.00    0.0
2018/11/09 00:21:00.000  -74.393405318  163.452940901    97.5225   6  11   0.0370   0.0426   0.1394  -0.0194   0.0539  -0.0409   4.00    0.0
2018/11/09 00:21:15.000  -74.393405331  163.452940789    97.5524   6  11   0.0430   0.0499   0.1636  -0.0225   0.0636  -0.0482   4.00    0.0
2018/11/09 00:21:30.000  -74.393405333  163.452940066    97.5660   6  11   0.0492   0.0572   0.1885  -0.0259   0.0735  -0.0560   4.00    0.0
2018/11/09 00:21:45.000  -74.393405268  163.452939474    97.5601   6  11   0.0554   0.0645   0.2137  -0.0294   0.0837  -0.0641   4.00    0.0
2018/11/09 00:22:00.000  -74.393405279  163.452939567    97.5859   6  11   0.0616   0.0716   0.2392  -0.0332   0.0940  -0.0726   4.00    0.0
2018/11/09 00:22:15.000  -74.393405339  163.452939687    97.5951   6  11   0.0677   0.0787   0.2648  -0.0370   0.1045  -0.0814   4.00    0.0
2018/11/09 00:22:30.000  -74.393405266  163.452939506    97.5609   6  11   0.0738   0.0857   0.2906  -0.0410   0.1150  -0.0903   4.00    0.0
2018/11/09 00:22:45.000  -74.393405071  163.452939620    97.5232   6  11   0.0677   0.0786   0.2647  -0.0368   0.1041  -0.0812   4.00    0.0
2018/11/09 00:23:00.000  -74.393405005  163.452940018    97.5185   6  11   0.0614   0.0714   0.2396  -0.0329   0.0938  -0.0726   4.00    0.0
2018/11/09 00:23:15.000  -74.393404958  163.452940848    97.5367   6  11   0.0552   0.0642   0.2144  -0.0291   0.0835  -0.0642   4.00    0.0
2018/11/09 00:23:30.000  -74.393404855  163.452941264    97.4965   6  11   0.0490   0.0570   0.1894  -0.0256   0.0734  -0.0560   4.00    0.0
2018/11/09 00:23:45.000  -74.393404928  163.452941405    97.4956   6  11   0.0428   0.0497   0.1645  -0.0221   0.0634  -0.0482   4.00    0.0
2018/11/09 00:24:00.000  -74.393404974  163.452941025    97.4968   6  11   0.0368   0.0423   0.1400  -0.0190   0.0537  -0.0407   4.00    0.0
2018/11/09 00:24:15.000  -74.393405033  163.452941092    97.5272   6  11   0.0310   0.0352   0.1163  -0.0161   0.0442  -0.0337   6.00    0.0
2018/11/09 00:24:30.000  -74.393405038  163.452941117    97.4927   1  11   0.0288   0.0291   0.1108  -0.0178   0.0437  -0.0387   5.00    2.0
2018/11/09 00:24:45.000  -74.393405065  163.452940839    97.5054   1  11   0.0236   0.0227   0.0859  -0.0133   0.0336  -0.0296   5.00    1.0
2018/11/09 00:25:00.000  -74.393405091  163.452940464    97.4931   1  11   0.0209   0.0191   0.0725  -0.0110   0.0278  -0.0249   5.00    1.0
2018/11/09 00:25:15.000  -74.393405239  163.452940704    97.5643   1  11   0.0237   0.0236   0.0863  -0.0136   0.0339  -0.0299   4.00    1.0
2018/11/09 00:25:30.000  -74.393405264  163.452940590    97.5896   1  11   0.0291   0.0318   0.1118  -0.0179   0.0447  -0.0389   4.00    1.0
2018/11/09 00:25:45.000  -74.393405328  163.452939880    97.6352   6  11   0.0306   0.0382   0.1137  -0.0162   0.0421  -0.0321   6.00    0.0
2018/11/09 00:26:00.000  -74.393405279  163.452939586    97.6179   6  11   0.0363   0.0418   0.1373  -0.0184   0.0527  -0.0393   5.00    0.0
2018/11/09 00:26:15.000  -74.393405166  163.452938652    97.5336   6  11   0.0422   0.0489   0.1618  -0.0215   0.0624  -0.0468   5.00    0.0
2018/11/09 00:26:30.000  -74.393405194  163.452938306    97.5437   6  11   0.0483   0.0561   0.1869  -0.0249   0.0724  -0.0548   5.00    0.0
2018/11/09 00:26:45.000  -74.393405149  163.452937939    97.5513   6  11   0.0543   0.0632   0.2124  -0.0285   0.0827  -0.0632   5.00    0.0
2018/11/09 00:27:00.000  -74.393405163  163.452937950    97.6117   6  11   0.0604   0.0702   0.2380  -0.0322   0.0930  -0.0719   6.00    0.0
2018/11/09 00:27:15.000  -74.393405192  163.452937748    97.6316   6  11   0.0664   0.0771   0.2636  -0.0361   0.1034  -0.0808   6.00    0.0
2018/11/09 00:27:30.000  -74.393405135  163.452937342    97.5921   6  11   0.0724   0.0840   0.2893  -0.0400   0.1139  -0.0898   6.00    0.0
2018/11/09 00:27:45.000  -74.393405226  163.452937489    97.6372   6  11   0.0665   0.0770   0.2642  -0.0360   0.1035  -0.0811   6.00    0.0
2018/11/09 00:28:00.000  -74.393405191  163.452937879    97.6196   6  11   0.0604   0.0699   0.2385  -0.0321   0.0930  -0.0722   6.00    0.0
2018/11/09 00:28:15.000  -74.393405226  163.452938820    97.6312   6  11   0.0543   0.0628   0.2129  -0.0282   0.0826  -0.0634   6.00    0.0
2018/11/09 00:28:30.000  -74.393405257  163.452939062    97.5903   6  11   0.0481   0.0556   0.1874  -0.0246   0.0723  -0.0550   6.00    0.0
2018/11/09 00:28:45.000  -74.393405367  163.452940508    97.5987   6  11   0.0421   0.0485   0.1623  -0.0211   0.0622  -0.0469   6.00    0.0
2018/11/09 00:29:00.000  -74.393405289  163.452940819    97.5779   6  11   0.0361   0.0413   0.1378  -0.0179   0.0524  -0.0393   6.00    0.0
2018/11/09 00:29:15.000  -74.393405237  163.452940548    97.5257   6  11   0.0305   0.0343   0.1143  -0.0150   0.0431  -0.0324   6.00    0.0
2018/11/09 00:29:30.000  -74.393405331  163.452941065    97.5272   1  11   0.0291   0.0288   0.1117  -0.0181   0.0437  -0.0411   5.00    2.0
2018/11/09 00:29:45.000  -74.393405218  163.452940550    97.4743   1  11   0.0241   0.0225   0.0892  -0.0136   0.0352  -0.0316   5.00    1.0
2018/11/09 00:30:00.000  -74.393405143  163.452940328    97.4852   1  11   0.0215   0.0186   0.0763  -0.0116   0.0296  -0.0271   5.00    1.0
2018/11/09 00:30:15.000  -74.393405138  163.452940226    97.5059   1  11   0.0242   0.0224   0.0898  -0.0137   0.0354  -0.0321   5.00    1.0
2018/11/09 00:30:30.000  -74.393405197  163.452939592    97.5112   6  11   0.0251   0.0273   0.0912  -0.0123   0.0338  -0.0256   6.00    0.0
2018/11/09 00:30:45.000  -74.393405120  163.452938605    97.4757   6  11   0.0302   0.0338   0.1122  -0.0145   0.0421  -0.0315   6.00    0.0
2018/11/09 00:31:00.000  -74.393405073  163.452938132    97.5013   6  11   0.0358   0.0406   0.1352  -0.0172   0.0511  -0.0382   6.00    0.0
2018/11/09 00:31:15.000  -74.393405141  163.452938557    97.5275   6  11   0.0416   0.0476   0.1591  -0.0203   0.0606  -0.0456   6.00    0.0
2018/11/09 00:31:30.000  -74.393405307  163.452938965    97.5794   6  11   0.0474   0.0545   0.1836  -0.0236   0.0704  -0.0534   6.00    0.0
2018/11/09 00:31:45.000  -74.393405323  163.452938284    97.5530   6  11   0.0533   0.0614   0.2082  -0.0271   0.0802  -0.0615   6.00    0.0
2018/11/09 00:32:00.000  -74.393405285  163.452937968    97.4997   6  11   0.0592   0.0681   0.2330  -0.0307   0.0902  -0.0699   6.00    0.0
2018/11/09 00:32:15.000  -74.393405360  163.452937909    97.5185   6  11   0.0651   0.0749   0.2577  -0.0343   0.1001  -0.0785   6.00    0.0
2018/11/09 00:32:30.000  -74.393405251  163.452937234    97.4698   6  11   0.0709   0.0816   0.2824  -0.0380   0.1101  -0.0871   6.00    0.0
2018/11/09 00:32:45.000  -74.393405175  163.452937357    97.4486   6  11   0.0650   0.0749   0.2574  -0.0343   0.1000  -0.0780   6.00    0.0
2018/11/09 00:33:00.000  -74.393405108  163.452937552    97.4163   6  11   0.0590   0.0680   0.2321  -0.0304   0.0896  -0.0691   6.00    0.0
2018/11/09 00:33:15.000  -74.393405045  163.452937817    97.3891   6  11   0.0530   0.0611   0.2069  -0.0267   0.0794  -0.0605   6.00    0.0
2018/11/09 00:33:30.000  -74.393404997  163.452937735    97.3890   6  11   0.0471   0.0541   0.1821  -0.0231   0.0694  -0.0523   6.00    0.0
2018/11/09 00:33:45.000  -74.393405075  163.452938336    97.4230   6  11   0.0412   0.0472   0.1577  -0.0198   0.0596  -0.0445   6.00    0.0
2018/11/09 00:34:00.000  -74.393405150  163.452939245    97.4802   6  11   0.0355   0.0402   0.1340  -0.0168   0.0501  -0.0372   6.00    0.0
2018/11/09 00:34:15.000  -74.393405188  163.452939306    97.4538   6  11   0.0300   0.0334   0.1115  -0.0141   0.0412  -0.0308   6.00    0.0
2018/11/09 00:34:30.000  -74.393405215  163.452939582    97.4562   6  11   0.0251   0.0271   0.0911  -0.0119   0.0331  -0.0253   6.00    0.0
2018/11/09 00:34:45.000  -74.393405243  163.452939820    97.4764   6  11   0.0211   0.0218   0.0744  -0.0101   0.0264  -0.0210   6.00    0.0
2018/11/09 00:35:00.000  -74.393405208  163.452940153    97.5141   6  11   0.0189   0.0190   0.0648  -0.0090   0.0225  -0.0182   6.00    0.0
2018/11/09 00:35:15.000  -74.393405150  163.452940011    97.5274   6  11   0.0211   0.0216   0.0739  -0.0099   0.0260  -0.0207   6.00    0.0
2018/11/09 00:35:30.000  -74.393405145  163.452939828    97.5592   6  11   0.0250   0.0268   0.0900  -0.0115   0.0324  -0.0251   6.00    0.0
2018/11/09 00:35:45.000  -74.393405146  163.452939508    97.6017   6  11   0.0299   0.0330   0.1097  -0.0137   0.0400  -0.0303   6.00    0.0
2018/11/09 00:36:00.000  -74.393405102  163.452938681    97.5707   6  11   0.0352   0.0395   0.1311  -0.0161   0.0485  -0.0365   6.00    0.0
2018/11/09 00:36:15.000  -74.393405172  163.452938260    97.5838   6  11   0.0408   0.0462   0.1535  -0.0189   0.0573  -0.0432   6.00    0.0
2018/11/09 00:36:30.000  -74.393405335  163.452938500    97.6650   6  11   0.0464   0.0528   0.1764  -0.0220   0.0664  -0.0504   6.00    0.0
2018/11/09 00:36:45.000  -74.393405432  163.452938757    97.6580   6  11   0.0521   0.0594   0.1994  -0.0252   0.0756  -0.0580   6.00    0.0
2018/11/09 00:37:00.000  -74.393405335  163.452938585    97.6194   6  11   0.0577   0.0659   0.2225  -0.0285   0.0848  -0.0657   6.00    0.0
2018/11/09 00:37:15.000  -74.393405234  163.452938419    97.6000   6  11   0.0634   0.0724   0.2456  -0.0319   0.0940  -0.0736   6.00    0.0
2018/11/09 00:37:30.000  -74.393405203  163.452938646    97.6031   6  11   0.0690   0.0789   0.2686  -0.0353   0.1031  -0.0815   6.00    0.0
2018/11/09 00:37:45.000  -74.393405117  163.452938164    97.5293   6  11   0.0632   0.0721   0.2442  -0.0314   0.0931  -0.0732   6.00    0.0
2018/11/09 00:38:00.000  -74.393404976  163.452938037    97.4638   6  11   0.0575   0.0654   0.2201  -0.0278   0.0834  -0.0648   6.00    0.0
2018/11/09 00:38:15.000  -74.393405007  163.452938667    97.5185   6  11   0.0517   0.0587   0.1964  -0.0243   0.0738  -0.0568   6.00    0.0
2018/11/09 00:38:30.000  -74.393404998  163.452939190    97.5442   6  11   0.0460   0.0521   0.1731  -0.0209   0.0644  -0.0491   6.00    0.0
2018/11/09 00:38:45.000  -74.393405079  163.452939611    97.6015   6  11   0.0404   0.0454   0.1503  -0.0178   0.0552  -0.0419   6.00    0.0
2018/11/09 00:39:00.000  -74.393405167  163.452939864    97.6194   6  11   0.0349   0.0388   0.1284  -0.0150   0.0464  -0.0354   6.00    0.0
2018/11/09 00:39:15.000  -74.393405111  163.452939635    97.5634   6  11   0.0296   0.0323   0.1077  -0.0126   0.0382  -0.0297   6.00    0.0
2018/11/09 00:39:30.000  -74.393405170  163.452939768    97.5582   6  11   0.0249   0.0261   0.0892  -0.0107   0.0308  -0.0250   6.00    0.0
2018/11/09 00:39:45.000  -74.393405224  163.452939990    97.5466   6  11   0.0211   0.0211   0.0741  -0.0091   0.0247  -0.0211   6.00    0.0
2018/11/09 00:40:00.000  -74.393405282  163.452940108    97.5253   6  11   0.0191   0.0184   0.0656  -0.0082   0.0213  -0.0185   6.00    0.0
2018/11/09 00:40:15.000  -74.393405290  163.452940329    97.4919   6  11   0.0214   0.0209   0.0753  -0.0089   0.0244  -0.0224   6.00    0.0
2018/11/09 00:40:30.000  -74.393405252  163.452940091    97.4730   6  11   0.0259   0.0259   0.0921  -0.0107   0.0303  -0.0283   6.00    0.0
2018/11/09 00:40:45.000  -74.393405230  163.452940494    97.4813   6  11   0.0312   0.0318   0.1121  -0.0127   0.0376  -0.0351   6.00    0.0
2018/11/09 00:41:00.000  -74.393405203  163.452940186    97.4743   6  11   0.0370   0.0381   0.1339  -0.0154   0.0456  -0.0427   6.00    0.0
2018/11/09 00:41:15.000  -74.393405208  163.452939655    97.5142   6  11   0.0430   0.0445   0.1570  -0.0184   0.0543  -0.0510   6.00    0.0
2018/11/09 00:41:30.000  -74.393405242  163.452939579    97.5599   6  11   0.0493   0.0509   0.1812  -0.0218   0.0633  -0.0603   6.00    0.0
2018/11/09 00:41:45.000  -74.393405249  163.452939436    97.5673   6  11   0.0560   0.0573   0.2069  -0.0255   0.0726  -0.0707   6.00    0.0
2018/11/09 00:42:00.000  -74.393405230  163.452938861    97.5534   6  11   0.0633   0.0638   0.2352  -0.0297   0.0826  -0.0831   6.00    0.0
2018/11/09 00:42:15.000  -74.393405223  163.452938474    97.5607   6  11   0.0723   0.0704   0.2695  -0.0350   0.0940  -0.0999   6.00    0.0
2018/11/09 00:42:30.000  -74.393404788  163.452937756    97.3922   6  10   0.1093   0.0832   0.4233  -0.0627   0.1429  -0.1873   5.00    0.0
2018/11/09 00:42:45.000  -74.393404823  163.452937891    97.3958   6  10   0.0992   0.0759   0.3834  -0.0562   0.1286  -0.1689   5.00    0.0
2018/11/09 00:43:00.000  -74.393404965  163.452938143    97.4034   6  10   0.0892   0.0686   0.3435  -0.0499   0.1147  -0.1505   5.00    0.0
2018/11/09 00:43:15.000  -74.393405026  163.452938274    97.4183   6  10   0.0792   0.0614   0.3039  -0.0436   0.1008  -0.1323   5.00    0.0
2018/11/09 00:43:30.000  -74.393405194  163.452938243    97.5045   6  10   0.0693   0.0543   0.2648  -0.0374   0.0872  -0.1142   5.00    0.0
2018/11/09 00:43:45.000  -74.393405236  163.452938209    97.5204   6  10   0.0594   0.0471   0.2263  -0.0314   0.0738  -0.0965   5.00    0.0
2018/11/09 00:44:00.000  -74.393405453  163.452938741    97.6242   6  10   0.0498   0.0401   0.1886  -0.0256   0.0608  -0.0791   5.00    0.0
2018/11/09 00:44:15.000  -74.393405400  163.452938878    97.6002   6  10   0.0404   0.0332   0.1525  -0.0201   0.0483  -0.0624   5.00    0.0
2018/11/09 00:44:30.000  -74.393405372  163.452939453    97.5985   6  10   0.0317   0.0266   0.1190  -0.0151   0.0367  -0.0467   5.00    0.0
2018/11/09 00:44:45.000  -74.393405221  163.452939525    97.5085   6  10   0.0245   0.0212   0.0905  -0.0111   0.0271  -0.0330   5.00    0.0
2018/11/09 00:45:00.000  -74.393405266  163.452939982    97.5215   6  10   0.0205   0.0182   0.0736  -0.0088   0.0218  -0.0245   5.00    0.0
2018/11/09 00:45:15.000  -74.393405213  163.452939172    97.4907   6  10   0.0244   0.0210   0.0905  -0.0109   0.0263  -0.0324   5.00    0.0
2018/11/09 00:45:30.000  -74.393404955  163.452938282    97.3650   6  10   0.0314   0.0263   0.1208  -0.0146   0.0350  -0.0461   5.00    0.0
2018/11/09 00:45:45.000  -74.393404941  163.452938266    97.3771   6  10   0.0399   0.0326   0.1594  -0.0191   0.0449  -0.0621   5.00    0.0
2018/11/09 00:46:00.000  -74.393404974  163.452938412    97.4491   6   9   0.0501   0.0392   0.2075  -0.0246   0.0574  -0.0829   5.00    0.0
2018/11/09 00:46:15.000  -74.393405207  163.452938443    97.5699   6   9   0.0598   0.0458   0.2497  -0.0298   0.0692  -0.1011   5.00    0.0
2018/11/09 00:46:30.000  -74.393405242  163.452937877    97.5502   6   9   0.0695   0.0523   0.2924  -0.0351   0.0810  -0.1196   5.00    0.0
2018/11/09 00:46:45.000  -74.393404987  163.452937044    97.4808   6   9   0.0793   0.0589   0.3353  -0.0403   0.0928  -0.1381   5.00    0.0
2018/11/09 00:47:00.000  -74.393404920  163.452937007    97.4203   6   9   0.0890   0.0654   0.3782  -0.0456   0.1044  -0.1566   5.00    0.0
2018/11/09 00:47:15.000  -74.393404999  163.452937047    97.4320   6   9   0.0988   0.0719   0.4211  -0.0507   0.1159  -0.1750   5.00    0.0
2018/11/09 00:47:30.000  -74.393404976  163.452936458    97.3840   6   9   0.1085   0.0783   0.4638  -0.0559   0.1272  -0.1933   5.00    0.0
2018/11/09 00:47:45.000  -74.393405089  163.452936664    97.4530   6   9   0.0982   0.0712   0.4181  -0.0497   0.1135  -0.1735   5.00    0.0
2018/11/09 00:48:00.000  -74.393405129  163.452936592    97.4206   6   9   0.0882   0.0644   0.3742  -0.0439   0.1007  -0.1544   5.00    0.0
2018/11/09 00:48:15.000  -74.393405224  163.452936993    97.4548   6   9   0.0782   0.0577   0.3305  -0.0382   0.0880  -0.1355   5.00    0.0
2018/11/09 00:48:30.000  -74.393405406  163.452937646    97.5825   6   9   0.0683   0.0510   0.2871  -0.0326   0.0756  -0.1167   5.00    0.0
2018/11/09 00:48:45.000  -74.393405494  163.452938096    97.6313   6   9   0.0585   0.0444   0.2441  -0.0272   0.0635  -0.0981   5.00    0.0
2018/11/09 00:49:00.000  -74.393405523  163.452938421    97.6287   6  10   0.0489   0.0379   0.2018  -0.0220   0.0518  -0.0799   5.00    0.0
2018/11/09 00:49:15.000  -74.393405445  163.452938864    97.6054   6  10   0.0344   0.0314   0.1304  -0.0170   0.0403  -0.0449   5.00    0.0
2018/11/09 00:49:30.000  -74.393405417  163.452939523    97.5647   6  10   0.0275   0.0251   0.1015  -0.0123   0.0297  -0.0331   5.00    0.0
2018/11/09 00:49:45.000  -74.393405321  163.452939563    97.5061   6  10   0.0220   0.0200   0.0793  -0.0089   0.0217  -0.0244   5.00    0.0
2018/11/09 00:50:00.000  -74.393405361  163.452939888    97.5032   6  10   0.0194   0.0175   0.0673  -0.0065   0.0172  -0.0197   5.00    0.0
2018/11/09 00:50:15.000  -74.393405359  163.452939958    97.4811   6  10   0.0230   0.0202   0.0847  -0.0093   0.0224  -0.0282   5.00    0.0
2018/11/09 00:50:30.000  -74.393405300  163.452939409    97.4605   6  10   0.0287   0.0248   0.1090  -0.0105   0.0262  -0.0383   5.00    0.0
2018/11/09 00:50:45.000  -74.393405384  163.452939086    97.4791   6  10   0.0372   0.0309   0.1476  -0.0161   0.0385  -0.0554   5.00    0.0
2018/11/09 00:51:00.000  -74.393405380  163.452938870    97.5012   6  10   0.0442   0.0367   0.1754  -0.0179   0.0434  -0.0664   5.00    0.0
2018/11/09 00:51:15.000  -74.393405305  163.452938952    97.4718   6  10   0.0467   0.0431   0.1799  -0.0239   0.0565  -0.0631   5.00    0.0
2018/11/09 00:51:30.000  -74.393405410  163.452939049    97.5374   6  10   0.0519   0.0490   0.1972  -0.0265   0.0627  -0.0678   5.00    0.0
2018/11/09 00:51:45.000  -74.393405464  163.452938691    97.5913   6  10   0.0577   0.0550   0.2183  -0.0299   0.0702  -0.0745   5.00    0.0
2018/11/09 00:52:00.000  -74.393405369  163.452937972    97.5914   6  10   0.0638   0.0611   0.2411  -0.0335   0.0782  -0.0822   5.00    0.0
2018/11/09 00:52:15.000  -74.393405392  163.452937820    97.5596   6  10   0.0701   0.0672   0.2650  -0.0372   0.0864  -0.0905   5.00    0.0
2018/11/09 00:52:30.000  -74.393405428  163.452937606    97.5683   6  10   0.0764   0.0733   0.2895  -0.0410   0.0948  -0.0992   5.00    0.0
2018/11/09 00:52:45.000  -74.393405498  163.452937617    97.5468   6  10   0.0699   0.0673   0.2642  -0.0370   0.0860  -0.0898   5.00    0.0
2018/11/09 00:53:00.000  -74.393405502  163.452937870    97.5224   6  10   0.0634   0.0610   0.2385  -0.0329   0.0768  -0.0804   5.00    0.0
2018/11/09 00:53:15.000  -74.393405381  163.452937569    97.5142   6  10   0.0568   0.0547   0.2128  -0.0288   0.0676  -0.0709   5.00    0.0
2018/11/09 00:53:30.000  -74.393405435  163.452937769    97.5211   6  10   0.0503   0.0484   0.1872  -0.0248   0.0586  -0.0615   5.00    0.0
2018/11/09 00:53:45.000  -74.393405504  163.452938333    97.5210   6  10   0.0438   0.0423   0.1618  -0.0209   0.0498  -0.0521   5.00    0.0
2018/11/09 00:54:00.000  -74.393405580  163.452938898    97.5245   6  10   0.0374   0.0361   0.1367  -0.0171   0.0412  -0.0428   5.00    0.0
2018/11/09 00:54:15.000  -74.393405619  163.452939123    97.5131   6  10   0.0312   0.0301   0.1123  -0.0136   0.0329  -0.0339   5.00    0.0
2018/11/09 00:54:30.000  -74.393405588  163.452939427    97.5066   6  10   0.0254   0.0244   0.0892  -0.0103   0.0252  -0.0253   5.00    0.0
2018/11/09 00:54:45.000  -74.393405604  163.452940078    97.5337   1  10   0.0224   0.0219   0.0884  -0.0115   0.0285  -0.0331   6.00    1.0
2018/11/09 00:55:00.000  -74.393405485  163.452940260    97.5404   1  10   0.0186   0.0189   0.0727  -0.0092   0.0241  -0.0279   6.00    1.0
2018/11/09 00:55:15.000  -74.393405464  163.452940103    97.5725   1  10   0.0220   0.0218   0.0877  -0.0113   0.0281  -0.0328   6.00    1.0
2018/11/09 00:55:30.000  -74.393405385  163.452939501    97.5311   1  10   0.0288   0.0277   0.1139  -0.0153   0.0361  -0.0415   6.00    1.0
2018/11/09 00:55:45.000  -74.393405469  163.452938930    97.5202   6  10   0.0304   0.0296   0.1072  -0.0125   0.0307  -0.0314   6.00    0.0
2018/11/09 00:56:00.000  -74.393405505  163.452938800    97.5271   6  10   0.0364   0.0354   0.1306  -0.0158   0.0382  -0.0400   6.00    0.0
2018/11/09 00:56:15.000  -74.393405507  163.452938514    97.4905   6  10   0.0426   0.0412   0.1550  -0.0193   0.0461  -0.0489   6.00    0.0
2018/11/09 00:56:30.000  -74.393405551  163.452938066    97.4454   6  10   0.0489   0.0471   0.1801  -0.0229   0.0540  -0.0581   6.00    0.0
2018/11/09 00:56:45.000  -74.393405517  163.452938417    97.4350   6  10   0.0553   0.0529   0.2055  -0.0265   0.0619  -0.0674   6.00    0.0
2018/11/09 00:57:00.000  -74.393405581  163.452938718    97.4301   6  10   0.0617   0.0588   0.2312  -0.0302   0.0698  -0.0767   6.00    0.0
2018/11/09 00:57:15.000  -74.393405625  163.452938336    97.4236   6  10   0.0682   0.0647   0.2570  -0.0339   0.0776  -0.0860   6.00    0.0
2018/11/09 00:57:30.000  -74.393405636  163.452938255    97.4209   6  10   0.0748   0.0705   0.2829  -0.0376   0.0853  -0.0954   6.00    0.0
2018/11/09 00:57:45.000  -74.393405632  163.452938063    97.4072   6  10   0.0681   0.0642   0.2562  -0.0333   0.0763  -0.0858   6.00    0.0
2018/11/09 00:58:00.000  -74.393405619  163.452938253    97.4101   6  10   0.0615   0.0582   0.2302  -0.0294   0.0678  -0.0763   6.00    0.0
2018/11/09 00:58:15.000  -74.393405612  163.452938168    97.4168   6  10   0.0550   0.0522   0.2043  -0.0255   0.0593  -0.0669   6.00    0.0
2018/11/09 00:58:30.000  -74.393405633  163.452938430    97.4418   6  10   0.0485   0.0462   0.1786  -0.0217   0.0510  -0.0575   6.00    0.0
2018/11/09 00:58:45.000  -74.393405522  163.452938554    97.4421   6  10   0.0422   0.0403   0.1533  -0.0180   0.0428  -0.0482   6.00    0.0
2018/11/09 00:59:00.000  -74.393405522  163.452938650    97.4545   6  10   0.0359   0.0345   0.1284  -0.0145   0.0349  -0.0391   6.00    0.0
2018/11/09 00:59:15.000  -74.393405502  163.452938722    97.4516   6  10   0.0299   0.0288   0.1044  -0.0112   0.0274  -0.0302   6.00    0.0
2018/11/09 00:59:30.000  -74.393405531  163.452939506    97.4671   1  10   0.0282   0.0267   0.1098  -0.0138   0.0322  -0.0397   6.00    1.0
2018/11/09 00:59:45.000  -74.393405447  163.452939331    97.4645   1  10   0.0215   0.0212   0.0827  -0.0101   0.0247  -0.0307   6.00    1.0
2018/11/09 01:00:00.000  -74.393405502  163.452940325    97.5326   1  10   0.0180   0.0181   0.0675  -0.0084   0.0211  -0.0257   6.00    1.0
2018/11/09 01:00:15.000  -74.393405533  163.452940614    97.5752   1  10   0.0214   0.0209   0.0819  -0.0102   0.0242  -0.0303   6.00    1.0
2018/11/09 01:00:30.000  -74.393405564  163.452940859    97.5751   1  10   0.0280   0.0264   0.1085  -0.0135   0.0311  -0.0391   6.00    1.0
2018/11/09 01:00:45.000  -74.393405543  163.452940454    97.5239   1  10   0.0361   0.0334   0.1402  -0.0178   0.0396  -0.0498   6.00    1.0
2018/11/09 01:01:00.000  -74.393405548  163.452939236    97.4620   6  10   0.0355   0.0338   0.1262  -0.0135   0.0329  -0.0386   6.00    0.0
2018/11/09 01:01:15.000  -74.393405620  163.452939204    97.4835   6  10   0.0416   0.0394   0.1508  -0.0166   0.0397  -0.0477   6.00    0.0
2018/11/09 01:01:30.000  -74.393405655  163.452939405    97.4779   6  10   0.0479   0.0450   0.1759  -0.0199   0.0467  -0.0568   6.00    0.0
2018/11/09 01:01:45.000  -74.393405690  163.452939824    97.4730   6  10   0.0542   0.0506   0.2013  -0.0233   0.0535  -0.0660   6.00    0.0
2018/11/09 01:02:00.000  -74.393405638  163.452939942    97.4317   6  10   0.0607   0.0562   0.2268  -0.0266   0.0603  -0.0751   6.00    0.0
2018/11/09 01:02:15.000  -74.393405605  163.452939909    97.4710   6  10   0.0672   0.0618   0.2524  -0.0299   0.0669  -0.0843   6.00    0.0
2018/11/09 01:02:30.000  -74.393405555  163.452939784    97.4649   6  10   0.0737   0.0674   0.2781  -0.0332   0.0734  -0.0934   6.00    0.0
2018/11/09 01:02:45.000  -74.393405502  163.452939482    97.4302   6  10   0.0673   0.0616   0.2530  -0.0295   0.0657  -0.0845   6.00    0.0
2018/11/09 01:03:00.000  -74.393405574  163.452939412    97.4333   6  10   0.0608   0.0558   0.2270  -0.0259   0.0581  -0.0751   6.00    0.0
2018/11/09 01:03:15.000  -74.393405516  163.452939461    97.4329   6  10   0.0543   0.0501   0.2011  -0.0223   0.0506  -0.0658   6.00    0.0
2018/11/09 01:03:30.000  -74.393405553  163.452939645    97.4724   6  10   0.0478   0.0444   0.1754  -0.0188   0.0433  -0.0564   6.00    0.0
2018/11/09 01:03:45.000  -74.393405567  163.452939470    97.4845   6  10   0.0415   0.0388   0.1500  -0.0154   0.0362  -0.0472   6.00    0.0
2018/11/09 01:04:00.000  -74.393405545  163.452939588    97.5021   6  10   0.0354   0.0333   0.1251  -0.0122   0.0293  -0.0380   6.00    0.0
2018/11/09 01:04:15.000  -74.393405568  163.452939425    97.4914   6  10   0.0294   0.0278   0.1010  -0.0092   0.0227  -0.0290   6.00    0.0
2018/11/09 01:04:30.000  -74.393405686  163.452939821    97.5079   1  10   0.0278   0.0258   0.1061  -0.0123   0.0271  -0.0378   6.00    1.0
2018/11/09 01:04:45.000  -74.393405622  163.452940016    97.5262   1  10   0.0211   0.0204   0.0786  -0.0089   0.0208  -0.0287   6.00    1.0
2018/11/09 01:05:00.000  -74.393405535  163.452940132    97.5395   1  10   0.0176   0.0177   0.0630  -0.0075   0.0180  -0.0238   6.00    1.0
2018/11/09 01:05:15.000  -74.393405574  163.452940146    97.5583   1  10   0.0210   0.0204   0.0780  -0.0088   0.0205  -0.0284   6.00    1.0
2018/11/09 01:05:30.000  -74.393405562  163.452940201    97.6183   1  10   0.0276   0.0233   0.1039  -0.0115   0.0229  -0.0370   7.00    2.0
2018/11/09 01:05:45.000  -74.393405587  163.452940024    97.6797   1  10   0.0357   0.0322   0.1365  -0.0156   0.0329  -0.0477   6.00    1.0
2018/11/09 01:06:00.000  -74.393405550  163.452939839    97.7072   6  10   0.0349   0.0327   0.1228  -0.0110   0.0270  -0.0374   6.00    0.0
2018/11/09 01:06:15.000  -74.393405577  163.452939848    97.7723   6  10   0.0410   0.0380   0.1471  -0.0138   0.0326  -0.0462   6.00    0.0
2018/11/09 01:06:30.000  -74.393405589  163.452940274    97.8339   6  10   0.0472   0.0433   0.1717  -0.0167   0.0382  -0.0551   6.00    1.0
2018/11/09 01:06:45.000  -74.393405543  163.452940209    97.8052   6  10   0.0535   0.0487   0.1965  -0.0197   0.0437  -0.0639   6.00    1.0
2018/11/09 01:07:00.000  -74.393405515  163.452940185    97.7932   6  10   0.0599   0.0541   0.2215  -0.0227   0.0490  -0.0727   6.00    1.0
2018/11/09 01:07:15.000  -74.393405491  163.452939895    97.7035   6  10   0.0663   0.0596   0.2464  -0.0256   0.0542  -0.0814   6.00    1.0
2018/11/09 01:07:30.000  -74.393405570  163.452939660    97.6333   6  10   0.0727   0.0650   0.2714  -0.0285   0.0592  -0.0901   6.00    0.0
2018/11/09 01:07:45.000  -74.393405627  163.452940193    97.5762   6  10   0.0661   0.0594   0.2456  -0.0253   0.0528  -0.0810   6.00    0.0
2018/11/09 01:08:00.000  -74.393405600  163.452940265    97.5579   6  10   0.0596   0.0539   0.2200  -0.0221   0.0465  -0.0719   6.00    0.0
2018/11/09 01:08:15.000  -74.393405537  163.452939930    97.5552   6  10   0.0532   0.0484   0.1946  -0.0188   0.0403  -0.0628   6.00    0.0
2018/11/09 01:08:30.000  -74.393405569  163.452939886    97.5594   6  10   0.0468   0.0429   0.1694  -0.0156   0.0343  -0.0538   6.00    0.0
2018/11/09 01:08:45.000  -74.393405441  163.452939655    97.5096   6  10   0.0406   0.0375   0.1445  -0.0126   0.0284  -0.0449   6.00    0.0
2018/11/09 01:09:00.000  -74.393405451  163.452939550    97.5077   6  10   0.0345   0.0322   0.1201  -0.0097   0.0228  -0.0360   6.00    0.0
2018/11/09 01:09:15.000  -74.393405498  163.452939522    97.5639   1  10   0.0352   0.0317   0.1327  -0.0142   0.0278  -0.0458   4.00    1.0
2018/11/09 01:09:30.000  -74.393405487  163.452939253    97.5570   1  10   0.0272   0.0251   0.1012  -0.0107   0.0216  -0.0354   4.00    1.0
2018/11/09 01:09:45.000  -74.393405432  163.452939567    97.4992   1  11   0.0181   0.0197   0.0650  -0.0047   0.0120  -0.0188   4.00    1.0
2018/11/09 01:10:00.000  -74.393405428  163.452940042    97.4876   1  11   0.0158   0.0173   0.0539  -0.0045   0.0121  -0.0175   4.00    1.0
2018/11/09 01:10:15.000  -74.393405419  163.452940163    97.4748   1  11   0.0179   0.0195   0.0646  -0.0046   0.0114  -0.0186   4.00    1.0
2018/11/09 01:10:30.000  -74.393405394  163.452940176    97.4078   6  11   0.0209   0.0216   0.0638   0.0050   0.0016   0.0057   6.00    0.0
2018/11/09 01:10:45.000  -74.393405354  163.452939874    97.3693   6  11   0.0249   0.0261   0.0793   0.0064  -0.0058   0.0019   6.00    0.0
2018/11/09 01:11:00.000  -74.393405351  163.452939669    97.3510   6  11   0.0292   0.0308   0.0964   0.0076  -0.0091  -0.0067   6.00    0.0
2018/11/09 01:11:15.000  -74.393405342  163.452939337    97.3681   6  11   0.0339   0.0357   0.1143   0.0085  -0.0121  -0.0110   6.00    0.0
2018/11/09 01:11:30.000  -74.393405386  163.452939100    97.3777   6  11   0.0386   0.0407   0.1329   0.0092  -0.0152  -0.0149   6.00    0.0
2018/11/09 01:11:45.000  -74.393405416  163.452939208    97.3737   6  11   0.0435   0.0457   0.1518   0.0097  -0.0183  -0.0188   6.00    0.0
2018/11/09 01:12:00.000  -74.393405500  163.452939612    97.3669   6  11   0.0485   0.0507   0.1711   0.0101  -0.0214  -0.0227   6.00    0.0
2018/11/09 01:12:15.000  -74.393405568  163.452940211    97.3725   6  11   0.0535   0.0559   0.1905   0.0103  -0.0246  -0.0266   6.00    0.0
2018/11/09 01:12:30.000  -74.393405530  163.452940499    97.3737   6  11   0.0586   0.0610   0.2101   0.0105  -0.0279  -0.0305   6.00    0.0
2018/11/09 01:12:45.000  -74.393405522  163.452940322    97.4100   6  11   0.0535   0.0559   0.1917   0.0102  -0.0256  -0.0277   6.00    0.0
2018/11/09 01:13:00.000  -74.393405543  163.452940341    97.4073   6  11   0.0485   0.0508   0.1725   0.0101  -0.0233  -0.0243   6.00    0.0
2018/11/09 01:13:15.000  -74.393405529  163.452939811    97.4302   6  11   0.0435   0.0457   0.1533   0.0098  -0.0209  -0.0207   6.00    0.0
2018/11/09 01:13:30.000  -74.393405546  163.452939447    97.4243   6  11   0.0386   0.0406   0.1343   0.0094  -0.0184  -0.0170   6.00    0.0
2018/11/09 01:13:45.000  -74.393405578  163.452939606    97.4396   6  11   0.0338   0.0357   0.1156   0.0088  -0.0159  -0.0131   6.00    0.0
2018/11/09 01:14:00.000  -74.393405528  163.452939811    97.5166   1  12   0.0354   0.0350   0.1264  -0.0119  -0.0287  -0.0310   5.00    1.0
2018/11/09 01:14:15.000  -74.393405484  163.452939765    97.5185   1  12   0.0291   0.0286   0.1026  -0.0104  -0.0224  -0.0258   5.00    1.0
2018/11/09 01:14:30.000  -74.393405472  163.452939961    97.5296   1  12   0.0233   0.0229   0.0805  -0.0093  -0.0165  -0.0210   5.00    1.0
2018/11/09 01:14:45.000  -74.393405463  163.452939912    97.5230   1  12   0.0188   0.0182   0.0616  -0.0084  -0.0115  -0.0172   5.00    1.0
2018/11/09 01:15:00.000  -74.393405503  163.452939845    97.4797   1  12   0.0164   0.0160   0.0506  -0.0083  -0.0085  -0.0154   5.00    1.0
2018/11/09 01:15:15.000  -74.393405539  163.452940067    97.4559   1  12   0.0186   0.0182   0.0615  -0.0084  -0.0119  -0.0170   5.00    1.0
2018/11/09 01:15:30.000  -74.393405639  163.452940526    97.4291   1  12   0.0232   0.0228   0.0804  -0.0090  -0.0172  -0.0207   5.00    1.0
2018/11/09 01:15:45.000  -74.393405660  163.452940659    97.4445   1  12   0.0289   0.0286   0.1030  -0.0102  -0.0235  -0.0256   5.00    1.0
2018/11/09 01:16:00.000  -74.393405739  163.452940797    97.4439   1  12   0.0354   0.0350   0.1275  -0.0115  -0.0302  -0.0311   5.00    1.0
2018/11/09 01:16:15.000  -74.393405667  163.452941134    97.4471   6  12   0.0328   0.0336   0.1105   0.0039  -0.0258  -0.0207   7.00    0.0
2018/11/09 01:16:30.000  -74.393405652  163.452941133    97.4506   6  12   0.0375   0.0383   0.1288   0.0026  -0.0307  -0.0258   7.00    0.0
2018/11/09 01:16:45.000  -74.393405659  163.452941264    97.4683   6  12   0.0423   0.0430   0.1475  -0.0028  -0.0357  -0.0309   7.00    0.0
2018/11/09 01:17:00.000  -74.393405710  163.452941286    97.4572   6  12   0.0472   0.0478   0.1664  -0.0052  -0.0406  -0.0359   7.00    0.0
2018/11/09 01:17:15.000  -74.393405750  163.452941358    97.4630   6  12   0.0522   0.0526   0.1855  -0.0071  -0.0457  -0.0409   7.00    0.0
2018/11/09 01:17:30.000  -74.393405686  163.452941403    97.4601   6  12   0.0572   0.0575   0.2047  -0.0089  -0.0507  -0.0459   7.00    0.0
2018/11/09 01:17:45.000  -74.393405640  163.452941440    97.4906   6  12   0.0523   0.0527   0.1858  -0.0074  -0.0460  -0.0410   7.00    0.0
2018/11/09 01:18:00.000  -74.393405651  163.452941065    97.5041   6  12   0.0474   0.0479   0.1671  -0.0052  -0.0413  -0.0362   7.00    0.0
2018/11/09 01:18:15.000  -74.393405683  163.452941020    97.4711   6  12   0.0425   0.0431   0.1485  -0.0025  -0.0365  -0.0313   7.00    0.0
2018/11/09 01:18:30.000  -74.393405722  163.452941363    97.4737   6  12   0.0377   0.0383   0.1299   0.0030  -0.0318  -0.0264   7.00    0.0
2018/11/09 01:18:45.000  -74.393405705  163.452941393    97.4578   6  12   0.0329   0.0336   0.1115   0.0042  -0.0271  -0.0213   7.00    0.0
2018/11/09 01:19:00.000  -74.393405854  163.452941383    97.4692   1  12   0.0356   0.0350   0.1288  -0.0112  -0.0319  -0.0314   5.00    1.0
2018/11/09 01:19:15.000  -74.393405866  163.452941174    97.4763   1  12   0.0291   0.0287   0.1037  -0.0100  -0.0254  -0.0256   5.00    1.0
2018/11/09 01:19:30.000  -74.393405733  163.452940654    97.4701   1  12   0.0232   0.0229   0.0803  -0.0090  -0.0192  -0.0203   5.00    1.0
2018/11/09 01:19:45.000  -74.393405596  163.452940035    97.4985   1  12   0.0187   0.0183   0.0606  -0.0083  -0.0141  -0.0161   5.00    1.0
2018/11/09 01:20:00.000  -74.393405480  163.452939731    97.4836   1  12   0.0167   0.0162   0.0494  -0.0078  -0.0112  -0.0142   5.00    1.0
2018/11/09 01:20:15.000  -74.393405427  163.452940073    97.4848   1  12   0.0186   0.0182   0.0604  -0.0083  -0.0144  -0.0160   5.00    1.0
2018/11/09 01:20:30.000  -74.393405420  163.452940043    97.4979   1  12   0.0233   0.0228   0.0802  -0.0089  -0.0198  -0.0201   5.00    1.0
2018/11/09 01:20:45.000  -74.393405523  163.452940024    97.5117   1  12   0.0291   0.0286   0.1039  -0.0098  -0.0262  -0.0255   5.00    1.0
2018/11/09 01:21:00.000  -74.393405459  163.452939650    97.5494   1  12   0.0355   0.0350   0.1294  -0.0108  -0.0330  -0.0315   5.00    1.0
2018/11/09 01:21:15.000  -74.393405110  163.452939341    97.5424   6  12   0.0328   0.0332   0.1122   0.0050  -0.0279  -0.0218   7.00    0.0
2018/11/09 01:21:30.000  -74.393405133  163.452940287    97.4996   6  12   0.0375   0.0379   0.1312   0.0045  -0.0330  -0.0271   7.00    0.0
2018/11/09 01:21:45.000  -74.393405111  163.452940023    97.4494   6  12   0.0423   0.0426   0.1504   0.0033  -0.0382  -0.0324   7.00    0.0
2018/11/09 01:22:00.000  -74.393405161  163.452940315    97.4106   6  12   0.0473   0.0474   0.1698  -0.0017  -0.0434  -0.0375   7.00    0.0
2018/11/09 01:22:15.000  -74.393405074  163.452940099    97.3824   6  12   0.0523   0.0523   0.1893  -0.0044  -0.0487  -0.0427   7.00    0.0
2018/11/09 01:22:30.000  -74.393405018  163.452940532    97.3762   6  12   0.0573   0.0572   0.2089  -0.0063  -0.0540  -0.0478   7.00    0.0
2018/11/09 01:22:45.000  -74.393405093  163.452940644    97.3779   6  12   0.0523   0.0523   0.1900  -0.0032  -0.0489  -0.0427   7.00    0.0
2018/11/09 01:23:00.000  -74.393405114  163.452940289    97.3976   6  12   0.0473   0.0475   0.1706   0.0029  -0.0439  -0.0377   7.00    0.0
2018/11/09 01:23:15.000  -74.393405147  163.452939733    97.4431   6  12   0.0424   0.0427   0.1513   0.0047  -0.0388  -0.0326   7.00    0.0
2018/11/09 01:23:30.000  -74.393405189  163.452939414    97.4332   6  12   0.0375   0.0379   0.1322   0.0056  -0.0338  -0.0274   7.00    0.0
2018/11/09 01:23:45.000  -74.393405134  163.452939205    97.4547   6  12   0.0328   0.0332   0.1133   0.0059  -0.0287  -0.0221   7.00    0.0
2018/11/09 01:24:00.000  -74.393405285  163.452939097    97.4704   1  12   0.0356   0.0351   0.1308  -0.0101  -0.0344  -0.0316   5.00    1.0
2018/11/09 01:24:15.000  -74.393405347  163.452939268    97.4859   1  12   0.0291   0.0287   0.1050  -0.0092  -0.0277  -0.0255   5.00    1.0
2018/11/09 01:24:30.000  -74.393405405  163.452939448    97.4946   1  12   0.0233   0.0229   0.0809  -0.0083  -0.0214  -0.0198   5.00    1.0
2018/11/09 01:24:45.000  -74.393405263  163.452939249    97.4590   1  12   0.0150   0.0131   0.0436   0.0038  -0.0080  -0.0087   7.00    1.0
2018/11/09 01:25:00.000  -74.393405536  163.452939794    97.4640   1  12   0.0166   0.0161   0.0492  -0.0075  -0.0134  -0.0135   5.00    1.0
2018/11/09 01:25:15.000  -74.393405529  163.452940224    97.4358   1  12   0.0189   0.0185   0.0606  -0.0078  -0.0164  -0.0153   5.00    1.0
2018/11/09 01:25:30.000  -74.393405415  163.452940550    97.4287   1  12   0.0233   0.0229   0.0808  -0.0083  -0.0218  -0.0198   5.00    1.0
2018/11/09 01:25:45.000  -74.393405480  163.452940783    97.3896   1  12   0.0292   0.0287   0.1049  -0.0089  -0.0282  -0.0254   5.00    1.0
2018/11/09 01:26:00.000  -74.393405494  163.452940673    97.3917   1  12   0.0356   0.0351   0.1308  -0.0097  -0.0352  -0.0316   5.00    1.0
2018/11/09 01:26:15.000  -74.393405307  163.452940309    97.3768   6  12   0.0327   0.0328   0.1133   0.0063  -0.0293  -0.0224   8.00    0.0
2018/11/09 01:26:30.000  -74.393405311  163.452939414    97.3974   6  12   0.0374   0.0375   0.1323   0.0062  -0.0346  -0.0278   8.00    0.0
2018/11/09 01:26:45.000  -74.393405251  163.452939290    97.4006   6  12   0.0423   0.0422   0.1516   0.0058  -0.0399  -0.0330   8.00    0.0
2018/11/09 01:27:00.000  -74.393405369  163.452939409    97.4424   6  12   0.0472   0.0470   0.1710   0.0051  -0.0453  -0.0383   8.00    0.0
2018/11/09 01:27:15.000  -74.393405287  163.452939162    97.4224   6  12   0.0522   0.0519   0.1905   0.0041  -0.0507  -0.0434   8.00    0.0
2018/11/09 01:27:30.000  -74.393405264  163.452939032    97.3896   6  12   0.0573   0.0568   0.2100   0.0022  -0.0561  -0.0485   8.00    0.0
2018/11/09 01:27:45.000  -74.393405156  163.452939290    97.3770   6  12   0.0522   0.0519   0.1900   0.0043  -0.0509  -0.0436   8.00    0.0
2018/11/09 01:28:00.000  -74.393405260  163.452939267    97.3852   6  12   0.0472   0.0471   0.1705   0.0055  -0.0457  -0.0385   8.00    0.0
2018/11/09 01:28:15.000  -74.393405295  163.452938898    97.3607   6  12   0.0423   0.0422   0.1510   0.0062  -0.0404  -0.0333   8.00    0.0
2018/11/09 01:28:30.000  -74.393405228  163.452938674    97.3595   6  12   0.0374   0.0375   0.1317   0.0066  -0.0352  -0.0280   8.00    0.0
2018/11/09 01:28:45.000  -74.393405216  163.452938304    97.3179   6  12   0.0327   0.0328   0.1127   0.0066  -0.0300  -0.0227   8.00    0.0
2018/11/09 01:29:00.000  -74.393405519  163.452938735    97.3289   1  12   0.0358   0.0351   0.1300  -0.0093  -0.0363  -0.0319   5.00    1.0
2018/11/09 01:29:15.000  -74.393405514  163.452938728    97.3576   1  12   0.0293   0.0288   0.1043  -0.0085  -0.0295  -0.0256   5.00    1.0
2018/11/09 01:29:30.000  -74.393405561  163.452938824    97.3806   1  12   0.0235   0.0230   0.0804  -0.0080  -0.0232  -0.0198   5.00    1.0
2018/11/09 01:29:45.000  -74.393405548  163.452939341    97.4162   1  12   0.0190   0.0185   0.0604  -0.0076  -0.0181  -0.0154   5.00    1.0
2018/11/09 01:30:00.000  -74.393405316  163.452939062    97.4403   1  12   0.0133   0.0112   0.0355   0.0033  -0.0074  -0.0081   8.00    1.0
2018/11/09 01:30:15.000  -74.393405313  163.452939131    97.4854   1  12   0.0150   0.0132   0.0435   0.0041  -0.0100  -0.0090   8.00    1.0
2018/11/09 01:30:30.000  -74.393405340  163.452939124    97.4802   1  12   0.0185   0.0167   0.0576   0.0054  -0.0140  -0.0117   8.00    1.0
2018/11/09 01:30:45.000  -74.393405310  163.452939040    97.4894   1  12   0.0227   0.0210   0.0744   0.0064  -0.0186  -0.0155   8.00    1.0
2018/11/09 01:31:00.000  -74.393405307  163.452938758    97.5092   1  12   0.0273   0.0256   0.0924   0.0071  -0.0237  -0.0199   8.00    1.0
2018/11/09 01:31:15.000  -74.393405298  163.452938738    97.5176   6  12   0.0326   0.0325   0.1120   0.0068  -0.0305  -0.0227   8.00    1.0
2018/11/09 01:31:30.000  -74.393405343  163.452938614    97.4745   6  12   0.0373   0.0371   0.1307   0.0068  -0.0357  -0.0279   8.00    1.0
2018/11/09 01:31:45.000  -74.393405348  163.452938542    97.4541   6  12   0.0422   0.0418   0.1495   0.0067  -0.0410  -0.0331   8.00    1.0
2018/11/09 01:32:00.000  -74.393405479  163.452938662    97.4568   6  12   0.0471   0.0466   0.1685   0.0065  -0.0464  -0.0382   8.00    1.0
2018/11/09 01:32:15.000  -74.393405468  163.452938821    97.4614   6  12   0.0521   0.0515   0.1875   0.0061  -0.0518  -0.0432   0.00    0.0
2018/11/09 01:32:30.000  -74.393405456  163.452938718    97.4590   6  12   0.0572   0.0564   0.2065   0.0056  -0.0572  -0.0482   0.00    0.0
2018/11/09 01:32:45.000  -74.393405536  163.452938921    97.4859   6  12   0.0523   0.0515   0.1874   0.0065  -0.0519  -0.0435   0.00    0.0
2018/11/09 01:33:00.000  -74.393405482  163.452939033    97.4554   6  12   0.0473   0.0466   0.1681   0.0069  -0.0465  -0.0384   4.00    0.0
2018/11/09 01:33:15.000  -74.393405514  163.452938126    97.5141   6  12   0.0423   0.0418   0.1489   0.0072  -0.0412  -0.0332   7.00    0.0
2018/11/09 01:33:30.000  -74.393405433  163.452938117    97.5417   6  12   0.0375   0.0370   0.1300   0.0073  -0.0359  -0.0280   6.00    0.0
2018/11/09 01:33:45.000  -74.393405397  163.452938365    97.5384   6  12   0.0327   0.0324   0.1114   0.0072  -0.0308  -0.0228   6.00    0.0
2018/11/09 01:34:00.000  -74.393405508  163.452938619    97.5140   1  12   0.0362   0.0351   0.1290  -0.0081  -0.0376  -0.0321   5.00    1.0
2018/11/09 01:34:15.000  -74.393405421  163.452938660    97.5010   1  12   0.0298   0.0288   0.1041  -0.0077  -0.0309  -0.0260   5.00    1.0
2018/11/09 01:34:30.000  -74.393405392  163.452938725    97.4915   1  12   0.0240   0.0231   0.0811  -0.0073  -0.0249  -0.0205   5.00    1.0
2018/11/09 01:34:45.000  -74.393405475  163.452938802    97.4843   1  12   0.0195   0.0186   0.0621  -0.0072  -0.0200  -0.0161   5.00    1.0
2018/11/09 01:35:00.000  -74.393405534  163.452939114    97.4804   1  12   0.0173   0.0165   0.0519  -0.0071  -0.0174  -0.0142   5.00    1.0
2018/11/09 01:35:15.000  -74.393405558  163.452938947    97.5090   1  12   0.0199   0.0188   0.0631  -0.0069  -0.0206  -0.0172   5.00    1.0
2018/11/09 01:35:30.000  -74.393405546  163.452938894    97.5318   1  12   0.0247   0.0233   0.0831  -0.0063  -0.0261  -0.0226   5.00    1.0
2018/11/09 01:35:45.000  -74.393405592  163.452938769    97.5641   1  12   0.0308   0.0290   0.1063  -0.0058  -0.0324  -0.0289   5.00    1.0
2018/11/09 01:36:00.000  -74.393405572  163.452938894    97.5872   1  12   0.0374   0.0353   0.1310  -0.0053  -0.0393  -0.0355   4.00    1.0
2018/11/09 01:36:15.000  -74.393405257  163.452938876    97.5327   6  12   0.0331   0.0322   0.1111   0.0080  -0.0316  -0.0243   7.00    0.0
2018/11/09 01:36:30.000  -74.393405211  163.452939140    97.5327   6  12   0.0379   0.0368   0.1291   0.0083  -0.0367  -0.0294   7.00    0.0
2018/11/09 01:36:45.000  -74.393405191  163.452939379    97.4966   6  12   0.0427   0.0415   0.1472   0.0085  -0.0419  -0.0344   7.00    0.0
2018/11/09 01:37:00.000  -74.393405169  163.452939673    97.4987   6  12   0.0477   0.0463   0.1653   0.0087  -0.0472  -0.0393   7.00    0.0
2018/11/09 01:37:15.000  -74.393405173  163.452939692    97.5121   6  12   0.0527   0.0511   0.1835   0.0088  -0.0525  -0.0441   7.00    0.0
2018/11/09 01:37:30.000  -74.393405236  163.452939606    97.5422   6  12   0.0578   0.0560   0.2017   0.0088  -0.0578  -0.0489   7.00    0.0
2018/11/09 01:37:45.000  -74.393405304  163.452939756    97.5442   6  12   0.0529   0.0512   0.1835   0.0091  -0.0529  -0.0441   7.00    0.0
2018/11/09 01:38:00.000  -74.393405270  163.452939382    97.5305   6  12   0.0481   0.0464   0.1653   0.0094  -0.0478  -0.0398   7.00    0.0
2018/11/09 01:38:15.000  -74.393405256  163.452939365    97.5337   6  12   0.0434   0.0416   0.1475   0.0098  -0.0429  -0.0358   7.00    0.0
2018/11/09 01:38:30.000  -74.393405147  163.452939292    97.4770   6  12   0.0391   0.0370   0.1306   0.0104  -0.0384  -0.0327   7.00    0.0
2018/11/09 01:38:45.000  -74.393405052  163.452939230    97.4547   6  12   0.0355   0.0327   0.1155   0.0117  -0.0349  -0.0316   7.00    0.0
2018/11/09 01:39:00.000  -74.393405178  163.452938822    97.5112   6  12   0.0331   0.0286   0.1060   0.0130  -0.0327  -0.0345   5.00    0.0
2018/11/09 01:39:15.000  -74.393405404  163.452939291    97.5005   1  12   0.0310   0.0291   0.1056  -0.0053  -0.0334  -0.0281   5.00    1.0
2018/11/09 01:39:30.000  -74.393405421  163.452939208    97.5173   1  12   0.0257   0.0236   0.0854  -0.0048  -0.0281  -0.0241   5.00    1.0
2018/11/09 01:39:45.000  -74.393405457  163.452939293    97.5050   1  12   0.0221   0.0193   0.0706  -0.0033  -0.0245  -0.0231   5.00    1.0
2018/11/09 01:40:00.000  -74.393405529  163.452939145    97.4673   1  12   0.0175   0.0165   0.0534  -0.0066  -0.0190  -0.0133   6.00    1.0
2018/11/09 01:40:15.000  -74.393405278  163.452938620    97.4434   1  12   0.0160   0.0142   0.0485  -0.0048  -0.0183  -0.0083   5.00    1.0
2018/11/09 01:40:30.000  -74.393405334  163.452939088    97.4392   1  12   0.0193   0.0173   0.0608  -0.0046  -0.0215  -0.0113   5.00    1.0
2018/11/09 01:40:45.000  -74.393405444  163.452939364    97.4538   1  12   0.0233   0.0212   0.0753  -0.0046  -0.0252  -0.0150   5.00    1.0
2018/11/09 01:41:00.000  -74.393405411  163.452939547    97.4226   1  12   0.0276   0.0255   0.0909  -0.0045  -0.0293  -0.0192   5.00    1.0
2018/11/09 01:41:15.000  -74.393405332  163.452939762    97.3904   6  12   0.0332   0.0320   0.1082   0.0080  -0.0317  -0.0210   5.00    1.0
2018/11/09 01:41:30.000  -74.393405273  163.452939750    97.3962   6  12   0.0379   0.0366   0.1248   0.0083  -0.0365  -0.0257   5.00    1.0
2018/11/09 01:41:45.000  -74.393405197  163.452940254    97.3772   6  12   0.0427   0.0412   0.1417   0.0085  -0.0414  -0.0302   5.00    1.0
2018/11/09 01:42:00.000  -74.393405227  163.452940569    97.3978   6  12   0.0476   0.0460   0.1586   0.0087  -0.0464  -0.0347   5.00    1.0
2018/11/09 01:42:15.000  -74.393405215  163.452940448    97.3997   6  12   0.0526   0.0508   0.1757   0.0089  -0.0514  -0.0392   5.00    1.0
2018/11/09 01:42:30.000  -74.393405253  163.452940301    97.4239   6  12   0.0577   0.0557   0.1927   0.0091  -0.0564  -0.0435   5.00    1.0
2018/11/09 01:42:45.000  -74.393405281  163.452940195    97.4139   6  12   0.0529   0.0509   0.1755   0.0094  -0.0512  -0.0389   5.00    1.0
2018/11/09 01:43:00.000  -74.393405250  163.452939777    97.4551   6  12   0.0481   0.0461   0.1581   0.0095  -0.0460  -0.0337   5.00    1.0
2018/11/09 01:43:15.000  -74.393405207  163.452939649    97.5091   6  12   0.0434   0.0414   0.1411   0.0098  -0.0408  -0.0281   5.00    1.0
2018/11/09 01:43:30.000  -74.393405201  163.452939832    97.5196   6  12   0.0394   0.0368   0.1252   0.0106  -0.0352  -0.0205   5.00    1.0
2018/11/09 01:43:45.000  -74.393405266  163.452939796    97.5203   6  11   0.0354   0.0324   0.1102   0.0106  -0.0301  -0.0105   5.00    1.0
2018/11/09 01:44:00.000  -74.393405365  163.452940003    97.5005   1  11   0.0294   0.0259   0.0927   0.0035  -0.0285  -0.0120   5.00    1.0
2018/11/09 01:44:15.000  -74.393405657  163.452939958    97.5422   1  11   0.0327   0.0298   0.1074  -0.0027  -0.0335  -0.0187   5.00    1.0
2018/11/09 01:44:30.000  -74.393405615  163.452939504    97.5123   1  11   0.0264   0.0243   0.0873  -0.0050  -0.0291  -0.0164   5.00    1.0
