% program   : RTKLIB ver.2.4.3
% inp file  : _by_type/_obs/blake/20181114.18o
% inp file  : _by_type/_sp3+clk/igs20273.clk
% inp file  : _by_type/_sp3+clk/igs20273.sp3
% inp file  : _by_type/_nav/blake/20181114.18n
% obs start : 2018/11/14 00:00:00.0 GPST (week2027 259200.0s)
% obs end   : 2018/11/14 23:59:45.0 GPST (week2027 345585.0s)
% pos mode  : ppp-kinematic
% solution  : combined
% elev mask : 15.0 deg
% dynamics  : off
% tidecorr  : on
% tropo opt : est ztd+grad
% ephemeris : precise
% navi sys  : gps glonass
% antenna1  :                       ( 0.0000  0.0000  0.0000)
%
% (lat/lon/height=WGS84/ellipsoidal,Q=1:fix,2:float,3:sbas,4:dgps,5:single,6:ppp,ns=# of satellites)
%  GPST                  latitude(deg) longitude(deg)  height(m)   Q  ns   sdn(m)   sde(m)   sdu(m)  sdne(m)  sdeu(m)  sdun(m) age(s)  ratio
2018/11/14 00:00:00.000  -74.407223606  163.437621162    80.0366   1  11   0.0231   0.0216   0.0748  -0.0162   0.0221  -0.0258   6.00    1.0
2018/11/14 00:00:15.000  -74.407223591  163.437620796    80.0107   1  11   0.0262   0.0254   0.0900  -0.0182   0.0298  -0.0315   6.00    1.0
2018/11/14 00:00:30.000  -74.407223529  163.437620310    79.9769   1  11   0.0318   0.0325   0.1160  -0.0219   0.0418  -0.0409   6.00    1.0
2018/11/14 00:00:45.000  -74.407223569  163.437620415    79.9923   6  11   0.0391   0.0420   0.1485  -0.0256   0.0569  -0.0503   0.00    0.0
2018/11/14 00:01:00.000  -74.407223529  163.437620805    80.0072   6  11   0.0470   0.0516   0.1818  -0.0316   0.0697  -0.0614   0.00    0.0
2018/11/14 00:01:15.000  -74.407223398  163.437620534    79.9385   6  11   0.0537   0.0594   0.2144  -0.0348   0.0856  -0.0753   0.00    0.0
2018/11/14 00:01:30.000  -74.407223281  163.437620239    79.8961   6  11   0.0617   0.0687   0.2484  -0.0399   0.0997  -0.0876   1.00    0.0
2018/11/14 00:01:45.000  -74.407223174  163.437619576    79.8208   6  11   0.0696   0.0779   0.2823  -0.0450   0.1136  -0.0998   1.00    0.0
2018/11/14 00:02:00.000  -74.407223062  163.437619497    79.7411   6  11   0.0776   0.0870   0.3157  -0.0500   0.1272  -0.1117   1.00    0.0
2018/11/14 00:02:15.000  -74.407222958  163.437619276    79.6900   6  11   0.0854   0.0959   0.3484  -0.0548   0.1404  -0.1233   1.00    0.0
2018/11/14 00:02:30.000  -74.407222937  163.437618052    79.5811   6  11   0.0930   0.1046   0.3801  -0.0594   0.1530  -0.1345   1.00    0.0
2018/11/14 00:02:45.000  -74.407223277  163.437619136    79.7971   6  11   0.0851   0.0954   0.3473  -0.0545   0.1395  -0.1229   2.00    0.0
2018/11/14 00:03:00.000  -74.407223456  163.437619524    79.8490   6  11   0.0770   0.0862   0.3141  -0.0494   0.1258  -0.1109   2.00    0.0
2018/11/14 00:03:15.000  -74.407223462  163.437619215    79.8126   6  11   0.0690   0.0770   0.2809  -0.0443   0.1121  -0.0989   2.00    0.0
2018/11/14 00:03:30.000  -74.407223592  163.437619991    79.9039   6  11   0.0611   0.0678   0.2477  -0.0393   0.0983  -0.0868   4.00    0.0
2018/11/14 00:03:45.000  -74.407223710  163.437620641    79.9925   6  11   0.0534   0.0587   0.2148  -0.0344   0.0843  -0.0747   4.00    0.0
2018/11/14 00:04:00.000  -74.407223735  163.437620752    79.9929   6  11   0.0459   0.0499   0.1826  -0.0296   0.0704  -0.0625   6.00    0.0
2018/11/14 00:04:15.000  -74.407223662  163.437620741    79.9612   6  11   0.0390   0.0416   0.1524  -0.0254   0.0560  -0.0499   6.00    0.0
2018/11/14 00:04:30.000  -74.407223555  163.437620494    79.9071   6  11   0.0325   0.0335   0.1228  -0.0208   0.0438  -0.0393   0.00    0.0
2018/11/14 00:04:45.000  -74.407223609  163.437620287    79.9333   6  11   0.0270   0.0266   0.0974  -0.0167   0.0339  -0.0305   0.00    0.0
2018/11/14 00:05:00.000  -74.407223662  163.437620609    80.0028   6  11   0.0244   0.0233   0.0842  -0.0147   0.0267  -0.0233   0.00    0.0
2018/11/14 00:05:15.000  -74.407223700  163.437620673    80.0194   6  11   0.0268   0.0265   0.0985  -0.0161   0.0347  -0.0311   0.00    0.0
2018/11/14 00:05:30.000  -74.407223548  163.437619869    79.9238   6  11   0.0323   0.0329   0.1233  -0.0198   0.0455  -0.0402   0.00    0.0
2018/11/14 00:05:45.000  -74.407223459  163.437619619    79.8748   6  11   0.0387   0.0407   0.1518  -0.0240   0.0575  -0.0503   0.00    0.0
2018/11/14 00:06:00.000  -74.407223429  163.437619666    79.8401   6  11   0.0457   0.0489   0.1816  -0.0283   0.0698  -0.0605   2.00    0.0
2018/11/14 00:06:15.000  -74.407223492  163.437619348    79.8394   6  11   0.0528   0.0572   0.2113  -0.0325   0.0818  -0.0706   2.00    0.0
2018/11/14 00:06:30.000  -74.407223597  163.437619628    79.8913   6  11   0.0600   0.0655   0.2406  -0.0366   0.0934  -0.0803   2.00    0.0
2018/11/14 00:06:45.000  -74.407223516  163.437619702    79.8627   6  11   0.0670   0.0736   0.2691  -0.0405   0.1046  -0.0895   3.00    0.0
2018/11/14 00:07:00.000  -74.407223429  163.437619935    79.8644   6  11   0.0740   0.0814   0.2968  -0.0443   0.1153  -0.0984   5.00    0.0
2018/11/14 00:07:15.000  -74.407223343  163.437618924    79.7938   6  11   0.0808   0.0890   0.3239  -0.0479   0.1256  -0.1070   5.00    0.0
2018/11/14 00:07:30.000  -74.407223242  163.437618833    79.7669   6  11   0.0875   0.0964   0.3503  -0.0514   0.1356  -0.1152   5.00    0.0
2018/11/14 00:07:45.000  -74.407223323  163.437619143    79.8126   6  11   0.0810   0.0885   0.3238  -0.0475   0.1244  -0.1045   5.00    0.0
2018/11/14 00:08:00.000  -74.407223387  163.437619311    79.8405   6  11   0.0756   0.0806   0.3000  -0.0438   0.1133  -0.0915   5.00    0.0
2018/11/14 00:08:15.000  -74.407223379  163.437619189    79.8106   6  11   0.0656   0.0725   0.2648  -0.0393   0.1029  -0.0894   4.00    0.0
2018/11/14 00:08:30.000  -74.407223476  163.437619696    79.8940   6  11   0.0587   0.0645   0.2365  -0.0353   0.0915  -0.0795   4.00    0.0
2018/11/14 00:08:45.000  -74.407223585  163.437619902    79.9308   6  11   0.0519   0.0563   0.2084  -0.0313   0.0800  -0.0690   4.00    0.0
2018/11/14 00:09:00.000  -74.407223698  163.437619818    79.9211   6  11   0.0457   0.0484   0.1822  -0.0271   0.0687  -0.0571   4.00    0.0
2018/11/14 00:09:15.000  -74.407223750  163.437620324    79.9424   6  11   0.0386   0.0407   0.1469  -0.0244   0.0550  -0.0508   4.00    0.0
2018/11/14 00:09:30.000  -74.407223779  163.437620517    79.9968   6  11   0.0317   0.0324   0.1199  -0.0191   0.0438  -0.0420   4.00    0.0
2018/11/14 00:09:45.000  -74.407223701  163.437620618    80.0176   6  11   0.0269   0.0265   0.0982  -0.0156   0.0332  -0.0342   4.00    0.0
2018/11/14 00:10:00.000  -74.407223707  163.437620106    80.0067   6  11   0.0243   0.0232   0.0860  -0.0140   0.0273  -0.0288   4.00    0.0
2018/11/14 00:10:15.000  -74.407223830  163.437620074    79.9955   6  11   0.0270   0.0264   0.0984  -0.0163   0.0338  -0.0338   4.00    0.0
2018/11/14 00:10:30.000  -74.407223734  163.437619765    79.9449   6  11   0.0316   0.0320   0.1203  -0.0187   0.0438  -0.0424   5.00    0.0
2018/11/14 00:10:45.000  -74.407223545  163.437619079    79.8276   6  11   0.0374   0.0393   0.1457  -0.0221   0.0543  -0.0511   5.00    0.0
2018/11/14 00:11:00.000  -74.407223443  163.437618718    79.7405   6  11   0.0437   0.0470   0.1721  -0.0255   0.0648  -0.0598   5.00    0.0
2018/11/14 00:11:15.000  -74.407223405  163.437618406    79.7310   6  11   0.0502   0.0548   0.1984  -0.0287   0.0750  -0.0682   5.00    0.0
2018/11/14 00:11:30.000  -74.407223393  163.437617901    79.6871   6  11   0.0567   0.0624   0.2243  -0.0319   0.0848  -0.0763   6.00    0.0
2018/11/14 00:11:45.000  -74.407223404  163.437617643    79.6934   6  11   0.0631   0.0700   0.2498  -0.0349   0.0942  -0.0843   6.00    0.0
2018/11/14 00:12:00.000  -74.407223460  163.437617522    79.7439   6  11   0.0694   0.0774   0.2747  -0.0377   0.1034  -0.0921   5.00    0.0
2018/11/14 00:12:15.000  -74.407223406  163.437616980    79.7373   6  11   0.0757   0.0850   0.2993  -0.0404   0.1121  -0.0999   6.00    0.0
2018/11/14 00:12:30.000  -74.407223355  163.437617294    79.7647   6  11   0.0821   0.0934   0.3238  -0.0420   0.1202  -0.1079   6.00    0.0
2018/11/14 00:12:45.000  -74.407223313  163.437617640    79.8106   6  11   0.0749   0.0845   0.2966  -0.0399   0.1115  -0.0980   5.00    0.0
2018/11/14 00:13:00.000  -74.407223213  163.437617762    79.7715   6  11   0.0688   0.0786   0.2714  -0.0353   0.1009  -0.0902   5.00    0.0
2018/11/14 00:13:15.000  -74.407223208  163.437617996    79.7494   6  11   0.0623   0.0710   0.2456  -0.0322   0.0913  -0.0820   6.00    0.0
2018/11/14 00:13:30.000  -74.407223260  163.437618325    79.8040   6  11   0.0553   0.0608   0.2192  -0.0312   0.0831  -0.0730   5.00    0.0
2018/11/14 00:13:45.000  -74.407223386  163.437618847    79.9013   6  11   0.0489   0.0532   0.1931  -0.0279   0.0731  -0.0648   5.00    0.0
2018/11/14 00:14:00.000  -74.407223550  163.437619033    79.9715   6  11   0.0426   0.0457   0.1670  -0.0247   0.0630  -0.0566   5.00    0.0
2018/11/14 00:14:15.000  -74.407223614  163.437619291    79.9883   6  11   0.0365   0.0382   0.1416  -0.0214   0.0529  -0.0484   5.00    0.0
2018/11/14 00:14:30.000  -74.407223662  163.437619261    79.9732   6  11   0.0309   0.0313   0.1179  -0.0183   0.0431  -0.0407   5.00    0.0
2018/11/14 00:14:45.000  -74.407223628  163.437619167    79.9630   6  11   0.0265   0.0256   0.0985  -0.0158   0.0346  -0.0339   5.00    0.0
2018/11/14 00:15:00.000  -74.407223688  163.437619722    79.9875   6  11   0.0242   0.0226   0.0879  -0.0142   0.0297  -0.0298   5.00    0.0
2018/11/14 00:15:15.000  -74.407223660  163.437619554    79.9495   6  11   0.0267   0.0255   0.0992  -0.0157   0.0344  -0.0342   5.00    0.0
2018/11/14 00:15:30.000  -74.407223655  163.437620063    79.9597   6  11   0.0312   0.0309   0.1178  -0.0182   0.0421  -0.0403   5.00    0.0
2018/11/14 00:15:45.000  -74.407223575  163.437619987    79.9261   6  11   0.0366   0.0374   0.1387  -0.0206   0.0503  -0.0465   6.00    0.0
2018/11/14 00:16:00.000  -74.407223519  163.437619530    79.9043   6  11   0.0425   0.0443   0.1605  -0.0232   0.0585  -0.0526   6.00    0.0
2018/11/14 00:16:15.000  -74.407223440  163.437619141    79.9073   6  11   0.0485   0.0513   0.1826  -0.0257   0.0667  -0.0586   6.00    0.0
2018/11/14 00:16:30.000  -74.407223402  163.437618983    79.9268   6  11   0.0548   0.0582   0.2049  -0.0283   0.0748  -0.0644   6.00    0.0
2018/11/14 00:16:45.000  -74.407223210  163.437619013    79.9338   6  11   0.0613   0.0651   0.2274  -0.0311   0.0828  -0.0700   6.00    0.0
2018/11/14 00:17:00.000  -74.407223027  163.437618524    79.9054   6  11   0.0688   0.0719   0.2507  -0.0343   0.0906  -0.0740   6.00    0.0
2018/11/14 00:17:15.000  -74.407222930  163.437617786    79.8867   6  11   0.0735   0.0784   0.2719  -0.0367   0.0990  -0.0824   5.00    0.0
2018/11/14 00:17:30.000  -74.407222920  163.437617777    79.8750   6  11   0.0810   0.0850   0.2951  -0.0401   0.1069  -0.0866   5.00    0.0
2018/11/14 00:17:45.000  -74.407223071  163.437618221    79.8976   6  11   0.0750   0.0783   0.2720  -0.0371   0.0981  -0.0798   5.00    0.0
2018/11/14 00:18:00.000  -74.407223214  163.437618598    79.9123   6  11   0.0651   0.0712   0.2461  -0.0326   0.0900  -0.0783   5.00    0.0
2018/11/14 00:18:15.000  -74.407223253  163.437618367    79.9118   6  11   0.0590   0.0643   0.2231  -0.0296   0.0813  -0.0715   5.00    0.0
2018/11/14 00:18:30.000  -74.407223402  163.437618372    79.9512   6  11   0.0530   0.0573   0.2005  -0.0268   0.0728  -0.0649   5.00    0.0
2018/11/14 00:18:45.000  -74.407223563  163.437618723    79.9852   6  11   0.0471   0.0503   0.1782  -0.0242   0.0644  -0.0585   5.00    0.0
2018/11/14 00:19:00.000  -74.407223619  163.437619218    80.0077   6  11   0.0413   0.0433   0.1564  -0.0217   0.0561  -0.0524   5.00    0.0
2018/11/14 00:19:15.000  -74.407223658  163.437619645    80.0235   6  11   0.0358   0.0365   0.1356  -0.0193   0.0479  -0.0466   5.00    0.0
2018/11/14 00:19:30.000  -74.407223665  163.437619675    80.0200   6  11   0.0308   0.0301   0.1166  -0.0171   0.0401  -0.0410   5.00    0.0
2018/11/14 00:19:45.000  -74.407223747  163.437619820    80.0265   6  11   0.0268   0.0248   0.1009  -0.0151   0.0332  -0.0360   5.00    0.0
2018/11/14 00:20:00.000  -74.407223732  163.437619603    80.0051   6  11   0.0246   0.0221   0.0922  -0.0139   0.0290  -0.0327   5.00    0.0
2018/11/14 00:20:15.000  -74.407223798  163.437619629    80.0358   6  11   0.0276   0.0248   0.1041  -0.0152   0.0329  -0.0380   5.00    0.0
2018/11/14 00:20:30.000  -74.407223729  163.437619131    80.0417   6  11   0.0327   0.0298   0.1231  -0.0173   0.0391  -0.0456   5.00    0.0
2018/11/14 00:20:45.000  -74.407223576  163.437618933    80.0198   6  11   0.0388   0.0358   0.1448  -0.0195   0.0459  -0.0537   5.00    0.0
2018/11/14 00:21:00.000  -74.407223563  163.437619158    80.0472   6  11   0.0456   0.0423   0.1685  -0.0219   0.0530  -0.0626   5.00    0.0
2018/11/14 00:21:15.000  -74.407223546  163.437619122    80.0584   6  11   0.0534   0.0490   0.1952  -0.0248   0.0608  -0.0736   6.00    0.0
2018/11/14 00:21:30.000  -74.407223437  163.437618728    80.0127   6  11   0.0633   0.0558   0.2289  -0.0290   0.0703  -0.0897   6.00    0.0
2018/11/14 00:21:45.000  -74.407223564  163.437618825    80.0729   6  10   0.0844   0.0664   0.3248  -0.0457   0.1033  -0.1388   5.00    0.0
2018/11/14 00:22:00.000  -74.407223413  163.437618803    80.0150   6  10   0.0943   0.0735   0.3650  -0.0513   0.1156  -0.1563   5.00    0.0
2018/11/14 00:22:15.000  -74.407223268  163.437618731    80.0267   6  10   0.1041   0.0806   0.4074  -0.0569   0.1277  -0.1740   5.00    0.0
2018/11/14 00:22:30.000  -74.407223249  163.437618996    80.0654   6  10   0.1140   0.0876   0.4572  -0.0624   0.1390  -0.1927   5.00    0.0
2018/11/14 00:22:45.000  -74.407223418  163.437618971    80.0518   6  10   0.1050   0.0801   0.4042  -0.0570   0.1298  -0.1766   5.00    0.0
2018/11/14 00:23:00.000  -74.407223473  163.437618411    80.0271   6  10   0.0944   0.0727   0.3580  -0.0505   0.1151  -0.1563   5.00    0.0
2018/11/14 00:23:15.000  -74.407223691  163.437618730    80.0642   6  10   0.0841   0.0652   0.3165  -0.0444   0.1013  -0.1377   5.00    0.0
2018/11/14 00:23:30.000  -74.407223993  163.437619368    80.1658   6  10   0.0740   0.0578   0.2768  -0.0384   0.0880  -0.1197   5.00    0.0
2018/11/14 00:23:45.000  -74.407224124  163.437619514    80.1821   6  10   0.0640   0.0504   0.2383  -0.0328   0.0751  -0.1023   5.00    0.0
2018/11/14 00:24:00.000  -74.407224043  163.437619106    80.0992   6  10   0.0543   0.0430   0.2014  -0.0274   0.0626  -0.0855   5.00    0.0
2018/11/14 00:24:15.000  -74.407223974  163.437619043    80.0598   6  10   0.0449   0.0359   0.1665  -0.0225   0.0509  -0.0694   5.00    0.0
2018/11/14 00:24:30.000  -74.407223898  163.437619315    80.0315   6  10   0.0362   0.0294   0.1348  -0.0182   0.0401  -0.0544   5.00    0.0
2018/11/14 00:24:45.000  -74.407223853  163.437619370    80.0088   6  10   0.0291   0.0243   0.1088  -0.0148   0.0312  -0.0416   5.00    0.0
2018/11/14 00:25:00.000  -74.407223795  163.437619402    79.9680   6  10   0.0254   0.0219   0.0949  -0.0132   0.0265  -0.0342   5.00    0.0
2018/11/14 00:25:15.000  -74.407223543  163.437618622    79.8614   6  10   0.0291   0.0248   0.1087  -0.0151   0.0305  -0.0409   5.00    0.0
2018/11/14 00:25:30.000  -74.407223505  163.437618406    79.8800   6  10   0.0359   0.0305   0.1375  -0.0185   0.0376  -0.0531   5.00    0.0
2018/11/14 00:25:45.000  -74.407223650  163.437618903    79.9607   6   9   0.0450   0.0373   0.1761  -0.0231   0.0484  -0.0700   5.00    0.0
2018/11/14 00:26:00.000  -74.407223611  163.437618765    79.9853   6   9   0.0544   0.0445   0.2153  -0.0280   0.0593  -0.0868   5.00    0.0
2018/11/14 00:26:15.000  -74.407223454  163.437618877    79.9676   6   9   0.0642   0.0519   0.2563  -0.0332   0.0708  -0.1043   5.00    0.0
2018/11/14 00:26:30.000  -74.407223356  163.437618478    79.9800   6   9   0.0741   0.0593   0.2983  -0.0386   0.0827  -0.1223   5.00    0.0
2018/11/14 00:26:45.000  -74.407223176  163.437618015    79.9395   6   9   0.0842   0.0669   0.3409  -0.0445   0.0951  -0.1407   5.00    0.0
2018/11/14 00:27:00.000  -74.407223123  163.437618155    79.9324   6   9   0.0946   0.0751   0.3843  -0.0511   0.1084  -0.1596   5.00    0.0
2018/11/14 00:27:15.000  -74.407222968  163.437618254    79.9007   6   9   0.1058   0.0859   0.4295  -0.0602   0.1250  -0.1801   5.00    0.0
2018/11/14 00:27:30.000  -74.407223024  163.437619399    79.9132   6   9   0.1148   0.0865   0.4758  -0.0611   0.1339  -0.1990   4.00    0.0
2018/11/14 00:27:45.000  -74.407223164  163.437619675    79.9376   6   9   0.1033   0.0775   0.4266  -0.0524   0.1160  -0.1767   4.00    0.0
2018/11/14 00:28:00.000  -74.407223397  163.437620196    80.0261   6   9   0.0928   0.0698   0.3813  -0.0457   0.1015  -0.1569   4.00    0.0
2018/11/14 00:28:15.000  -74.407223478  163.437619749    80.0809   6   9   0.0825   0.0625   0.3371  -0.0397   0.0882  -0.1377   4.00    0.0
2018/11/14 00:28:30.000  -74.407223581  163.437619223    80.1007   6  10   0.0584   0.0553   0.2164  -0.0323   0.0719  -0.0752   4.00    0.0
2018/11/14 00:28:45.000  -74.407223677  163.437619155    80.1052   6  10   0.0501   0.0480   0.1817  -0.0269   0.0596  -0.0608   4.00    0.0
2018/11/14 00:29:00.000  -74.407223640  163.437619206    80.0489   6  10   0.0428   0.0410   0.1531  -0.0225   0.0492  -0.0497   5.00    0.0
2018/11/14 00:29:15.000  -74.407223749  163.437619387    80.0199   6  10   0.0359   0.0343   0.1277  -0.0186   0.0398  -0.0403   5.00    0.0
2018/11/14 00:29:30.000  -74.407223807  163.437619612    79.9757   6  10   0.0298   0.0282   0.1056  -0.0153   0.0314  -0.0321   5.00    0.0
2018/11/14 00:29:45.000  -74.407223858  163.437619747    79.9858   6  10   0.0249   0.0234   0.0887  -0.0128   0.0246  -0.0253   5.00    0.0
2018/11/14 00:30:00.000  -74.407224017  163.437619860    80.0516   1  10   0.0247   0.0223   0.0859  -0.0143   0.0329  -0.0316   5.00    1.0
2018/11/14 00:30:15.000  -74.407223986  163.437619741    80.0598   1  10   0.0273   0.0238   0.0945  -0.0152   0.0208  -0.0313   5.00    1.0
2018/11/14 00:30:30.000  -74.407223819  163.437619886    80.0530   6  10   0.0295   0.0288   0.1051  -0.0156   0.0277  -0.0279   5.00    0.0
2018/11/14 00:30:45.000  -74.407223694  163.437619830    80.0734   6  10   0.0353   0.0347   0.1247  -0.0184   0.0341  -0.0338   5.00    0.0
2018/11/14 00:31:00.000  -74.407223625  163.437619330    80.0818   6  10   0.0415   0.0410   0.1466  -0.0215   0.0415  -0.0407   5.00    0.0
2018/11/14 00:31:15.000  -74.407223488  163.437618769    80.0214   6  10   0.0479   0.0473   0.1700  -0.0247   0.0494  -0.0484   5.00    0.0
2018/11/14 00:31:30.000  -74.407223439  163.437618549    80.0015   6  10   0.0544   0.0536   0.1943  -0.0281   0.0577  -0.0567   5.00    0.0
2018/11/14 00:31:45.000  -74.407223328  163.437618574    79.9600   6  10   0.0609   0.0598   0.2192  -0.0315   0.0661  -0.0654   5.00    0.0
2018/11/14 00:32:00.000  -74.407223288  163.437618132    79.9005   6  10   0.0674   0.0659   0.2447  -0.0351   0.0747  -0.0744   5.00    0.0
2018/11/14 00:32:15.000  -74.407223168  163.437617902    79.8846   6  10   0.0739   0.0720   0.2706  -0.0387   0.0833  -0.0835   5.00    0.0
2018/11/14 00:32:30.000  -74.407223199  163.437618183    79.8819   6  10   0.0804   0.0780   0.2968  -0.0424   0.0919  -0.0928   5.00    0.0
2018/11/14 00:32:45.000  -74.407223210  163.437618281    79.8589   6  10   0.0740   0.0721   0.2755  -0.0388   0.0826  -0.0836   5.00    0.0
2018/11/14 00:33:00.000  -74.407223302  163.437618354    79.8965   6  10   0.0676   0.0661   0.2564  -0.0354   0.0729  -0.0736   5.00    0.0
2018/11/14 00:33:15.000  -74.407223398  163.437617850    79.9345   6  10   0.0613   0.0605   0.2456  -0.0323   0.0628  -0.0626   5.00    0.0
2018/11/14 00:33:30.000  -74.407223479  163.437618106    79.9730   6  10   0.0555   0.0557   0.2283  -0.0306   0.0581  -0.0612   0.00    0.0
2018/11/14 00:33:45.000  -74.407223548  163.437618412    80.0584   6  10   0.0498   0.0529   0.2103  -0.0303   0.0449  -0.0481   0.00    0.0
2018/11/14 00:34:00.000  -74.407223684  163.437618861    80.1128   6  10   0.0418   0.0398   0.1868  -0.0210   0.0437  -0.0449   0.00    0.0
2018/11/14 00:34:15.000  -74.407223723  163.437618669    80.0819   6  10   0.0353   0.0334   0.1242  -0.0175   0.0378  -0.0396   0.00    0.0
2018/11/14 00:34:30.000  -74.407223764  163.437618500    80.0496   6  10   0.0294   0.0276   0.0990  -0.0145   0.0304  -0.0316   0.00    0.0
2018/11/14 00:34:45.000  -74.407223862  163.437618696    80.0492   6  10   0.0250   0.0232   0.0803  -0.0128   0.0257  -0.0261   0.00    0.0
2018/11/14 00:35:00.000  -74.407223930  163.437619096    80.0477   6  10   0.0232   0.0219   0.0712  -0.0128   0.0245  -0.0240   2.00    0.0
2018/11/14 00:35:15.000  -74.407223897  163.437619471    80.0623   6  10   0.0260   0.0249   0.0797  -0.0147   0.0272  -0.0273   3.00    0.0
2018/11/14 00:35:30.000  -74.407223798  163.437619093    80.0555   6  10   0.0295   0.0266   0.0950  -0.0131   0.0283  -0.0301   3.00    0.0
2018/11/14 00:35:45.000  -74.407223754  163.437619115    80.0576   6  10   0.0353   0.0322   0.1149  -0.0156   0.0338  -0.0361   3.00    0.0
2018/11/14 00:36:00.000  -74.407223702  163.437618934    80.0172   6  10   0.0416   0.0381   0.1373  -0.0185   0.0402  -0.0432   3.00    0.0
2018/11/14 00:36:15.000  -74.407223578  163.437618652    79.9938   6  10   0.0481   0.0442   0.1610  -0.0217   0.0472  -0.0511   4.00    0.0
2018/11/14 00:36:30.000  -74.407223490  163.437618556    79.9608   6  10   0.0547   0.0502   0.1855  -0.0249   0.0545  -0.0596   5.00    0.0
2018/11/14 00:36:45.000  -74.407223451  163.437618710    79.9815   6  10   0.0614   0.0562   0.2105  -0.0283   0.0620  -0.0685   5.00    0.0
2018/11/14 00:37:00.000  -74.407223427  163.437619132    80.0037   6  10   0.0682   0.0621   0.2358  -0.0318   0.0696  -0.0777   5.00    0.0
2018/11/14 00:37:15.000  -74.407223466  163.437619183    80.0268   6  10   0.0752   0.0679   0.2615  -0.0354   0.0773  -0.0872   6.00    0.0
2018/11/14 00:37:30.000  -74.407223424  163.437619204    79.9986   6  10   0.0825   0.0737   0.2874  -0.0392   0.0849  -0.0971   6.00    0.0
2018/11/14 00:37:45.000  -74.407223486  163.437619379    80.0014   6  10   0.0793   0.0679   0.2626  -0.0367   0.0771  -0.0907   6.00    0.0
2018/11/14 00:38:00.000  -74.407223759  163.437619642    80.0363   6  10   0.0694   0.0620   0.2386  -0.0327   0.0697  -0.0813   5.00    0.0
2018/11/14 00:38:15.000  -74.407223679  163.437619341    80.0048   6  10   0.0618   0.0558   0.2118  -0.0284   0.0608  -0.0704   5.00    0.0
2018/11/14 00:38:30.000  -74.407223791  163.437619399    79.9994   6  10   0.0553   0.0496   0.1862  -0.0247   0.0527  -0.0612   5.00    0.0
2018/11/14 00:38:45.000  -74.407223740  163.437619441    79.9984   6  10   0.0494   0.0436   0.1613  -0.0214   0.0450  -0.0530   4.00    0.0
2018/11/14 00:39:00.000  -74.407223748  163.437619316    79.9751   6  10   0.0451   0.0375   0.1377  -0.0188   0.0381  -0.0469   4.00    0.0
2018/11/14 00:39:15.000  -74.407223850  163.437619654    80.0019   6  10   0.0347   0.0316   0.1142  -0.0149   0.0315  -0.0361   4.00    0.0
2018/11/14 00:39:30.000  -74.407223839  163.437619100    79.9985   6  10   0.0287   0.0261   0.0921  -0.0121   0.0255  -0.0285   5.00    0.0
2018/11/14 00:39:45.000  -74.407223841  163.437618595    80.0179   6  10   0.0242   0.0217   0.0743  -0.0101   0.0211  -0.0229   5.00    0.0
2018/11/14 00:40:00.000  -74.407223911  163.437618959    80.0233   6  10   0.0223   0.0195   0.0654  -0.0092   0.0189  -0.0202   5.00    0.0
2018/11/14 00:40:15.000  -74.407223902  163.437619286    79.9938   6  10   0.0251   0.0223   0.0738  -0.0106   0.0212  -0.0237   5.00    0.0
2018/11/14 00:40:30.000  -74.407223834  163.437619178    80.0060   6  10   0.0304   0.0273   0.0909  -0.0134   0.0259  -0.0298   5.00    0.0
2018/11/14 00:40:45.000  -74.407223733  163.437619246    79.9858   6  10   0.0373   0.0337   0.1122  -0.0174   0.0324  -0.0379   5.00    0.0
2018/11/14 00:41:00.000  -74.407223661  163.437619764    80.0172   6  10   0.0451   0.0377   0.1363  -0.0183   0.0374  -0.0474   5.00    0.0
2018/11/14 00:41:15.000  -74.407223663  163.437620052    80.0466   6  10   0.0513   0.0437   0.1622  -0.0215   0.0445  -0.0569   5.00    0.0
2018/11/14 00:41:30.000  -74.407223523  163.437620093    80.0626   6  10   0.0598   0.0496   0.1862  -0.0247   0.0507  -0.0665   5.00    0.0
2018/11/14 00:41:45.000  -74.407223547  163.437619914    80.0763   6  10   0.0687   0.0560   0.2145  -0.0292   0.0591  -0.0796   5.00    0.0
2018/11/14 00:42:00.000  -74.407223610  163.437619847    80.0910   6  10   0.0683   0.0629   0.2368  -0.0310   0.0661  -0.0813   5.00    0.0
2018/11/14 00:42:15.000  -74.407223480  163.437619728    80.0470   6  10   0.0737   0.0699   0.2609  -0.0339   0.0739  -0.0881   5.00    0.0
2018/11/14 00:42:30.000  -74.407223531  163.437620383    80.0877   6  10   0.0795   0.0721   0.2843  -0.0357   0.0763  -0.0957   5.00    0.0
2018/11/14 00:42:45.000  -74.407223483  163.437619852    80.0884   6  10   0.0727   0.0655   0.2581  -0.0315   0.0675  -0.0857   5.00    0.0
2018/11/14 00:43:00.000  -74.407223491  163.437619819    80.0674   6  10   0.0660   0.0595   0.2321  -0.0279   0.0596  -0.0762   5.00    0.0
2018/11/14 00:43:15.000  -74.407223594  163.437619869    80.0878   6  10   0.0594   0.0535   0.2064  -0.0245   0.0521  -0.0668   5.00    0.0
2018/11/14 00:43:30.000  -74.407223579  163.437619380    80.0379   6  10   0.0528   0.0476   0.1810  -0.0212   0.0449  -0.0577   4.00    0.0
2018/11/14 00:43:45.000  -74.407223655  163.437619162    80.0214   6  10   0.0462   0.0418   0.1561  -0.0181   0.0380  -0.0489   4.00    0.0
2018/11/14 00:44:00.000  -74.407223750  163.437618915    79.9977   6  10   0.0398   0.0359   0.1319  -0.0151   0.0316  -0.0404   4.00    0.0
2018/11/14 00:44:15.000  -74.407223867  163.437618552    79.9447   6  10   0.0335   0.0302   0.1086  -0.0124   0.0258  -0.0324   5.00    0.0
2018/11/14 00:44:30.000  -74.407223844  163.437618382    79.9440   6  10   0.0277   0.0247   0.0871  -0.0101   0.0209  -0.0251   5.00    0.0
2018/11/14 00:44:45.000  -74.407223889  163.437618410    80.0034   6  10   0.0230   0.0203   0.0693  -0.0081   0.0173  -0.0189   5.00    0.0
2018/11/14 00:45:00.000  -74.407224024  163.437618595    80.0249   6  10   0.0206   0.0180   0.0601  -0.0075   0.0158  -0.0154   5.00    0.0
2018/11/14 00:45:15.000  -74.407224043  163.437618735    80.0316   6  10   0.0230   0.0202   0.0683  -0.0078   0.0169  -0.0184   5.00    0.0
2018/11/14 00:45:30.000  -74.407224065  163.437619053    80.0286   6  10   0.0275   0.0245   0.0852  -0.0097   0.0197  -0.0240   5.00    0.0
2018/11/14 00:45:45.000  -74.407224001  163.437618792    80.0199   6  10   0.0331   0.0298   0.1059  -0.0116   0.0236  -0.0308   5.00    0.0
2018/11/14 00:46:00.000  -74.407223940  163.437618873    80.0441   6  10   0.0391   0.0353   0.1283  -0.0138   0.0281  -0.0382   5.00    0.0
2018/11/14 00:46:15.000  -74.407223886  163.437619203    80.0477   6  10   0.0453   0.0409   0.1517  -0.0162   0.0330  -0.0461   5.00    0.0
2018/11/14 00:46:30.000  -74.407223862  163.437619388    80.0559   6  10   0.0516   0.0464   0.1757  -0.0186   0.0381  -0.0543   5.00    0.0
2018/11/14 00:46:45.000  -74.407223904  163.437619813    80.0814   6  10   0.0579   0.0518   0.1999  -0.0212   0.0432  -0.0627   5.00    0.0
2018/11/14 00:47:00.000  -74.407223786  163.437619547    80.0404   6  10   0.0641   0.0572   0.2243  -0.0238   0.0482  -0.0712   5.00    0.0
2018/11/14 00:47:15.000  -74.407223741  163.437619769    80.0445   6  10   0.0704   0.0626   0.2488  -0.0264   0.0532  -0.0798   5.00    0.0
2018/11/14 00:47:30.000  -74.407223691  163.437620095    80.0458   6  10   0.0767   0.0680   0.2733  -0.0290   0.0580  -0.0883   5.00    0.0
2018/11/14 00:47:45.000  -74.407223795  163.437619982    80.0056   6  10   0.0704   0.0624   0.2486  -0.0259   0.0515  -0.0798   5.00    0.0
2018/11/14 00:48:00.000  -74.407223774  163.437619806    79.9744   6  10   0.0641   0.0569   0.2234  -0.0229   0.0454  -0.0708   5.00    0.0
2018/11/14 00:48:15.000  -74.407223767  163.437619419    79.9639   6  10   0.0577   0.0514   0.1984  -0.0200   0.0394  -0.0620   5.00    0.0
2018/11/14 00:48:30.000  -74.407223792  163.437619008    79.9361   6  10   0.0514   0.0458   0.1738  -0.0173   0.0337  -0.0534   5.00    0.0
2018/11/14 00:48:45.000  -74.407223711  163.437618703    79.9539   6  10   0.0451   0.0403   0.1496  -0.0147   0.0283  -0.0450   5.00    0.0
2018/11/14 00:49:00.000  -74.407223783  163.437618770    79.9845   6  10   0.0389   0.0347   0.1260  -0.0123   0.0234  -0.0369   5.00    0.0
2018/11/14 00:49:15.000  -74.407223749  163.437618607    79.9393   6  11   0.0297   0.0287   0.0922  -0.0052   0.0105  -0.0146   5.00    0.0
2018/11/14 00:49:30.000  -74.407223807  163.437618694    79.9501   6  11   0.0250   0.0238   0.0742  -0.0051   0.0105  -0.0108   5.00    0.0
2018/11/14 00:49:45.000  -74.407223924  163.437618879    79.9741   6  11   0.0215   0.0196   0.0604  -0.0053   0.0112  -0.0095   5.00    0.0
2018/11/14 00:50:00.000  -74.407224003  163.437618595    79.9819   6  11   0.0195   0.0176   0.0533  -0.0056   0.0116  -0.0084   5.00    0.0
2018/11/14 00:50:15.000  -74.407223967  163.437618706    79.9981   6  11   0.0214   0.0196   0.0599  -0.0049   0.0111  -0.0092   5.00    0.0
2018/11/14 00:50:30.000  -74.407223964  163.437619020    80.0044   6  11   0.0250   0.0237   0.0725  -0.0047   0.0089  -0.0093   5.00    0.0
2018/11/14 00:50:45.000  -74.407223958  163.437619211    79.9820   6  11   0.0293   0.0285   0.0876  -0.0035   0.0045  -0.0093   5.00    0.0
2018/11/14 00:51:00.000  -74.407223896  163.437618851    79.9737   6  11   0.0340   0.0336   0.1041  -0.0008  -0.0072  -0.0099   5.00    0.0
2018/11/14 00:51:15.000  -74.407223805  163.437618913    79.9528   6  11   0.0389   0.0387   0.1215   0.0037  -0.0117  -0.0115   5.00    0.0
2018/11/14 00:51:30.000  -74.407223749  163.437619213    79.9707   6  11   0.0438   0.0438   0.1395   0.0053  -0.0153  -0.0141   5.00    0.0
2018/11/14 00:51:45.000  -74.407223686  163.437619390    79.9592   6  11   0.0487   0.0489   0.1580   0.0065  -0.0187  -0.0173   5.00    0.0
2018/11/14 00:52:00.000  -74.407223688  163.437619743    79.9838   6  11   0.0536   0.0540   0.1768   0.0074  -0.0220  -0.0209   5.00    0.0
2018/11/14 00:52:15.000  -74.407223690  163.437619733    79.9607   6  11   0.0585   0.0590   0.1958   0.0081  -0.0253  -0.0248   5.00    0.0
2018/11/14 00:52:30.000  -74.407223669  163.437619673    79.9425   6  11   0.0635   0.0641   0.2151   0.0088  -0.0287  -0.0287   5.00    0.0
2018/11/14 00:52:45.000  -74.407223740  163.437619719    79.9606   6  11   0.0585   0.0590   0.1959   0.0081  -0.0264  -0.0257   5.00    0.0
2018/11/14 00:53:00.000  -74.407223652  163.437619483    80.0038   6  11   0.0535   0.0539   0.1770   0.0076  -0.0241  -0.0225   5.00    0.0
2018/11/14 00:53:15.000  -74.407223754  163.437618937    79.9747   6  12   0.0475   0.0468   0.1526  -0.0096  -0.0324  -0.0282   5.00    0.0
2018/11/14 00:53:30.000  -74.407223778  163.437618804    79.9589   6  12   0.0427   0.0418   0.1341  -0.0089  -0.0291  -0.0246   5.00    0.0
2018/11/14 00:53:45.000  -74.407223739  163.437618499    79.9503   6  12   0.0380   0.0369   0.1166  -0.0082  -0.0250  -0.0210   5.00    0.0
2018/11/14 00:54:00.000  -74.407223836  163.437618904    79.9615   6  12   0.0333   0.0320   0.0998  -0.0075  -0.0204  -0.0177   6.00    0.0
2018/11/14 00:54:15.000  -74.407223940  163.437618849    79.9463   6  12   0.0288   0.0273   0.0839  -0.0068  -0.0154  -0.0149   6.00    0.0
2018/11/14 00:54:30.000  -74.407223987  163.437618662    79.9481   6  12   0.0248   0.0227   0.0693  -0.0064  -0.0095  -0.0127   6.00    0.0
2018/11/14 00:54:45.000  -74.407224035  163.437618628    79.9724   6  12   0.0216   0.0190   0.0574  -0.0059   0.0038  -0.0111   6.00    0.0
2018/11/14 00:55:00.000  -74.407224010  163.437618498    79.9673   6  12   0.0203   0.0172   0.0520  -0.0056   0.0082  -0.0112   6.00    0.0
2018/11/14 00:55:15.000  -74.407224043  163.437618414    79.9623   6  12   0.0217   0.0190   0.0578  -0.0062   0.0043  -0.0115   6.00    0.0
2018/11/14 00:55:30.000  -74.407224025  163.437618671    79.9459   6  12   0.0251   0.0227   0.0702  -0.0067  -0.0091  -0.0146   6.00    0.0
2018/11/14 00:55:45.000  -74.407223963  163.437618895    79.9312   6  12   0.0295   0.0271   0.0853  -0.0076  -0.0151  -0.0182   5.00    0.0
2018/11/14 00:56:00.000  -74.407223916  163.437619175    79.9185   6  12   0.0343   0.0319   0.1020  -0.0085  -0.0201  -0.0225   5.00    0.0
2018/11/14 00:56:15.000  -74.407223865  163.437619366    79.9095   6  12   0.0394   0.0366   0.1198  -0.0096  -0.0248  -0.0277   5.00    0.0
2018/11/14 00:56:30.000  -74.407223940  163.437619477    79.9325   6  12   0.0450   0.0414   0.1389  -0.0110  -0.0292  -0.0343   6.00    0.0
2018/11/14 00:56:45.000  -74.407223898  163.437619772    79.9702   6  12   0.0518   0.0463   0.1605  -0.0136  -0.0326  -0.0443   6.00    0.0
2018/11/14 00:57:00.000  -74.407223873  163.437619814    79.9850   6  12   0.0613   0.0513   0.1929  -0.0180  -0.0326  -0.0638   6.00    0.0
2018/11/14 00:57:15.000  -74.407223847  163.437619857    79.9365   6  12   0.0613   0.0558   0.2025  -0.0151  -0.0421  -0.0564   6.00    0.0
2018/11/14 00:57:30.000  -74.407223815  163.437619920    79.8902   6  12   0.0649   0.0605   0.2169  -0.0150  -0.0483  -0.0563   6.00    0.0
2018/11/14 00:57:45.000  -74.407223850  163.437619542    79.8966   6  12   0.0598   0.0558   0.1976  -0.0142  -0.0439  -0.0505   6.00    0.0
2018/11/14 00:58:00.000  -74.407223822  163.437619294    79.8549   6  12   0.0555   0.0510   0.1795  -0.0135  -0.0390  -0.0470   6.00    0.0
2018/11/14 00:58:15.000  -74.407223761  163.437618914    79.8343   6  12   0.0525   0.0463   0.1639  -0.0142  -0.0328  -0.0472   6.00    0.0
2018/11/14 00:58:30.000  -74.407223758  163.437618829    79.8798   6  12   0.0488   0.0416   0.1501  -0.0141  -0.0266  -0.0469   6.00    0.0
2018/11/14 00:58:45.000  -74.407223867  163.437618651    79.8382   6  12   0.0387   0.0365   0.1227  -0.0088  -0.0263  -0.0281   6.00    0.0
2018/11/14 00:59:00.000  -74.407223928  163.437618596    79.8383   6  12   0.0335   0.0318   0.1028  -0.0077  -0.0221  -0.0210   6.00    0.0
2018/11/14 00:59:15.000  -74.407223943  163.437618670    79.8425   6  12   0.0289   0.0271   0.0852  -0.0072  -0.0171  -0.0164   6.00    0.0
2018/11/14 00:59:30.000  -74.407223976  163.437618872    79.8942   6  12   0.0250   0.0228   0.0696  -0.0068  -0.0115  -0.0135   6.00    0.0
2018/11/14 00:59:45.000  -74.407223950  163.437618480    79.9311   6  12   0.0222   0.0192   0.0576  -0.0067  -0.0037  -0.0128   6.00    0.0
2018/11/14 01:00:00.000  -74.407223970  163.437618558    79.9467   6  12   0.0199   0.0174   0.0502  -0.0061   0.0051  -0.0091   6.00    0.0
2018/11/14 01:00:15.000  -74.407223911  163.437618310    79.9145   6  12   0.0223   0.0195   0.0575  -0.0069  -0.0026  -0.0128   6.00    0.0
2018/11/14 01:00:30.000  -74.407223898  163.437618152    79.9368   6  12   0.0239   0.0229   0.0690  -0.0063  -0.0125  -0.0103   6.00    0.0
2018/11/14 01:00:45.000  -74.407224151  163.437617420    79.9852   1  12   0.0310   0.0306   0.1046  -0.0088  -0.0229  -0.0214   5.00    1.0
2018/11/14 01:01:00.000  -74.407224209  163.437617017    79.9667   1  12   0.0372   0.0368   0.1297  -0.0103  -0.0305  -0.0283   5.00    1.0
2018/11/14 01:01:15.000  -74.407223833  163.437617714    79.8844   6  12   0.0371   0.0364   0.1182  -0.0078  -0.0284  -0.0211   6.00    0.0
2018/11/14 01:01:30.000  -74.407223847  163.437618044    79.8766   6  12   0.0418   0.0410   0.1365  -0.0082  -0.0334  -0.0257   6.00    0.0
2018/11/14 01:01:45.000  -74.407223784  163.437617901    79.8934   6  12   0.0466   0.0457   0.1551  -0.0088  -0.0385  -0.0306   6.00    0.0
2018/11/14 01:02:00.000  -74.407223813  163.437618109    79.8373   6  12   0.0515   0.0505   0.1740  -0.0094  -0.0436  -0.0356   6.00    0.0
2018/11/14 01:02:15.000  -74.407223794  163.437618595    79.8665   6  12   0.0563   0.0552   0.1931  -0.0101  -0.0488  -0.0406   6.00    0.0
2018/11/14 01:02:30.000  -74.407223835  163.437618711    79.9216   6  12   0.0612   0.0600   0.2124  -0.0109  -0.0541  -0.0458   6.00    0.0
2018/11/14 01:02:45.000  -74.407223813  163.437618578    79.9744   6  12   0.0564   0.0553   0.1938  -0.0099  -0.0491  -0.0407   7.00    0.0
2018/11/14 01:03:00.000  -74.407223757  163.437618405    79.9618   6  12   0.0516   0.0506   0.1748  -0.0093  -0.0441  -0.0357   7.00    0.0
2018/11/14 01:03:15.000  -74.407223706  163.437618341    79.9655   6  12   0.0468   0.0460   0.1559  -0.0091  -0.0392  -0.0307   7.00    0.0
2018/11/14 01:03:30.000  -74.407223663  163.437618233    79.9338   6  12   0.0421   0.0417   0.1372  -0.0095  -0.0343  -0.0257   7.00    0.0
2018/11/14 01:03:45.000  -74.407223713  163.437618261    79.8814   6  12   0.0377   0.0381   0.1188  -0.0114  -0.0295  -0.0208   7.00    0.0
2018/11/14 01:04:00.000  -74.407224098  163.437617350    79.9472   1  12   0.0385   0.0395   0.1310  -0.0149  -0.0315  -0.0288   5.00    1.0
2018/11/14 01:04:15.000  -74.407224102  163.437617488    79.9310   1  12   0.0309   0.0301   0.1056  -0.0066  -0.0248  -0.0214   6.00    1.0
2018/11/14 01:04:30.000  -74.407224062  163.437618025    79.9156   1  12   0.0254   0.0247   0.0823  -0.0056  -0.0178  -0.0140   6.00    1.0
2018/11/14 01:04:45.000  -74.407224044  163.437618166    79.9159   1  12   0.0212   0.0203   0.0634  -0.0047  -0.0114  -0.0060   6.00    1.0
2018/11/14 01:05:00.000  -74.407224101  163.437618360    79.9765   1  12   0.0193   0.0183   0.0541  -0.0043  -0.0076   0.0051   6.00    1.0
2018/11/14 01:05:15.000  -74.407224136  163.437618773    80.0386   1  12   0.0213   0.0207   0.0638  -0.0053  -0.0126  -0.0053   6.00    1.0
2018/11/14 01:05:30.000  -74.407224122  163.437618975    80.0555   1  12   0.0256   0.0254   0.0832  -0.0069  -0.0200  -0.0127   6.00    1.0
2018/11/14 01:05:45.000  -74.407224097  163.437618784    80.0971   1  12   0.0312   0.0313   0.1071  -0.0086  -0.0281  -0.0196   6.00    1.0
2018/11/14 01:06:00.000  -74.407224113  163.437618672    80.0808   1  12   0.0375   0.0380   0.1333  -0.0106  -0.0366  -0.0262   6.00    1.0
2018/11/14 01:06:15.000  -74.407223774  163.437618647    80.0239   6  12   0.0370   0.0367   0.1199  -0.0086  -0.0322  -0.0185   7.00    0.0
2018/11/14 01:06:30.000  -74.407223876  163.437618557    79.9731   6  12   0.0418   0.0418   0.1391  -0.0101  -0.0386  -0.0226   7.00    0.0
2018/11/14 01:06:45.000  -74.407223826  163.437619126    79.9718   6  12   0.0469   0.0479   0.1599  -0.0133  -0.0470  -0.0252   7.00    0.0
2018/11/14 01:07:00.000  -74.407223738  163.437619440    79.9608   6  12   0.0522   0.0555   0.1841  -0.0178  -0.0592  -0.0254   7.00    0.0
2018/11/14 01:07:15.000  -74.407223683  163.437619500    79.9640   6  12   0.0562   0.0567   0.1978  -0.0121  -0.0566  -0.0379   7.00    0.0
2018/11/14 01:07:30.000  -74.407223640  163.437619492    79.9537   6  12   0.0609   0.0606   0.2153  -0.0110  -0.0596  -0.0444   7.00    0.0
2018/11/14 01:07:45.000  -74.407223677  163.437619029    80.0234   6  12   0.0560   0.0553   0.1950  -0.0094  -0.0535  -0.0399   7.00    0.0
2018/11/14 01:08:00.000  -74.407223645  163.437618810    80.0622   6  12   0.0511   0.0504   0.1755  -0.0082  -0.0478  -0.0350   7.00    0.0
2018/11/14 01:08:15.000  -74.407223665  163.437619065    80.0389   6  12   0.0462   0.0455   0.1563  -0.0073  -0.0424  -0.0300   7.00    0.0
2018/11/14 01:08:30.000  -74.407223662  163.437619049    80.0154   6  12   0.0414   0.0407   0.1374  -0.0067  -0.0371  -0.0250   7.00    0.0
2018/11/14 01:08:45.000  -74.407223795  163.437618999    79.9947   6  12   0.0367   0.0361   0.1190  -0.0064  -0.0320  -0.0200   7.00    0.0
2018/11/14 01:09:00.000  -74.407224239  163.437618496    80.0159   1  12   0.0374   0.0372   0.1315  -0.0087  -0.0358  -0.0274   5.00    1.0
2018/11/14 01:09:15.000  -74.407224196  163.437618199    79.9926   1  12   0.0313   0.0314   0.1070  -0.0083  -0.0297  -0.0194   5.00    1.0
2018/11/14 01:09:30.000  -74.407224217  163.437618087    79.9730   1  12   0.0260   0.0269   0.0860  -0.0088  -0.0256  -0.0085   5.00    1.0
2018/11/14 01:09:45.000  -74.407224214  163.437618055    79.9704   1  12   0.0217   0.0218   0.0658  -0.0065  -0.0172   0.0041   5.00    1.0
2018/11/14 01:10:00.000  -74.407224149  163.437618258    79.9626   1  12   0.0196   0.0196   0.0561  -0.0058  -0.0124   0.0065   5.00    1.0
2018/11/14 01:10:15.000  -74.407224091  163.437618667    79.9617   1  12   0.0194   0.0196   0.0603  -0.0102  -0.0165  -0.0157   6.00    2.0
2018/11/14 01:10:30.000  -74.407224075  163.437618544    79.9765   1  12   0.0247   0.0250   0.0796  -0.0123  -0.0210  -0.0208   6.00    2.0
2018/11/14 01:10:45.000  -74.407224138  163.437618797    79.9546   1  12   0.0289   0.0289   0.1026  -0.0085  -0.0290  -0.0249   7.00    3.0
2018/11/14 01:11:00.000  -74.407224064  163.437618491    79.9631   1  12   0.0360   0.0354   0.1279  -0.0100  -0.0360  -0.0312   7.00    2.0
2018/11/14 01:11:15.000  -74.407223764  163.437618803    79.8867   6  12   0.0364   0.0354   0.1174  -0.0040  -0.0309  -0.0213   6.00    0.0
2018/11/14 01:11:30.000  -74.407223800  163.437618928    79.9161   6  12   0.0410   0.0400   0.1353  -0.0039  -0.0361  -0.0260   6.00    0.0
2018/11/14 01:11:45.000  -74.407223802  163.437618772    79.9366   6  12   0.0458   0.0446   0.1536  -0.0039  -0.0413  -0.0310   6.00    0.0
2018/11/14 01:12:00.000  -74.407223790  163.437618988    79.9601   6  12   0.0506   0.0493   0.1721  -0.0041  -0.0466  -0.0359   6.00    0.0
2018/11/14 01:12:15.000  -74.407223752  163.437618486    79.9834   6  12   0.0554   0.0541   0.1906  -0.0044  -0.0520  -0.0409   6.00    0.0
2018/11/14 01:12:30.000  -74.407223705  163.437618419    79.9988   6  12   0.0603   0.0589   0.2092  -0.0047  -0.0573  -0.0459   6.00    0.0
2018/11/14 01:12:45.000  -74.407223719  163.437618884    79.9341   6  12   0.0556   0.0542   0.1907  -0.0032  -0.0522  -0.0409   6.00    0.0
2018/11/14 01:13:00.000  -74.407223713  163.437619119    79.8968   6  12   0.0507   0.0494   0.1718  -0.0024  -0.0469  -0.0358   7.00    0.0
2018/11/14 01:13:15.000  -74.407223751  163.437618820    79.9279   6  12   0.0459   0.0447   0.1532  -0.0017  -0.0417  -0.0308   7.00    0.0
2018/11/14 01:13:30.000  -74.407223683  163.437618799    79.9128   6  12   0.0411   0.0400   0.1348  -0.0013  -0.0366  -0.0258   7.00    0.0
2018/11/14 01:13:45.000  -74.407223724  163.437618436    79.9010   6  12   0.0364   0.0354   0.1169  -0.0014  -0.0315  -0.0210   8.00    0.0
2018/11/14 01:14:00.000  -74.407224059  163.437618364    79.9685   1  12   0.0355   0.0348   0.1271  -0.0057  -0.0362  -0.0316   7.00    3.0
2018/11/14 01:14:15.000  -74.407223984  163.437618169    79.9905   1  12   0.0289   0.0283   0.1022  -0.0052  -0.0294  -0.0256   7.00    3.0
2018/11/14 01:14:30.000  -74.407224076  163.437618040    79.9744   1  12   0.0228   0.0224   0.0794  -0.0047  -0.0231  -0.0201   7.00    3.0
2018/11/14 01:14:45.000  -74.407224168  163.437617957    79.9849   1  12   0.0178   0.0176   0.0607  -0.0044  -0.0179  -0.0161   7.00    3.0
2018/11/14 01:15:00.000  -74.407224151  163.437618188    79.9768   1  12   0.0154   0.0151   0.0514  -0.0045  -0.0152  -0.0142   7.00    3.0
2018/11/14 01:15:15.000  -74.407224161  163.437618506    79.9785   1  12   0.0180   0.0177   0.0607  -0.0048  -0.0182  -0.0160   7.00    3.0
2018/11/14 01:15:30.000  -74.407224128  163.437619024    79.9691   1  12   0.0247   0.0225   0.0815  -0.0035  -0.0240  -0.0240   7.00    2.0
2018/11/14 01:15:45.000  -74.407224140  163.437619187    79.9662   1  12   0.0306   0.0284   0.1036  -0.0039  -0.0303  -0.0287   7.00    2.0
2018/11/14 01:16:00.000  -74.407224183  163.437619110    79.9381   1  12   0.0370   0.0349   0.1275  -0.0043  -0.0370  -0.0340   7.00    2.0
2018/11/14 01:16:15.000  -74.407223884  163.437619192    79.8425   6  12   0.0362   0.0350   0.1156   0.0027  -0.0318  -0.0206   7.00    0.0
2018/11/14 01:16:30.000  -74.407223777  163.437618824    79.8856   6  12   0.0408   0.0396   0.1328   0.0033  -0.0368  -0.0252   7.00    0.0
2018/11/14 01:16:45.000  -74.407223752  163.437618649    79.8841   6  12   0.0455   0.0442   0.1502   0.0038  -0.0419  -0.0300   7.00    0.0
2018/11/14 01:17:00.000  -74.407223814  163.437618467    79.8491   6  12   0.0503   0.0488   0.1678   0.0040  -0.0470  -0.0347   7.00    0.0
2018/11/14 01:17:15.000  -74.407223749  163.437618629    79.8425   6  12   0.0552   0.0536   0.1855   0.0042  -0.0522  -0.0395   7.00    0.0
2018/11/14 01:17:30.000  -74.407223694  163.437618651    79.8517   6  12   0.0601   0.0583   0.2032   0.0044  -0.0574  -0.0443   7.00    0.0
2018/11/14 01:17:45.000  -74.407223663  163.437618834    79.8899   6  12   0.0551   0.0535   0.1852   0.0046  -0.0522  -0.0392   7.00    0.0
2018/11/14 01:18:00.000  -74.407223674  163.437618797    79.8878   6  12   0.0503   0.0488   0.1671   0.0046  -0.0470  -0.0342   7.00    0.0
2018/11/14 01:18:15.000  -74.407223713  163.437618592    79.8901   6  12   0.0455   0.0441   0.1493   0.0044  -0.0419  -0.0293   7.00    0.0
2018/11/14 01:18:30.000  -74.407223811  163.437618843    79.8874   6  12   0.0408   0.0395   0.1318   0.0041  -0.0369  -0.0245   7.00    0.0
2018/11/14 01:18:45.000  -74.407223849  163.437619043    79.8914   6  12   0.0361   0.0349   0.1148   0.0037  -0.0320  -0.0198   7.00    0.0
2018/11/14 01:19:00.000  -74.407224173  163.437618752    79.9645   1  12   0.0371   0.0350   0.1263  -0.0032  -0.0375  -0.0333   6.00    2.0
2018/11/14 01:19:15.000  -74.407224156  163.437618691    79.9536   1  12   0.0308   0.0286   0.1033  -0.0027  -0.0311  -0.0283   6.00    2.0
2018/11/14 01:19:30.000  -74.407224147  163.437618481    79.9384   1  12   0.0253   0.0228   0.0825  -0.0030  -0.0254  -0.0240   6.00    2.0
2018/11/14 01:19:45.000  -74.407224139  163.437618229    79.9484   1  12   0.0210   0.0182   0.0656  -0.0022  -0.0206  -0.0209   6.00    2.0
2018/11/14 01:20:00.000  -74.407224149  163.437618236    79.9586   1  12   0.0188   0.0160   0.0571  -0.0031  -0.0179  -0.0198   6.00    2.0
2018/11/14 01:20:15.000  -74.407224109  163.437618356    79.9639   1  12   0.0217   0.0182   0.0671  -0.0035  -0.0213  -0.0215   6.00    2.0
2018/11/14 01:20:30.000  -74.407224057  163.437618344    79.9640   1  12   0.0265   0.0232   0.0849  -0.0035  -0.0266  -0.0243   6.00    2.0
2018/11/14 01:20:45.000  -74.407224057  163.437618319    79.9773   1  12   0.0324   0.0291   0.1058  -0.0034  -0.0326  -0.0279   6.00    2.0
2018/11/14 01:21:00.000  -74.407224004  163.437618255    79.9417   1  12   0.0388   0.0355   0.1282  -0.0031  -0.0388  -0.0321   6.00    2.0
2018/11/14 01:21:15.000  -74.407223671  163.437618505    79.8207   6  12   0.0368   0.0348   0.1148   0.0043  -0.0326  -0.0172   7.00    0.0
2018/11/14 01:21:30.000  -74.407223705  163.437618758    79.7792   6  12   0.0413   0.0393   0.1308   0.0050  -0.0373  -0.0216   7.00    0.0
2018/11/14 01:21:45.000  -74.407223695  163.437618820    79.7743   6  12   0.0461   0.0438   0.1471   0.0057  -0.0420  -0.0260   7.00    0.0
2018/11/14 01:22:00.000  -74.407223621  163.437618784    79.7654   6  12   0.0509   0.0484   0.1636   0.0063  -0.0468  -0.0303   7.00    0.0
2018/11/14 01:22:15.000  -74.407223609  163.437618666    79.7603   6  12   0.0558   0.0531   0.1802   0.0070  -0.0516  -0.0346   7.00    0.0
2018/11/14 01:22:30.000  -74.407223778  163.437618659    79.7851   6  12   0.0607   0.0579   0.1969   0.0078  -0.0565  -0.0388   7.00    0.0
2018/11/14 01:22:45.000  -74.407223842  163.437618746    79.8017   6  12   0.0565   0.0534   0.1809   0.0088  -0.0514  -0.0326   7.00    0.0
2018/11/14 01:23:00.000  -74.407223895  163.437618551    79.8179   6  12   0.0529   0.0488   0.1656   0.0105  -0.0455  -0.0225   7.00    0.0
2018/11/14 01:23:15.000  -74.407223936  163.437618333    79.8303   6  11   0.0491   0.0443   0.1504   0.0110  -0.0400  -0.0089   6.00    0.0
2018/11/14 01:23:30.000  -74.407223889  163.437618472    79.7996   6  11   0.0440   0.0397   0.1336   0.0095  -0.0358  -0.0009   6.00    0.0
2018/11/14 01:23:45.000  -74.407223911  163.437618753    79.7980   6  11   0.0392   0.0353   0.1174   0.0079  -0.0319   0.0074   6.00    0.0
2018/11/14 01:24:00.000  -74.407224159  163.437618358    79.9074   1  11   0.0426   0.0365   0.1316   0.0038  -0.0394  -0.0244   5.00    2.0
2018/11/14 01:24:15.000  -74.407224140  163.437618329    79.9265   1  11   0.0376   0.0305   0.1104  -0.0067  -0.0347  -0.0223   5.00    2.0
2018/11/14 01:24:30.000  -74.407224070  163.437618142    79.9324   1  11   0.0308   0.0250   0.0919  -0.0065  -0.0308  -0.0210   5.00    2.0
2018/11/14 01:24:45.000  -74.407224127  163.437618185    79.9503   1  11   0.0254   0.0209   0.0788  -0.0067  -0.0286  -0.0199   5.00    2.0
2018/11/14 01:25:00.000  -74.407224102  163.437618319    79.9118   1  10   0.0214   0.0173   0.0678  -0.0027  -0.0239  -0.0219   5.00    2.0
2018/11/14 01:25:15.000  -74.407223961  163.437618418    79.8898   1  10   0.0265   0.0213   0.0833  -0.0040  -0.0305  -0.0245   5.00    2.0
2018/11/14 01:25:30.000  -74.407223938  163.437618836    79.8743   1  10   0.0339   0.0283   0.1112  -0.0048  -0.0419  -0.0273   5.00    2.0
2018/11/14 01:25:45.000  -74.407223648  163.437619494    79.7552   6  10   0.0309   0.0306   0.1068  -0.0009  -0.0391   0.0110   5.00    0.0
2018/11/14 01:26:00.000  -74.407223589  163.437619941    79.7348   6  10   0.0367   0.0366   0.1321   0.0055  -0.0498  -0.0025   5.00    0.0
2018/11/14 01:26:15.000  -74.407223694  163.437619639    79.8166   6   9   0.0452   0.0457   0.1824   0.0174  -0.0715  -0.0392   5.00    0.0
2018/11/14 01:26:30.000  -74.407223726  163.437619535    79.8430   6   9   0.0517   0.0527   0.2127   0.0204  -0.0840  -0.0466   5.00    0.0
2018/11/14 01:26:45.000  -74.407223662  163.437619593    79.8671   6   9   0.0582   0.0598   0.2436   0.0235  -0.0968  -0.0542   5.00    0.0
2018/11/14 01:27:00.000  -74.407223595  163.437619597    79.8947   6   9   0.0649   0.0671   0.2749   0.0266  -0.1097  -0.0620   5.00    0.0
2018/11/14 01:27:15.000  -74.407223594  163.437619360    79.8606   6   9   0.0717   0.0744   0.3065   0.0298  -0.1227  -0.0698   6.00    0.0
2018/11/14 01:27:30.000  -74.407223519  163.437619711    79.7470   6   9   0.0786   0.0818   0.3382   0.0331  -0.1359  -0.0776   6.00    0.0
2018/11/14 01:27:45.000  -74.407223417  163.437619286    79.7296   6   9   0.0716   0.0744   0.3061   0.0300  -0.1228  -0.0701   5.00    0.0
2018/11/14 01:28:00.000  -74.407223336  163.437619236    79.7340   6   9   0.0649   0.0673   0.2754   0.0271  -0.1105  -0.0626   5.00    0.0
2018/11/14 01:28:15.000  -74.407223462  163.437618917    79.7653   6   9   0.0582   0.0603   0.2448   0.0242  -0.0981  -0.0550   5.00    0.0
2018/11/14 01:28:30.000  -74.407223538  163.437618685    79.7789   6   9   0.0515   0.0533   0.2144   0.0213  -0.0857  -0.0476   5.00    0.0
2018/11/14 01:28:45.000  -74.407223528  163.437618384    79.8121   6   9   0.0450   0.0464   0.1844   0.0183  -0.0734  -0.0402   5.00    0.0
2018/11/14 01:29:00.000  -74.407223669  163.437617846    79.9035   6   9   0.0386   0.0396   0.1552   0.0154  -0.0613  -0.0330   5.00    0.0
2018/11/14 01:29:15.000  -74.407223819  163.437617880    79.9055   6   9   0.0325   0.0332   0.1271   0.0126  -0.0495  -0.0263   5.00    0.0
2018/11/14 01:29:30.000  -74.407223998  163.437617578    79.9548   1   9   0.0302   0.0305   0.1275   0.0124  -0.0507  -0.0348   6.00    2.0
2018/11/14 01:29:45.000  -74.407224046  163.437617836    79.9296   1   9   0.0232   0.0228   0.0948   0.0088  -0.0369  -0.0278   6.00    2.0
2018/11/14 01:30:00.000  -74.407224033  163.437618235    79.8985   1   9   0.0194   0.0187   0.0778   0.0067  -0.0296  -0.0241   6.00    2.0
2018/11/14 01:30:15.000  -74.407223961  163.437618362    79.9103   1   9   0.0234   0.0228   0.0960   0.0088  -0.0371  -0.0285   6.00    2.0
2018/11/14 01:30:30.000  -74.407224023  163.437618279    79.9689   1   9   0.0305   0.0307   0.1296   0.0127  -0.0513  -0.0361   6.00    2.0
2018/11/14 01:30:45.000  -74.407223928  163.437618308    79.9074   6   9   0.0324   0.0334   0.1287   0.0131  -0.0503  -0.0273   5.00    0.0
2018/11/14 01:31:00.000  -74.407223927  163.437618435    79.8803   6   9   0.0385   0.0401   0.1573   0.0161  -0.0627  -0.0343   5.00    0.0
2018/11/14 01:31:15.000  -74.407223926  163.437618292    79.8719   6   9   0.0449   0.0471   0.1871   0.0193  -0.0755  -0.0417   5.00    0.0
2018/11/14 01:31:30.000  -74.407224030  163.437617749    79.8935   6   9   0.0514   0.0543   0.2177   0.0226  -0.0886  -0.0493   5.00    0.0
2018/11/14 01:31:45.000  -74.407223990  163.437617708    79.9158   6   9   0.0581   0.0617   0.2488   0.0260  -0.1019  -0.0570   5.00    0.0
2018/11/14 01:32:00.000  -74.407223957  163.437618261    79.8574   6   9   0.0649   0.0692   0.2802   0.0294  -0.1153  -0.0648   5.00    0.0
2018/11/14 01:32:15.000  -74.407224076  163.437618942    79.8025   6   9   0.0717   0.0768   0.3118   0.0328  -0.1287  -0.0726   5.00    0.0
2018/11/14 01:32:30.000  -74.407224146  163.437618747    79.8218   6   9   0.0787   0.0845   0.3435   0.0363  -0.1423  -0.0804   5.00    0.0
2018/11/14 01:32:45.000  -74.407224221  163.437617960    79.9193   6   9   0.0719   0.0770   0.3120   0.0329  -0.1291  -0.0727   5.00    0.0
2018/11/14 01:33:00.000  -74.407224167  163.437617809    79.9060   6   9   0.0651   0.0696   0.2806   0.0297  -0.1160  -0.0651   5.00    0.0
2018/11/14 01:33:15.000  -74.407224065  163.437618211    79.8797   6   9   0.0583   0.0622   0.2494   0.0265  -0.1029  -0.0575   5.00    0.0
2018/11/14 01:33:30.000  -74.407223891  163.437618291    79.8284   6   9   0.0517   0.0549   0.2187   0.0233  -0.0899  -0.0500   5.00    0.0
2018/11/14 01:33:45.000  -74.407223866  163.437618367    79.8029   6   9   0.0452   0.0477   0.1886   0.0201  -0.0770  -0.0428   5.00    0.0
2018/11/14 01:34:00.000  -74.407223715  163.437618834    79.7507   6   9   0.0388   0.0407   0.1594   0.0170  -0.0644  -0.0358   5.00    0.0
2018/11/14 01:34:15.000  -74.407223725  163.437618777    79.7622   6   9   0.0328   0.0340   0.1317   0.0141  -0.0522  -0.0295   5.00    0.0
2018/11/14 01:34:30.000  -74.407224019  163.437618480    79.8591   1   9   0.0315   0.0316   0.1356   0.0142  -0.0540  -0.0397   5.00    2.0
2018/11/14 01:34:45.000  -74.407224089  163.437618043    79.9080   1   9   0.0246   0.0236   0.1041   0.0105  -0.0399  -0.0330   5.00    2.0
2018/11/14 01:35:00.000  -74.407224138  163.437617974    79.9211   1   9   0.0209   0.0192   0.0883   0.0083  -0.0323  -0.0296   5.00    2.0
2018/11/14 01:35:15.000  -74.407224201  163.437617400    79.9728   1   9   0.0255   0.0238   0.1093   0.0112  -0.0408  -0.0364   5.00    2.0
2018/11/14 01:35:30.000  -74.407223867  163.437617797    79.8073   6   9   0.0279   0.0279   0.1110   0.0121  -0.0415  -0.0282   5.00    0.0
2018/11/14 01:35:45.000  -74.407223767  163.437617965    79.7886   6   9   0.0338   0.0342   0.1381   0.0151  -0.0534  -0.0355   5.00    0.0
2018/11/14 01:36:00.000  -74.407223825  163.437617889    79.8140   6   9   0.0402   0.0410   0.1674   0.0184  -0.0661  -0.0434   5.00    0.0
2018/11/14 01:36:15.000  -74.407223898  163.437617913    79.8492   6   9   0.0468   0.0482   0.1982   0.0219  -0.0792  -0.0518   5.00    0.0
2018/11/14 01:36:30.000  -74.407224005  163.437618248    79.8596   6   9   0.0537   0.0557   0.2300   0.0256  -0.0927  -0.0606   5.00    0.0
2018/11/14 01:36:45.000  -74.407223989  163.437618155    79.8280   6   9   0.0609   0.0632   0.2628   0.0294  -0.1065  -0.0699   5.00    0.0
2018/11/14 01:37:00.000  -74.407223890  163.437618162    79.7993   6   9   0.0682   0.0710   0.2966   0.0334  -0.1205  -0.0799   5.00    0.0
2018/11/14 01:37:15.000  -74.407223807  163.437618218    79.7758   6   9   0.0759   0.0788   0.3320   0.0375  -0.1348  -0.0909   5.00    0.0
2018/11/14 01:37:30.000  -74.407223826  163.437617733    79.7777   6   9   0.0840   0.0867   0.3700   0.0421  -0.1497  -0.1036   5.00    0.0
2018/11/14 01:37:45.000  -74.407223599  163.437618272    79.7025   6   9   0.0793   0.0793   0.3525   0.0404  -0.1388  -0.1050   5.00    0.0
2018/11/14 01:38:00.000  -74.407223771  163.437618270    79.7294   6   8   0.0883   0.0752   0.4156   0.0501  -0.1473  -0.1508   5.00    0.0
2018/11/14 01:38:15.000  -74.407223749  163.437618710    79.6678   6   8   0.0788   0.0672   0.3693   0.0448  -0.1310  -0.1339   5.00    0.0
2018/11/14 01:38:30.000  -74.407223817  163.437618071    79.8794   6   9   0.0519   0.0546   0.2270   0.0220  -0.0884  -0.0556   5.00    0.0
2018/11/14 01:38:45.000  -74.407223759  163.437617771    79.9076   6   9   0.0445   0.0473   0.1915   0.0184  -0.0749  -0.0440   5.00    0.0
2018/11/14 01:39:00.000  -74.407223788  163.437617699    79.9193   6   9   0.0380   0.0404   0.1613   0.0156  -0.0628  -0.0361   5.00    0.0
2018/11/14 01:39:15.000  -74.407223840  163.437617545    79.9302   6   9   0.0321   0.0339   0.1342   0.0134  -0.0515  -0.0301   5.00    0.0
2018/11/14 01:39:30.000  -74.407224094  163.437617033    80.0430   1   9   0.0302   0.0328   0.1314   0.0110  -0.0514  -0.0354   5.00    1.0
2018/11/14 01:39:45.000  -74.407224152  163.437617243    80.0089   1   9   0.0243   0.0257   0.1059   0.0090  -0.0398  -0.0330   5.00    1.0
2018/11/14 01:40:00.000  -74.407224155  163.437617890    79.9024   1   9   0.0213   0.0221   0.0937   0.0078  -0.0337  -0.0318   5.00    1.0
2018/11/14 01:40:15.000  -74.407224168  163.437618060    79.8796   1   9   0.0260   0.0261   0.1150   0.0111  -0.0423  -0.0387   5.00    1.0
2018/11/14 01:40:30.000  -74.407223755  163.437618200    79.7978   6   9   0.0277   0.0281   0.1136   0.0128  -0.0422  -0.0299   5.00    0.0
2018/11/14 01:40:45.000  -74.407223707  163.437618339    79.7910   6   9   0.0332   0.0342   0.1377   0.0151  -0.0528  -0.0352   5.00    0.0
2018/11/14 01:41:00.000  -74.407223629  163.437618703    79.7520   6   9   0.0390   0.0407   0.1640   0.0175  -0.0641  -0.0409   5.00    0.0
2018/11/14 01:41:15.000  -74.407223616  163.437618489    79.7602   6   9   0.0450   0.0477   0.1922   0.0202  -0.0760  -0.0472   5.00    0.0
2018/11/14 01:41:30.000  -74.407223554  163.437618559    79.7495   6   9   0.0514   0.0548   0.2219   0.0231  -0.0884  -0.0542   5.00    0.0
2018/11/14 01:41:45.000  -74.407223544  163.437618676    79.7349   6   9   0.0580   0.0621   0.2531   0.0262  -0.1012  -0.0621   5.00    0.0
2018/11/14 01:42:00.000  -74.407223621  163.437618835    79.7328   6   9   0.0649   0.0697   0.2859   0.0296  -0.1144  -0.0710   5.00    1.0
2018/11/14 01:42:15.000  -74.407223589  163.437619190    79.7024   6   9   0.0722   0.0773   0.3206   0.0335  -0.1282  -0.0814   5.00    1.0
2018/11/14 01:42:30.000  -74.407223735  163.437618482    79.7798   6   9   0.0802   0.0852   0.3583   0.0380  -0.1428  -0.0941   5.00    1.0
2018/11/14 01:42:45.000  -74.407223684  163.437617813    79.7798   6   9   0.0767   0.0787   0.3430   0.0383  -0.1346  -0.0984   5.00    1.0
2018/11/14 01:43:00.000  -74.407224072  163.437616549    79.9970   6   9   0.0673   0.0709   0.3049   0.0333  -0.1200  -0.0831   5.00    1.0
2018/11/14 01:43:15.000  -74.407224056  163.437616238    80.0325   6   9   0.0588   0.0631   0.2637   0.0284  -0.1047  -0.0681   5.00    1.0
2018/11/14 01:43:30.000  -74.407223910  163.437616249    80.0068   6   9   0.0514   0.0556   0.2283   0.0246  -0.0909  -0.0570   5.00    1.0
2018/11/14 01:43:45.000  -74.407223843  163.437616740    79.9396   6   9   0.0445   0.0483   0.1959   0.0213  -0.0778  -0.0479   5.00    1.0
2018/11/14 01:44:00.000  -74.407223874  163.437617333    79.8899   6   9   0.0381   0.0413   0.1654   0.0181  -0.0653  -0.0398   5.00    1.0
2018/11/14 01:44:15.000  -74.407223905  163.437617169    79.8809   6   9   0.0320   0.0346   0.1369   0.0152  -0.0532  -0.0325   5.00    1.0
2018/11/14 01:44:30.000  -74.407223912  163.437617413    79.8505   6   9   0.0264   0.0284   0.1111   0.0125  -0.0418  -0.0261   5.00    1.0
