% program   : RTKLIB ver.2.4.3
% inp file  : _by_type/_obs/base/20181113.18o
% inp file  : _by_type/_sp3+clk/igs20272.clk
% inp file  : _by_type/_sp3+clk/igs20272.sp3
% inp file  : _by_type/_nav/base/20181113.18n
% obs start : 2018/11/13 00:00:00.0 GPST (week2027 172800.0s)
% obs end   : 2018/11/13 23:59:45.0 GPST (week2027 259185.0s)
% pos mode  : ppp-kinematic
% solution  : combined
% elev mask : 15.0 deg
% dynamics  : off
% tidecorr  : on
% tropo opt : est ztd+grad
% ephemeris : precise
% navi sys  : gps glonass
% antenna1  :                       ( 0.0000  0.0000  0.0000)
%
% (lat/lon/height=WGS84/ellipsoidal,Q=1:fix,2:float,3:sbas,4:dgps,5:single,6:ppp,ns=# of satellites)
%  GPST                  latitude(deg) longitude(deg)  height(m)   Q  ns   sdn(m)   sde(m)   sdu(m)  sdne(m)  sdeu(m)  sdun(m) age(s)  ratio
2018/11/13 00:00:00.000  -74.370509022  163.307884723  1012.4220   1  10   0.0203   0.0180   0.0677  -0.0092   0.0229  -0.0216   3.00    1.0
2018/11/13 00:00:15.000  -74.370508966  163.307884201  1012.3384   1  10   0.0237   0.0224   0.0841  -0.0122   0.0305  -0.0269   3.00    1.0
2018/11/13 00:00:30.000  -74.370508997  163.307884518  1012.3313   1  10   0.0296   0.0298   0.1114  -0.0169   0.0421  -0.0355   3.00    1.0
2018/11/13 00:00:45.000  -74.370508978  163.307883889  1012.2922   6  10   0.0372   0.0396   0.1433  -0.0229   0.0547  -0.0450   0.00    0.0
2018/11/13 00:01:00.000  -74.370508982  163.307883817  1012.3102   6  10   0.0451   0.0487   0.1774  -0.0281   0.0685  -0.0556   0.00    0.0
2018/11/13 00:01:15.000  -74.370508903  163.307883753  1012.3059   6  10   0.0534   0.0580   0.2124  -0.0333   0.0826  -0.0665   0.00    0.0
2018/11/13 00:01:30.000  -74.370508884  163.307883500  1012.2646   6  11   0.0599   0.0675   0.2364  -0.0386   0.0965  -0.0843   2.00    0.0
2018/11/13 00:01:45.000  -74.370509031  163.307883693  1012.3332   6  11   0.0680   0.0768   0.2696  -0.0438   0.1103  -0.0962   2.00    0.0
2018/11/13 00:02:00.000  -74.370509094  163.307883600  1012.3142   6  11   0.0760   0.0860   0.3024  -0.0488   0.1237  -0.1079   2.00    0.0
2018/11/13 00:02:15.000  -74.370509005  163.307883131  1012.2804   6  11   0.0839   0.0950   0.3344  -0.0537   0.1366  -0.1193   2.00    0.0
2018/11/13 00:02:30.000  -74.370508942  163.307883251  1012.2891   6  11   0.0917   0.1036   0.3655  -0.0584   0.1490  -0.1302   2.00    0.0
2018/11/13 00:02:45.000  -74.370508988  163.307883241  1012.3481   6  11   0.0834   0.0946   0.3340  -0.0534   0.1366  -0.1189   2.00    0.0
2018/11/13 00:03:00.000  -74.370509168  163.307883346  1012.3624   6  11   0.0753   0.0854   0.3019  -0.0484   0.1234  -0.1073   2.00    0.0
2018/11/13 00:03:15.000  -74.370509218  163.307883200  1012.3569   6  11   0.0673   0.0762   0.2695  -0.0433   0.1100  -0.0956   2.00    0.0
2018/11/13 00:03:30.000  -74.370509182  163.307883364  1012.3414   6  11   0.0592   0.0669   0.2370  -0.0381   0.0966  -0.0839   3.00    0.0
2018/11/13 00:03:45.000  -74.370509168  163.307883478  1012.3319   6  11   0.0513   0.0577   0.2044  -0.0330   0.0831  -0.0723   3.00    0.0
2018/11/13 00:04:00.000  -74.370509181  163.307884272  1012.3987   6  11   0.0436   0.0485   0.1722  -0.0280   0.0696  -0.0607   3.00    0.0
2018/11/13 00:04:15.000  -74.370509101  163.307883967  1012.3596   6  11   0.0362   0.0397   0.1408  -0.0231   0.0562  -0.0494   2.00    0.0
2018/11/13 00:04:30.000  -74.370509107  163.307884510  1012.3833   1  11   0.0293   0.0304   0.1127  -0.0175   0.0446  -0.0399   4.00    1.0
2018/11/13 00:04:45.000  -74.370509081  163.307884483  1012.3874   1  11   0.0237   0.0229   0.0866  -0.0129   0.0329  -0.0306   4.00    1.0
2018/11/13 00:05:00.000  -74.370509058  163.307884563  1012.4073   1  11   0.0205   0.0183   0.0707  -0.0095   0.0250  -0.0246   4.00    1.0
2018/11/13 00:05:15.000  -74.370509073  163.307884492  1012.4377   1  11   0.0238   0.0229   0.0873  -0.0131   0.0331  -0.0309   4.00    1.0
2018/11/13 00:05:30.000  -74.370509150  163.307884629  1012.4310   1  11   0.0273   0.0305   0.1141  -0.0178   0.0450  -0.0409   4.00    2.0
2018/11/13 00:05:45.000  -74.370508990  163.307883775  1012.3382   6  11   0.0360   0.0392   0.1395  -0.0226   0.0553  -0.0487   2.00    0.0
2018/11/13 00:06:00.000  -74.370509002  163.307883345  1012.3188   6  11   0.0428   0.0476   0.1685  -0.0268   0.0673  -0.0585   4.00    0.0
2018/11/13 00:06:15.000  -74.370509020  163.307883222  1012.3308   6  11   0.0498   0.0559   0.1973  -0.0308   0.0788  -0.0680   4.00    0.0
2018/11/13 00:06:30.000  -74.370509089  163.307882807  1012.3290   6  11   0.0568   0.0641   0.2254  -0.0346   0.0899  -0.0771   4.00    0.0
2018/11/13 00:06:45.000  -74.370509041  163.307882022  1012.3151   6  11   0.0637   0.0722   0.2528  -0.0383   0.1005  -0.0858   3.00    0.0
2018/11/13 00:07:00.000  -74.370509088  163.307881986  1012.3283   6  11   0.0705   0.0800   0.2796  -0.0418   0.1107  -0.0942   4.00    0.0
2018/11/13 00:07:15.000  -74.370508989  163.307881797  1012.3024   6  11   0.0771   0.0876   0.3059  -0.0452   0.1207  -0.1025   4.00    0.0
2018/11/13 00:07:30.000  -74.370508931  163.307881085  1012.3064   6  11   0.0837   0.0950   0.3318  -0.0486   0.1306  -0.1106   5.00    0.0
2018/11/13 00:07:45.000  -74.370509002  163.307881424  1012.2758   6  11   0.0767   0.0872   0.3047  -0.0448   0.1198  -0.1019   5.00    0.0
2018/11/13 00:08:00.000  -74.370509069  163.307881547  1012.2915   6  11   0.0698   0.0793   0.2783  -0.0411   0.1095  -0.0934   5.00    0.0
2018/11/13 00:08:15.000  -74.370509098  163.307882207  1012.3236   6  11   0.0629   0.0714   0.2514  -0.0375   0.0990  -0.0847   5.00    0.0
2018/11/13 00:08:30.000  -74.370509084  163.307882465  1012.3066   6  11   0.0560   0.0633   0.2239  -0.0337   0.0882  -0.0759   5.00    0.0
2018/11/13 00:08:45.000  -74.370509127  163.307883261  1012.3763   6  11   0.0490   0.0551   0.1958  -0.0299   0.0772  -0.0669   5.00    0.0
2018/11/13 00:09:00.000  -74.370509133  163.307883624  1012.4008   6  11   0.0422   0.0468   0.1673  -0.0260   0.0658  -0.0576   5.00    0.0
2018/11/13 00:09:15.000  -74.370509172  163.307883950  1012.4446   6  11   0.0356   0.0387   0.1389  -0.0220   0.0542  -0.0484   5.00    0.0
2018/11/13 00:09:30.000  -74.370509352  163.307885272  1012.5539   1  11   0.0302   0.0300   0.1167  -0.0184   0.0459  -0.0424   4.00    1.0
2018/11/13 00:09:45.000  -74.370509274  163.307885053  1012.5158   1  11   0.0250   0.0225   0.0912  -0.0142   0.0346  -0.0335   4.00    1.0
2018/11/13 00:10:00.000  -74.370509154  163.307884656  1012.4260   1  11   0.0220   0.0180   0.0761  -0.0111   0.0275  -0.0282   2.00    1.0
2018/11/13 00:10:15.000  -74.370509213  163.307884641  1012.4055   1  11   0.0258   0.0226   0.0947  -0.0149   0.0356  -0.0360   1.00    1.0
2018/11/13 00:10:30.000  -74.370509187  163.307883719  1012.3517   6  11   0.0306   0.0307   0.1144  -0.0184   0.0427  -0.0420   5.00    0.0
2018/11/13 00:10:45.000  -74.370509231  163.307883353  1012.3611   6  11   0.0368   0.0380   0.1402  -0.0218   0.0531  -0.0509   5.00    0.0
2018/11/13 00:11:00.000  -74.370509347  163.307883218  1012.3770   6  11   0.0433   0.0456   0.1660  -0.0251   0.0630  -0.0592   5.00    0.0
2018/11/13 00:11:15.000  -74.370509429  163.307882526  1012.3657   6  11   0.0499   0.0532   0.1915  -0.0282   0.0727  -0.0672   5.00    0.0
2018/11/13 00:11:30.000  -74.370509442  163.307882156  1012.3612   6  11   0.0565   0.0607   0.2169  -0.0313   0.0823  -0.0751   5.00    0.0
2018/11/13 00:11:45.000  -74.370509426  163.307881832  1012.3285   6  11   0.0630   0.0682   0.2423  -0.0345   0.0918  -0.0830   5.00    0.0
2018/11/13 00:12:00.000  -74.370509380  163.307881300  1012.2970   6  11   0.0696   0.0755   0.2678  -0.0378   0.1015  -0.0912   5.00    0.0
2018/11/13 00:12:15.000  -74.370509346  163.307880642  1012.2949   6  11   0.0761   0.0827   0.2935  -0.0412   0.1112  -0.0995   5.00    0.0
2018/11/13 00:12:30.000  -74.370509392  163.307879966  1012.2544   6  11   0.0825   0.0898   0.3193  -0.0447   0.1211  -0.1082   5.00    0.0
2018/11/13 00:12:45.000  -74.370509443  163.307879828  1012.2097   6  11   0.0776   0.0826   0.2978  -0.0417   0.1116  -0.1036   5.00    0.0
2018/11/13 00:13:00.000  -74.370509411  163.307879978  1012.2208   6  11   0.0736   0.0753   0.2800  -0.0394   0.1033  -0.1017   5.00    0.0
2018/11/13 00:13:15.000  -74.370509310  163.307880171  1012.1856   6  11   0.0725   0.0683   0.2716  -0.0388   0.0972  -0.1066   5.00    0.0
2018/11/13 00:13:30.000  -74.370509513  163.307880872  1012.2685   6  11   0.0709   0.0631   0.2718  -0.0414   0.0981  -0.1127   4.00    0.0
2018/11/13 00:13:45.000  -74.370509697  163.307881435  1012.3978   6  11   0.0518   0.0537   0.2026  -0.0303   0.0765  -0.0741   4.00    0.0
2018/11/13 00:14:00.000  -74.370509780  163.307882758  1012.4939   6  11   0.0461   0.0456   0.1776  -0.0267   0.0656  -0.0673   4.00    0.0
2018/11/13 00:14:15.000  -74.370509676  163.307883557  1012.4934   6  11   0.0434   0.0383   0.1647  -0.0253   0.0584  -0.0678   4.00    0.0
2018/11/13 00:14:30.000  -74.370509533  163.307884733  1012.5294   1  11   0.0297   0.0317   0.1183  -0.0203   0.0452  -0.0457   5.00    1.0
2018/11/13 00:14:45.000  -74.370509520  163.307884778  1012.5305   1  11   0.0244   0.0248   0.0937  -0.0169   0.0343  -0.0379   5.00    1.0
2018/11/13 00:15:00.000  -74.370509356  163.307884668  1012.4816   1  11   0.0215   0.0209   0.0794  -0.0146   0.0275  -0.0331   5.00    1.0
2018/11/13 00:15:15.000  -74.370509398  163.307884778  1012.5123   1  11   0.0258   0.0249   0.1000  -0.0178   0.0359  -0.0418   5.00    1.0
2018/11/13 00:15:30.000  -74.370509546  163.307884908  1012.5444   1  11   0.0338   0.0322   0.1338  -0.0228   0.0494  -0.0557   5.00    1.0
2018/11/13 00:15:45.000  -74.370509448  163.307883542  1012.4111   6  11   0.0374   0.0365   0.1388  -0.0204   0.0496  -0.0518   4.00    0.0
2018/11/13 00:16:00.000  -74.370509680  163.307883701  1012.4892   6  11   0.0451   0.0437   0.1669  -0.0237   0.0592  -0.0629   4.00    0.0
2018/11/13 00:16:15.000  -74.370509626  163.307883105  1012.4472   6  11   0.0549   0.0511   0.2020  -0.0282   0.0703  -0.0789   4.00    0.0
2018/11/13 00:16:30.000  -74.370509623  163.307882692  1012.4378   6  11   0.0712   0.0617   0.2731  -0.0412   0.0968  -0.1143   4.00    0.0
2018/11/13 00:16:45.000  -74.370509723  163.307881941  1012.4385   6  11   0.0614   0.0672   0.2423  -0.0353   0.0929  -0.0827   4.00    0.0
2018/11/13 00:17:00.000  -74.370509767  163.307881393  1012.3967   6  11   0.0663   0.0734   0.2585  -0.0366   0.0986  -0.0854   4.00    0.0
2018/11/13 00:17:15.000  -74.370509784  163.307881429  1012.4073   6  11   0.0716   0.0798   0.2785  -0.0388   0.1061  -0.0905   4.00    0.0
2018/11/13 00:17:30.000  -74.370509708  163.307881136  1012.3937   6  11   0.0772   0.0863   0.3000  -0.0415   0.1143  -0.0966   4.00    0.0
2018/11/13 00:17:45.000  -74.370509675  163.307881484  1012.3809   6  11   0.0708   0.0793   0.2744  -0.0377   0.1043  -0.0875   4.00    0.0
2018/11/13 00:18:00.000  -74.370509530  163.307881521  1012.3201   6  11   0.0644   0.0721   0.2484  -0.0340   0.0941  -0.0787   4.00    0.0
2018/11/13 00:18:15.000  -74.370509530  163.307881988  1012.3179   6  11   0.0580   0.0649   0.2227  -0.0304   0.0840  -0.0703   4.00    0.0
2018/11/13 00:18:30.000  -74.370509504  163.307882303  1012.2947   6  11   0.0517   0.0576   0.1974  -0.0270   0.0742  -0.0623   4.00    0.0
2018/11/13 00:18:45.000  -74.370509374  163.307882359  1012.2578   6  11   0.0454   0.0502   0.1726  -0.0238   0.0646  -0.0547   4.00    0.0
2018/11/13 00:19:00.000  -74.370509449  163.307883417  1012.3339   6  11   0.0393   0.0429   0.1485  -0.0208   0.0552  -0.0477   4.00    0.0
2018/11/13 00:19:15.000  -74.370509473  163.307883971  1012.4039   6  11   0.0336   0.0357   0.1255  -0.0181   0.0462  -0.0413   4.00    0.0
2018/11/13 00:19:30.000  -74.370509689  163.307885489  1012.5485   1  11   0.0304   0.0312   0.1194  -0.0205   0.0448  -0.0469   4.00    1.0
2018/11/13 00:19:45.000  -74.370509545  163.307885155  1012.5315   1  11   0.0252   0.0246   0.0969  -0.0175   0.0348  -0.0399   4.00    1.0
2018/11/13 00:20:00.000  -74.370509479  163.307884688  1012.5034   1  11   0.0224   0.0208   0.0832  -0.0153   0.0285  -0.0355   4.00    1.0
2018/11/13 00:20:15.000  -74.370509463  163.307884941  1012.5354   1  11   0.0274   0.0248   0.1055  -0.0186   0.0370  -0.0450   4.00    1.0
2018/11/13 00:20:30.000  -74.370509266  163.307884287  1012.4475   6  11   0.0301   0.0284   0.1089  -0.0157   0.0369  -0.0400   3.00    0.0
2018/11/13 00:20:45.000  -74.370509210  163.307883686  1012.4096   6  11   0.0369   0.0349   0.1333  -0.0182   0.0449  -0.0495   3.00    0.0
2018/11/13 00:21:00.000  -74.370509137  163.307883264  1012.3816   6  11   0.0455   0.0417   0.1640  -0.0216   0.0543  -0.0632   3.00    0.0
2018/11/13 00:21:15.000  -74.370509452  163.307883269  1012.5064   6  11   0.0630   0.0522   0.2407  -0.0355   0.0824  -0.1020   3.00    0.0
2018/11/13 00:21:30.000  -74.370509269  163.307882519  1012.4006   6  11   0.0730   0.0599   0.2801  -0.0415   0.0961  -0.1195   3.00    0.0
2018/11/13 00:21:45.000  -74.370509378  163.307882305  1012.4329   6  11   0.0605   0.0645   0.2340  -0.0336   0.0878  -0.0803   3.00    0.0
2018/11/13 00:22:00.000  -74.370509318  163.307881740  1012.3820   6  11   0.0649   0.0703   0.2476  -0.0344   0.0925  -0.0819   3.00    0.0
2018/11/13 00:22:15.000  -74.370509296  163.307881408  1012.3643   6  11   0.0699   0.0764   0.2650  -0.0362   0.0990  -0.0858   3.00    0.0
2018/11/13 00:22:30.000  -74.370509396  163.307881427  1012.3717   6  11   0.0751   0.0826   0.2841  -0.0385   0.1063  -0.0909   3.00    0.0
2018/11/13 00:22:45.000  -74.370509414  163.307882004  1012.4148   6  11   0.0687   0.0758   0.2586  -0.0348   0.0962  -0.0819   3.00    0.0
2018/11/13 00:23:00.000  -74.370509588  163.307881817  1012.4386   6  11   0.0625   0.0689   0.2336  -0.0312   0.0864  -0.0732   3.00    0.0
2018/11/13 00:23:15.000  -74.370509520  163.307881389  1012.3936   6  11   0.0563   0.0620   0.2091  -0.0277   0.0768  -0.0650   3.00    0.0
2018/11/13 00:23:30.000  -74.370509530  163.307881664  1012.3844   6  11   0.0501   0.0551   0.1851  -0.0245   0.0675  -0.0573   3.00    0.0
2018/11/13 00:23:45.000  -74.370509579  163.307882366  1012.4057   6  11   0.0441   0.0481   0.1618  -0.0214   0.0584  -0.0501   3.00    0.0
2018/11/13 00:24:00.000  -74.370509538  163.307882733  1012.4041   6  11   0.0382   0.0412   0.1393  -0.0187   0.0497  -0.0436   3.00    0.0
2018/11/13 00:24:15.000  -74.370509441  163.307883184  1012.4140   6  11   0.0326   0.0343   0.1181  -0.0162   0.0414  -0.0378   0.00    0.0
2018/11/13 00:24:30.000  -74.370509615  163.307884995  1012.5741   1  11   0.0314   0.0291   0.1162  -0.0189   0.0400  -0.0446   5.00    1.0
2018/11/13 00:24:45.000  -74.370509605  163.307885006  1012.5677   1  11   0.0266   0.0223   0.0955  -0.0160   0.0303  -0.0381   5.00    1.0
2018/11/13 00:25:00.000  -74.370509609  163.307884785  1012.5490   1  11   0.0239   0.0185   0.0828  -0.0139   0.0240  -0.0338   5.00    1.0
2018/11/13 00:25:15.000  -74.370509706  163.307884849  1012.5965   1  11   0.0288   0.0226   0.1065  -0.0171   0.0330  -0.0442   5.00    1.0
2018/11/13 00:25:30.000  -74.370509278  163.307883027  1012.3399   6  11   0.0293   0.0273   0.1040  -0.0137   0.0321  -0.0374   5.00    0.0
2018/11/13 00:25:45.000  -74.370509276  163.307883087  1012.3323   6  11   0.0368   0.0334   0.1296  -0.0162   0.0395  -0.0487   5.00    0.0
2018/11/13 00:26:00.000  -74.370509407  163.307883131  1012.4007   6  10   0.0523   0.0425   0.1971  -0.0278   0.0637  -0.0831   5.00    0.0
2018/11/13 00:26:15.000  -74.370509309  163.307882522  1012.3426   6  10   0.0622   0.0498   0.2347  -0.0333   0.0763  -0.1002   4.00    0.0
2018/11/13 00:26:30.000  -74.370509196  163.307881659  1012.2587   6  10   0.0721   0.0570   0.2726  -0.0389   0.0890  -0.1174   4.00    0.0
2018/11/13 00:26:45.000  -74.370509374  163.307881530  1012.3015   6  10   0.0820   0.0642   0.3107  -0.0446   0.1017  -0.1348   4.00    0.0
2018/11/13 00:27:00.000  -74.370509238  163.307880730  1012.2538   6  10   0.0919   0.0712   0.3487  -0.0504   0.1144  -0.1523   4.00    0.0
2018/11/13 00:27:15.000  -74.370509207  163.307880506  1012.2409   6  10   0.1017   0.0781   0.3865  -0.0561   0.1270  -0.1697   4.00    0.0
2018/11/13 00:27:30.000  -74.370509309  163.307880735  1012.2582   6  10   0.1115   0.0849   0.4240  -0.0618   0.1394  -0.1871   3.00    0.0
2018/11/13 00:27:45.000  -74.370509206  163.307881152  1012.2436   6  10   0.1016   0.0777   0.3855  -0.0556   0.1259  -0.1692   3.00    0.0
2018/11/13 00:28:00.000  -74.370509226  163.307881435  1012.2658   6  10   0.0914   0.0704   0.3460  -0.0494   0.1121  -0.1510   3.00    0.0
2018/11/13 00:28:15.000  -74.370509290  163.307882097  1012.3259   6  10   0.0813   0.0631   0.3069  -0.0433   0.0985  -0.1330   3.00    0.0
2018/11/13 00:28:30.000  -74.370509238  163.307882360  1012.2756   6  10   0.0713   0.0559   0.2683  -0.0373   0.0852  -0.1152   4.00    0.0
2018/11/13 00:28:45.000  -74.370509182  163.307882621  1012.2808   6  10   0.0613   0.0486   0.2306  -0.0315   0.0721  -0.0978   4.00    0.0
2018/11/13 00:29:00.000  -74.370509252  163.307882897  1012.3077   6  10   0.0515   0.0413   0.1941  -0.0260   0.0593  -0.0808   4.00    0.0
2018/11/13 00:29:15.000  -74.370509366  163.307883147  1012.3574   6  10   0.0420   0.0342   0.1597  -0.0208   0.0469  -0.0645   4.00    0.0
2018/11/13 00:29:30.000  -74.370509295  163.307882978  1012.3045   6  10   0.0331   0.0275   0.1296  -0.0161   0.0349  -0.0492   4.00    0.0
2018/11/13 00:29:45.000  -74.370509736  163.307884212  1012.5129   1   9   0.0292   0.0202   0.1272  -0.0159   0.0353  -0.0531   6.00    3.0
2018/11/13 00:30:00.000  -74.370509667  163.307884386  1012.5071   1   9   0.0225   0.0157   0.0959  -0.0114   0.0259  -0.0398   6.00    3.0
2018/11/13 00:30:15.000  -74.370509525  163.307883784  1012.4887   1   9   0.0289   0.0200   0.1251  -0.0155   0.0346  -0.0523   5.00    3.0
2018/11/13 00:30:30.000  -74.370509143  163.307882081  1012.3064   6   9   0.0332   0.0272   0.1301  -0.0159   0.0344  -0.0497   4.00    0.0
2018/11/13 00:30:45.000  -74.370509262  163.307881879  1012.4332   6   9   0.0422   0.0338   0.1689  -0.0203   0.0447  -0.0662   4.00    0.0
2018/11/13 00:31:00.000  -74.370509241  163.307881545  1012.4135   6   9   0.0517   0.0405   0.2100  -0.0250   0.0556  -0.0836   4.00    0.0
2018/11/13 00:31:15.000  -74.370509280  163.307881006  1012.4046   6   9   0.0615   0.0473   0.2520  -0.0298   0.0668  -0.1014   4.00    0.0
2018/11/13 00:31:30.000  -74.370509222  163.307880506  1012.3210   6   9   0.0712   0.0539   0.2943  -0.0347   0.0780  -0.1194   4.00    0.0
2018/11/13 00:31:45.000  -74.370509372  163.307880222  1012.3822   6   9   0.0810   0.0605   0.3368  -0.0397   0.0892  -0.1375   4.00    0.0
2018/11/13 00:32:00.000  -74.370509264  163.307879545  1012.2887   6   9   0.0907   0.0669   0.3792  -0.0446   0.1003  -0.1556   3.00    0.0
2018/11/13 00:32:15.000  -74.370509373  163.307879252  1012.3762   6   9   0.1003   0.0733   0.4215  -0.0495   0.1112  -0.1736   5.00    0.0
2018/11/13 00:32:30.000  -74.370509302  163.307879336  1012.2918   6  10   0.0866   0.0792   0.3344  -0.0486   0.1100  -0.1223   5.00    0.0
2018/11/13 00:32:45.000  -74.370509280  163.307879320  1012.3186   6  10   0.0774   0.0723   0.2916  -0.0427   0.0968  -0.1036   5.00    0.0
2018/11/13 00:33:00.000  -74.370509315  163.307880107  1012.3309   6  10   0.0694   0.0655   0.2578  -0.0377   0.0853  -0.0896   5.00    0.0
2018/11/13 00:33:15.000  -74.370509426  163.307880562  1012.3280   6  10   0.0619   0.0588   0.2274  -0.0330   0.0747  -0.0775   4.00    0.0
2018/11/13 00:33:30.000  -74.370509364  163.307880939  1012.3393   6  10   0.0547   0.0522   0.1989  -0.0286   0.0646  -0.0666   4.00    0.0
2018/11/13 00:33:45.000  -74.370509385  163.307881527  1012.3726   6  10   0.0477   0.0455   0.1715  -0.0245   0.0548  -0.0565   4.00    0.0
2018/11/13 00:34:00.000  -74.370509335  163.307881695  1012.3680   6  10   0.0408   0.0388   0.1452  -0.0204   0.0454  -0.0470   4.00    0.0
2018/11/13 00:34:15.000  -74.370509403  163.307882306  1012.3782   6  10   0.0341   0.0322   0.1200  -0.0166   0.0364  -0.0383   4.00    0.0
2018/11/13 00:34:30.000  -74.370509666  163.307884211  1012.5215   1  10   0.0323   0.0262   0.1194  -0.0174   0.0375  -0.0459   6.00    2.0
2018/11/13 00:34:45.000  -74.370509604  163.307884100  1012.5032   1  10   0.0261   0.0191   0.0928  -0.0129   0.0272  -0.0367   7.00    2.0
2018/11/13 00:35:00.000  -74.370509589  163.307883715  1012.4570   1  10   0.0225   0.0149   0.0763  -0.0101   0.0209  -0.0311   7.00    2.0
2018/11/13 00:35:15.000  -74.370509576  163.307883746  1012.4279   1  10   0.0267   0.0189   0.0970  -0.0128   0.0272  -0.0390   7.00    2.0
2018/11/13 00:35:30.000  -74.370509461  163.307883840  1012.3936   1  10   0.0338   0.0259   0.1290  -0.0173   0.0373  -0.0510   7.00    2.0
2018/11/13 00:35:45.000  -74.370509164  163.307882264  1012.2569   6  10   0.0338   0.0315   0.1176  -0.0147   0.0318  -0.0376   4.00    0.0
2018/11/13 00:36:00.000  -74.370509096  163.307881762  1012.2726   6  10   0.0403   0.0378   0.1415  -0.0180   0.0396  -0.0459   4.00    0.0
2018/11/13 00:36:15.000  -74.370509165  163.307881777  1012.3537   6  10   0.0469   0.0440   0.1664  -0.0215   0.0479  -0.0546   4.00    0.0
2018/11/13 00:36:30.000  -74.370509235  163.307881541  1012.3826   6  10   0.0535   0.0503   0.1917  -0.0252   0.0565  -0.0636   4.00    0.0
2018/11/13 00:36:45.000  -74.370509399  163.307881022  1012.3896   6  10   0.0601   0.0564   0.2174  -0.0290   0.0651  -0.0728   4.00    0.0
2018/11/13 00:37:00.000  -74.370509450  163.307880720  1012.3409   6  10   0.0667   0.0625   0.2433  -0.0328   0.0738  -0.0822   4.00    0.0
2018/11/13 00:37:15.000  -74.370509441  163.307880307  1012.3151   6  10   0.0733   0.0686   0.2694  -0.0367   0.0824  -0.0917   5.00    0.0
2018/11/13 00:37:30.000  -74.370509420  163.307880064  1012.3110   6  10   0.0799   0.0746   0.2956  -0.0405   0.0909  -0.1013   5.00    0.0
2018/11/13 00:37:45.000  -74.370509429  163.307880547  1012.3285   6  10   0.0736   0.0684   0.2720  -0.0362   0.0813  -0.0932   5.00    0.0
2018/11/13 00:38:00.000  -74.370509383  163.307881048  1012.3762   6  10   0.0675   0.0621   0.2492  -0.0319   0.0715  -0.0859   6.00    0.0
2018/11/13 00:38:15.000  -74.370509354  163.307881473  1012.4058   6  10   0.0619   0.0559   0.2285  -0.0273   0.0612  -0.0799   6.00    0.0
2018/11/13 00:38:30.000  -74.370509395  163.307881859  1012.4341   6  10   0.0571   0.0498   0.2128  -0.0221   0.0495  -0.0770   6.00    0.0
2018/11/13 00:38:45.000  -74.370509423  163.307881754  1012.4582   6  10   0.0565   0.0438   0.2260  -0.0213   0.0473  -0.0885   5.00    0.0
2018/11/13 00:39:00.000  -74.370509340  163.307882329  1012.4305   6  10   0.0418   0.0374   0.1556  -0.0195   0.0425  -0.0536   4.00    0.0
2018/11/13 00:39:15.000  -74.370509334  163.307882876  1012.4038   6  10   0.0344   0.0311   0.1237  -0.0150   0.0321  -0.0411   4.00    0.0
2018/11/13 00:39:30.000  -74.370509652  163.307884156  1012.5070   1  10   0.0334   0.0251   0.1275  -0.0155   0.0330  -0.0498   4.00    2.0
2018/11/13 00:39:45.000  -74.370509609  163.307883650  1012.4628   1  10   0.0283   0.0203   0.1131  -0.0113   0.0290  -0.0446   3.00    1.0
2018/11/13 00:40:00.000  -74.370509366  163.307882491  1012.3241   6  10   0.0196   0.0177   0.0622  -0.0073   0.0143  -0.0175   4.00    0.0
2018/11/13 00:40:15.000  -74.370509460  163.307882504  1012.4157   6  10   0.0223   0.0201   0.0739  -0.0081   0.0158  -0.0222   4.00    0.0
2018/11/13 00:40:30.000  -74.370509459  163.307882085  1012.4450   6  10   0.0278   0.0250   0.0957  -0.0097   0.0194  -0.0309   4.00    0.0
2018/11/13 00:40:45.000  -74.370509403  163.307881292  1012.4058   6  10   0.0350   0.0308   0.1247  -0.0109   0.0230  -0.0432   4.00    0.0
2018/11/13 00:41:00.000  -74.370509339  163.307881097  1012.3370   6  10   0.0402   0.0365   0.1476  -0.0184   0.0401  -0.0491   3.00    0.0
2018/11/13 00:41:15.000  -74.370509339  163.307880372  1012.3087   6  10   0.0459   0.0423   0.1666  -0.0208   0.0457  -0.0545   3.00    0.0
2018/11/13 00:41:30.000  -74.370509332  163.307880407  1012.3532   6  10   0.0520   0.0481   0.1890  -0.0238   0.0525  -0.0619   3.00    0.0
2018/11/13 00:41:45.000  -74.370509390  163.307880521  1012.3716   6  10   0.0583   0.0539   0.2128  -0.0270   0.0597  -0.0701   3.00    0.0
2018/11/13 00:42:00.000  -74.370509425  163.307880523  1012.3983   6  10   0.0646   0.0597   0.2374  -0.0304   0.0671  -0.0787   3.00    0.0
2018/11/13 00:42:15.000  -74.370509421  163.307880694  1012.4030   6  10   0.0710   0.0655   0.2625  -0.0338   0.0745  -0.0876   4.00    0.0
2018/11/13 00:42:30.000  -74.370509422  163.307881013  1012.4016   6  10   0.0774   0.0713   0.2878  -0.0372   0.0819  -0.0966   4.00    0.0
2018/11/13 00:42:45.000  -74.370509430  163.307880956  1012.4098   6  10   0.0709   0.0653   0.2628  -0.0334   0.0734  -0.0873   4.00    0.0
2018/11/13 00:43:00.000  -74.370509443  163.307880956  1012.4147   6  10   0.0643   0.0593   0.2368  -0.0297   0.0651  -0.0778   4.00    0.0
2018/11/13 00:43:15.000  -74.370509446  163.307881205  1012.5098   6  10   0.0578   0.0533   0.2107  -0.0260   0.0568  -0.0683   4.00    0.0
2018/11/13 00:43:30.000  -74.370509475  163.307881318  1012.5612   6  10   0.0513   0.0474   0.1849  -0.0225   0.0487  -0.0589   4.00    0.0
2018/11/13 00:43:45.000  -74.370509524  163.307881716  1012.5154   6  10   0.0447   0.0415   0.1592  -0.0190   0.0408  -0.0496   4.00    0.0
2018/11/13 00:44:00.000  -74.370509516  163.307882014  1012.4609   6  10   0.0383   0.0356   0.1339  -0.0158   0.0332  -0.0405   4.00    0.0
2018/11/13 00:44:15.000  -74.370509533  163.307882382  1012.4237   6  10   0.0320   0.0297   0.1094  -0.0128   0.0260  -0.0318   5.00    0.0
2018/11/13 00:44:30.000  -74.370509701  163.307883731  1012.4482   1  10   0.0290   0.0242   0.1106  -0.0125   0.0279  -0.0394   3.00    2.0
2018/11/13 00:44:45.000  -74.370509623  163.307883454  1012.4331   1  10   0.0223   0.0177   0.0823  -0.0078   0.0190  -0.0299   3.00    2.0
2018/11/13 00:45:00.000  -74.370509551  163.307883081  1012.3801   1  10   0.0186   0.0140   0.0644  -0.0041   0.0137  -0.0242   3.00    2.0
2018/11/13 00:45:15.000  -74.370509618  163.307883059  1012.3900   1  10   0.0221   0.0176   0.0815  -0.0076   0.0186  -0.0295   3.00    2.0
2018/11/13 00:45:30.000  -74.370509520  163.307882128  1012.3120   6  10   0.0257   0.0239   0.0834  -0.0095   0.0182  -0.0220   5.00    0.0
2018/11/13 00:45:45.000  -74.370509513  163.307881647  1012.3711   6  10   0.0314   0.0292   0.1056  -0.0119   0.0241  -0.0299   5.00    0.0
2018/11/13 00:46:00.000  -74.370509482  163.307881261  1012.3811   6  10   0.0375   0.0348   0.1293  -0.0146   0.0306  -0.0384   5.00    0.0
2018/11/13 00:46:15.000  -74.370509480  163.307881205  1012.4796   6  10   0.0437   0.0404   0.1539  -0.0174   0.0372  -0.0472   5.00    0.0
2018/11/13 00:46:30.000  -74.370509479  163.307880514  1012.4902   6  10   0.0501   0.0460   0.1789  -0.0204   0.0438  -0.0561   5.00    0.0
2018/11/13 00:46:45.000  -74.370509468  163.307880297  1012.4660   6  10   0.0564   0.0515   0.2041  -0.0235   0.0504  -0.0652   5.00    0.0
2018/11/13 00:47:00.000  -74.370509346  163.307879845  1012.3707   6  10   0.0628   0.0571   0.2295  -0.0266   0.0569  -0.0743   6.00    0.0
2018/11/13 00:47:15.000  -74.370509263  163.307879948  1012.3431   6  10   0.0692   0.0626   0.2549  -0.0297   0.0632  -0.0834   6.00    0.0
2018/11/13 00:47:30.000  -74.370509180  163.307880062  1012.3050   6  10   0.0757   0.0681   0.2803  -0.0328   0.0694  -0.0924   6.00    0.0
2018/11/13 00:47:45.000  -74.370509316  163.307880150  1012.2916   6  10   0.0693   0.0625   0.2544  -0.0292   0.0619  -0.0831   6.00    0.0
2018/11/13 00:48:00.000  -74.370509359  163.307880015  1012.2682   6  10   0.0628   0.0568   0.2284  -0.0258   0.0545  -0.0738   6.00    0.0
2018/11/13 00:48:15.000  -74.370509343  163.307880036  1012.2576   6  10   0.0563   0.0511   0.2026  -0.0224   0.0472  -0.0645   6.00    0.0
2018/11/13 00:48:30.000  -74.370509357  163.307880053  1012.2226   6  10   0.0499   0.0455   0.1770  -0.0192   0.0401  -0.0552   6.00    0.0
2018/11/13 00:48:45.000  -74.370509335  163.307880118  1012.1894   6  10   0.0435   0.0398   0.1518  -0.0161   0.0332  -0.0460   6.00    0.0
2018/11/13 00:49:00.000  -74.370509390  163.307880772  1012.2007   6  10   0.0372   0.0343   0.1270  -0.0132   0.0265  -0.0371   6.00    0.0
2018/11/13 00:49:15.000  -74.370509665  163.307882754  1012.3093   1  10   0.0378   0.0317   0.1390  -0.0172   0.0295  -0.0469   2.00    1.0
2018/11/13 00:49:30.000  -74.370509673  163.307882650  1012.3195   1  10   0.0302   0.0245   0.1066  -0.0134   0.0203  -0.0355   2.00    1.0
2018/11/13 00:49:45.000  -74.370509650  163.307882669  1012.3570   1  10   0.0240   0.0186   0.0786  -0.0104   0.0115  -0.0256   2.00    1.0
2018/11/13 00:50:00.000  -74.370509660  163.307882898  1012.3686   1  10   0.0209   0.0155   0.0614  -0.0088   0.0051  -0.0197   2.00    1.0
2018/11/13 00:50:15.000  -74.370509409  163.307881813  1012.2889   6  10   0.0206   0.0190   0.0608  -0.0063   0.0098  -0.0125   6.00    0.0
2018/11/13 00:50:30.000  -74.370509366  163.307881745  1012.3019   6  10   0.0252   0.0232   0.0794  -0.0079   0.0138  -0.0198   6.00    0.0
2018/11/13 00:50:45.000  -74.370509331  163.307881516  1012.2911   6  10   0.0308   0.0283   0.1012  -0.0098   0.0187  -0.0278   6.00    0.0
2018/11/13 00:51:00.000  -74.370509316  163.307881293  1012.3055   6  10   0.0367   0.0336   0.1246  -0.0121   0.0240  -0.0362   6.00    0.0
2018/11/13 00:51:15.000  -74.370509300  163.307881166  1012.3583   6  10   0.0429   0.0389   0.1486  -0.0145   0.0293  -0.0448   6.00    0.0
2018/11/13 00:51:30.000  -74.370509263  163.307881224  1012.3677   6  10   0.0491   0.0442   0.1730  -0.0171   0.0346  -0.0535   6.00    0.0
2018/11/13 00:51:45.000  -74.370509229  163.307881320  1012.3600   6  10   0.0553   0.0496   0.1976  -0.0198   0.0398  -0.0623   6.00    0.0
2018/11/13 00:52:00.000  -74.370509227  163.307880902  1012.3690   6  10   0.0616   0.0549   0.2223  -0.0225   0.0448  -0.0710   6.00    0.0
2018/11/13 00:52:15.000  -74.370509208  163.307880644  1012.3501   6  10   0.0680   0.0603   0.2469  -0.0252   0.0497  -0.0797   6.00    0.0
2018/11/13 00:52:30.000  -74.370509209  163.307879988  1012.3218   6  10   0.0743   0.0657   0.2715  -0.0279   0.0543  -0.0883   6.00    0.0
2018/11/13 00:52:45.000  -74.370509201  163.307879567  1012.2857   6  10   0.0681   0.0603   0.2469  -0.0251   0.0487  -0.0796   6.00    0.0
2018/11/13 00:53:00.000  -74.370509219  163.307879587  1012.3280   6  10   0.0617   0.0548   0.2215  -0.0220   0.0427  -0.0706   6.00    0.0
2018/11/13 00:53:15.000  -74.370509187  163.307879793  1012.3066   6  11   0.0486   0.0480   0.1696  -0.0073   0.0139  -0.0343   6.00    0.0
2018/11/13 00:53:30.000  -74.370509148  163.307879707  1012.2923   6  11   0.0426   0.0427   0.1448  -0.0021  -0.0040  -0.0237   6.00    0.0
2018/11/13 00:53:45.000  -74.370509201  163.307880097  1012.2699   6  11   0.0372   0.0375   0.1237   0.0030  -0.0088  -0.0165   6.00    0.0
2018/11/13 00:54:00.000  -74.370509368  163.307881652  1012.2670   1  11   0.0367   0.0375   0.1354  -0.0025   0.0043  -0.0253   3.00    1.0
2018/11/13 00:54:15.000  -74.370509397  163.307881823  1012.2813   1  11   0.0301   0.0306   0.1107   0.0018   0.0091  -0.0223   3.00    1.0
2018/11/13 00:54:30.000  -74.370508934  163.307877443  1012.2255   1  11   0.0427   0.0357   0.1110  -0.0274  -0.0388   0.0305   6.00    1.0
2018/11/13 00:54:45.000  -74.370509332  163.307881412  1012.2329   6  11   0.0192   0.0186   0.0539  -0.0030  -0.0047   0.0071   6.00    0.0
2018/11/13 00:55:00.000  -74.370509297  163.307881700  1012.2319   6  11   0.0170   0.0163   0.0449  -0.0029  -0.0032   0.0078   6.00    0.0
2018/11/13 00:55:15.000  -74.370509245  163.307881605  1012.2426   6  11   0.0190   0.0185   0.0530  -0.0030  -0.0058   0.0081   6.00    0.0
2018/11/13 00:55:30.000  -74.370509207  163.307881697  1012.2476   6  11   0.0225   0.0224   0.0664   0.0003  -0.0087   0.0081   6.00    0.0
2018/11/13 00:55:45.000  -74.370509180  163.307881233  1012.2526   6  11   0.0268   0.0270   0.0824   0.0040  -0.0114   0.0076   6.00    0.0
2018/11/13 00:56:00.000  -74.370509457  163.307882224  1012.2923   1  11   0.0363   0.0379   0.1353  -0.0083  -0.0151  -0.0267   2.00    1.0
2018/11/13 00:56:15.000  -74.370509104  163.307880705  1012.2330   6  11   0.0361   0.0367   0.1181   0.0070  -0.0168  -0.0066   6.00    0.0
2018/11/13 00:56:30.000  -74.370509067  163.307880667  1012.2261   6  11   0.0409   0.0417   0.1368   0.0079  -0.0196  -0.0120   0.00    0.0
2018/11/13 00:56:45.000  -74.370509069  163.307880889  1012.2132   6  11   0.0458   0.0467   0.1559   0.0087  -0.0226  -0.0167   0.00    0.0
2018/11/13 00:57:00.000  -74.370509223  163.307881027  1012.2258   6  11   0.0507   0.0517   0.1753   0.0092  -0.0256  -0.0213   0.00    0.0
2018/11/13 00:57:15.000  -74.370509271  163.307881038  1012.2237   6  12   0.0546   0.0546   0.1879  -0.0090  -0.0405  -0.0352   1.00    0.0
2018/11/13 00:57:30.000  -74.370509272  163.307881207  1012.2728   6  12   0.0594   0.0592   0.2046  -0.0112  -0.0469  -0.0410   3.00    0.0
2018/11/13 00:57:45.000  -74.370509245  163.307881128  1012.3109   6  12   0.0543   0.0542   0.1857  -0.0096  -0.0434  -0.0365   3.00    0.0
2018/11/13 00:58:00.000  -74.370509208  163.307881305  1012.3489   6  12   0.0494   0.0493   0.1673  -0.0082  -0.0395  -0.0320   3.00    0.0
2018/11/13 00:58:15.000  -74.370509226  163.307880912  1012.3425   6  12   0.0446   0.0445   0.1491  -0.0069  -0.0355  -0.0274   3.00    0.0
2018/11/13 00:58:30.000  -74.370509268  163.307881178  1012.3387   6  12   0.0398   0.0397   0.1311  -0.0057  -0.0314  -0.0227   3.00    0.0
2018/11/13 00:58:45.000  -74.370509314  163.307881234  1012.3088   6  12   0.0350   0.0350   0.1132  -0.0049  -0.0273  -0.0178   3.00    0.0
2018/11/13 00:59:00.000  -74.370509701  163.307882222  1012.2885   1  12   0.0354   0.0359   0.1294  -0.0115  -0.0297  -0.0319   3.00    1.0
2018/11/13 00:59:15.000  -74.370509403  163.307881278  1012.2322   6  12   0.0259   0.0257   0.0790  -0.0042  -0.0189  -0.0073   3.00    0.0
2018/11/13 00:59:30.000  -74.370509427  163.307881519  1012.2120   6  12   0.0217   0.0214   0.0634  -0.0041  -0.0147   0.0043   3.00    0.0
2018/11/13 00:59:45.000  -74.370509344  163.307881835  1012.2034   6  12   0.0185   0.0178   0.0502  -0.0041  -0.0109   0.0076   3.00    0.0
2018/11/13 01:00:00.000  -74.370509302  163.307881681  1012.2055   6  12   0.0168   0.0159   0.0423  -0.0034  -0.0082   0.0085   2.00    0.0
2018/11/13 01:00:15.000  -74.370509436  163.307882284  1012.2505   1  12   0.0177   0.0194   0.0631  -0.0054  -0.0095  -0.0186   4.00    1.0
2018/11/13 01:00:30.000  -74.370509440  163.307882109  1012.2611   1  12   0.0226   0.0239   0.0824  -0.0065  -0.0162  -0.0222   4.00    1.0
2018/11/13 01:00:45.000  -74.370509386  163.307882271  1012.2725   1  12   0.0285   0.0296   0.1054  -0.0081  -0.0232  -0.0269   4.00    1.0
2018/11/13 01:01:00.000  -74.370509345  163.307882121  1012.2246   1  12   0.0351   0.0359   0.1303  -0.0097  -0.0303  -0.0324   4.00    1.0
2018/11/13 01:01:15.000  -74.370508939  163.307880451  1012.2086   6  12   0.0347   0.0344   0.1137  -0.0033  -0.0284  -0.0188   2.00    0.0
2018/11/13 01:01:30.000  -74.370508859  163.307880232  1012.2122   6  12   0.0394   0.0391   0.1322  -0.0041  -0.0331  -0.0241   2.00    0.0
2018/11/13 01:01:45.000  -74.370508867  163.307880206  1012.2476   6  12   0.0442   0.0438   0.1510  -0.0053  -0.0380  -0.0294   2.00    0.0
2018/11/13 01:02:00.000  -74.370508813  163.307880199  1012.2239   6  12   0.0491   0.0485   0.1700  -0.0066  -0.0428  -0.0346   2.00    0.0
2018/11/13 01:02:15.000  -74.370508781  163.307880144  1012.1944   6  12   0.0540   0.0534   0.1893  -0.0080  -0.0478  -0.0398   2.00    0.0
2018/11/13 01:02:30.000  -74.370508803  163.307879977  1012.1945   6  12   0.0589   0.0582   0.2086  -0.0094  -0.0528  -0.0450   2.00    0.0
2018/11/13 01:02:45.000  -74.370508966  163.307880233  1012.1942   6  12   0.0541   0.0533   0.1895  -0.0077  -0.0481  -0.0401   2.00    0.0
2018/11/13 01:03:00.000  -74.370509110  163.307880331  1012.2153   6  12   0.0492   0.0485   0.1706  -0.0060  -0.0435  -0.0351   2.00    0.0
2018/11/13 01:03:15.000  -74.370509094  163.307880374  1012.2511   6  12   0.0443   0.0437   0.1518  -0.0044  -0.0388  -0.0300   2.00    0.0
2018/11/13 01:03:30.000  -74.370509069  163.307880490  1012.2414   6  12   0.0395   0.0390   0.1331  -0.0029  -0.0341  -0.0249   3.00    0.0
2018/11/13 01:03:45.000  -74.370509107  163.307880791  1012.2636   6  12   0.0348   0.0343   0.1146  -0.0017  -0.0295  -0.0196   3.00    0.0
2018/11/13 01:04:00.000  -74.370509436  163.307882162  1012.2735   1  12   0.0353   0.0359   0.1314  -0.0090  -0.0321  -0.0329   4.00    1.0
2018/11/13 01:04:15.000  -74.370509480  163.307882637  1012.2777   1  12   0.0286   0.0296   0.1060  -0.0075  -0.0252  -0.0271   4.00    1.0
2018/11/13 01:04:30.000  -74.370509491  163.307882476  1012.2728   1  12   0.0226   0.0239   0.0822  -0.0063  -0.0184  -0.0219   4.00    1.0
2018/11/13 01:04:45.000  -74.370509462  163.307882262  1012.2679   1  12   0.0177   0.0193   0.0621  -0.0054  -0.0124  -0.0179   4.00    1.0
2018/11/13 01:05:00.000  -74.370509516  163.307882178  1012.2474   1  12   0.0152   0.0172   0.0502  -0.0056  -0.0079  -0.0161   4.00    1.0
2018/11/13 01:05:15.000  -74.370509531  163.307882532  1012.2431   1  12   0.0175   0.0194   0.0619  -0.0052  -0.0127  -0.0177   4.00    1.0
2018/11/13 01:05:30.000  -74.370509254  163.307881647  1012.1524   6  12   0.0215   0.0209   0.0625  -0.0020  -0.0163   0.0048   4.00    0.0
2018/11/13 01:05:45.000  -74.370509148  163.307881182  1012.1840   6  12   0.0255   0.0249   0.0788   0.0007  -0.0207  -0.0082   4.00    0.0
2018/11/13 01:06:00.000  -74.370509103  163.307880850  1012.1776   6  12   0.0299   0.0293   0.0966   0.0021  -0.0253  -0.0145   4.00    0.0
2018/11/13 01:06:15.000  -74.370509063  163.307880636  1012.2118   6  12   0.0345   0.0338   0.1151   0.0025  -0.0302  -0.0202   4.00    0.0
2018/11/13 01:06:30.000  -74.370509008  163.307880648  1012.2180   6  12   0.0392   0.0385   0.1340   0.0021  -0.0351  -0.0257   4.00    0.0
2018/11/13 01:06:45.000  -74.370508996  163.307880303  1012.2432   6  12   0.0441   0.0432   0.1532  -0.0012  -0.0402  -0.0311   4.00    0.0
2018/11/13 01:07:00.000  -74.370508934  163.307880509  1012.3245   6  12   0.0489   0.0480   0.1727  -0.0033  -0.0453  -0.0364   4.00    0.0
2018/11/13 01:07:15.000  -74.370508870  163.307880121  1012.3675   6  12   0.0539   0.0528   0.1922  -0.0049  -0.0505  -0.0417   4.00    0.0
2018/11/13 01:07:30.000  -74.370508833  163.307880248  1012.3869   6  12   0.0588   0.0577   0.2117  -0.0063  -0.0557  -0.0470   5.00    1.0
2018/11/13 01:07:45.000  -74.370508847  163.307880421  1012.3605   6  12   0.0538   0.0528   0.1927  -0.0035  -0.0506  -0.0419   5.00    1.0
2018/11/13 01:08:00.000  -74.370508907  163.307880566  1012.3707   6  12   0.0489   0.0480   0.1733   0.0014  -0.0456  -0.0367   5.00    1.0
2018/11/13 01:08:15.000  -74.370508938  163.307880462  1012.3483   6  12   0.0440   0.0432   0.1540   0.0034  -0.0406  -0.0314   5.00    1.0
2018/11/13 01:08:30.000  -74.370508999  163.307880699  1012.2642   6  12   0.0392   0.0385   0.1348   0.0042  -0.0357  -0.0261   4.00    1.0
2018/11/13 01:08:45.000  -74.370509029  163.307880969  1012.2056   6  12   0.0344   0.0338   0.1158   0.0043  -0.0308  -0.0206   4.00    1.0
2018/11/13 01:09:00.000  -74.370509068  163.307881106  1012.1701   6  12   0.0298   0.0293   0.0973   0.0039  -0.0260  -0.0149   4.00    1.0
2018/11/13 01:09:15.000  -74.370508312  163.307880048  1012.1807   1  12   0.0469   0.0337   0.1195   0.0015  -0.0226   0.0350   4.00    1.0
2018/11/13 01:09:30.000  -74.370508350  163.307880183  1012.1807   1  12   0.0433   0.0288   0.0984   0.0037  -0.0139   0.0384   4.00    1.0
2018/11/13 01:09:45.000  -74.370508344  163.307879838  1012.2007   1  12   0.0407   0.0251   0.0818   0.0045   0.0033   0.0403   4.00    1.0
2018/11/13 01:10:00.000  -74.370508327  163.307879722  1012.2109   1  12   0.0394   0.0236   0.0727   0.0055   0.0100   0.0409   4.00    1.0
2018/11/13 01:10:15.000  -74.370508347  163.307879937  1012.2048   1  12   0.0401   0.0250   0.0812   0.0045   0.0012   0.0397   4.00    1.0
2018/11/13 01:10:30.000  -74.370508341  163.307879860  1012.2101   1  12   0.0424   0.0287   0.0976   0.0044  -0.0145   0.0374   4.00    1.0
2018/11/13 01:10:45.000  -74.370508354  163.307879756  1012.2225   1  12   0.0458   0.0336   0.1187   0.0034  -0.0233   0.0335   4.00    1.0
2018/11/13 01:11:00.000  -74.370509204  163.307880728  1012.1866   6  12   0.0296   0.0289   0.0970   0.0044  -0.0263  -0.0152   4.00    1.0
2018/11/13 01:11:15.000  -74.370509238  163.307880722  1012.1729   6  12   0.0342   0.0334   0.1155   0.0049  -0.0312  -0.0209   4.00    1.0
2018/11/13 01:11:30.000  -74.370509268  163.307880421  1012.1662   6  12   0.0390   0.0380   0.1345   0.0050  -0.0363  -0.0264   4.00    1.0
2018/11/13 01:11:45.000  -74.370509285  163.307879916  1012.1773   6  12   0.0438   0.0427   0.1536   0.0049  -0.0415  -0.0318   4.00    1.0
2018/11/13 01:12:00.000  -74.370509228  163.307879779  1012.1414   6  12   0.0487   0.0475   0.1729   0.0045  -0.0467  -0.0372   4.00    1.0
2018/11/13 01:12:15.000  -74.370509187  163.307879741  1012.1243   6  12   0.0536   0.0523   0.1922   0.0037  -0.0520  -0.0424   4.00    1.0
2018/11/13 01:12:30.000  -74.370509219  163.307880552  1012.1395   6  12   0.0586   0.0572   0.2116   0.0023  -0.0573  -0.0476   4.00    1.0
2018/11/13 01:12:45.000  -74.370509234  163.307880506  1012.1308   6  12   0.0537   0.0524   0.1920   0.0039  -0.0524  -0.0424   4.00    1.0
2018/11/13 01:13:00.000  -74.370509236  163.307881009  1012.1394   6  12   0.0487   0.0475   0.1725   0.0049  -0.0472  -0.0371   4.00    1.0
2018/11/13 01:13:15.000  -74.370509254  163.307881095  1012.1353   6  12   0.0438   0.0427   0.1531   0.0054  -0.0420  -0.0318   3.00    0.0
2018/11/13 01:13:30.000  -74.370509266  163.307881418  1012.1274   6  12   0.0390   0.0380   0.1340   0.0055  -0.0369  -0.0263   3.00    0.0
2018/11/13 01:13:45.000  -74.370509335  163.307881564  1012.1285   6  12   0.0342   0.0334   0.1151   0.0053  -0.0319  -0.0208   3.00    0.0
2018/11/13 01:14:00.000  -74.370509751  163.307882682  1012.2072   1  12   0.0351   0.0361   0.1315  -0.0066  -0.0362  -0.0322   6.00    2.0
2018/11/13 01:14:15.000  -74.370509791  163.307882327  1012.2132   1  12   0.0284   0.0298   0.1058  -0.0059  -0.0292  -0.0260   6.00    2.0
2018/11/13 01:14:30.000  -74.370509762  163.307882314  1012.2195   1  12   0.0223   0.0242   0.0818  -0.0054  -0.0227  -0.0203   6.00    2.0
2018/11/13 01:14:45.000  -74.370509658  163.307882482  1012.1993   1  12   0.0174   0.0198   0.0615  -0.0048  -0.0170  -0.0159   6.00    2.0
2018/11/13 01:15:00.000  -74.370509622  163.307882149  1012.2159   1  12   0.0145   0.0176   0.0496  -0.0035  -0.0134  -0.0141   6.00    2.0
2018/11/13 01:15:15.000  -74.370509561  163.307882091  1012.2274   1  12   0.0173   0.0198   0.0614  -0.0049  -0.0173  -0.0159   6.00    2.0
2018/11/13 01:15:30.000  -74.370509511  163.307882315  1012.2332   1  12   0.0223   0.0243   0.0816  -0.0055  -0.0230  -0.0201   6.00    2.0
2018/11/13 01:15:45.000  -74.370509467  163.307882203  1012.2270   1  12   0.0285   0.0298   0.1053  -0.0060  -0.0296  -0.0257   6.00    2.0
2018/11/13 01:16:00.000  -74.370509478  163.307882179  1012.2124   1  12   0.0351   0.0361   0.1306  -0.0065  -0.0367  -0.0318   6.00    2.0
2018/11/13 01:16:15.000  -74.370508888  163.307881050  1012.1887   6  12   0.0341   0.0330   0.1140   0.0055  -0.0322  -0.0207   3.00    0.0
2018/11/13 01:16:30.000  -74.370508872  163.307881320  1012.1879   6  12   0.0388   0.0376   0.1324   0.0058  -0.0372  -0.0261   3.00    0.0
2018/11/13 01:16:45.000  -74.370508962  163.307881232  1012.2128   6  12   0.0436   0.0423   0.1510   0.0059  -0.0424  -0.0314   4.00    1.0
2018/11/13 01:17:00.000  -74.370508906  163.307880942  1012.2188   6  12   0.0485   0.0471   0.1697   0.0059  -0.0476  -0.0366   3.00    0.0
2018/11/13 01:17:15.000  -74.370508899  163.307881151  1012.2044   6  12   0.0534   0.0519   0.1884   0.0057  -0.0529  -0.0417   5.00    0.0
2018/11/13 01:17:30.000  -74.370508848  163.307880739  1012.2000   6  12   0.0584   0.0568   0.2071   0.0054  -0.0582  -0.0467   5.00    0.0
2018/11/13 01:17:45.000  -74.370508807  163.307880427  1012.2087   6  12   0.0536   0.0520   0.1883   0.0057  -0.0528  -0.0419   5.00    0.0
2018/11/13 01:18:00.000  -74.370508835  163.307880497  1012.1999   6  12   0.0487   0.0472   0.1692   0.0060  -0.0476  -0.0367   5.00    0.0
2018/11/13 01:18:15.000  -74.370508859  163.307880269  1012.2312   6  12   0.0438   0.0424   0.1503   0.0062  -0.0424  -0.0314   5.00    0.0
2018/11/13 01:18:30.000  -74.370508987  163.307879931  1012.2662   6  12   0.0390   0.0377   0.1316   0.0061  -0.0373  -0.0261   5.00    0.0
2018/11/13 01:18:45.000  -74.370509081  163.307880251  1012.2488   6  12   0.0343   0.0331   0.1133   0.0059  -0.0324  -0.0207   5.00    1.0
2018/11/13 01:19:00.000  -74.370509744  163.307881604  1012.2698   1  12   0.0374   0.0363   0.1306  -0.0058  -0.0370  -0.0285   5.00    1.0
2018/11/13 01:19:15.000  -74.370509773  163.307881538  1012.2755   1  12   0.0288   0.0301   0.1047  -0.0057  -0.0304  -0.0258   6.00    2.0
2018/11/13 01:19:30.000  -74.370509824  163.307881714  1012.2642   1  12   0.0227   0.0246   0.0818  -0.0055  -0.0242  -0.0203   6.00    2.0
2018/11/13 01:19:45.000  -74.370509336  163.307879886  1012.2189   1  12   0.0151   0.0143   0.0458   0.0047  -0.0108  -0.0093   5.00    1.0
2018/11/13 01:20:00.000  -74.370509621  163.307881999  1012.2195   1  12   0.0149   0.0180   0.0510  -0.0045  -0.0156  -0.0140   5.00    2.0
2018/11/13 01:20:15.000  -74.370509506  163.307882244  1012.2310   1  12   0.0177   0.0203   0.0626  -0.0052  -0.0191  -0.0158   5.00    2.0
2018/11/13 01:20:30.000  -74.370509476  163.307882394  1012.2045   1  12   0.0257   0.0247   0.0836  -0.0048  -0.0245  -0.0138   4.00    1.0
2018/11/13 01:20:45.000  -74.370509501  163.307882193  1012.2375   1  12   0.0289   0.0303   0.1043  -0.0058  -0.0309  -0.0252   5.00    2.0
2018/11/13 01:21:00.000  -74.370509532  163.307881998  1012.2230   1  12   0.0376   0.0364   0.1294  -0.0053  -0.0374  -0.0276   5.00    1.0
2018/11/13 01:21:15.000  -74.370509011  163.307880592  1012.1981   6  12   0.0342   0.0328   0.1118   0.0059  -0.0326  -0.0202   6.00    0.0
2018/11/13 01:21:30.000  -74.370509006  163.307880960  1012.1854   6  12   0.0389   0.0374   0.1292   0.0062  -0.0375  -0.0254   6.00    0.0
2018/11/13 01:21:45.000  -74.370509102  163.307880611  1012.1922   6  12   0.0436   0.0420   0.1469   0.0064  -0.0425  -0.0305   6.00    0.0
2018/11/13 01:22:00.000  -74.370509062  163.307880999  1012.1742   6  12   0.0485   0.0468   0.1646   0.0065  -0.0475  -0.0354   6.00    0.0
2018/11/13 01:22:15.000  -74.370509151  163.307880875  1012.1777   6  12   0.0535   0.0516   0.1824   0.0066  -0.0526  -0.0403   7.00    0.0
2018/11/13 01:22:30.000  -74.370509093  163.307880895  1012.1488   6  12   0.0585   0.0565   0.2002   0.0066  -0.0578  -0.0450   7.00    0.0
2018/11/13 01:22:45.000  -74.370509077  163.307880741  1012.1781   6  12   0.0534   0.0517   0.1818   0.0068  -0.0527  -0.0401   7.00    0.0
2018/11/13 01:23:00.000  -74.370509055  163.307880569  1012.2284   6  12   0.0485   0.0469   0.1635   0.0069  -0.0476  -0.0350   6.00    0.0
2018/11/13 01:23:15.000  -74.370509010  163.307880445  1012.2381   6  12   0.0436   0.0421   0.1454   0.0068  -0.0425  -0.0299   7.00    0.0
2018/11/13 01:23:30.000  -74.370509085  163.307880229  1012.2168   6  12   0.0388   0.0374   0.1277   0.0066  -0.0376  -0.0248   7.00    0.0
2018/11/13 01:23:45.000  -74.370509170  163.307880446  1012.1912   6  12   0.0341   0.0329   0.1104   0.0063  -0.0328  -0.0195   8.00    0.0
2018/11/13 01:24:00.000  -74.370509776  163.307881337  1012.1603   1  12   0.0377   0.0366   0.1277  -0.0043  -0.0379  -0.0267   4.00    1.0
2018/11/13 01:24:15.000  -74.370509794  163.307881145  1012.1736   1  12   0.0315   0.0305   0.1048  -0.0041  -0.0316  -0.0199   5.00    1.0
2018/11/13 01:24:30.000  -74.370509230  163.307880416  1012.1521   6  12   0.0216   0.0207   0.0639   0.0042  -0.0203   0.0053   7.00    0.0
2018/11/13 01:24:45.000  -74.370509290  163.307880475  1012.1461   6  12   0.0185   0.0177   0.0523   0.0037  -0.0172   0.0087   7.00    0.0
2018/11/13 01:25:00.000  -74.370509238  163.307880869  1012.1521   6  12   0.0170   0.0160   0.0455   0.0035  -0.0151   0.0095   7.00    0.0
2018/11/13 01:25:15.000  -74.370509139  163.307881080  1012.1508   6  12   0.0187   0.0178   0.0534   0.0032  -0.0179   0.0093   7.00    0.0
2018/11/13 01:25:30.000  -74.370509023  163.307881048  1012.1451   6  12   0.0220   0.0210   0.0659   0.0042  -0.0217   0.0076   7.00    0.0
2018/11/13 01:25:45.000  -74.370508924  163.307881057  1012.1189   6  12   0.0259   0.0247   0.0803   0.0050  -0.0257  -0.0013   7.00    0.0
2018/11/13 01:26:00.000  -74.370508866  163.307881250  1012.1058   6  12   0.0303   0.0289   0.0957   0.0056  -0.0300  -0.0099   7.00    0.0
2018/11/13 01:26:15.000  -74.370508816  163.307880997  1012.1398   6  12   0.0349   0.0332   0.1118   0.0062  -0.0344  -0.0152   7.00    0.0
2018/11/13 01:26:30.000  -74.370508751  163.307880483  1012.1518   6  12   0.0397   0.0378   0.1283   0.0069  -0.0389  -0.0197   7.00    0.0
2018/11/13 01:26:45.000  -74.370508730  163.307880391  1012.1675   6  12   0.0448   0.0425   0.1453   0.0079  -0.0434  -0.0233   7.00    0.0
2018/11/13 01:27:00.000  -74.370508784  163.307880388  1012.1565   6  12   0.0506   0.0473   0.1632   0.0101  -0.0475  -0.0244   7.00    0.0
2018/11/13 01:27:15.000  -74.370508803  163.307880419  1012.1402   6  11   0.0576   0.0523   0.1836   0.0135  -0.0506  -0.0172   6.00    0.0
2018/11/13 01:27:30.000  -74.370508863  163.307880355  1012.1198   6  11   0.0630   0.0573   0.2010   0.0148  -0.0551  -0.0203   6.00    0.0
2018/11/13 01:27:45.000  -74.370508864  163.307880193  1012.1625   6  11   0.0578   0.0525   0.1842   0.0133  -0.0513  -0.0158   6.00    0.0
2018/11/13 01:28:00.000  -74.370508850  163.307880434  1012.1832   6  11   0.0525   0.0478   0.1669   0.0117  -0.0474  -0.0099   7.00    0.0
2018/11/13 01:28:15.000  -74.370508949  163.307880393  1012.1927   6  11   0.0473   0.0432   0.1503   0.0099  -0.0439   0.0066   7.00    0.0
2018/11/13 01:28:30.000  -74.370508899  163.307880706  1012.2230   6  11   0.0422   0.0390   0.1349   0.0074  -0.0412   0.0139   7.00    0.0
2018/11/13 01:28:45.000  -74.370508926  163.307880768  1012.2334   6  11   0.0376   0.0354   0.1225  -0.0029  -0.0405   0.0202   7.00    0.0
2018/11/13 01:29:00.000  -74.370508942  163.307881045  1012.1785   6  10   0.0330   0.0330   0.1149  -0.0085  -0.0425   0.0247   7.00    0.0
2018/11/13 01:29:15.000  -74.370509043  163.307880910  1012.1726   6  10   0.0280   0.0278   0.0955  -0.0056  -0.0355   0.0202   7.00    0.0
2018/11/13 01:29:30.000  -74.370509170  163.307880869  1012.1682   6  10   0.0234   0.0232   0.0778  -0.0020  -0.0291   0.0156   7.00    0.0
2018/11/13 01:29:45.000  -74.370509259  163.307880832  1012.1427   6  10   0.0197   0.0193   0.0630   0.0034  -0.0236   0.0113   7.00    0.0
2018/11/13 01:30:00.000  -74.370509248  163.307880940  1012.0925   6  10   0.0179   0.0172   0.0543   0.0048  -0.0204   0.0073   7.00    0.0
2018/11/13 01:30:15.000  -74.370509314  163.307880785  1012.1091   6   9   0.0206   0.0202   0.0718   0.0070  -0.0275  -0.0095   7.00    0.0
2018/11/13 01:30:30.000  -74.370509214  163.307880842  1012.1318   6   9   0.0252   0.0252   0.0954   0.0094  -0.0373  -0.0166   7.00    0.0
2018/11/13 01:30:45.000  -74.370509043  163.307880654  1012.1473   6   9   0.0307   0.0312   0.1230   0.0122  -0.0486  -0.0241   7.00    0.0
2018/11/13 01:31:00.000  -74.370509038  163.307880358  1012.1539   6   9   0.0368   0.0378   0.1524   0.0151  -0.0606  -0.0318   7.00    0.0
2018/11/13 01:31:15.000  -74.370508962  163.307880760  1012.1460   6   9   0.0431   0.0447   0.1829   0.0180  -0.0731  -0.0395   7.00    0.0
2018/11/13 01:31:30.000  -74.370508894  163.307881036  1012.1187   6   9   0.0497   0.0518   0.2140   0.0211  -0.0858  -0.0473   7.00    0.0
2018/11/13 01:31:45.000  -74.370508847  163.307880854  1012.1796   6   9   0.0565   0.0591   0.2456   0.0242  -0.0987  -0.0551   6.00    0.0
2018/11/13 01:32:00.000  -74.370509028  163.307880438  1012.1940   6   9   0.0633   0.0665   0.2774   0.0273  -0.1118  -0.0630   6.00    0.0
2018/11/13 01:32:15.000  -74.370509097  163.307880421  1012.2124   6   9   0.0702   0.0739   0.3093   0.0305  -0.1250  -0.0708   6.00    0.0
2018/11/13 01:32:30.000  -74.370509113  163.307880443  1012.2450   6   9   0.0772   0.0815   0.3414   0.0337  -0.1382  -0.0787   6.00    0.0
2018/11/13 01:32:45.000  -74.370509019  163.307880774  1012.2804   6   9   0.0703   0.0743   0.3101   0.0309  -0.1257  -0.0715   6.00    0.0
2018/11/13 01:33:00.000  -74.370509055  163.307880084  1012.3591   6   9   0.0634   0.0671   0.2788   0.0279  -0.1131  -0.0639   6.00    0.0
2018/11/13 01:33:15.000  -74.370509040  163.307880239  1012.2879   6   9   0.0566   0.0598   0.2476   0.0250  -0.1005  -0.0563   6.00    0.0
2018/11/13 01:33:30.000  -74.370509012  163.307879918  1012.2415   6   9   0.0499   0.0527   0.2165   0.0221  -0.0879  -0.0486   6.00    0.0
2018/11/13 01:33:45.000  -74.370509046  163.307880136  1012.1668   6   9   0.0433   0.0456   0.1858   0.0191  -0.0753  -0.0411   6.00    0.0
2018/11/13 01:34:00.000  -74.370508928  163.307880261  1012.1065   6   9   0.0369   0.0387   0.1556   0.0162  -0.0629  -0.0336   6.00    0.0
2018/11/13 01:34:15.000  -74.370508957  163.307880315  1012.0981   6   9   0.0309   0.0321   0.1264   0.0133  -0.0509  -0.0262   6.00    0.0
2018/11/13 01:34:30.000  -74.370509096  163.307880551  1012.1083   6   9   0.0253   0.0259   0.0992   0.0105  -0.0395  -0.0192   6.00    0.0
2018/11/13 01:34:45.000  -74.370509121  163.307880955  1012.0513   6   9   0.0208   0.0208   0.0760   0.0081  -0.0296  -0.0128   6.00    0.0
2018/11/13 01:35:00.000  -74.370509305  163.307880524  1012.0963   6   9   0.0185   0.0178   0.0618   0.0067  -0.0234  -0.0087   6.00    0.0
2018/11/13 01:35:15.000  -74.370509251  163.307881499  1012.1206   6   9   0.0209   0.0208   0.0765   0.0081  -0.0297  -0.0132   6.00    0.0
2018/11/13 01:35:30.000  -74.370509088  163.307881540  1012.0719   6   9   0.0254   0.0260   0.1002   0.0107  -0.0399  -0.0199   6.00    0.0
2018/11/13 01:35:45.000  -74.370509243  163.307880984  1012.1228   6   9   0.0309   0.0323   0.1277   0.0137  -0.0516  -0.0272   6.00    0.0
2018/11/13 01:36:00.000  -74.370509156  163.307880988  1012.1235   6   9   0.0370   0.0391   0.1571   0.0168  -0.0640  -0.0347   6.00    0.0
2018/11/13 01:36:15.000  -74.370509252  163.307880737  1012.1286   6   9   0.0434   0.0463   0.1876   0.0200  -0.0769  -0.0423   6.00    0.0
2018/11/13 01:36:30.000  -74.370509260  163.307880738  1012.1387   6   9   0.0501   0.0536   0.2186   0.0232  -0.0901  -0.0500   6.00    0.0
2018/11/13 01:36:45.000  -74.370509146  163.307880955  1012.0938   6   9   0.0568   0.0612   0.2501   0.0265  -0.1034  -0.0578   6.00    0.0
2018/11/13 01:37:00.000  -74.370509002  163.307881636  1012.0449   6   9   0.0637   0.0688   0.2817   0.0299  -0.1169  -0.0656   6.00    0.0
2018/11/13 01:37:15.000  -74.370509114  163.307880879  1012.1057   6   9   0.0706   0.0765   0.3135   0.0333  -0.1304  -0.0733   5.00    0.0
2018/11/13 01:37:30.000  -74.370509048  163.307881142  1012.0706   6   9   0.0776   0.0843   0.3453   0.0368  -0.1439  -0.0811   4.00    0.0
2018/11/13 01:37:45.000  -74.370509146  163.307881583  1012.0684   6   9   0.0708   0.0768   0.3138   0.0336  -0.1308  -0.0736   4.00    0.0
2018/11/13 01:38:00.000  -74.370509064  163.307881260  1012.0857   6   9   0.0638   0.0692   0.2820   0.0303  -0.1176  -0.0659   4.00    0.0
2018/11/13 01:38:15.000  -74.370509160  163.307880652  1012.1183   6   9   0.0570   0.0617   0.2504   0.0271  -0.1043  -0.0582   4.00    0.0
2018/11/13 01:38:30.000  -74.370509158  163.307880876  1012.0911   6   9   0.0503   0.0543   0.2191   0.0239  -0.0912  -0.0507   4.00    0.0
2018/11/13 01:38:45.000  -74.370509362  163.307880051  1012.1363   6   9   0.0437   0.0469   0.1884   0.0207  -0.0781  -0.0432   4.00    0.0
2018/11/13 01:39:00.000  -74.370509431  163.307879405  1012.1899   6   9   0.0373   0.0398   0.1585   0.0176  -0.0653  -0.0360   5.00    0.0
2018/11/13 01:39:15.000  -74.370509398  163.307879745  1012.1538   6   9   0.0313   0.0329   0.1300   0.0146  -0.0530  -0.0291   5.00    0.0
2018/11/13 01:39:30.000  -74.370509376  163.307879954  1012.1230   6   9   0.0258   0.0265   0.1037   0.0117  -0.0415  -0.0227   5.00    0.0
2018/11/13 01:39:45.000  -74.370509375  163.307879960  1012.1322   6   9   0.0213   0.0213   0.0816   0.0093  -0.0317  -0.0171   5.00    0.0
2018/11/13 01:40:00.000  -74.370509281  163.307880489  1012.0769   6   9   0.0190   0.0184   0.0681   0.0080  -0.0256  -0.0137   5.00    0.0
2018/11/13 01:40:15.000  -74.370509188  163.307880619  1012.0362   6   9   0.0216   0.0213   0.0836   0.0096  -0.0320  -0.0189   5.00    0.0
2018/11/13 01:40:30.000  -74.370509074  163.307880848  1012.0075   6   9   0.0264   0.0266   0.1081   0.0124  -0.0423  -0.0265   6.00    0.0
2018/11/13 01:40:45.000  -74.370509007  163.307881171  1012.0265   6   9   0.0323   0.0331   0.1365   0.0157  -0.0543  -0.0348   5.00    0.0
2018/11/13 01:41:00.000  -74.370509044  163.307880242  1012.1532   6   9   0.0388   0.0401   0.1673   0.0192  -0.0672  -0.0438   5.00    0.0
2018/11/13 01:41:15.000  -74.370509126  163.307879897  1012.2300   6   9   0.0457   0.0474   0.1998   0.0229  -0.0806  -0.0533   6.00    0.0
2018/11/13 01:41:30.000  -74.370509232  163.307879499  1012.2364   6   9   0.0531   0.0550   0.2342   0.0268  -0.0946  -0.0639   6.00    0.0
2018/11/13 01:41:45.000  -74.370509220  163.307879787  1012.1903   6   9   0.0610   0.0628   0.2717   0.0312  -0.1092  -0.0763   6.00    0.0
2018/11/13 01:42:00.000  -74.370509129  163.307880182  1012.1211   6   9   0.0702   0.0709   0.3159   0.0365  -0.1252  -0.0931   6.00    0.0
2018/11/13 01:42:15.000  -74.370509378  163.307879383  1012.3575   6   8   0.0978   0.0830   0.4698   0.0564  -0.1660  -0.1709   6.00    0.0
2018/11/13 01:42:30.000  -74.370509134  163.307879943  1012.2006   6   8   0.1083   0.0916   0.5207   0.0628  -0.1840  -0.1903   6.00    0.0
2018/11/13 01:42:45.000  -74.370508926  163.307880010  1012.1087   6   9   0.0715   0.0756   0.3210   0.0303  -0.1260  -0.0796   6.00    0.0
2018/11/13 01:43:00.000  -74.370508819  163.307881022  1011.9958   6   9   0.0631   0.0678   0.2808   0.0260  -0.1114  -0.0650   6.00    0.0
2018/11/13 01:43:15.000  -74.370508756  163.307881038  1011.9851   6   9   0.0558   0.0603   0.2464   0.0228  -0.0982  -0.0547   6.00    0.0
2018/11/13 01:43:30.000  -74.370508771  163.307880405  1012.0260   6   9   0.0489   0.0530   0.2147   0.0201  -0.0857  -0.0464   6.00    0.0
2018/11/13 01:43:45.000  -74.370508792  163.307880444  1012.0159   6   9   0.0424   0.0458   0.1847   0.0177  -0.0737  -0.0393   6.00    0.0
2018/11/13 01:44:00.000  -74.370508878  163.307879874  1012.0641   6   9   0.0361   0.0389   0.1559   0.0154  -0.0620  -0.0327   6.00    0.0
2018/11/13 01:44:15.000  -74.370508819  163.307880526  1012.0205   6   9   0.0303   0.0323   0.1287   0.0132  -0.0508  -0.0266   6.00    0.0
2018/11/13 01:44:30.000  -74.370508911  163.307880645  1012.0053   6   9   0.0250   0.0262   0.1036   0.0111  -0.0404  -0.0209   6.00    0.0
