% program   : RTKLIB ver.2.4.3
% inp file  : _by_type/_obs/shirase/20181112.18o
% inp file  : _by_type/_sp3+clk/igs20271.clk
% inp file  : _by_type/_sp3+clk/igs20271.sp3
% inp file  : _by_type/_nav/shirase/20181112.18n
% obs start : 2018/11/12 00:00:00.0 GPST (week2027  86400.0s)
% obs end   : 2018/11/12 23:59:45.0 GPST (week2027 172785.0s)
% pos mode  : ppp-kinematic
% solution  : combined
% elev mask : 15.0 deg
% dynamics  : off
% tidecorr  : on
% tropo opt : est ztd+grad
% ephemeris : precise
% navi sys  : gps glonass
% antenna1  :                       ( 0.0000  0.0000  0.0000)
%
% (lat/lon/height=WGS84/ellipsoidal,Q=1:fix,2:float,3:sbas,4:dgps,5:single,6:ppp,ns=# of satellites)
%  GPST                  latitude(deg) longitude(deg)  height(m)   Q  ns   sdn(m)   sde(m)   sdu(m)  sdne(m)  sdeu(m)  sdun(m) age(s)  ratio
2018/11/12 00:00:00.000  -74.525925948  163.457846904    26.2943   6  10   0.0262   0.0274   0.0836  -0.0189   0.0276  -0.0239   0.00    0.0
2018/11/12 00:00:15.000  -74.525925936  163.457847138    26.2968   6  10   0.0288   0.0306   0.0980  -0.0205   0.0336  -0.0271   0.00    0.0
2018/11/12 00:00:30.000  -74.525925803  163.457846812    26.2447   6  10   0.0338   0.0364   0.1240  -0.0234   0.0437  -0.0326   0.00    0.0
2018/11/12 00:00:45.000  -74.525925735  163.457846501    26.2488   6  10   0.0406   0.0440   0.1610  -0.0268   0.0569  -0.0375   0.00    0.0
2018/11/12 00:01:00.000  -74.525925694  163.457846802    26.2692   6  10   0.0478   0.0521   0.1881  -0.0312   0.0685  -0.0481   0.00    0.0
2018/11/12 00:01:15.000  -74.525925792  163.457846845    26.3371   6  10   0.0560   0.0610   0.2332  -0.0352   0.0837  -0.0529   0.00    0.0
2018/11/12 00:01:30.000  -74.525926010  163.457846605    26.3393   6  10   0.0628   0.0697   0.2397  -0.0408   0.0931  -0.0734   0.00    0.0
2018/11/12 00:01:45.000  -74.525926030  163.457846524    26.3408   6  10   0.0710   0.0786   0.2727  -0.0455   0.1060  -0.0832   0.00    0.0
2018/11/12 00:02:00.000  -74.525925875  163.457845882    26.2407   6  10   0.0790   0.0875   0.3055  -0.0501   0.1186  -0.0930   0.00    0.0
2018/11/12 00:02:15.000  -74.525925782  163.457845510    26.1369   6  10   0.0870   0.0962   0.3376  -0.0547   0.1308  -0.1026   0.00    0.0
2018/11/12 00:02:30.000  -74.525925615  163.457845300    26.1165   6  10   0.0949   0.1047   0.3690  -0.0591   0.1427  -0.1119   0.00    0.0
2018/11/12 00:02:45.000  -74.525925572  163.457845408    26.1361   6  10   0.0870   0.0959   0.3355  -0.0550   0.1294  -0.1010   1.00    0.0
2018/11/12 00:03:00.000  -74.525925565  163.457845443    26.1454   6  10   0.0795   0.0878   0.3037  -0.0514   0.1166  -0.0910   1.00    0.0
2018/11/12 00:03:15.000  -74.525925744  163.457845773    26.1837   6  10   0.0731   0.0812   0.2719  -0.0499   0.1030  -0.0802   2.00    0.0
2018/11/12 00:03:30.000  -74.525925848  163.457846004    26.1523   6  10   0.0617   0.0678   0.2394  -0.0389   0.0926  -0.0728   2.00    0.0
2018/11/12 00:03:45.000  -74.525925940  163.457846536    26.1662   6  10   0.0539   0.0591   0.2076  -0.0345   0.0801  -0.0633   3.00    0.0
2018/11/12 00:04:00.000  -74.525926075  163.457847046    26.2355   6  10   0.0464   0.0507   0.1763  -0.0303   0.0677  -0.0540   4.00    0.0
2018/11/12 00:04:15.000  -74.525926100  163.457847097    26.2717   6  10   0.0394   0.0428   0.1464  -0.0265   0.0557  -0.0451   4.00    0.0
2018/11/12 00:04:30.000  -74.525926025  163.457847101    26.2509   6  10   0.0332   0.0358   0.1194  -0.0232   0.0446  -0.0371   4.00    0.0
2018/11/12 00:04:45.000  -74.525925961  163.457846880    26.2254   6  10   0.0288   0.0304   0.0984  -0.0208   0.0357  -0.0308   4.00    0.0
2018/11/12 00:05:00.000  -74.525926048  163.457846694    26.2352   6  11   0.0265   0.0280   0.0875  -0.0198   0.0316  -0.0287   5.00    0.0
2018/11/12 00:05:15.000  -74.525926071  163.457846339    26.1862   6  11   0.0291   0.0310   0.0996  -0.0215   0.0369  -0.0325   4.00    0.0
2018/11/12 00:05:30.000  -74.525926050  163.457846157    26.1805   6  11   0.0339   0.0372   0.1214  -0.0249   0.0459  -0.0394   4.00    0.0
2018/11/12 00:05:45.000  -74.525925894  163.457845574    26.1003   6  11   0.0385   0.0428   0.1477  -0.0263   0.0581  -0.0493   3.00    0.0
2018/11/12 00:06:00.000  -74.525925827  163.457845184    26.0465   6  11   0.0451   0.0505   0.1769  -0.0299   0.0700  -0.0585   3.00    0.0
2018/11/12 00:06:15.000  -74.525925794  163.457844651    26.0073   6  11   0.0520   0.0586   0.2082  -0.0335   0.0822  -0.0674   3.00    0.0
2018/11/12 00:06:30.000  -74.525925693  163.457843986    25.9221   6  11   0.0594   0.0667   0.2447  -0.0369   0.0951  -0.0745   3.00    0.0
2018/11/12 00:06:45.000  -74.525925619  163.457844175    25.9399   6  11   0.0661   0.0745   0.2672  -0.0409   0.1050  -0.0857   0.00    0.0
2018/11/12 00:07:00.000  -74.525925542  163.457844003    25.9129   6  11   0.0734   0.0824   0.3040  -0.0440   0.1174  -0.0917   0.00    0.0
2018/11/12 00:07:15.000  -74.525925436  163.457844063    25.9403   6  11   0.0793   0.0896   0.3113  -0.0485   0.1241  -0.1069   0.00    0.0
2018/11/12 00:07:30.000  -74.525925353  163.457843589    25.8900   6  11   0.0859   0.0969   0.3377  -0.0519   0.1341  -0.1156   0.00    0.0
2018/11/12 00:07:45.000  -74.525925402  163.457844061    25.9161   6  11   0.0795   0.0902   0.3157  -0.0491   0.1261  -0.1086   0.00    0.0
2018/11/12 00:08:00.000  -74.525925494  163.457844242    25.9315   6  11   0.0726   0.0825   0.2889  -0.0455   0.1157  -0.0997   0.00    0.0
2018/11/12 00:08:15.000  -74.525925654  163.457845195    26.0327   6  11   0.0657   0.0747   0.2617  -0.0419   0.1051  -0.0907   2.00    0.0
2018/11/12 00:08:30.000  -74.525925808  163.457845806    26.1093   6  11   0.0588   0.0668   0.2339  -0.0382   0.0942  -0.0815   3.00    0.0
2018/11/12 00:08:45.000  -74.525925746  163.457845953    26.1142   6  11   0.0520   0.0589   0.2058  -0.0345   0.0831  -0.0722   4.00    0.0
2018/11/12 00:09:00.000  -74.525925712  163.457846029    26.0986   6  11   0.0453   0.0511   0.1776  -0.0309   0.0719  -0.0629   5.00    0.0
2018/11/12 00:09:15.000  -74.525925667  163.457846280    26.1198   6  11   0.0391   0.0436   0.1500  -0.0275   0.0607  -0.0538   4.00    0.0
2018/11/12 00:09:30.000  -74.525925825  163.457847136    26.2363   1  11   0.0345   0.0348   0.1269  -0.0259   0.0496  -0.0479   3.00    1.0
2018/11/12 00:09:45.000  -74.525925881  163.457846996    26.2534   1  11   0.0302   0.0284   0.1046  -0.0233   0.0393  -0.0408   3.00    1.0
2018/11/12 00:10:00.000  -74.525926015  163.457846288    26.2226   1  11   0.0282   0.0249   0.0929  -0.0221   0.0333  -0.0372   3.00    1.0
2018/11/12 00:10:15.000  -74.525926126  163.457845612    26.1978   1  11   0.0315   0.0294   0.1080  -0.0247   0.0413  -0.0431   3.00    1.0
2018/11/12 00:10:30.000  -74.525926138  163.457844864    26.1778   1  11   0.0353   0.0351   0.1318  -0.0266   0.0516  -0.0506   4.00    1.0
2018/11/12 00:10:45.000  -74.525925963  163.457844522    26.1535   6  11   0.0394   0.0435   0.1524  -0.0278   0.0616  -0.0553   4.00    0.0
2018/11/12 00:11:00.000  -74.525925895  163.457844575    26.1600   6  11   0.0453   0.0507   0.1783  -0.0308   0.0718  -0.0634   4.00    0.0
2018/11/12 00:11:15.000  -74.525925704  163.457844151    26.0874   6  11   0.0515   0.0580   0.2045  -0.0339   0.0820  -0.0716   4.00    0.0
2018/11/12 00:11:30.000  -74.525925528  163.457844270    26.0462   6  11   0.0578   0.0653   0.2305  -0.0369   0.0919  -0.0796   4.00    0.0
2018/11/12 00:11:45.000  -74.525925484  163.457843772    26.0152   6  11   0.0641   0.0725   0.2563  -0.0399   0.1017  -0.0876   4.00    0.0
2018/11/12 00:12:00.000  -74.525925448  163.457843824    26.0187   6  11   0.0704   0.0797   0.2818  -0.0430   0.1113  -0.0955   6.00    0.0
2018/11/12 00:12:15.000  -74.525925421  163.457843797    26.0070   6  11   0.0766   0.0867   0.3070  -0.0461   0.1209  -0.1035   6.00    0.0
2018/11/12 00:12:30.000  -74.525925451  163.457843977    25.9956   6  11   0.0827   0.0936   0.3321  -0.0493   0.1305  -0.1114   6.00    0.0
2018/11/12 00:12:45.000  -74.525925430  163.457844090    26.0237   6  11   0.0766   0.0864   0.3071  -0.0460   0.1207  -0.1036   6.00    0.0
2018/11/12 00:13:00.000  -74.525925517  163.457844401    26.0509   6  11   0.0702   0.0791   0.2818  -0.0427   0.1109  -0.0955   6.00    0.0
2018/11/12 00:13:15.000  -74.525925597  163.457843825    26.0276   6  11   0.0639   0.0719   0.2562  -0.0394   0.1011  -0.0875   6.00    0.0
2018/11/12 00:13:30.000  -74.525925740  163.457844389    26.0983   6  11   0.0575   0.0645   0.2304  -0.0363   0.0912  -0.0794   5.00    0.0
2018/11/12 00:13:45.000  -74.525925836  163.457844891    26.1265   6  11   0.0513   0.0572   0.2045  -0.0333   0.0812  -0.0714   6.00    0.0
2018/11/12 00:14:00.000  -74.525925859  163.457845040    26.1307   6  11   0.0452   0.0500   0.1788  -0.0303   0.0713  -0.0635   5.00    0.0
2018/11/12 00:14:15.000  -74.525925836  163.457845154    26.1078   6  11   0.0395   0.0430   0.1539  -0.0276   0.0615  -0.0560   5.00    0.0
2018/11/12 00:14:30.000  -74.525925859  163.457845799    26.1519   6  11   0.0345   0.0367   0.1312  -0.0252   0.0524  -0.0492   5.00    0.0
2018/11/12 00:14:45.000  -74.525925870  163.457845779    26.1301   6  11   0.0309   0.0317   0.1130  -0.0233   0.0449  -0.0439   5.00    0.0
2018/11/12 00:15:00.000  -74.525925919  163.457845857    26.1537   6  11   0.0291   0.0290   0.1036  -0.0224   0.0405  -0.0411   5.00    0.0
2018/11/12 00:15:15.000  -74.525925699  163.457845173    26.0558   6  11   0.0312   0.0318   0.1147  -0.0237   0.0452  -0.0445   5.00    0.0
2018/11/12 00:15:30.000  -74.525925629  163.457845382    26.0281   6  11   0.0350   0.0367   0.1324  -0.0256   0.0519  -0.0493   5.00    0.0
2018/11/12 00:15:45.000  -74.525925522  163.457845136    25.9637   6  11   0.0397   0.0427   0.1531  -0.0277   0.0593  -0.0544   5.00    0.0
2018/11/12 00:16:00.000  -74.525925532  163.457844677    25.9254   6  11   0.0450   0.0494   0.1757  -0.0300   0.0669  -0.0597   5.00    0.0
2018/11/12 00:16:15.000  -74.525925556  163.457844511    25.8993   6  11   0.0509   0.0564   0.2011  -0.0328   0.0738  -0.0644   5.00    0.0
2018/11/12 00:16:30.000  -74.525925540  163.457843875    25.8400   6  11   0.0560   0.0625   0.2198  -0.0340   0.0854  -0.0738   0.00    0.0
2018/11/12 00:16:45.000  -74.525925538  163.457843520    25.8300   6  11   0.0619   0.0693   0.2429  -0.0367   0.0943  -0.0806   0.00    0.0
2018/11/12 00:17:00.000  -74.525925475  163.457843842    25.8231   6  11   0.0677   0.0761   0.2665  -0.0395   0.1034  -0.0877   0.00    0.0
2018/11/12 00:17:15.000  -74.525925458  163.457843740    25.8159   6  11   0.0736   0.0829   0.2903  -0.0424   0.1126  -0.0950   1.00    0.0
2018/11/12 00:17:30.000  -74.525925498  163.457843653    25.8020   6  11   0.0794   0.0896   0.3142  -0.0455   0.1219  -0.1025   3.00    0.0
2018/11/12 00:17:45.000  -74.525925510  163.457843808    25.8618   6  11   0.0732   0.0827   0.2891  -0.0423   0.1119  -0.0941   5.00    0.0
2018/11/12 00:18:00.000  -74.525925655  163.457844401    25.9531   6  11   0.0674   0.0758   0.2650  -0.0394   0.1022  -0.0865   5.00    0.0
2018/11/12 00:18:15.000  -74.525925669  163.457844291    25.9759   6  11   0.0617   0.0690   0.2413  -0.0369   0.0927  -0.0790   5.00    0.0
2018/11/12 00:18:30.000  -74.525925709  163.457844222    25.9665   6  11   0.0565   0.0627   0.2181  -0.0353   0.0831  -0.0714   5.00    0.0
2018/11/12 00:18:45.000  -74.525925781  163.457844269    25.9604   6  11   0.0499   0.0551   0.1951  -0.0314   0.0751  -0.0660   5.00    0.0
2018/11/12 00:19:00.000  -74.525925775  163.457844257    25.9586   6  11   0.0448   0.0487   0.1734  -0.0297   0.0663  -0.0595   5.00    0.0
2018/11/12 00:19:15.000  -74.525925873  163.457845005    26.0228   6  11   0.0385   0.0412   0.1529  -0.0259   0.0591  -0.0550   5.00    0.0
2018/11/12 00:19:30.000  -74.525925971  163.457845642    26.0864   6  11   0.0342   0.0354   0.1352  -0.0242   0.0520  -0.0505   5.00    0.0
2018/11/12 00:19:45.000  -74.525926002  163.457845706    26.1005   6  11   0.0310   0.0309   0.1217  -0.0230   0.0465  -0.0472   5.00    0.0
2018/11/12 00:20:00.000  -74.525925952  163.457845667    26.1030   6  11   0.0296   0.0286   0.1155  -0.0224   0.0436  -0.0456   5.00    0.0
2018/11/12 00:20:15.000  -74.525926008  163.457845290    26.1193   6  11   0.0315   0.0311   0.1247  -0.0234   0.0472  -0.0483   5.00    0.0
2018/11/12 00:20:30.000  -74.525926047  163.457845074    26.1080   6  11   0.0347   0.0355   0.1387  -0.0246   0.0525  -0.0517   5.00    0.0
2018/11/12 00:20:45.000  -74.525926048  163.457845090    26.1072   6  11   0.0389   0.0411   0.1552  -0.0261   0.0585  -0.0554   5.00    0.0
2018/11/12 00:21:00.000  -74.525926108  163.457845061    26.1411   6  11   0.0437   0.0472   0.1736  -0.0277   0.0653  -0.0596   5.00    0.0
2018/11/12 00:21:15.000  -74.525926070  163.457845071    26.1439   6  11   0.0489   0.0536   0.1935  -0.0296   0.0726  -0.0644   5.00    0.0
2018/11/12 00:21:30.000  -74.525926109  163.457845256    26.1887   6  11   0.0543   0.0601   0.2144  -0.0318   0.0804  -0.0697   5.00    0.0
2018/11/12 00:21:45.000  -74.525926059  163.457844650    26.1673   6  11   0.0598   0.0667   0.2362  -0.0342   0.0885  -0.0754   5.00    0.0
2018/11/12 00:22:00.000  -74.525926166  163.457844718    26.1836   6  11   0.0654   0.0732   0.2587  -0.0368   0.0968  -0.0815   5.00    0.0
2018/11/12 00:22:15.000  -74.525926273  163.457844333    26.1933   6  11   0.0710   0.0798   0.2818  -0.0396   0.1052  -0.0879   5.00    0.0
2018/11/12 00:22:30.000  -74.525926196  163.457843624    26.1114   6  11   0.0766   0.0862   0.3060  -0.0426   0.1135  -0.0943   5.00    0.0
2018/11/12 00:22:45.000  -74.525926171  163.457843320    26.0532   6  11   0.0712   0.0799   0.2898  -0.0399   0.1027  -0.0848   5.00    0.0
2018/11/12 00:23:00.000  -74.525926167  163.457843626    26.0340   6  11   0.0650   0.0727   0.2576  -0.0360   0.0973  -0.0828   0.00    0.0
2018/11/12 00:23:15.000  -74.525926156  163.457843752    26.0392   6  11   0.0593   0.0660   0.2334  -0.0333   0.0883  -0.0760   0.00    0.0
2018/11/12 00:23:30.000  -74.525926117  163.457844347    26.0701   6  11   0.0538   0.0594   0.2112  -0.0308   0.0798  -0.0699   0.00    0.0
2018/11/12 00:23:45.000  -74.525926097  163.457844738    26.0866   6  11   0.0484   0.0528   0.1904  -0.0286   0.0718  -0.0644   1.00    0.0
2018/11/12 00:24:00.000  -74.525926072  163.457845083    26.0838   6  11   0.0433   0.0464   0.1711  -0.0267   0.0643  -0.0596   4.00    0.0
2018/11/12 00:24:15.000  -74.525926024  163.457845166    26.0519   6  11   0.0386   0.0403   0.1538  -0.0252   0.0576  -0.0556   5.00    0.0
2018/11/12 00:24:30.000  -74.525926014  163.457845218    26.0382   6  11   0.0347   0.0349   0.1391  -0.0240   0.0519  -0.0524   5.00    0.0
2018/11/12 00:24:45.000  -74.525926047  163.457845558    26.0729   6  11   0.0318   0.0307   0.1280  -0.0232   0.0475  -0.0500   5.00    0.0
2018/11/12 00:25:00.000  -74.525926011  163.457845677    26.0736   6  11   0.0304   0.0287   0.1223  -0.0228   0.0451  -0.0487   5.00    0.0
2018/11/12 00:25:15.000  -74.525926063  163.457845337    26.0785   6  11   0.0319   0.0313   0.1286  -0.0235   0.0481  -0.0502   5.00    0.0
2018/11/12 00:25:30.000  -74.525926072  163.457845063    26.0691   6  11   0.0350   0.0361   0.1406  -0.0247   0.0536  -0.0529   5.00    0.0
2018/11/12 00:25:45.000  -74.525925965  163.457844405    26.0051   6  11   0.0392   0.0432   0.1583  -0.0271   0.0626  -0.0575   5.00    0.0
2018/11/12 00:26:00.000  -74.525926015  163.457845000    26.0504   6  11   0.0430   0.0454   0.1647  -0.0254   0.0603  -0.0572   5.00    0.0
2018/11/12 00:26:15.000  -74.525925961  163.457844675    26.0114   6  11   0.0478   0.0514   0.1812  -0.0267   0.0666  -0.0608   5.00    0.0
2018/11/12 00:26:30.000  -74.525925916  163.457844671    25.9768   6  11   0.0529   0.0576   0.1999  -0.0286   0.0739  -0.0655   5.00    0.0
2018/11/12 00:26:45.000  -74.525925847  163.457844514    25.9914   6  11   0.0581   0.0639   0.2196  -0.0308   0.0816  -0.0708   5.00    0.0
2018/11/12 00:27:00.000  -74.525925975  163.457844581    26.0293   6  11   0.0634   0.0701   0.2397  -0.0331   0.0896  -0.0765   5.00    0.0
2018/11/12 00:27:15.000  -74.525926057  163.457844177    26.0584   6  11   0.0688   0.0764   0.2602  -0.0357   0.0976  -0.0826   5.00    0.0
2018/11/12 00:27:30.000  -74.525926142  163.457844236    26.0902   6  11   0.0741   0.0826   0.2809  -0.0383   0.1058  -0.0889   5.00    0.0
2018/11/12 00:27:45.000  -74.525926175  163.457844220    26.0726   6  11   0.0688   0.0761   0.2592  -0.0354   0.0970  -0.0825   5.00    0.0
2018/11/12 00:28:00.000  -74.525926100  163.457844004    26.0357   6  11   0.0633   0.0696   0.2377  -0.0325   0.0881  -0.0761   5.00    0.0
2018/11/12 00:28:15.000  -74.525926226  163.457844613    26.0569   6  11   0.0580   0.0631   0.2170  -0.0299   0.0795  -0.0702   5.00    0.0
2018/11/12 00:28:30.000  -74.525926230  163.457844742    26.0439   6  11   0.0528   0.0566   0.1972  -0.0275   0.0711  -0.0649   5.00    0.0
2018/11/12 00:28:45.000  -74.525926259  163.457845083    26.0627   6  11   0.0479   0.0501   0.1787  -0.0254   0.0632  -0.0604   5.00    0.0
2018/11/12 00:29:00.000  -74.525926212  163.457845335    26.0922   6  11   0.0433   0.0438   0.1621  -0.0237   0.0558  -0.0570   5.00    0.0
2018/11/12 00:29:15.000  -74.525926170  163.457845647    26.1073   6  11   0.0394   0.0378   0.1485  -0.0224   0.0493  -0.0548   5.00    0.0
2018/11/12 00:29:30.000  -74.525926146  163.457845573    26.0815   6  11   0.0369   0.0324   0.1405  -0.0219   0.0443  -0.0552   5.00    0.0
2018/11/12 00:29:45.000  -74.525926298  163.457845862    26.1638   6  10   0.0327   0.0284   0.1287  -0.0207   0.0393  -0.0501   4.00    0.0
2018/11/12 00:30:00.000  -74.525926356  163.457846582    26.2081   6  10   0.0292   0.0264   0.1180  -0.0190   0.0326  -0.0430   4.00    0.0
2018/11/12 00:30:15.000  -74.525926474  163.457847463    26.2934   6  10   0.0337   0.0274   0.1447  -0.0205   0.0419  -0.0544   0.00    0.0
2018/11/12 00:30:30.000  -74.525926530  163.457847824    26.3370   6  10   0.0404   0.0325   0.1677  -0.0237   0.0509  -0.0655   0.00    0.0
2018/11/12 00:30:45.000  -74.525926561  163.457847494    26.3419   6  10   0.0482   0.0386   0.1970  -0.0271   0.0605  -0.0778   0.00    0.0
2018/11/12 00:31:00.000  -74.525926607  163.457847300    26.3634   6  10   0.0573   0.0453   0.2303  -0.0310   0.0715  -0.0921   0.00    0.0
2018/11/12 00:31:15.000  -74.525926614  163.457847316    26.4011   6  10   0.0676   0.0524   0.2657  -0.0348   0.0832  -0.1075   1.00    0.0
2018/11/12 00:31:30.000  -74.525926615  163.457847034    26.3947   6  10   0.0765   0.0590   0.3024  -0.0403   0.0949  -0.1243   2.00    0.0
2018/11/12 00:31:45.000  -74.525926392  163.457846151    26.2672   6  10   0.0873   0.0661   0.3396  -0.0444   0.1071  -0.1407   2.00    0.0
2018/11/12 00:32:00.000  -74.525926189  163.457845898    26.1320   6  10   0.0978   0.0729   0.3778  -0.0492   0.1191  -0.1581   2.00    0.0
2018/11/12 00:32:15.000  -74.525926252  163.457845524    26.1320   6  10   0.1035   0.0789   0.4170  -0.0569   0.1310  -0.1762   3.00    0.0
2018/11/12 00:32:30.000  -74.525926266  163.457845111    26.1105   6  10   0.1126   0.0855   0.4583  -0.0625   0.1435  -0.1936   3.00    0.0
2018/11/12 00:32:45.000  -74.525926374  163.457845240    26.1998   6  10   0.1028   0.0784   0.4359  -0.0566   0.1307  -0.1783   3.00    0.0
2018/11/12 00:33:00.000  -74.525926448  163.457845369    26.2838   6  10   0.0952   0.0718   0.3985  -0.0524   0.1208  -0.1665   0.00    0.0
2018/11/12 00:33:15.000  -74.525926534  163.457845967    26.3404   6  10   0.0842   0.0646   0.3527  -0.0460   0.1055  -0.1453   0.00    0.0
2018/11/12 00:33:30.000  -74.525926746  163.457846851    26.4442   6  10   0.0743   0.0576   0.3187  -0.0402   0.0918  -0.1279   0.00    0.0
2018/11/12 00:33:45.000  -74.525926820  163.457847040    26.4699   6  10   0.0648   0.0506   0.2945  -0.0348   0.0786  -0.1128   1.00    0.0
2018/11/12 00:34:00.000  -74.525926668  163.457846721    26.3875   6   9   0.0579   0.0440   0.2981  -0.0310   0.0707  -0.1081   4.00    0.0
2018/11/12 00:34:15.000  -74.525926732  163.457846958    26.4640   6   9   0.0499   0.0377   0.2424  -0.0276   0.0616  -0.0921   0.00    0.0
2018/11/12 00:34:30.000  -74.525926739  163.457846760    26.4830   6   9   0.0410   0.0314   0.2147  -0.0230   0.0500  -0.0771   0.00    0.0
2018/11/12 00:34:45.000  -74.525926649  163.457846981    26.2733   1   9   0.0348   0.0245   0.1307  -0.0186   0.0316  -0.0549   4.00    1.0
2018/11/12 00:35:00.000  -74.525926491  163.457846769    26.2255   6   9   0.0287   0.0236   0.1098  -0.0173   0.0325  -0.0439   0.00    0.0
2018/11/12 00:35:15.000  -74.525926448  163.457846674    26.2352   6   9   0.0317   0.0261   0.1238  -0.0185   0.0361  -0.0494   0.00    0.0
2018/11/12 00:35:30.000  -74.525926414  163.457846629    26.2409   6   9   0.0378   0.0308   0.1511  -0.0210   0.0429  -0.0603   0.00    0.0
2018/11/12 00:35:45.000  -74.525926260  163.457846489    26.2176   6   9   0.0455   0.0366   0.1849  -0.0242   0.0516  -0.0739   4.00    0.0
2018/11/12 00:36:00.000  -74.525926157  163.457846441    26.1986   6   9   0.0540   0.0428   0.2221  -0.0279   0.0611  -0.0891   4.00    0.0
2018/11/12 00:36:15.000  -74.525925970  163.457845989    26.0957   6   9   0.0629   0.0491   0.2611  -0.0319   0.0712  -0.1051   4.00    0.0
2018/11/12 00:36:30.000  -74.525925993  163.457845798    26.1026   6   9   0.0721   0.0554   0.3011  -0.0362   0.0814  -0.1217   5.00    0.0
2018/11/12 00:36:45.000  -74.525926109  163.457845312    26.1053   6  10   0.0657   0.0615   0.2531  -0.0370   0.0843  -0.0906   5.00    0.0
2018/11/12 00:37:00.000  -74.525926161  163.457845131    26.1005   6  10   0.0706   0.0673   0.2684  -0.0394   0.0903  -0.0938   5.00    0.0
2018/11/12 00:37:15.000  -74.525926158  163.457845578    26.1425   6  10   0.0762   0.0733   0.2881  -0.0424   0.0975  -0.0995   5.00    0.0
2018/11/12 00:37:30.000  -74.525926230  163.457845628    26.1717   6  10   0.0821   0.0793   0.3097  -0.0457   0.1053  -0.1063   5.00    0.0
2018/11/12 00:37:45.000  -74.525926322  163.457845371    26.1184   6  10   0.0755   0.0727   0.2839  -0.0416   0.0957  -0.0968   4.00    0.0
2018/11/12 00:38:00.000  -74.525926412  163.457845607    26.1224   6  10   0.0688   0.0663   0.2581  -0.0376   0.0863  -0.0875   4.00    0.0
2018/11/12 00:38:15.000  -74.525926379  163.457845797    26.1203   6  10   0.0623   0.0599   0.2326  -0.0338   0.0771  -0.0785   4.00    0.0
2018/11/12 00:38:30.000  -74.525926404  163.457846248    26.1982   6  10   0.0558   0.0536   0.2075  -0.0301   0.0680  -0.0698   4.00    0.0
2018/11/12 00:38:45.000  -74.525926477  163.457846307    26.1869   6  10   0.0493   0.0472   0.1828  -0.0267   0.0592  -0.0615   4.00    0.0
2018/11/12 00:39:00.000  -74.525926522  163.457846136    26.1755   6  10   0.0431   0.0410   0.1589  -0.0234   0.0507  -0.0538   4.00    0.0
2018/11/12 00:39:15.000  -74.525926558  163.457846515    26.1949   6  10   0.0371   0.0350   0.1361  -0.0205   0.0427  -0.0468   4.00    0.0
2018/11/12 00:39:30.000  -74.525926643  163.457847187    26.2209   1  10   0.0347   0.0298   0.1230  -0.0190   0.0338  -0.0454   4.00    1.0
2018/11/12 00:39:45.000  -74.525926598  163.457846968    26.2084   1  10   0.0293   0.0239   0.0974  -0.0154   0.0223  -0.0367   4.00    1.0
2018/11/12 00:40:00.000  -74.525926572  163.457846776    26.2025   1  10   0.0269   0.0211   0.0827  -0.0139   0.0147  -0.0319   4.00    1.0
2018/11/12 00:40:15.000  -74.525926502  163.457846897    26.2032   1  10   0.0298   0.0256   0.0992  -0.0164   0.0249  -0.0380   4.00    1.0
2018/11/12 00:40:30.000  -74.525926487  163.457846963    26.2169   1  10   0.0357   0.0302   0.1263  -0.0204   0.0365  -0.0478   5.00    1.0
2018/11/12 00:40:45.000  -74.525926369  163.457846735    26.2540   6  10   0.0370   0.0352   0.1304  -0.0209   0.0420  -0.0448   5.00    0.0
2018/11/12 00:41:00.000  -74.525926366  163.457846821    26.2838   6  10   0.0430   0.0417   0.1523  -0.0243   0.0503  -0.0519   4.00    0.0
2018/11/12 00:41:15.000  -74.525926344  163.457846922    26.2713   6  10   0.0499   0.0493   0.1774  -0.0293   0.0611  -0.0612   5.00    0.0
2018/11/12 00:41:30.000  -74.525926342  163.457846749    26.2670   6  10   0.0555   0.0531   0.2008  -0.0303   0.0662  -0.0681   5.00    0.0
2018/11/12 00:41:45.000  -74.525926271  163.457846854    26.2437   6  10   0.0612   0.0586   0.2223  -0.0326   0.0723  -0.0743   5.00    0.0
2018/11/12 00:42:00.000  -74.525926217  163.457846456    26.2266   6  10   0.0672   0.0643   0.2458  -0.0355   0.0795  -0.0819   5.00    0.0
2018/11/12 00:42:15.000  -74.525926228  163.457846464    26.2120   6  10   0.0734   0.0701   0.2702  -0.0388   0.0871  -0.0902   6.00    0.0
2018/11/12 00:42:30.000  -74.525926218  163.457846256    26.1604   6  10   0.0797   0.0760   0.2951  -0.0421   0.0949  -0.0988   6.00    0.0
2018/11/12 00:42:45.000  -74.525926275  163.457846090    26.1460   6  10   0.0731   0.0697   0.2679  -0.0383   0.0858  -0.0888   6.00    0.0
2018/11/12 00:43:00.000  -74.525926293  163.457846252    26.1126   6  10   0.0667   0.0635   0.2427  -0.0345   0.0769  -0.0799   6.00    0.0
2018/11/12 00:43:15.000  -74.525926378  163.457846569    26.1178   6  10   0.0604   0.0573   0.2178  -0.0309   0.0681  -0.0713   6.00    0.0
2018/11/12 00:43:30.000  -74.525926375  163.457846340    26.1171   6  10   0.0540   0.0511   0.1931  -0.0274   0.0595  -0.0629   6.00    0.0
2018/11/12 00:43:45.000  -74.525926332  163.457846106    26.0906   6  10   0.0478   0.0450   0.1690  -0.0241   0.0512  -0.0548   6.00    0.0
2018/11/12 00:44:00.000  -74.525926366  163.457846351    26.1301   6  10   0.0417   0.0389   0.1457  -0.0210   0.0431  -0.0474   6.00    0.0
2018/11/12 00:44:15.000  -74.525926395  163.457846570    26.1353   6  10   0.0360   0.0330   0.1236  -0.0183   0.0356  -0.0406   6.00    0.0
2018/11/12 00:44:30.000  -74.525926669  163.457846844    26.1921   1  10   0.0344   0.0280   0.1184  -0.0171   0.0280  -0.0427   5.00    1.0
2018/11/12 00:44:45.000  -74.525926753  163.457846782    26.1978   1  10   0.0293   0.0222   0.0930  -0.0138   0.0163  -0.0343   5.00    1.0
2018/11/12 00:45:00.000  -74.525926702  163.457846840    26.1994   1  10   0.0271   0.0195   0.0792  -0.0120   0.0070  -0.0300   5.00    1.0
2018/11/12 00:45:15.000  -74.525926442  163.457846395    26.1241   6  10   0.0273   0.0234   0.0853  -0.0145   0.0228  -0.0298   6.00    0.0
2018/11/12 00:45:30.000  -74.525926504  163.457846354    26.1274   6  10   0.0315   0.0279   0.1004  -0.0164   0.0279  -0.0341   6.00    0.0
2018/11/12 00:45:45.000  -74.525926425  163.457845839    26.0878   6  10   0.0368   0.0334   0.1198  -0.0190   0.0344  -0.0400   6.00    0.0
2018/11/12 00:46:00.000  -74.525926376  163.457845703    26.0699   6  10   0.0429   0.0396   0.1418  -0.0221   0.0420  -0.0472   6.00    0.0
2018/11/12 00:46:15.000  -74.525926358  163.457845654    26.0331   6  10   0.0497   0.0466   0.1661  -0.0266   0.0512  -0.0561   6.00    0.0
2018/11/12 00:46:30.000  -74.525926372  163.457845710    26.0274   6  10   0.0567   0.0526   0.1932  -0.0306   0.0605  -0.0667   6.00    0.0
2018/11/12 00:46:45.000  -74.525926354  163.457845352    26.0217   6  10   0.0634   0.0594   0.2176  -0.0349   0.0688  -0.0754   6.00    0.0
2018/11/12 00:47:00.000  -74.525926349  163.457845519    26.0253   6  10   0.0687   0.0625   0.2414  -0.0349   0.0726  -0.0821   6.00    0.0
2018/11/12 00:47:15.000  -74.525926298  163.457845888    26.0821   6  10   0.0745   0.0675   0.2646  -0.0368   0.0777  -0.0893   6.00    0.0
2018/11/12 00:47:30.000  -74.525926208  163.457845714    26.1014   6  10   0.0809   0.0729   0.2894  -0.0397   0.0841  -0.0978   6.00    0.0
2018/11/12 00:47:45.000  -74.525926215  163.457845986    26.0806   6  10   0.0757   0.0671   0.2650  -0.0364   0.0759  -0.0902   6.00    0.0
2018/11/12 00:48:00.000  -74.525926220  163.457846061    26.1067   6  10   0.0723   0.0612   0.2403  -0.0339   0.0682  -0.0840   6.00    0.0
2018/11/12 00:48:15.000  -74.525926168  163.457846618    26.0546   6  10   0.0616   0.0553   0.2165  -0.0293   0.0605  -0.0736   5.00    0.0
2018/11/12 00:48:30.000  -74.525926163  163.457846536    26.0850   6  10   0.0541   0.0493   0.1898  -0.0252   0.0518  -0.0627   5.00    0.0
2018/11/12 00:48:45.000  -74.525926184  163.457846588    26.0653   6  10   0.0474   0.0434   0.1648  -0.0217   0.0437  -0.0535   5.00    0.0
2018/11/12 00:49:00.000  -74.525926296  163.457846976    26.1002   6  10   0.0410   0.0375   0.1408  -0.0186   0.0360  -0.0452   5.00    0.0
2018/11/12 00:49:15.000  -74.525926368  163.457846786    26.1080   6  10   0.0349   0.0319   0.1182  -0.0159   0.0287  -0.0376   5.00    0.0
2018/11/12 00:49:30.000  -74.525926375  163.457846709    26.1107   6  10   0.0295   0.0266   0.0979  -0.0136   0.0221  -0.0312   5.00    0.0
2018/11/12 00:49:45.000  -74.525926651  163.457846442    26.2012   1  10   0.0262   0.0207   0.0829  -0.0133   0.0167  -0.0254   5.00    2.0
2018/11/12 00:50:00.000  -74.525926736  163.457846535    26.2154   1  10   0.0238   0.0217   0.0711  -0.0138   0.0200  -0.0213   4.00    1.0
2018/11/12 00:50:15.000  -74.525926717  163.457846127    26.1821   1  10   0.0273   0.0248   0.0885  -0.0156   0.0241  -0.0292   5.00    1.0
2018/11/12 00:50:30.000  -74.525926580  163.457845768    26.1530   1  10   0.0338   0.0307   0.1187  -0.0190   0.0318  -0.0419   5.00    1.0
2018/11/12 00:50:45.000  -74.525926342  163.457845594    26.0736   6  10   0.0355   0.0335   0.1186  -0.0168   0.0271  -0.0389   4.00    0.0
2018/11/12 00:51:00.000  -74.525926337  163.457845657    26.0705   6  10   0.0418   0.0400   0.1412  -0.0201   0.0340  -0.0468   5.00    0.0
2018/11/12 00:51:15.000  -74.525926378  163.457846018    26.1122   6  10   0.0487   0.0480   0.1656  -0.0252   0.0427  -0.0559   5.00    0.0
2018/11/12 00:51:30.000  -74.525926361  163.457846142    26.1064   6  10   0.0542   0.0495   0.1910  -0.0239   0.0464  -0.0642   4.00    0.0
2018/11/12 00:51:45.000  -74.525926303  163.457846189    26.1263   6  10   0.0601   0.0545   0.2149  -0.0255   0.0507  -0.0719   4.00    0.0
2018/11/12 00:52:00.000  -74.525926333  163.457846465    26.1105   6  10   0.0664   0.0598   0.2399  -0.0277   0.0558  -0.0805   4.00    0.0
2018/11/12 00:52:15.000  -74.525926302  163.457846444    26.0726   6  10   0.0727   0.0651   0.2655  -0.0301   0.0610  -0.0895   4.00    0.0
2018/11/12 00:52:30.000  -74.525926252  163.457846235    26.0318   6  10   0.0792   0.0705   0.2916  -0.0325   0.0660  -0.0988   4.00    0.0
2018/11/12 00:52:45.000  -74.525926306  163.457846105    26.0290   6  10   0.0736   0.0651   0.2698  -0.0281   0.0566  -0.0925   4.00    0.0
2018/11/12 00:53:00.000  -74.525926282  163.457846024    26.0439   6  10   0.0690   0.0599   0.2524  -0.0223   0.0442  -0.0892   4.00    0.0
2018/11/12 00:53:15.000  -74.525926432  163.457846005    26.1438   6  10   0.0608   0.0533   0.2241  -0.0237   0.0464  -0.0762   3.00    0.0
2018/11/12 00:53:30.000  -74.525926434  163.457846615    26.1679   6  10   0.0534   0.0476   0.1917  -0.0212   0.0405  -0.0632   4.00    0.0
2018/11/12 00:53:45.000  -74.525926444  163.457846295    26.1423   6  10   0.0467   0.0420   0.1642  -0.0185   0.0342  -0.0530   4.00    0.0
2018/11/12 00:54:00.000  -74.525926478  163.457845937    26.1288   6  10   0.0404   0.0364   0.1389  -0.0159   0.0278  -0.0439   4.00    0.0
2018/11/12 00:54:15.000  -74.525926733  163.457845809    26.2009   1  10   0.0387   0.0344   0.1388  -0.0183   0.0308  -0.0449   6.00    1.0
2018/11/12 00:54:30.000  -74.525926720  163.457845723    26.1769   1  10   0.0314   0.0280   0.1071  -0.0151   0.0232  -0.0332   6.00    1.0
2018/11/12 00:54:45.000  -74.525926651  163.457845572    26.1560   1  10   0.0257   0.0230   0.0803  -0.0128   0.0171  -0.0227   6.00    1.0
2018/11/12 00:55:00.000  -74.525926697  163.457846000    26.1836   1  10   0.0233   0.0204   0.0660  -0.0116   0.0136  -0.0167   6.00    1.0
2018/11/12 00:55:15.000  -74.525926696  163.457845650    26.1805   1  10   0.0261   0.0230   0.0822  -0.0123   0.0154  -0.0243   6.00    1.0
2018/11/12 00:55:30.000  -74.525926660  163.457846166    26.1212   1  10   0.0323   0.0282   0.1120  -0.0138   0.0188  -0.0369   6.00    1.0
2018/11/12 00:55:45.000  -74.525926460  163.457846289    26.0325   6  10   0.0347   0.0311   0.1150  -0.0109   0.0137  -0.0366   5.00    0.0
2018/11/12 00:56:00.000  -74.525926453  163.457846479    26.0585   6  10   0.0413   0.0368   0.1405  -0.0104   0.0131  -0.0468   5.00    0.0
2018/11/12 00:56:15.000  -74.525926462  163.457846464    26.0917   6  10   0.0476   0.0416   0.1688  -0.0139   0.0219  -0.0567   4.00    0.0
2018/11/12 00:56:30.000  -74.525926482  163.457846441    26.0417   6  10   0.0534   0.0471   0.1892  -0.0157   0.0264  -0.0632   4.00    0.0
2018/11/12 00:56:45.000  -74.525926424  163.457846187    26.0180   6  10   0.0599   0.0526   0.2137  -0.0168   0.0289  -0.0722   4.00    0.0
2018/11/12 00:57:00.000  -74.525926390  163.457846270    25.9669   6  10   0.0675   0.0585   0.2434  -0.0158   0.0257  -0.0847   4.00    0.0
2018/11/12 00:57:15.000  -74.525926480  163.457846134    26.0115   6  10   0.0719   0.0626   0.2641  -0.0236   0.0414  -0.0887   4.00    0.0
2018/11/12 00:57:30.000  -74.525926427  163.457846537    26.0203   6  10   0.0771   0.0677   0.2813  -0.0269   0.0482  -0.0927   4.00    0.0
2018/11/12 00:57:45.000  -74.525926413  163.457846307    26.0348   6  11   0.0613   0.0604   0.2171  -0.0102  -0.0048  -0.0473   4.00    0.0
2018/11/12 00:58:00.000  -74.525926372  163.457846327    26.0050   6  11   0.0552   0.0549   0.1914  -0.0070  -0.0148  -0.0367   4.00    0.0
2018/11/12 00:58:15.000  -74.525926340  163.457846241    26.0398   6  11   0.0497   0.0497   0.1695  -0.0058  -0.0157  -0.0297   4.00    0.0
2018/11/12 00:58:30.000  -74.525926390  163.457846300    26.0423   6  11   0.0445   0.0445   0.1491  -0.0056  -0.0152  -0.0243   4.00    0.0
2018/11/12 00:58:45.000  -74.525926406  163.457846050    26.0388   6  11   0.0394   0.0394   0.1298  -0.0059  -0.0141  -0.0199   4.00    0.0
2018/11/12 00:59:00.000  -74.525926582  163.457845628    26.0960   1  11   0.0375   0.0375   0.1332  -0.0045  -0.0080  -0.0212   8.00    2.0
2018/11/12 00:59:15.000  -74.525926637  163.457845498    26.0913   1  11   0.0312   0.0307   0.1083  -0.0039   0.0055  -0.0177   8.00    2.0
2018/11/12 00:59:30.000  -74.525926700  163.457845744    26.1228   1  11   0.0255   0.0245   0.0852  -0.0035   0.0100  -0.0141   8.00    2.0
2018/11/12 00:59:45.000  -74.525926683  163.457845582    26.1221   1  11   0.0213   0.0194   0.0658  -0.0028   0.0123  -0.0105   8.00    2.0
2018/11/12 01:00:00.000  -74.525926664  163.457845814    26.1543   1  11   0.0192   0.0170   0.0550  -0.0029   0.0136  -0.0082   7.00    2.0
2018/11/12 01:00:15.000  -74.525926635  163.457845765    26.1709   1  11   0.0213   0.0200   0.0654  -0.0045   0.0127  -0.0109   7.00    2.0
2018/11/12 01:00:30.000  -74.525926676  163.457846044    26.1901   1  11   0.0286   0.0262   0.0871  -0.0103   0.0143  -0.0211   7.00    1.0
2018/11/12 01:00:45.000  -74.525926638  163.457846197    26.1679   1  11   0.0337   0.0329   0.1098  -0.0113   0.0092  -0.0235   7.00    1.0
2018/11/12 01:01:00.000  -74.525926634  163.457846539    26.1801   1  11   0.0398   0.0407   0.1348  -0.0129  -0.0097  -0.0265   7.00    1.0
2018/11/12 01:01:15.000  -74.525926452  163.457846650    26.1149   6  12   0.0385   0.0398   0.1200  -0.0141  -0.0282  -0.0196   4.00    0.0
2018/11/12 01:01:30.000  -74.525926380  163.457846530    26.1312   6  12   0.0428   0.0430   0.1360  -0.0129  -0.0315  -0.0242   3.00    0.0
2018/11/12 01:01:45.000  -74.525926290  163.457846511    26.1090   6  12   0.0474   0.0475   0.1531  -0.0132  -0.0357  -0.0285   3.00    0.0
2018/11/12 01:02:00.000  -74.525926301  163.457846250    26.1090   6  12   0.0521   0.0521   0.1708  -0.0139  -0.0402  -0.0330   4.00    0.0
2018/11/12 01:02:15.000  -74.525926277  163.457846032    26.1333   6  12   0.0569   0.0568   0.1888  -0.0148  -0.0448  -0.0375   4.00    0.0
2018/11/12 01:02:30.000  -74.525926243  163.457846146    26.1502   6  12   0.0616   0.0615   0.2071  -0.0157  -0.0495  -0.0422   4.00    0.0
2018/11/12 01:02:45.000  -74.525926262  163.457846150    26.1432   6  12   0.0570   0.0567   0.1897  -0.0146  -0.0455  -0.0382   4.00    0.0
2018/11/12 01:03:00.000  -74.525926372  163.457845800    26.1563   6  12   0.0522   0.0520   0.1720  -0.0137  -0.0413  -0.0339   4.00    0.0
2018/11/12 01:03:15.000  -74.525926503  163.457845511    26.1215   6  12   0.0475   0.0474   0.1544  -0.0130  -0.0372  -0.0297   4.00    0.0
2018/11/12 01:03:30.000  -74.525926503  163.457845385    26.1167   6  12   0.0429   0.0431   0.1371  -0.0129  -0.0333  -0.0254   5.00    0.0
2018/11/12 01:03:45.000  -74.525926511  163.457845511    26.1080   6  12   0.0386   0.0396   0.1201  -0.0140  -0.0300  -0.0210   5.00    0.0
2018/11/12 01:04:00.000  -74.525926683  163.457845573    26.1854   1  12   0.0401   0.0396   0.1306  -0.0173  -0.0294  -0.0314   7.00    1.0
2018/11/12 01:04:15.000  -74.525926786  163.457845733    26.1589   1  12   0.0328   0.0278   0.1042  -0.0075  -0.0236  -0.0253   7.00    2.0
2018/11/12 01:04:30.000  -74.525926795  163.457845515    26.1363   1  12   0.0279   0.0216   0.0815  -0.0056  -0.0171  -0.0203   7.00    2.0
2018/11/12 01:04:45.000  -74.525926820  163.457845618    26.1312   1  12   0.0244   0.0163   0.0624  -0.0039  -0.0110  -0.0165   7.00    2.0
2018/11/12 01:05:00.000  -74.525926773  163.457845872    26.1757   1  12   0.0230   0.0136   0.0519  -0.0029  -0.0075  -0.0147   7.00    2.0
2018/11/12 01:05:15.000  -74.525926768  163.457845665    26.1697   1  12   0.0263   0.0196   0.0667  -0.0096   0.0095  -0.0217   7.00    1.0
2018/11/12 01:05:30.000  -74.525926857  163.457845741    26.1497   1  12   0.0306   0.0243   0.0854  -0.0105  -0.0105  -0.0259   7.00    1.0
2018/11/12 01:05:45.000  -74.525926827  163.457845988    26.1835   1  12   0.0366   0.0301   0.1085  -0.0112  -0.0207  -0.0319   7.00    1.0
2018/11/12 01:06:00.000  -74.525926975  163.457846323    26.2315   1  12   0.0447   0.0366   0.1351  -0.0110  -0.0300  -0.0412   7.00    1.0
2018/11/12 01:06:15.000  -74.525926760  163.457846343    26.1666   6  12   0.0391   0.0369   0.1221  -0.0096  -0.0295  -0.0254   5.00    0.0
2018/11/12 01:06:30.000  -74.525926747  163.457845984    26.1887   6  12   0.0436   0.0415   0.1390  -0.0102  -0.0339  -0.0283   5.00    0.0
2018/11/12 01:06:45.000  -74.525926790  163.457846273    26.1478   6  12   0.0483   0.0462   0.1569  -0.0108  -0.0386  -0.0322   6.00    0.0
2018/11/12 01:07:00.000  -74.525926724  163.457846452    26.0907   6  12   0.0532   0.0509   0.1753  -0.0117  -0.0435  -0.0366   6.00    0.0
2018/11/12 01:07:15.000  -74.525926610  163.457846090    26.0591   6  12   0.0582   0.0556   0.1940  -0.0127  -0.0484  -0.0412   6.00    0.0
2018/11/12 01:07:30.000  -74.525926612  163.457846240    26.0761   6  12   0.0635   0.0604   0.2130  -0.0139  -0.0535  -0.0458   6.00    0.0
2018/11/12 01:07:45.000  -74.525926645  163.457846015    26.0691   6  12   0.0604   0.0557   0.1945  -0.0142  -0.0488  -0.0408   6.00    0.0
2018/11/12 01:08:00.000  -74.525926604  163.457846341    26.0623   6  12   0.0569   0.0511   0.1760  -0.0147  -0.0440  -0.0366   5.00    0.0
2018/11/12 01:08:15.000  -74.525926663  163.457846502    26.0374   6  12   0.0487   0.0463   0.1577  -0.0116  -0.0393  -0.0329   5.00    0.0
2018/11/12 01:08:30.000  -74.525926602  163.457845873    26.0153   6  12   0.0436   0.0416   0.1396  -0.0106  -0.0348  -0.0282   5.00    0.0
2018/11/12 01:08:45.000  -74.525926571  163.457846118    26.0160   6  12   0.0392   0.0371   0.1219  -0.0104  -0.0304  -0.0238   5.00    0.0
2018/11/12 01:09:00.000  -74.525926552  163.457846014    26.0222   6  12   0.0359   0.0328   0.1049  -0.0109  -0.0263  -0.0193   5.00    0.0
2018/11/12 01:09:15.000  -74.525926589  163.457845749    26.0115   6  12   0.0292   0.0290   0.0889  -0.0105  -0.0223  -0.0170   5.00    0.0
2018/11/12 01:09:30.000  -74.525926790  163.457845668    26.1154   1  12   0.0269   0.0252   0.0876  -0.0060  -0.0285  -0.0183   7.00    1.0
2018/11/12 01:09:45.000  -74.525926657  163.457846055    26.0607   6  12   0.0216   0.0199   0.0641  -0.0065  -0.0155  -0.0127   4.00    0.0
2018/11/12 01:10:00.000  -74.525926608  163.457845917    26.0890   6  12   0.0202   0.0181   0.0588  -0.0064  -0.0141  -0.0119   4.00    0.0
2018/11/12 01:10:15.000  -74.525926567  163.457845720    26.0853   6  12   0.0218   0.0200   0.0644  -0.0073  -0.0158  -0.0129   4.00    0.0
2018/11/12 01:10:30.000  -74.525926533  163.457845779    26.0683   6  12   0.0250   0.0236   0.0755  -0.0079  -0.0189  -0.0148   4.00    0.0
2018/11/12 01:10:45.000  -74.525926427  163.457845425    26.0664   6  12   0.0290   0.0279   0.0898  -0.0088  -0.0231  -0.0173   4.00    0.0
2018/11/12 01:11:00.000  -74.525926483  163.457845212    26.0673   6  12   0.0335   0.0327   0.1063  -0.0100  -0.0281  -0.0201   4.00    0.0
2018/11/12 01:11:15.000  -74.525926483  163.457845259    26.0410   6  12   0.0383   0.0383   0.1245  -0.0122  -0.0347  -0.0224   5.00    0.0
2018/11/12 01:11:30.000  -74.525926496  163.457845395    26.0102   6  12   0.0427   0.0426   0.1433  -0.0115  -0.0398  -0.0272   6.00    0.0
2018/11/12 01:11:45.000  -74.525926438  163.457845440    26.0280   6  12   0.0473   0.0470   0.1612  -0.0117  -0.0439  -0.0322   6.00    0.0
2018/11/12 01:12:00.000  -74.525926421  163.457845828    26.0240   6  12   0.0521   0.0518   0.1799  -0.0124  -0.0490  -0.0368   6.00    0.0
2018/11/12 01:12:15.000  -74.525926478  163.457845931    26.0245   6  12   0.0569   0.0568   0.1990  -0.0135  -0.0546  -0.0413   6.00    0.0
2018/11/12 01:12:30.000  -74.525926492  163.457845839    26.0514   6  12   0.0619   0.0620   0.2187  -0.0152  -0.0607  -0.0456   6.00    0.0
2018/11/12 01:12:45.000  -74.525926613  163.457846235    26.0516   6  12   0.0575   0.0589   0.2012  -0.0173  -0.0590  -0.0385   6.00    0.0
2018/11/12 01:13:00.000  -74.525926690  163.457846705    26.0285   6  12   0.0521   0.0520   0.1808  -0.0119  -0.0504  -0.0370   6.00    0.0
2018/11/12 01:13:15.000  -74.525926673  163.457846770    26.0291   6  12   0.0473   0.0464   0.1608  -0.0097  -0.0433  -0.0339   6.00    0.0
2018/11/12 01:13:30.000  -74.525926619  163.457846978    26.0347   6  12   0.0428   0.0414   0.1421  -0.0088  -0.0375  -0.0304   6.00    0.0
2018/11/12 01:13:45.000  -74.525926619  163.457847254    25.9923   6  12   0.0386   0.0366   0.1243  -0.0087  -0.0322  -0.0275   6.00    0.0
2018/11/12 01:14:00.000  -74.525926627  163.457846827    25.9503   6  12   0.0354   0.0321   0.1079  -0.0097  -0.0268  -0.0264   6.00    0.0
2018/11/12 01:14:15.000  -74.525926737  163.457846355    26.0156   6  12   0.0288   0.0274   0.0917  -0.0066  -0.0238  -0.0195   5.00    0.0
2018/11/12 01:14:30.000  -74.525926778  163.457845960    26.0197   6  12   0.0247   0.0233   0.0769  -0.0062  -0.0203  -0.0156   5.00    0.0
2018/11/12 01:14:45.000  -74.525926635  163.457845714    26.0687   6  12   0.0218   0.0201   0.0663  -0.0062  -0.0177  -0.0136   5.00    0.0
2018/11/12 01:15:00.000  -74.525926645  163.457845762    26.0583   6  12   0.0205   0.0184   0.0618  -0.0064  -0.0162  -0.0130   5.00    0.0
2018/11/12 01:15:15.000  -74.525926623  163.457845953    26.0213   6  12   0.0223   0.0202   0.0674  -0.0070  -0.0176  -0.0148   5.00    0.0
2018/11/12 01:15:30.000  -74.525926580  163.457845978    25.9805   6  12   0.0263   0.0236   0.0784  -0.0084  -0.0199  -0.0184   5.00    0.0
2018/11/12 01:15:45.000  -74.525926562  163.457846078    26.0093   6  12   0.0312   0.0277   0.0940  -0.0096  -0.0228  -0.0243   5.00    0.0
2018/11/12 01:16:00.000  -74.525926467  163.457846197    26.0102   6  12   0.0332   0.0319   0.1084  -0.0071  -0.0281  -0.0236   6.00    0.0
2018/11/12 01:16:15.000  -74.525926478  163.457845664    26.0440   6  12   0.0375   0.0364   0.1243  -0.0070  -0.0327  -0.0263   6.00    0.0
2018/11/12 01:16:30.000  -74.525926492  163.457845165    26.0485   6  12   0.0420   0.0410   0.1416  -0.0070  -0.0375  -0.0302   6.00    0.0
2018/11/12 01:16:45.000  -74.525926484  163.457845167    26.0333   6  12   0.0467   0.0456   0.1596  -0.0072  -0.0425  -0.0344   6.00    0.0
2018/11/12 01:17:00.000  -74.525926555  163.457845507    26.0491   6  12   0.0514   0.0503   0.1779  -0.0076  -0.0476  -0.0389   6.00    0.0
2018/11/12 01:17:15.000  -74.525926585  163.457846032    25.9966   6  12   0.0562   0.0551   0.1964  -0.0080  -0.0528  -0.0436   6.00    0.0
2018/11/12 01:17:30.000  -74.525926512  163.457845819    26.0022   6  12   0.0610   0.0599   0.2151  -0.0086  -0.0580  -0.0483   6.00    0.0
2018/11/12 01:17:45.000  -74.525926483  163.457846289    25.9935   6  12   0.0562   0.0552   0.1962  -0.0083  -0.0531  -0.0434   6.00    0.0
2018/11/12 01:18:00.000  -74.525926501  163.457846166    25.9935   6  12   0.0514   0.0506   0.1774  -0.0084  -0.0479  -0.0387   7.00    0.0
2018/11/12 01:18:15.000  -74.525926487  163.457845576    26.0172   6  12   0.0468   0.0462   0.1589  -0.0092  -0.0427  -0.0341   7.00    0.0
2018/11/12 01:18:30.000  -74.525926331  163.457845296    26.0226   6  12   0.0426   0.0425   0.1409  -0.0116  -0.0374  -0.0300   6.00    0.0
2018/11/12 01:18:45.000  -74.525926355  163.457845901    26.0218   6  12   0.0377   0.0372   0.1235  -0.0095  -0.0328  -0.0258   5.00    0.0
2018/11/12 01:19:00.000  -74.525926608  163.457845901    26.1251   1  12   0.0397   0.0399   0.1359  -0.0133  -0.0366  -0.0409   6.00    1.0
2018/11/12 01:19:15.000  -74.525926583  163.457845959    26.0682   6  12   0.0285   0.0275   0.0917  -0.0064  -0.0251  -0.0179   5.00    0.0
2018/11/12 01:19:30.000  -74.525926611  163.457846257    26.0400   6  12   0.0246   0.0235   0.0789  -0.0064  -0.0220  -0.0150   5.00    0.0
2018/11/12 01:19:45.000  -74.525926657  163.457845875    26.0086   6  12   0.0220   0.0207   0.0699  -0.0068  -0.0196  -0.0132   5.00    0.0
2018/11/12 01:20:00.000  -74.525926612  163.457845629    26.0051   6  12   0.0203   0.0184   0.0667  -0.0050  -0.0189  -0.0119   5.00    0.0
2018/11/12 01:20:15.000  -74.525926621  163.457845549    26.0066   6  12   0.0219   0.0200   0.0730  -0.0055  -0.0207  -0.0122   5.00    0.0
2018/11/12 01:20:30.000  -74.525926547  163.457845453    25.9856   6  12   0.0249   0.0232   0.0837  -0.0056  -0.0236  -0.0135   5.00    0.0
2018/11/12 01:20:45.000  -74.525926533  163.457845401    25.9848   6  12   0.0286   0.0271   0.0972  -0.0056  -0.0270  -0.0159   5.00    0.0
2018/11/12 01:21:00.000  -74.525926546  163.457845507    26.0213   6  12   0.0328   0.0314   0.1125  -0.0053  -0.0310  -0.0192   5.00    0.0
2018/11/12 01:21:15.000  -74.525926538  163.457845466    26.0403   6  12   0.0372   0.0358   0.1289  -0.0048  -0.0355  -0.0231   5.00    0.0
2018/11/12 01:21:30.000  -74.525926650  163.457845503    26.0339   6  12   0.0417   0.0403   0.1460  -0.0044  -0.0402  -0.0273   5.00    0.0
2018/11/12 01:21:45.000  -74.525926694  163.457845469    26.0324   6  12   0.0464   0.0450   0.1636  -0.0041  -0.0451  -0.0318   5.00    0.0
2018/11/12 01:22:00.000  -74.525926571  163.457845871    26.0140   6  12   0.0511   0.0496   0.1814  -0.0040  -0.0502  -0.0364   5.00    0.0
2018/11/12 01:22:15.000  -74.525926527  163.457845955    25.9945   6  12   0.0558   0.0544   0.1995  -0.0041  -0.0553  -0.0410   5.00    0.0
2018/11/12 01:22:30.000  -74.525926512  163.457846184    26.0091   6  12   0.0607   0.0592   0.2177  -0.0043  -0.0606  -0.0456   5.00    0.0
2018/11/12 01:22:45.000  -74.525926536  163.457846509    26.0283   6  12   0.0559   0.0542   0.2006  -0.0046  -0.0554  -0.0404   5.00    0.0
2018/11/12 01:23:00.000  -74.525926570  163.457846438    26.0454   6  12   0.0512   0.0495   0.1846  -0.0047  -0.0508  -0.0349   5.00    0.0
2018/11/12 01:23:15.000  -74.525926651  163.457846290    26.0301   6  12   0.0466   0.0449   0.1707  -0.0053  -0.0466  -0.0289   5.00    0.0
2018/11/12 01:23:30.000  -74.525926625  163.457845890    26.0347   6  12   0.0423   0.0403   0.1619  -0.0066  -0.0435  -0.0203   5.00    0.0
2018/11/12 01:23:45.000  -74.525926632  163.457845716    26.0732   6  12   0.0381   0.0362   0.1529  -0.0062  -0.0421  -0.0217   0.00    0.0
2018/11/12 01:24:00.000  -74.525926559  163.457846236    26.0298   6  12   0.0350   0.0318   0.1369  -0.0088  -0.0371  -0.0113   0.00    0.0
2018/11/12 01:24:15.000  -74.525926470  163.457845971    26.0863   6  12   0.0304   0.0272   0.1002  -0.0069  -0.0279  -0.0217   0.00    0.0
2018/11/12 01:24:30.000  -74.525926561  163.457845765    26.0724   6  12   0.0246   0.0231   0.0832  -0.0040  -0.0237  -0.0163   0.00    0.0
2018/11/12 01:24:45.000  -74.525926549  163.457845476    26.0755   6  12   0.0217   0.0198   0.0724  -0.0044  -0.0209  -0.0144   0.00    0.0
2018/11/12 01:25:00.000  -74.525926505  163.457845482    26.0362   6  12   0.0205   0.0182   0.0677  -0.0044  -0.0194  -0.0138   2.00    0.0
2018/11/12 01:25:15.000  -74.525926523  163.457845362    26.0314   6  12   0.0220   0.0200   0.0728  -0.0048  -0.0208  -0.0145   4.00    0.0
2018/11/12 01:25:30.000  -74.525926537  163.457845209    26.0054   6  12   0.0249   0.0234   0.0823  -0.0052  -0.0234  -0.0159   4.00    0.0
2018/11/12 01:25:45.000  -74.525926583  163.457844983    26.0066   6  12   0.0287   0.0273   0.0945  -0.0055  -0.0267  -0.0179   4.00    0.0
2018/11/12 01:26:00.000  -74.525926510  163.457845131    25.9971   6  12   0.0328   0.0316   0.1085  -0.0056  -0.0305  -0.0207   5.00    0.0
2018/11/12 01:26:15.000  -74.525926538  163.457845378    25.9954   6  12   0.0372   0.0361   0.1235  -0.0057  -0.0346  -0.0242   5.00    0.0
2018/11/12 01:26:30.000  -74.525926545  163.457845169    25.9972   6  12   0.0417   0.0407   0.1394  -0.0061  -0.0389  -0.0281   5.00    0.0
2018/11/12 01:26:45.000  -74.525926543  163.457844825    25.9973   6  12   0.0465   0.0454   0.1557  -0.0071  -0.0434  -0.0324   5.00    0.0
2018/11/12 01:27:00.000  -74.525926588  163.457844971    25.9994   6  12   0.0514   0.0504   0.1724  -0.0090  -0.0477  -0.0371   6.00    0.0
2018/11/12 01:27:15.000  -74.525926539  163.457845438    25.9886   6  12   0.0568   0.0560   0.1896  -0.0132  -0.0514  -0.0426   7.00    0.0
2018/11/12 01:27:30.000  -74.525926554  163.457845609    25.9765   6  12   0.0616   0.0600   0.2067  -0.0119  -0.0567  -0.0471   6.00    0.0
2018/11/12 01:27:45.000  -74.525926585  163.457845775    25.9533   6  12   0.0561   0.0548   0.1889  -0.0075  -0.0529  -0.0412   6.00    0.0
2018/11/12 01:28:00.000  -74.525926553  163.457845889    25.9090   6  12   0.0512   0.0499   0.1717  -0.0055  -0.0486  -0.0362   6.00    0.0
2018/11/12 01:28:15.000  -74.525926604  163.457845988    25.8981   6  12   0.0464   0.0453   0.1551  -0.0047  -0.0443  -0.0315   6.00    0.0
2018/11/12 01:28:30.000  -74.525926543  163.457846091    25.8752   6  12   0.0417   0.0408   0.1393  -0.0048  -0.0404  -0.0270   6.00    0.0
2018/11/12 01:28:45.000  -74.525926517  163.457846148    25.8706   6  12   0.0373   0.0367   0.1246  -0.0059  -0.0372  -0.0224   6.00    0.0
2018/11/12 01:29:00.000  -74.525926517  163.457846059    25.8738   6  12   0.0333   0.0334   0.1123  -0.0082  -0.0359  -0.0168   6.00    0.0
2018/11/12 01:29:15.000  -74.525926562  163.457845875    25.9033   6  12   0.0293   0.0297   0.1022  -0.0076  -0.0343  -0.0145   6.00    0.0
2018/11/12 01:29:30.000  -74.525926624  163.457846315    25.8682   6  12   0.0254   0.0236   0.0866  -0.0024  -0.0258  -0.0176   6.00    0.0
2018/11/12 01:29:45.000  -74.525926498  163.457846047    25.9473   6  12   0.0229   0.0204   0.0781  -0.0029  -0.0230  -0.0172   6.00    0.0
2018/11/12 01:30:00.000  -74.525926443  163.457845624    25.9896   6  12   0.0222   0.0189   0.0749  -0.0037  -0.0217  -0.0174   7.00    0.0
2018/11/12 01:30:15.000  -74.525926405  163.457845366    26.0304   6  12   0.0245   0.0206   0.0807  -0.0044  -0.0235  -0.0192   7.00    0.0
2018/11/12 01:30:30.000  -74.525926372  163.457845625    25.9979   6  12   0.0282   0.0240   0.0904  -0.0048  -0.0263  -0.0211   7.00    0.0
2018/11/12 01:30:45.000  -74.525926417  163.457845826    25.9350   6  12   0.0324   0.0281   0.1026  -0.0048  -0.0296  -0.0231   7.00    0.0
2018/11/12 01:31:00.000  -74.525926418  163.457846326    25.8942   6  12   0.0370   0.0324   0.1164  -0.0043  -0.0335  -0.0253   7.00    0.0
2018/11/12 01:31:15.000  -74.525926412  163.457846047    25.9052   6  12   0.0418   0.0369   0.1314  -0.0031  -0.0375  -0.0273   7.00    0.0
2018/11/12 01:31:30.000  -74.525926495  163.457845837    25.9003   6  12   0.0474   0.0417   0.1477   0.0039  -0.0413  -0.0278   7.00    0.0
2018/11/12 01:31:45.000  -74.525926340  163.457846061    25.9257   6  11   0.0542   0.0465   0.1657   0.0030  -0.0457  -0.0248   6.00    0.0
2018/11/12 01:32:00.000  -74.525926444  163.457846182    25.8866   6  11   0.0602   0.0515   0.1824  -0.0046  -0.0501  -0.0278   5.00    0.0
2018/11/12 01:32:15.000  -74.525926465  163.457846341    25.9010   6  11   0.0645   0.0563   0.1994   0.0047  -0.0552  -0.0282   5.00    0.0
2018/11/12 01:32:30.000  -74.525926539  163.457846478    25.8527   6  11   0.0696   0.0613   0.2168   0.0059  -0.0605  -0.0284   5.00    0.0
2018/11/12 01:32:45.000  -74.525926516  163.457846456    25.8451   6  11   0.0652   0.0571   0.2027  -0.0077  -0.0584  -0.0232   6.00    0.0
2018/11/12 01:33:00.000  -74.525926392  163.457846408    25.8489   6  11   0.0619   0.0540   0.1917  -0.0148  -0.0589  -0.0076   5.00    0.0
2018/11/12 01:33:15.000  -74.525926291  163.457846270    25.8695   6  10   0.0602   0.0541   0.1928  -0.0239  -0.0680   0.0307   5.00    0.0
2018/11/12 01:33:30.000  -74.525926254  163.457845900    25.8523   6  10   0.0495   0.0486   0.1752  -0.0162  -0.0605   0.0169   5.00    0.0
2018/11/12 01:33:45.000  -74.525926433  163.457845740    25.8809   6  10   0.0436   0.0428   0.1597  -0.0042  -0.0573  -0.0145   4.00    0.0
2018/11/12 01:34:00.000  -74.525926419  163.457845257    25.9709   6   9   0.0405   0.0392   0.1675   0.0154  -0.0608  -0.0411   3.00    0.0
2018/11/12 01:34:15.000  -74.525926463  163.457845166    25.9815   6   9   0.0338   0.0329   0.1409   0.0126  -0.0503  -0.0333   3.00    0.0
2018/11/12 01:34:30.000  -74.525926431  163.457845725    25.9909   6   9   0.0275   0.0272   0.1175   0.0099  -0.0408  -0.0261   3.00    0.0
2018/11/12 01:34:45.000  -74.525926503  163.457845714    25.9863   6   9   0.0224   0.0225   0.0997   0.0075  -0.0335  -0.0201   3.00    0.0
2018/11/12 01:35:00.000  -74.525926600  163.457845630    25.9737   6   9   0.0199   0.0203   0.0919   0.0062  -0.0301  -0.0168   4.00    0.0
2018/11/12 01:35:15.000  -74.525926516  163.457845882    25.8833   6   9   0.0222   0.0227   0.1020   0.0076  -0.0342  -0.0196   4.00    0.0
2018/11/12 01:35:30.000  -74.525926421  163.457846333    25.8158   6   9   0.0269   0.0274   0.1203   0.0101  -0.0420  -0.0245   4.00    0.0
2018/11/12 01:35:45.000  -74.525926523  163.457846114    25.8406   6   9   0.0326   0.0333   0.1433   0.0129  -0.0520  -0.0303   4.00    0.0
2018/11/12 01:36:00.000  -74.525926583  163.457845741    25.9322   6   9   0.0387   0.0398   0.1693   0.0160  -0.0632  -0.0368   4.00    0.0
2018/11/12 01:36:15.000  -74.525926626  163.457845431    26.0022   6   9   0.0450   0.0467   0.1972   0.0190  -0.0752  -0.0436   5.00    0.0
2018/11/12 01:36:30.000  -74.525926701  163.457844970    26.0803   6   9   0.0515   0.0537   0.2263   0.0221  -0.0877  -0.0507   5.00    0.0
2018/11/12 01:36:45.000  -74.525926641  163.457845178    26.1056   6   9   0.0581   0.0610   0.2563   0.0252  -0.1004  -0.0580   5.00    0.0
2018/11/12 01:37:00.000  -74.525926658  163.457844942    26.1087   6   9   0.0647   0.0683   0.2869   0.0284  -0.1134  -0.0654   5.00    0.0
2018/11/12 01:37:15.000  -74.525926605  163.457845294    26.0707   6   9   0.0715   0.0757   0.3179   0.0316  -0.1265  -0.0729   5.00    0.0
2018/11/12 01:37:30.000  -74.525926564  163.457845124    26.0560   6   9   0.0784   0.0832   0.3492   0.0348  -0.1398  -0.0805   5.00    0.0
2018/11/12 01:37:45.000  -74.525926464  163.457845479    26.0021   6   9   0.0718   0.0762   0.3195   0.0320  -0.1277  -0.0733   5.00    0.0
2018/11/12 01:38:00.000  -74.525926474  163.457845413    26.0062   6   9   0.0650   0.0690   0.2893   0.0291  -0.1152  -0.0661   5.00    0.0
2018/11/12 01:38:15.000  -74.525926372  163.457845438    26.0003   6   9   0.0584   0.0619   0.2594   0.0261  -0.1027  -0.0590   5.00    0.0
2018/11/12 01:38:30.000  -74.525926223  163.457845721    25.9834   6   9   0.0518   0.0548   0.2301   0.0232  -0.0904  -0.0521   5.00    0.0
2018/11/12 01:38:45.000  -74.525926186  163.457845874    25.9736   6   9   0.0453   0.0478   0.2017   0.0202  -0.0782  -0.0453   5.00    0.0
2018/11/12 01:39:00.000  -74.525926344  163.457845806    25.9783   6   9   0.0390   0.0410   0.1747   0.0172  -0.0665  -0.0388   5.00    0.0
2018/11/12 01:39:15.000  -74.525926562  163.457845372    25.9749   6   9   0.0330   0.0345   0.1500   0.0143  -0.0555  -0.0328   5.00    0.0
2018/11/12 01:39:30.000  -74.525926522  163.457845442    25.9547   6   9   0.0273   0.0285   0.1290   0.0115  -0.0459  -0.0276   5.00    0.0
2018/11/12 01:39:45.000  -74.525926548  163.457845188    25.9640   6   9   0.0226   0.0238   0.1139   0.0091  -0.0389  -0.0234   5.00    0.0
2018/11/12 01:40:00.000  -74.525926593  163.457845649    25.9331   6   9   0.0203   0.0216   0.1087   0.0079  -0.0363  -0.0213   5.00    0.0
2018/11/12 01:40:15.000  -74.525926759  163.457845115    26.0091   6   9   0.0229   0.0243   0.1229   0.0094  -0.0416  -0.0251   5.00    0.0
2018/11/12 01:40:30.000  -74.525926864  163.457844617    26.0367   6   9   0.0279   0.0294   0.1463   0.0120  -0.0507  -0.0309   5.00    0.0
2018/11/12 01:40:45.000  -74.525926865  163.457844878    25.9694   6   9   0.0338   0.0357   0.1749   0.0151  -0.0621  -0.0376   5.00    0.0
2018/11/12 01:41:00.000  -74.525926866  163.457844840    25.8794   6   9   0.0401   0.0427   0.2067   0.0183  -0.0751  -0.0449   5.00    0.0
2018/11/12 01:41:15.000  -74.525926879  163.457844554    25.8672   6   9   0.0467   0.0501   0.2410   0.0216  -0.0892  -0.0524   5.00    0.0
2018/11/12 01:41:30.000  -74.525926768  163.457845002    25.8150   6   9   0.0536   0.0579   0.2782   0.0247  -0.1044  -0.0595   5.00    0.0
2018/11/12 01:41:45.000  -74.525926723  163.457845164    25.8110   6   9   0.0608   0.0663   0.3209   0.0270  -0.1217  -0.0645   5.00    0.0
2018/11/12 01:42:00.000  -74.525926462  163.457844963    25.9155   6   9   0.0682   0.0752   0.3593   0.0331  -0.1388  -0.0830   0.00    0.0
2018/11/12 01:42:15.000  -74.525926310  163.457845248    25.8785   6   9   0.0763   0.0814   0.3812   0.0372  -0.1473  -0.0956   0.00    0.0
2018/11/12 01:42:30.000  -74.525926253  163.457845746    25.8519   6   9   0.0859   0.0886   0.4210   0.0425  -0.1605  -0.1146   0.00    0.0
2018/11/12 01:42:45.000  -74.525926468  163.457845359    25.9873   6   9   0.0778   0.0808   0.3722   0.0391  -0.1451  -0.1000   3.00    0.0
2018/11/12 01:43:00.000  -74.525926576  163.457845132    25.9995   6   9   0.0688   0.0731   0.3314   0.0351  -0.1304  -0.0858   4.00    0.0
2018/11/12 01:43:15.000  -74.525926626  163.457844991    26.0023   6   9   0.0612   0.0655   0.2941   0.0314  -0.1161  -0.0750   3.00    0.0
2018/11/12 01:43:30.000  -74.525926762  163.457844563    26.0254   6   9   0.0540   0.0580   0.2582   0.0279  -0.1020  -0.0654   4.00    0.0
2018/11/12 01:43:45.000  -74.525926820  163.457844122    26.0767   6   9   0.0470   0.0506   0.2233   0.0244  -0.0881  -0.0565   4.00    0.0
2018/11/12 01:44:00.000  -74.525926767  163.457844074    26.0712   6   9   0.0404   0.0433   0.1895   0.0209  -0.0745  -0.0481   4.00    0.0
2018/11/12 01:44:15.000  -74.525926646  163.457844313    26.0363   6   9   0.0341   0.0363   0.1570   0.0174  -0.0612  -0.0401   4.00    0.0
2018/11/12 01:44:30.000  -74.525926540  163.457844862    25.9821   6   9   0.0282   0.0298   0.1269   0.0138  -0.0487  -0.0327   4.00    0.0
