% program   : RTKLIB ver.2.4.3
% inp file  : _by_type/_obs/blake/20181110.18o
% inp file  : _by_type/_sp3+clk/igs20266.clk
% inp file  : _by_type/_sp3+clk/igs20266.sp3
% inp file  : _by_type/_nav/blake/20181110.18n
% obs start : 2018/11/10 00:00:00.0 GPST (week2026 518400.0s)
% obs end   : 2018/11/10 23:59:45.0 GPST (week2026 604785.0s)
% pos mode  : ppp-kinematic
% solution  : combined
% elev mask : 15.0 deg
% dynamics  : off
% tidecorr  : on
% tropo opt : est ztd+grad
% ephemeris : precise
% navi sys  : gps glonass
% antenna1  :                       ( 0.0000  0.0000  0.0000)
%
% (lat/lon/height=WGS84/ellipsoidal,Q=1:fix,2:float,3:sbas,4:dgps,5:single,6:ppp,ns=# of satellites)
%  GPST                  latitude(deg) longitude(deg)  height(m)   Q  ns   sdn(m)   sde(m)   sdu(m)  sdne(m)  sdeu(m)  sdun(m) age(s)  ratio
2018/11/10 00:00:00.000  -74.407210208  163.437641786    79.5477   6  10   0.0723   0.0700   0.1772  -0.0175   0.0564  -0.0172   0.00    0.0
2018/11/10 00:00:15.000  -74.407210048  163.437641224    79.4899   6  10   0.0743   0.0715   0.1856  -0.0203   0.0607  -0.0294   0.00    0.0
2018/11/10 00:00:30.000  -74.407209852  163.437640809    79.4586   6  10   0.0778   0.0752   0.1991  -0.0248   0.0685  -0.0400   0.00    0.0
2018/11/10 00:00:45.000  -74.407209929  163.437641087    79.4635   6  10   0.0804   0.0793   0.2154  -0.0226   0.0765  -0.0415   0.00    0.0
2018/11/10 00:01:00.000  -74.407209956  163.437640120    79.3694   6  10   0.0833   0.0807   0.2295  -0.0313   0.0785  -0.0552   0.00    0.0
2018/11/10 00:01:15.000  -74.407209885  163.437639682    79.3039   6  10   0.0877   0.0858   0.2498  -0.0351   0.0872  -0.0633   0.00    0.0
2018/11/10 00:01:30.000  -74.407209975  163.437639646    79.3037   6  10   0.0924   0.0914   0.2717  -0.0391   0.0964  -0.0715   1.00    0.0
2018/11/10 00:01:45.000  -74.407209922  163.437640104    79.2883   6  10   0.0976   0.0974   0.2949  -0.0430   0.1059  -0.0798   1.00    0.0
2018/11/10 00:02:00.000  -74.407210003  163.437640506    79.3044   6  10   0.1030   0.1036   0.3188  -0.0470   0.1155  -0.0880   1.00    0.0
2018/11/10 00:02:15.000  -74.407209900  163.437640151    79.2665   6  10   0.1085   0.1100   0.3432  -0.0509   0.1250  -0.0961   2.00    0.0
2018/11/10 00:02:30.000  -74.407209729  163.437639519    79.2022   6  10   0.1142   0.1163   0.3676  -0.0546   0.1344  -0.1041   2.00    0.0
2018/11/10 00:02:45.000  -74.407209853  163.437639902    79.2438   6  10   0.1081   0.1092   0.3442  -0.0504   0.1247  -0.0965   2.00    0.0
2018/11/10 00:03:00.000  -74.407209799  163.437639604    79.2088   6  10   0.1024   0.1025   0.3210  -0.0464   0.1154  -0.0891   3.00    0.0
2018/11/10 00:03:15.000  -74.407209857  163.437640449    79.3189   6  10   0.0971   0.0962   0.2987  -0.0424   0.1062  -0.0820   3.00    0.0
2018/11/10 00:03:30.000  -74.407209991  163.437640733    79.3352   6  10   0.0925   0.0903   0.2775  -0.0385   0.0973  -0.0754   3.00    0.0
2018/11/10 00:03:45.000  -74.407210146  163.437641263    79.3917   6  10   0.0892   0.0849   0.2586  -0.0347   0.0889  -0.0710   2.00    0.0
2018/11/10 00:04:00.000  -74.407210185  163.437641731    79.3978   6  10   0.0847   0.0802   0.2407  -0.0314   0.0814  -0.0640   3.00    0.0
2018/11/10 00:04:15.000  -74.407210075  163.437641652    79.3830   6  10   0.0797   0.0763   0.2239  -0.0286   0.0749  -0.0542   3.00    0.0
2018/11/10 00:04:30.000  -74.407210122  163.437641702    79.4450   6  10   0.0772   0.0732   0.2118  -0.0261   0.0695  -0.0494   2.00    0.0
2018/11/10 00:04:45.000  -74.407209981  163.437641181    79.3989   6  10   0.0757   0.0713   0.2040  -0.0242   0.0656  -0.0463   2.00    0.0
2018/11/10 00:05:00.000  -74.407210012  163.437641203    79.4875   6  10   0.0749   0.0707   0.2002  -0.0236   0.0639  -0.0440   2.00    0.0
2018/11/10 00:05:15.000  -74.407210018  163.437641537    79.5327   6  10   0.0757   0.0720   0.2054  -0.0253   0.0663  -0.0468   3.00    0.0
2018/11/10 00:05:30.000  -74.407210110  163.437641804    79.5435   6  10   0.0781   0.0749   0.2155  -0.0285   0.0709  -0.0524   3.00    0.0
2018/11/10 00:05:45.000  -74.407210214  163.437641827    79.5766   6  10   0.0801   0.0774   0.2278  -0.0287   0.0742  -0.0559   2.00    0.0
2018/11/10 00:06:00.000  -74.407210113  163.437642120    79.5746   6  10   0.0840   0.0822   0.2447  -0.0311   0.0797  -0.0637   2.00    0.0
2018/11/10 00:06:15.000  -74.407210134  163.437642615    79.5807   6  10   0.0858   0.0858   0.2620  -0.0349   0.0884  -0.0674   2.00    0.0
2018/11/10 00:06:30.000  -74.407210233  163.437643205    79.6139   6  10   0.0894   0.0912   0.2810  -0.0376   0.0955  -0.0728   1.00    0.0
2018/11/10 00:06:45.000  -74.407210358  163.437643413    79.6528   6  10   0.0934   0.0983   0.3012  -0.0404   0.1019  -0.0785   1.00    0.0
2018/11/10 00:07:00.000  -74.407210319  163.437643095    79.6042   6  10   0.0976   0.1011   0.3209  -0.0437   0.1120  -0.0842   1.00    0.0
2018/11/10 00:07:15.000  -74.407210348  163.437642810    79.5609   6  10   0.1020   0.1069   0.3418  -0.0467   0.1199  -0.0902   4.00    0.0
2018/11/10 00:07:30.000  -74.407210391  163.437642488    79.5971   6  10   0.1065   0.1130   0.3632  -0.0497   0.1277  -0.0964   4.00    0.0
2018/11/10 00:07:45.000  -74.407210253  163.437642449    79.5503   6  10   0.1017   0.1099   0.3438  -0.0466   0.1183  -0.0907   3.00    0.0
2018/11/10 00:08:00.000  -74.407210199  163.437642002    79.4739   6  10   0.0971   0.1015   0.3238  -0.0438   0.1129  -0.0851   4.00    0.0
2018/11/10 00:08:15.000  -74.407210135  163.437641258    79.4131   6  10   0.0927   0.0979   0.3054  -0.0407   0.1041  -0.0796   3.00    0.0
2018/11/10 00:08:30.000  -74.407210027  163.437641010    79.4221   6  10   0.0887   0.0894   0.2865  -0.0380   0.0995  -0.0741   4.00    0.0
2018/11/10 00:08:45.000  -74.407210012  163.437641460    79.4720   6  10   0.0850   0.0848   0.2696  -0.0352   0.0925  -0.0687   4.00    0.0
2018/11/10 00:09:00.000  -74.407210049  163.437641533    79.4638   6  10   0.0818   0.0809   0.2541  -0.0326   0.0860  -0.0635   3.00    0.0
2018/11/10 00:09:15.000  -74.407210180  163.437641840    79.4930   6  10   0.0790   0.0776   0.2407  -0.0302   0.0801  -0.0585   3.00    0.0
2018/11/10 00:09:30.000  -74.407210232  163.437641580    79.5093   6  10   0.0768   0.0751   0.2297  -0.0279   0.0749  -0.0537   4.00    0.0
2018/11/10 00:09:45.000  -74.407210190  163.437641357    79.4713   6  10   0.0743   0.0737   0.2173  -0.0264   0.0714  -0.0434   3.00    0.0
2018/11/10 00:10:00.000  -74.407210233  163.437641791    79.5114   6  10   0.0731   0.0731   0.2128  -0.0254   0.0688  -0.0365   3.00    0.0
2018/11/10 00:10:15.000  -74.407210318  163.437641623    79.5362   6  10   0.0736   0.0748   0.2175  -0.0270   0.0697  -0.0339   3.00    0.0
2018/11/10 00:10:30.000  -74.407210272  163.437640965    79.5754   6  10   0.0754   0.0782   0.2272  -0.0300   0.0711  -0.0337   0.00    0.0
2018/11/10 00:10:45.000  -74.407210286  163.437640243    79.5715   6  10   0.0779   0.0826   0.2411  -0.0338   0.0739  -0.0343   0.00    0.0
2018/11/10 00:11:00.000  -74.407210235  163.437639943    79.5413   6  10   0.0810   0.0855   0.2531  -0.0361   0.0836  -0.0389   0.00    0.0
2018/11/10 00:11:15.000  -74.407210217  163.437638960    79.5317   6  10   0.0846   0.0905   0.2671  -0.0406   0.0885  -0.0447   0.00    0.0
2018/11/10 00:11:30.000  -74.407210190  163.437639153    79.5857   6  10   0.0879   0.0945   0.2880  -0.0421   0.0981  -0.0502   0.00    0.0
2018/11/10 00:11:45.000  -74.407210260  163.437639401    79.5830   6  10   0.0911   0.0996   0.2857  -0.0460   0.1041  -0.0696   0.00    0.0
2018/11/10 00:12:00.000  -74.407210088  163.437639072    79.5814   6  10   0.0965   0.1056   0.3071  -0.0515   0.1113  -0.0761   0.00    0.0
2018/11/10 00:12:15.000  -74.407209985  163.437638846    79.6056   6  10   0.1031   0.1127   0.3312  -0.0584   0.1206  -0.0855   0.00    0.0
2018/11/10 00:12:30.000  -74.407209876  163.437638736    79.5901   6  10   0.1085   0.1189   0.3558  -0.0631   0.1279  -0.0926   0.00    0.0
2018/11/10 00:12:45.000  -74.407209917  163.437639467    79.5792   6  10   0.1000   0.1099   0.3414  -0.0512   0.1141  -0.0854   2.00    0.0
2018/11/10 00:13:00.000  -74.407209950  163.437640629    79.5831   6  10   0.0937   0.1028   0.3137  -0.0456   0.1123  -0.0787   2.00    0.0
2018/11/10 00:13:15.000  -74.407209934  163.437640859    79.6214   6  10   0.0893   0.0991   0.2958  -0.0428   0.1051  -0.0719   2.00    0.0
2018/11/10 00:13:30.000  -74.407210214  163.437641090    79.6394   6  11   0.0849   0.0982   0.2745  -0.0415   0.1003  -0.0738   2.00    0.0
2018/11/10 00:13:45.000  -74.407210160  163.437640868    79.6219   6  11   0.0816   0.0918   0.2726  -0.0377   0.1075  -0.0760   2.00    0.0
2018/11/10 00:14:00.000  -74.407210342  163.437640693    79.7451   6  11   0.0800   0.0829   0.2284  -0.0340   0.0823  -0.0660   1.00    0.0
2018/11/10 00:14:15.000  -74.407210326  163.437640541    79.7179   6  11   0.0762   0.0779   0.2077  -0.0292   0.0756  -0.0558   1.00    0.0
2018/11/10 00:14:30.000  -74.407210402  163.437641500    79.7447   6  11   0.0742   0.0752   0.1962  -0.0266   0.0696  -0.0502   1.00    0.0
2018/11/10 00:14:45.000  -74.407210228  163.437641162    79.6547   6  11   0.0728   0.0732   0.1901  -0.0240   0.0662  -0.0477   1.00    0.0
2018/11/10 00:15:00.000  -74.407210069  163.437641400    79.5975   6  11   0.0723   0.0726   0.1884  -0.0235   0.0656  -0.0464   1.00    0.0
2018/11/10 00:15:15.000  -74.407209875  163.437640300    79.5313   6  11   0.0723   0.0730   0.1968  -0.0228   0.0678  -0.0487   3.00    0.0
2018/11/10 00:15:30.000  -74.407209716  163.437640388    79.4460   6  11   0.0738   0.0751   0.2106  -0.0249   0.0733  -0.0550   3.00    0.0
2018/11/10 00:15:45.000  -74.407209841  163.437640901    79.4582   6  11   0.0756   0.0778   0.2252  -0.0271   0.0789  -0.0610   3.00    0.0
2018/11/10 00:16:00.000  -74.407209756  163.437640485    79.3754   6  11   0.0780   0.0815   0.2414  -0.0291   0.0842  -0.0674   3.00    0.0
2018/11/10 00:16:15.000  -74.407209598  163.437639979    79.2884   6  11   0.0810   0.0864   0.2589  -0.0313   0.0896  -0.0746   3.00    0.0
2018/11/10 00:16:30.000  -74.407209551  163.437640815    79.2446   6  11   0.0840   0.0897   0.2753  -0.0345   0.0985  -0.0807   2.00    0.0
2018/11/10 00:16:45.000  -74.407209577  163.437640803    79.2476   6  11   0.0874   0.0945   0.2949  -0.0370   0.1049  -0.0881   2.00    0.0
2018/11/10 00:17:00.000  -74.407209515  163.437639783    79.2920   6  11   0.0908   0.0990   0.3105  -0.0418   0.1155  -0.0931   2.00    0.0
2018/11/10 00:17:15.000  -74.407209608  163.437639034    79.3058   6  11   0.0944   0.1058   0.3304  -0.0456   0.1233  -0.0999   2.00    0.0
2018/11/10 00:17:30.000  -74.407209720  163.437639148    79.3031   6  11   0.0985   0.1089   0.3510  -0.0490   0.1343  -0.1078   2.00    0.0
2018/11/10 00:17:45.000  -74.407209782  163.437639459    79.3150   6  11   0.0942   0.1032   0.3314  -0.0454   0.1258  -0.1001   2.00    0.0
2018/11/10 00:18:00.000  -74.407209692  163.437639488    79.2460   6  11   0.0902   0.0980   0.3122  -0.0421   0.1177  -0.0927   2.00    0.0
2018/11/10 00:18:15.000  -74.407209601  163.437639138    79.2477   6  11   0.0865   0.0934   0.2939  -0.0389   0.1099  -0.0857   2.00    0.0
2018/11/10 00:18:30.000  -74.407209715  163.437639656    79.3143   6  11   0.0831   0.0893   0.2769  -0.0359   0.1026  -0.0790   3.00    0.0
2018/11/10 00:18:45.000  -74.407209784  163.437639719    79.3460   6  11   0.0801   0.0862   0.2613  -0.0332   0.0956  -0.0728   3.00    0.0
2018/11/10 00:19:00.000  -74.407209897  163.437639920    79.4045   6  11   0.0774   0.0815   0.2472  -0.0305   0.0908  -0.0673   2.00    0.0
2018/11/10 00:19:15.000  -74.407209936  163.437639733    79.4201   6  11   0.0752   0.0785   0.2354  -0.0280   0.0856  -0.0622   3.00    0.0
2018/11/10 00:19:30.000  -74.407209902  163.437639809    79.4236   6  11   0.0734   0.0763   0.2260  -0.0259   0.0815  -0.0578   3.00    0.0
2018/11/10 00:19:45.000  -74.407209935  163.437639546    79.4104   6  11   0.0721   0.0748   0.2191  -0.0240   0.0784  -0.0540   3.00    0.0
2018/11/10 00:20:00.000  -74.407209985  163.437639813    79.4435   6  11   0.0713   0.0741   0.2160  -0.0229   0.0767  -0.0515   3.00    0.0
2018/11/10 00:20:15.000  -74.407209945  163.437639869    79.4370   6  11   0.0718   0.0749   0.2208  -0.0235   0.0785  -0.0532   5.00    0.0
2018/11/10 00:20:30.000  -74.407209823  163.437639540    79.3843   6  11   0.0730   0.0765   0.2294  -0.0251   0.0817  -0.0568   5.00    0.0
2018/11/10 00:20:45.000  -74.407209864  163.437639327    79.3771   6  11   0.0749   0.0788   0.2404  -0.0274   0.0861  -0.0618   5.00    0.0
2018/11/10 00:21:00.000  -74.407209879  163.437639264    79.4016   6  11   0.0773   0.0817   0.2538  -0.0303   0.0914  -0.0677   6.00    0.0
2018/11/10 00:21:15.000  -74.407209830  163.437639112    79.4093   6  11   0.0804   0.0853   0.2691  -0.0338   0.0976  -0.0744   6.00    0.0
2018/11/10 00:21:30.000  -74.407209829  163.437639060    79.4076   6  11   0.0840   0.0894   0.2869  -0.0378   0.1058  -0.0832   6.00    0.0
2018/11/10 00:21:45.000  -74.407209774  163.437637989    79.3543   6  11   0.0873   0.0934   0.3049  -0.0407   0.1129  -0.0904   6.00    0.0
2018/11/10 00:22:00.000  -74.407209764  163.437637995    79.3721   6  11   0.0911   0.0979   0.3244  -0.0441   0.1208  -0.0983   6.00    0.0
2018/11/10 00:22:15.000  -74.407209760  163.437638495    79.3480   6  11   0.0953   0.1028   0.3448  -0.0477   0.1292  -0.1065   6.00    0.0
2018/11/10 00:22:30.000  -74.407209694  163.437637324    79.2949   6  11   0.0997   0.1080   0.3660  -0.0516   0.1379  -0.1149   6.00    0.0
2018/11/10 00:22:45.000  -74.407209677  163.437637018    79.3324   6  11   0.0960   0.1033   0.3468  -0.0488   0.1285  -0.1069   6.00    0.0
2018/11/10 00:23:00.000  -74.407209801  163.437636569    79.3359   6  11   0.0929   0.0992   0.3298  -0.0467   0.1206  -0.1004   6.00    0.0
2018/11/10 00:23:15.000  -74.407209926  163.437637209    79.4264   6  11   0.0887   0.0938   0.3148  -0.0416   0.1122  -0.0936   5.00    0.0
2018/11/10 00:23:30.000  -74.407210088  163.437637439    79.4351   6  11   0.0851   0.0888   0.3013  -0.0360   0.1061  -0.0911   0.00    0.0
2018/11/10 00:23:45.000  -74.407209795  163.437636751    79.3391   6  11   0.0866   0.0868   0.3025  -0.0392   0.1082  -0.0998   0.00    0.0
2018/11/10 00:24:00.000  -74.407209837  163.437637692    79.3606   6  11   0.0824   0.0830   0.2828  -0.0327   0.0978  -0.0888   1.00    0.0
2018/11/10 00:24:15.000  -74.407209967  163.437639177    79.4217   6  11   0.0786   0.0802   0.2671  -0.0320   0.0953  -0.0794   1.00    0.0
2018/11/10 00:24:30.000  -74.407210087  163.437639123    79.4437   6  11   0.0737   0.0772   0.2488  -0.0257   0.0873  -0.0645   2.00    0.0
2018/11/10 00:24:45.000  -74.407210189  163.437639813    79.4941   6  11   0.0712   0.0755   0.2384  -0.0221   0.0828  -0.0558   2.00    0.0
2018/11/10 00:25:00.000  -74.407210187  163.437639938    79.5324   6  11   0.0699   0.0748   0.2328  -0.0206   0.0812  -0.0507   2.00    0.0
2018/11/10 00:25:15.000  -74.407210301  163.437640467    79.6284   6  11   0.0706   0.0759   0.2374  -0.0222   0.0836  -0.0535   3.00    0.0
2018/11/10 00:25:30.000  -74.407210341  163.437640302    79.6291   6  11   0.0723   0.0784   0.2477  -0.0258   0.0887  -0.0600   3.00    0.0
2018/11/10 00:25:45.000  -74.407210332  163.437639908    79.6400   6  11   0.0751   0.0817   0.2623  -0.0304   0.0957  -0.0690   3.00    0.0
2018/11/10 00:26:00.000  -74.407210300  163.437639981    79.6534   6  11   0.0851   0.0877   0.3082  -0.0434   0.1156  -0.1027   3.00    0.0
2018/11/10 00:26:15.000  -74.407210064  163.437639363    79.5690   6  11   0.0914   0.0934   0.3391  -0.0509   0.1293  -0.1198   3.00    0.0
2018/11/10 00:26:30.000  -74.407210141  163.437639524    79.6023   6  11   0.0927   0.0991   0.3489  -0.0528   0.1347  -0.1206   4.00    0.0
2018/11/10 00:26:45.000  -74.407209914  163.437639101    79.5004   6  11   0.1085   0.1096   0.4194  -0.0706   0.1664  -0.1622   4.00    0.0
2018/11/10 00:27:00.000  -74.407210134  163.437639326    79.5009   6  11   0.1072   0.1116   0.4232  -0.0675   0.1666  -0.1574   4.00    0.0
2018/11/10 00:27:15.000  -74.407210112  163.437639289    79.5218   6  11   0.1291   0.1259   0.5274  -0.0892   0.2088  -0.2142   4.00    0.0
2018/11/10 00:27:30.000  -74.407209352  163.437637619    79.1478   6  11   0.1775   0.1823   0.7910  -0.1533   0.3467  -0.3407   4.00    0.0
2018/11/10 00:27:45.000  -74.407209713  163.437638821    79.3341   6  11   0.1458   0.1395   0.5998  -0.1107   0.2487  -0.2558   4.00    0.0
2018/11/10 00:28:00.000  -74.407209682  163.437638661    79.3008   6  11   0.1286   0.1269   0.5189  -0.0947   0.2156  -0.2149   4.00    0.0
2018/11/10 00:28:15.000  -74.407209785  163.437639146    79.3659   6  11   0.1215   0.1203   0.4877  -0.0886   0.2020  -0.1992   5.00    0.0
2018/11/10 00:28:30.000  -74.407209818  163.437638791    79.3881   6  11   0.1168   0.1153   0.4616  -0.0842   0.1903  -0.1876   4.00    0.0
2018/11/10 00:28:45.000  -74.407209836  163.437638936    79.4093   6  11   0.1120   0.1106   0.4408  -0.0795   0.1814  -0.1802   3.00    0.0
2018/11/10 00:29:00.000  -74.407210148  163.437639824    79.5550   6  11   0.1071   0.1027   0.4217  -0.0721   0.1679  -0.1705   3.00    0.0
2018/11/10 00:29:15.000  -74.407209865  163.437639650    79.4276   6  11   0.1033   0.0981   0.4094  -0.0671   0.1602  -0.1635   2.00    0.0
2018/11/10 00:29:30.000  -74.407209582  163.437638412    79.2999   6  11   0.0884   0.0861   0.3074  -0.0490   0.1188  -0.1140   2.00    0.0
2018/11/10 00:29:45.000  -74.407209611  163.437638349    79.3715   6  11   0.0815   0.0814   0.2784  -0.0400   0.1040  -0.0939   2.00    0.0
2018/11/10 00:30:00.000  -74.407209651  163.437638708    79.3900   6  11   0.0778   0.0790   0.2642  -0.0343   0.0955  -0.0819   2.00    0.0
2018/11/10 00:30:15.000  -74.407209657  163.437639010    79.3330   6  11   0.0772   0.0793   0.2646  -0.0327   0.0951  -0.0780   2.00    0.0
2018/11/10 00:30:30.000  -74.407209567  163.437638480    79.2666   6  11   0.0780   0.0810   0.2793  -0.0338   0.0978  -0.0807   2.00    0.0
2018/11/10 00:30:45.000  -74.407209569  163.437637963    79.2759   6  11   0.0794   0.0835   0.2938  -0.0352   0.1007  -0.0840   2.00    0.0
2018/11/10 00:31:00.000  -74.407209641  163.437637568    79.2958   6  11   0.0813   0.0868   0.3083  -0.0368   0.1045  -0.0874   2.00    0.0
2018/11/10 00:31:15.000  -74.407209643  163.437637802    79.3382   6  11   0.0839   0.0908   0.3242  -0.0388   0.1102  -0.0908   2.00    0.0
2018/11/10 00:31:30.000  -74.407209707  163.437636835    79.4226   6  11   0.0868   0.0945   0.3398  -0.0421   0.1139  -0.0949   2.00    0.0
2018/11/10 00:31:45.000  -74.407209889  163.437637301    79.4828   6  11   0.0913   0.1032   0.3594  -0.0489   0.1185  -0.0971   1.00    0.0
2018/11/10 00:32:00.000  -74.407210361  163.437640687    79.2014   6  11   0.0934   0.1013   0.3842  -0.0456   0.1281  -0.1035   0.00    0.0
2018/11/10 00:32:15.000  -74.407210161  163.437640260    79.2268   6  11   0.0966   0.1051   0.3942  -0.0468   0.1361  -0.1116   0.00    0.0
2018/11/10 00:32:30.000  -74.407210035  163.437640037    79.2800   6  11   0.1005   0.1111   0.4090  -0.0486   0.1443  -0.1177   0.00    0.0
2018/11/10 00:32:45.000  -74.407209945  163.437641584    79.3188   6  11   0.0964   0.1086   0.3909  -0.0445   0.1382  -0.1120   0.00    0.0
2018/11/10 00:33:00.000  -74.407209858  163.437641456    79.3197   6  11   0.0926   0.1039   0.3746  -0.0425   0.1301  -0.1062   0.00    0.0
2018/11/10 00:33:15.000  -74.407209816  163.437642386    79.2930   6  11   0.0890   0.0971   0.3616  -0.0399   0.1225  -0.0996   1.00    0.0
2018/11/10 00:33:30.000  -74.407209780  163.437642516    79.2799   6  11   0.0857   0.0920   0.3477  -0.0376   0.1158  -0.0948   0.00    0.0
2018/11/10 00:33:45.000  -74.407209727  163.437642191    79.2113   6  11   0.0824   0.0881   0.3347  -0.0352   0.1102  -0.0912   3.00    0.0
2018/11/10 00:34:00.000  -74.407209727  163.437641945    79.2012   6  11   0.0797   0.0848   0.3242  -0.0330   0.1054  -0.0871   3.00    0.0
2018/11/10 00:34:15.000  -74.407209727  163.437641722    79.2193   6  11   0.0776   0.0822   0.3155  -0.0307   0.1016  -0.0832   3.00    0.0
2018/11/10 00:34:30.000  -74.407209676  163.437641371    79.1760   6  11   0.0759   0.0793   0.3084  -0.0288   0.0981  -0.0797   3.00    0.0
2018/11/10 00:34:45.000  -74.407209774  163.437641483    79.1717   6  11   0.0747   0.0775   0.3028  -0.0276   0.0959  -0.0776   3.00    0.0
2018/11/10 00:35:00.000  -74.407209780  163.437641419    79.1847   6  11   0.0739   0.0767   0.3010  -0.0267   0.0951  -0.0758   3.00    0.0
2018/11/10 00:35:15.000  -74.407209784  163.437640916    79.1436   6  11   0.0740   0.0772   0.3042  -0.0267   0.0964  -0.0756   3.00    0.0
2018/11/10 00:35:30.000  -74.407209757  163.437640724    79.1262   6  11   0.0748   0.0786   0.3104  -0.0277   0.0987  -0.0768   3.00    0.0
2018/11/10 00:35:45.000  -74.407209864  163.437641197    79.1447   6  11   0.0762   0.0808   0.3191  -0.0293   0.1017  -0.0790   3.00    0.0
2018/11/10 00:36:00.000  -74.407209787  163.437641067    79.0759   6  11   0.0782   0.0840   0.3354  -0.0318   0.1068  -0.0832   0.00    0.0
2018/11/10 00:36:15.000  -74.407209780  163.437641266    79.1153   6  11   0.0823   0.0914   0.3616  -0.0402   0.1227  -0.0963   0.00    0.0
2018/11/10 00:36:30.000  -74.407209836  163.437641160    79.1880   6  11   0.0860   0.0970   0.3763  -0.0451   0.1272  -0.1002   0.00    0.0
2018/11/10 00:36:45.000  -74.407210019  163.437643308    79.0952   6  11   0.0880   0.0995   0.3971  -0.0442   0.1296  -0.1018   0.00    0.0
2018/11/10 00:37:00.000  -74.407209932  163.437642825    79.1612   6  11   0.0928   0.1063   0.4239  -0.0508   0.1483  -0.1173   0.00    0.0
2018/11/10 00:37:15.000  -74.407209972  163.437643614    79.1132   6  11   0.0941   0.1057   0.4313  -0.0461   0.1461  -0.1142   0.00    0.0
2018/11/10 00:37:30.000  -74.407209893  163.437643205    79.1276   6  11   0.0975   0.1075   0.4274  -0.0454   0.1442  -0.1156   0.00    0.0
2018/11/10 00:37:45.000  -74.407209918  163.437642721    79.1412   6  11   0.0942   0.1018   0.4079  -0.0416   0.1352  -0.1098   0.00    0.0
2018/11/10 00:38:00.000  -74.407210060  163.437643279    79.1929   6  11   0.0925   0.0972   0.3954  -0.0399   0.1292  -0.1087   1.00    0.0
2018/11/10 00:38:15.000  -74.407209975  163.437643317    79.2122   6  10   0.1079   0.0970   0.4756  -0.0552   0.1515  -0.1671   3.00    0.0
2018/11/10 00:38:30.000  -74.407210143  163.437643123    79.2571   6  10   0.1008   0.0926   0.4511  -0.0498   0.1422  -0.1525   4.00    0.0
2018/11/10 00:38:45.000  -74.407210313  163.437643168    79.3886   6  10   0.0943   0.0887   0.4289  -0.0446   0.1338  -0.1387   4.00    0.0
2018/11/10 00:39:00.000  -74.407210414  163.437643164    79.4085   6  10   0.0886   0.0854   0.4095  -0.0398   0.1263  -0.1262   4.00    0.0
2018/11/10 00:39:15.000  -74.407210445  163.437643376    79.4728   6  10   0.0838   0.0826   0.3931  -0.0355   0.1197  -0.1153   4.00    0.0
2018/11/10 00:39:30.000  -74.407210665  163.437643889    79.6032   6  10   0.0804   0.0805   0.3837  -0.0318   0.1147  -0.1082   4.00    0.0
2018/11/10 00:39:45.000  -74.407210640  163.437644006    79.5954   6  10   0.0772   0.0800   0.3659  -0.0277   0.1119  -0.0962   3.00    0.0
2018/11/10 00:40:00.000  -74.407210606  163.437643759    79.5833   6  10   0.0755   0.0794   0.3600  -0.0268   0.1118  -0.0905   2.00    0.0
2018/11/10 00:40:15.000  -74.407210656  163.437643601    79.5915   6  10   0.0768   0.0800   0.3627  -0.0272   0.1128  -0.0927   2.00    0.0
2018/11/10 00:40:30.000  -74.407210612  163.437643778    79.5779   6  10   0.0810   0.0821   0.3707  -0.0264   0.1145  -0.0982   1.00    0.0
2018/11/10 00:40:45.000  -74.407210317  163.437642809    79.4215   6  10   0.0854   0.0846   0.3818  -0.0274   0.1176  -0.1075   1.00    0.0
2018/11/10 00:41:00.000  -74.407210387  163.437642930    79.4290   6  10   0.0910   0.0876   0.3979  -0.0294   0.1220  -0.1196   1.00    0.0
2018/11/10 00:41:15.000  -74.407210165  163.437643431    79.4151   6  10   0.1031   0.0980   0.4155   0.0142   0.1290  -0.1298   1.00    0.0
2018/11/10 00:41:30.000  -74.407210176  163.437643226    79.4230   6  10   0.1079   0.0996   0.4382  -0.0206   0.1347  -0.1449   1.00    0.0
2018/11/10 00:41:45.000  -74.407209979  163.437643895    79.3900   6  10   0.1133   0.1037   0.4495  -0.0299   0.1473  -0.1504   1.00    0.0
2018/11/10 00:42:00.000  -74.407209982  163.437644682    79.4414   6   9   0.1215   0.1094   0.5072  -0.0360   0.1566  -0.1717   1.00    0.0
2018/11/10 00:42:15.000  -74.407210030  163.437644543    79.4089   6   9   0.1325   0.1125   0.5515  -0.0425   0.1643  -0.1834   1.00    0.0
2018/11/10 00:42:30.000  -74.407209977  163.437644310    79.3247   6   9   0.1456   0.1188   0.5900  -0.0415   0.1708  -0.2007   1.00    0.0
2018/11/10 00:42:45.000  -74.407210424  163.437643315    79.2477   6   9   0.1450   0.1232   0.5813   0.0360   0.1898  -0.1424   1.00    0.0
2018/11/10 00:43:00.000  -74.407210102  163.437643547    79.3562   6   9   0.1296   0.1113   0.5321  -0.0178   0.1692  -0.1410   1.00    0.0
2018/11/10 00:43:15.000  -74.407210437  163.437642318    79.3048   6   9   0.1164   0.1040   0.4974  -0.0308   0.1547  -0.1325   1.00    0.0
2018/11/10 00:43:30.000  -74.407210576  163.437642672    79.4249   6   9   0.1070   0.1016   0.4639  -0.0316   0.1462  -0.1260   1.00    0.0
2018/11/10 00:43:45.000  -74.407210471  163.437646796    79.8282   6   9   0.1009   0.0936   0.4457  -0.0286   0.1408  -0.1159   0.00    0.0
2018/11/10 00:44:00.000  -74.407210316  163.437646559    79.8947   6   9   0.0878   0.0790   0.4399  -0.0427   0.1268  -0.1080   0.00    0.0
2018/11/10 00:44:15.000  -74.407210417  163.437646460    79.5540   6   9   0.0768   0.0706   0.3437  -0.0457   0.0756  -0.1180   0.00    0.0
2018/11/10 00:44:30.000  -74.407210310  163.437646335    79.5404   6   9   0.0724   0.0668   0.3179  -0.0441   0.0690  -0.1085   0.00    0.0
2018/11/10 00:44:45.000  -74.407210227  163.437646058    79.4760   6  10   0.0672   0.0655   0.2912  -0.0449   0.0650  -0.0939   0.00    0.0
2018/11/10 00:45:00.000  -74.407210210  163.437645688    79.4504   6  10   0.0660   0.0644   0.2876  -0.0449   0.0618  -0.0930   0.00    0.0
2018/11/10 00:45:15.000  -74.407210261  163.437645644    79.4659   6  10   0.0670   0.0660   0.2917  -0.0448   0.0642  -0.0941   1.00    0.0
2018/11/10 00:45:30.000  -74.407210371  163.437645054    79.4828   6  10   0.0699   0.0705   0.3018  -0.0461   0.0717  -0.0975   2.00    0.0
2018/11/10 00:45:45.000  -74.407210812  163.437646114    79.6290   6  10   0.0711   0.0708   0.2855  -0.0394   0.0485  -0.0840   2.00    0.0
2018/11/10 00:46:00.000  -74.407210787  163.437645165    79.5172   6  10   0.0780   0.0796   0.3224  -0.0422   0.0716  -0.0995   2.00    0.0
2018/11/10 00:46:15.000  -74.407210865  163.437648207    79.5143   6  10   0.0850   0.0699   0.3618  -0.0427   0.0813  -0.1112   2.00    0.0
2018/11/10 00:46:30.000  -74.407210647  163.437647863    79.5356   6  10   0.0926   0.0746   0.4032  -0.0450   0.0916  -0.1214   2.00    0.0
2018/11/10 00:46:45.000  -74.407210418  163.437647171    79.4823   6  10   0.1024   0.0805   0.4465  -0.0490   0.1026  -0.1325   3.00    0.0
2018/11/10 00:47:00.000  -74.407210672  163.437647491    79.4857   6  10   0.1149   0.0878   0.4966  -0.0557   0.1175  -0.1498   3.00    0.0
2018/11/10 00:47:15.000  -74.407210582  163.437647075    79.4971   6  10   0.1254   0.0955   0.5553  -0.0570   0.1331  -0.1583   3.00    0.0
2018/11/10 00:47:30.000  -74.407210616  163.437646724    79.3923   6  10   0.1289   0.1015   0.6618  -0.0704   0.1337  -0.1851   0.00    0.0
2018/11/10 00:47:45.000  -74.407210366  163.437645823    79.2712   6  10   0.1301   0.1002   0.4776  -0.0734   0.1418  -0.1988   0.00    0.0
2018/11/10 00:48:00.000  -74.407210525  163.437647181    79.2571   6  10   0.1365   0.1002   0.4756  -0.0824   0.1484  -0.2107   0.00    0.0
2018/11/10 00:48:15.000  -74.407210141  163.437646955    79.1265   6  10   0.1427   0.0944   0.4992  -0.0839   0.1511  -0.2287   0.00    0.0
2018/11/10 00:48:30.000  -74.407211310  163.437648779    79.4786   6  10   0.0833   0.0764   0.2958  -0.0484   0.0910  -0.1076   0.00    0.0
2018/11/10 00:48:45.000  -74.407211259  163.437648732    79.4882   6  10   0.0778   0.0731   0.2707  -0.0464   0.0839  -0.0986   2.00    0.0
2018/11/10 00:49:00.000  -74.407211267  163.437649415    79.5122   6  10   0.0725   0.0624   0.2451  -0.0373   0.0671  -0.0866   2.00    0.0
2018/11/10 00:49:15.000  -74.407211141  163.437649173    79.5332   6  10   0.0640   0.0579   0.2253  -0.0327   0.0592  -0.0811   2.00    0.0
2018/11/10 00:49:30.000  -74.407211220  163.437648635    79.5372   6  10   0.0599   0.0546   0.2101  -0.0302   0.0525  -0.0758   1.00    0.0
2018/11/10 00:49:45.000  -74.407211112  163.437648761    79.4583   6  10   0.0577   0.0529   0.2010  -0.0295   0.0495  -0.0734   2.00    0.0
2018/11/10 00:50:00.000  -74.407211017  163.437648685    79.4376   6  10   0.0568   0.0516   0.1981  -0.0283   0.0472  -0.0723   2.00    0.0
2018/11/10 00:50:15.000  -74.407210872  163.437648506    79.4404   6  10   0.0588   0.0531   0.2095  -0.0297   0.0518  -0.0781   2.00    0.0
2018/11/10 00:50:30.000  -74.407210785  163.437648545    79.4204   6  10   0.0631   0.0555   0.2267  -0.0324   0.0582  -0.0859   2.00    0.0
2018/11/10 00:50:45.000  -74.407210630  163.437648378    79.3689   6  10   0.0668   0.0595   0.2455  -0.0352   0.0671  -0.0957   2.00    0.0
2018/11/10 00:51:00.000  -74.407210434  163.437647653    79.2925   6  10   0.0721   0.0656   0.2670  -0.0400   0.0770  -0.1041   2.00    0.0
2018/11/10 00:51:15.000  -74.407210417  163.437647786    79.2687   6  10   0.0778   0.0717   0.2888  -0.0448   0.0864  -0.1122   2.00    0.0
2018/11/10 00:51:30.000  -74.407210053  163.437646822    79.1512   6  10   0.0838   0.0778   0.3111  -0.0494   0.0955  -0.1204   2.00    0.0
2018/11/10 00:51:45.000  -74.407210007  163.437646373    79.0919   6  10   0.0886   0.0790   0.3310  -0.0492   0.0986  -0.1259   3.00    0.0
2018/11/10 00:52:00.000  -74.407209759  163.437645677    79.0323   6  10   0.0964   0.0843   0.3538  -0.0533   0.1066  -0.1349   3.00    0.0
2018/11/10 00:52:15.000  -74.407209993  163.437645307    79.0232   6  10   0.0963   0.0900   0.3743  -0.0542   0.1134  -0.1376   2.00    0.0
2018/11/10 00:52:30.000  -74.407209721  163.437644230    78.9141   6  10   0.1026   0.0992   0.3985  -0.0609   0.1251  -0.1468   3.00    0.0
2018/11/10 00:52:45.000  -74.407210055  163.437646113    78.9841   6  10   0.0949   0.0872   0.3737  -0.0512   0.1092  -0.1363   3.00    0.0
2018/11/10 00:53:00.000  -74.407210031  163.437646004    79.0007   6  10   0.0892   0.0809   0.3517  -0.0468   0.1000  -0.1291   4.00    0.0
2018/11/10 00:53:15.000  -74.407210010  163.437645725    79.0070   6  10   0.0841   0.0758   0.3311  -0.0434   0.0919  -0.1229   4.00    0.0
2018/11/10 00:53:30.000  -74.407210153  163.437646116    79.0154   6  10   0.0797   0.0715   0.3126  -0.0409   0.0848  -0.1180   4.00    0.0
2018/11/10 00:53:45.000  -74.407210154  163.437645791    78.9805   6  10   0.0766   0.0692   0.2986  -0.0404   0.0804  -0.1157   6.00    0.0
2018/11/10 00:54:00.000  -74.407210260  163.437646430    78.9795   6  10   0.0745   0.0644   0.2928  -0.0373   0.0734  -0.1168   5.00    0.0
2018/11/10 00:54:15.000  -74.407210462  163.437646654    79.0632   6  10   0.0673   0.0566   0.2614  -0.0281   0.0558  -0.1025   4.00    0.0
2018/11/10 00:54:30.000  -74.407210575  163.437646818    79.1880   6  10   0.0592   0.0543   0.2221  -0.0252   0.0495  -0.0829   4.00    0.0
2018/11/10 00:54:45.000  -74.407210619  163.437647380    79.2416   6  10   0.0574   0.0514   0.2126  -0.0250   0.0449  -0.0805   4.00    0.0
2018/11/10 00:55:00.000  -74.407210780  163.437647978    79.3255   6  10   0.0569   0.0506   0.2090  -0.0244   0.0432  -0.0799   4.00    0.0
2018/11/10 00:55:15.000  -74.407210658  163.437647749    79.3084   6  10   0.0589   0.0522   0.2149  -0.0258   0.0463  -0.0831   4.00    0.0
2018/11/10 00:55:30.000  -74.407210448  163.437646869    79.2807   6  10   0.0614   0.0560   0.2256  -0.0289   0.0531  -0.0874   3.00    0.0
2018/11/10 00:55:45.000  -74.407210250  163.437646068    79.2641   6  10   0.0657   0.0617   0.2403  -0.0339   0.0630  -0.0938   3.00    0.0
2018/11/10 00:56:00.000  -74.407210169  163.437645914    79.2840   6  10   0.0710   0.0685   0.2577  -0.0395   0.0736  -0.1012   3.00    0.0
2018/11/10 00:56:15.000  -74.407210045  163.437645829    79.2502   6  10   0.0770   0.0763   0.2773  -0.0453   0.0850  -0.1095   3.00    0.0
2018/11/10 00:56:30.000  -74.407209806  163.437645214    79.1810   6  10   0.0836   0.0801   0.2966  -0.0494   0.0913  -0.1178   3.00    0.0
2018/11/10 00:56:45.000  -74.407209501  163.437644251    79.0418   6  10   0.0939   0.0894   0.3217  -0.0579   0.1052  -0.1316   3.00    0.0
2018/11/10 00:57:00.000  -74.407209847  163.437644759    79.0763   6  10   0.1006   0.1031   0.3452  -0.0657   0.1202  -0.1413   3.00    0.0
2018/11/10 00:57:15.000  -74.407209695  163.437646002    79.0712   6  10   0.1083   0.1066   0.3660  -0.0694   0.1242  -0.1508   3.00    0.0
2018/11/10 00:57:30.000  -74.407209547  163.437644229    78.9944   6  10   0.1137   0.1147   0.3892  -0.0758   0.1359  -0.1594   3.00    0.0
2018/11/10 00:57:45.000  -74.407209345  163.437643407    78.8990   6  10   0.1140   0.1180   0.3754  -0.0800   0.1402  -0.1605   3.00    0.0
2018/11/10 00:58:00.000  -74.407210175  163.437646558    79.1042   6  10   0.0917   0.0938   0.3342  -0.0534   0.1036  -0.1296   3.00    0.0
2018/11/10 00:58:15.000  -74.407210071  163.437645358    79.0961   6  10   0.0863   0.0931   0.3157  -0.0515   0.1017  -0.1233   3.00    0.0
2018/11/10 00:58:30.000  -74.407210221  163.437646568    79.1564   6  10   0.0776   0.0670   0.2886  -0.0354   0.0725  -0.1102   4.00    0.0
2018/11/10 00:58:45.000  -74.407210322  163.437646679    79.1345   6  10   0.0727   0.0610   0.2705  -0.0315   0.0650  -0.1040   4.00    0.0
2018/11/10 00:59:00.000  -74.407210355  163.437646378    79.1305   6  10   0.0685   0.0564   0.2542  -0.0283   0.0584  -0.0987   4.00    0.0
2018/11/10 00:59:15.000  -74.407210512  163.437646755    79.1683   6  10   0.0649   0.0527   0.2401  -0.0257   0.0527  -0.0942   4.00    0.0
2018/11/10 00:59:30.000  -74.407210620  163.437646619    79.1545   6  10   0.0622   0.0499   0.2288  -0.0237   0.0482  -0.0905   6.00    0.0
2018/11/10 00:59:45.000  -74.407210673  163.437646511    79.2069   6  10   0.0604   0.0481   0.2206  -0.0224   0.0453  -0.0877   6.00    0.0
2018/11/10 01:00:00.000  -74.407210776  163.437646477    79.2678   6  10   0.0598   0.0475   0.2169  -0.0223   0.0445  -0.0861   5.00    0.0
2018/11/10 01:00:15.000  -74.407210813  163.437646706    79.3306   6  10   0.0610   0.0488   0.2213  -0.0239   0.0467  -0.0869   4.00    0.0
2018/11/10 01:00:30.000  -74.407210735  163.437646324    79.2878   6  10   0.0637   0.0516   0.2329  -0.0269   0.0511  -0.0895   4.00    0.0
2018/11/10 01:00:45.000  -74.407210682  163.437645769    79.3236   6  10   0.0675   0.0554   0.2556  -0.0308   0.0573  -0.0938   4.00    0.0
2018/11/10 01:01:00.000  -74.407210455  163.437645260    79.3327   6  10   0.0727   0.0602   0.2412  -0.0352   0.0564  -0.1010   0.00    0.0
2018/11/10 01:01:15.000  -74.407210102  163.437644113    79.2166   6  10   0.0791   0.0669   0.2576  -0.0417   0.0683  -0.1088   0.00    0.0
2018/11/10 01:01:30.000  -74.407210035  163.437644591    79.2283   6  10   0.0863   0.0715   0.2756  -0.0457   0.0745  -0.1169   1.00    0.0
2018/11/10 01:01:45.000  -74.407209895  163.437643616    79.1849   6  10   0.0974   0.0784   0.3015  -0.0543   0.0873  -0.1319   1.00    0.0
2018/11/10 01:02:00.000  -74.407209972  163.437644693    79.1418   6  10   0.1060   0.0837   0.3250  -0.0599   0.0962  -0.1432   2.00    0.0
2018/11/10 01:02:15.000  -74.407210155  163.437645424    79.1949   6  10   0.1096   0.0845   0.3424  -0.0572   0.0949  -0.1471   2.00    0.0
2018/11/10 01:02:30.000  -74.407209799  163.437644123    79.1274   6  10   0.1150   0.0881   0.3629  -0.0579   0.0980  -0.1539   2.00    0.0
2018/11/10 01:02:45.000  -74.407209970  163.437644302    79.2000   6  10   0.1088   0.0842   0.3417  -0.0553   0.0932  -0.1462   2.00    0.0
2018/11/10 01:03:00.000  -74.407210173  163.437644277    79.2520   6  10   0.0974   0.0824   0.3148  -0.0517   0.0883  -0.1307   3.00    0.0
2018/11/10 01:03:15.000  -74.407210577  163.437645473    79.3058   6  10   0.0866   0.0728   0.2865  -0.0338   0.0682  -0.1131   3.00    0.0
2018/11/10 01:03:30.000  -74.407210895  163.437645569    79.3602   6  10   0.0676   0.0626   0.2493  -0.0281   0.0465  -0.0875   3.00    0.0
2018/11/10 01:03:45.000  -74.407210764  163.437646005    79.3652   6  10   0.0630   0.0587   0.2348  -0.0230   0.0340  -0.0839   3.00    0.0
2018/11/10 01:04:00.000  -74.407211017  163.437646620    79.4448   6  10   0.0572   0.0523   0.2160  -0.0196   0.0177  -0.0761   2.00    0.0
2018/11/10 01:04:15.000  -74.407211348  163.437646497    79.5317   6  10   0.0474   0.0481   0.1787  -0.0208   0.0212  -0.0535   2.00    0.0
2018/11/10 01:04:30.000  -74.407211430  163.437646647    79.5767   6  10   0.0432   0.0453   0.1635  -0.0192   0.0124  -0.0465   3.00    0.0
2018/11/10 01:04:45.000  -74.407211410  163.437646449    79.5961   6  10   0.0406   0.0437   0.1543  -0.0188   0.0045  -0.0423   3.00    0.0
2018/11/10 01:05:00.000  -74.407211477  163.437646840    79.6013   6  10   0.0384   0.0414   0.1506  -0.0146  -0.0170  -0.0379   3.00    0.0
2018/11/10 01:05:15.000  -74.407211456  163.437646980    79.5838   6  10   0.0387   0.0423   0.1594  -0.0143  -0.0122  -0.0418   2.00    0.0
2018/11/10 01:05:30.000  -74.407211279  163.437646752    79.5322   6  10   0.0427   0.0448   0.1755  -0.0165   0.0140  -0.0493   2.00    0.0
2018/11/10 01:05:45.000  -74.407211180  163.437646371    79.4834   6  11   0.0454   0.0473   0.1882  -0.0161   0.0155  -0.0505   2.00    0.0
2018/11/10 01:06:00.000  -74.407210945  163.437645951    79.3938   6  11   0.0507   0.0509   0.2081  -0.0178   0.0233  -0.0573   2.00    0.0
2018/11/10 01:06:15.000  -74.407210813  163.437645344    79.2807   6  11   0.0572   0.0555   0.2307  -0.0198   0.0301  -0.0652   4.00    0.0
2018/11/10 01:06:30.000  -74.407210921  163.437644690    79.2927   6  11   0.0595   0.0617   0.2552  -0.0244   0.0385  -0.0694   3.00    0.0
2018/11/10 01:06:45.000  -74.407210734  163.437644482    79.2259   6  11   0.0662   0.0684   0.2875  -0.0292   0.0447  -0.0790   4.00    0.0
2018/11/10 01:07:00.000  -74.407210564  163.437644523    79.1961   6  11   0.0741   0.0710   0.3303  -0.0311   0.0438  -0.0920   4.00    0.0
2018/11/10 01:07:15.000  -74.407210459  163.437643985    79.3541   6  11   0.0822   0.0772   0.3351  -0.0371   0.0495  -0.1026   0.00    0.0
2018/11/10 01:07:30.000  -74.407210895  163.437645725    79.6065   6  11   0.0742   0.0780   0.2946  -0.0194  -0.0177  -0.0614   0.00    0.0
2018/11/10 01:07:45.000  -74.407210951  163.437646071    79.5877   6  11   0.0687   0.0735   0.2709  -0.0169  -0.0182  -0.0563   0.00    0.0
2018/11/10 01:08:00.000  -74.407211069  163.437646438    79.6062   6  11   0.0635   0.0682   0.2511  -0.0148  -0.0215  -0.0519   1.00    0.0
2018/11/10 01:08:15.000  -74.407211244  163.437646702    79.6473   6  11   0.0584   0.0611   0.2318  -0.0112  -0.0330  -0.0468   4.00    0.0
2018/11/10 01:08:30.000  -74.407211298  163.437646699    79.6983   6  11   0.0535   0.0567   0.2173  -0.0104  -0.0339  -0.0427   4.00    0.0
2018/11/10 01:08:45.000  -74.407211398  163.437647092    79.7073   6  11   0.0489   0.0527   0.2069  -0.0099  -0.0350  -0.0384   5.00    0.0
2018/11/10 01:09:00.000  -74.407211486  163.437647270    79.7108   6  11   0.0446   0.0492   0.2066  -0.0097  -0.0372  -0.0332   5.00    0.0
2018/11/10 01:09:15.000  -74.407211579  163.437647480    79.6843   6  11   0.0407   0.0462   0.1744  -0.0096  -0.0358  -0.0325   0.00    0.0
2018/11/10 01:09:30.000  -74.407211675  163.437647557    79.7003   6  11   0.0375   0.0437   0.1707  -0.0093  -0.0356  -0.0298   0.00    0.0
2018/11/10 01:09:45.000  -74.407211669  163.437647327    79.6298   6  12   0.0353   0.0417   0.1426  -0.0092  -0.0375  -0.0300   0.00    0.0
2018/11/10 01:10:00.000  -74.407211674  163.437646935    79.6244   6  12   0.0345   0.0412   0.1434  -0.0094  -0.0364  -0.0298   0.00    0.0
2018/11/10 01:10:15.000  -74.407211647  163.437646865    79.6395   6  12   0.0357   0.0421   0.1522  -0.0103  -0.0362  -0.0327   1.00    0.0
2018/11/10 01:10:30.000  -74.407211633  163.437647258    79.6752   6  12   0.0385   0.0438   0.1672  -0.0118  -0.0364  -0.0375   3.00    0.0
2018/11/10 01:10:45.000  -74.407211500  163.437647249    79.6319   6  12   0.0424   0.0463   0.1902  -0.0137  -0.0379  -0.0437   4.00    0.0
2018/11/10 01:11:00.000  -74.407211323  163.437646898    79.5647   6  12   0.0475   0.0499   0.2221  -0.0161  -0.0442  -0.0516   0.00    0.0
2018/11/10 01:11:15.000  -74.407211063  163.437646332    79.4856   6  12   0.0546   0.0537   0.2552  -0.0191  -0.0466  -0.0656   0.00    0.0
2018/11/10 01:11:30.000  -74.407211073  163.437646194    79.6845   6  12   0.0578   0.0579   0.2279  -0.0205  -0.0434  -0.0638   0.00    0.0
2018/11/10 01:11:45.000  -74.407210742  163.437645764    79.5640   6  12   0.0658   0.0621   0.2449  -0.0244  -0.0366  -0.0770   0.00    0.0
2018/11/10 01:12:00.000  -74.407210709  163.437646056    79.5880   6  12   0.0723   0.0666   0.2619  -0.0276  -0.0335  -0.0859   0.00    0.0
2018/11/10 01:12:15.000  -74.407210752  163.437646222    79.6248   6  12   0.0743   0.0710   0.2707  -0.0278  -0.0374  -0.0841   3.00    0.0
2018/11/10 01:12:30.000  -74.407210339  163.437645821    79.4904   6  12   0.0824   0.0760   0.2928  -0.0314  -0.0344  -0.0965   4.00    0.0
2018/11/10 01:12:45.000  -74.407210894  163.437646212    79.6790   6  12   0.0703   0.0723   0.2652  -0.0254  -0.0361  -0.0738   4.00    0.0
2018/11/10 01:13:00.000  -74.407210830  163.437645976    79.6615   6  12   0.0658   0.0654   0.2436  -0.0239  -0.0485  -0.0672   5.00    0.0
2018/11/10 01:13:15.000  -74.407210880  163.437646296    79.6647   6  12   0.0626   0.0621   0.2312  -0.0251  -0.0471  -0.0645   3.00    0.0
2018/11/10 01:13:30.000  -74.407210944  163.437646399    79.6231   6  12   0.0592   0.0556   0.2229  -0.0199  -0.0447  -0.0660   3.00    0.0
2018/11/10 01:13:45.000  -74.407211373  163.437646516    79.7100   6  12   0.0492   0.0516   0.2009  -0.0146  -0.0466  -0.0473   3.00    0.0
2018/11/10 01:14:00.000  -74.407211351  163.437646458    79.7625   6  12   0.0453   0.0486   0.1922  -0.0141  -0.0453  -0.0431   3.00    0.0
2018/11/10 01:14:15.000  -74.407211398  163.437646129    79.7603   6  12   0.0423   0.0465   0.1904  -0.0149  -0.0451  -0.0396   3.00    0.0
2018/11/10 01:14:30.000  -74.407211440  163.437645965    79.6898   6  12   0.0402   0.0442   0.1659  -0.0148  -0.0375  -0.0407   0.00    0.0
2018/11/10 01:14:45.000  -74.407211571  163.437646199    79.7118   6  12   0.0361   0.0413   0.1587  -0.0098  -0.0344  -0.0373   0.00    0.0
2018/11/10 01:15:00.000  -74.407211605  163.437646190    79.6418   6  12   0.0348   0.0409   0.1590  -0.0096  -0.0323  -0.0362   1.00    0.0
2018/11/10 01:15:15.000  -74.407211589  163.437646204    79.5852   6  12   0.0363   0.0421   0.1691  -0.0105  -0.0311  -0.0399   2.00    0.0
2018/11/10 01:15:30.000  -74.407211516  163.437645796    79.5568   6  12   0.0386   0.0446   0.1843  -0.0118  -0.0304  -0.0440   3.00    0.0
2018/11/10 01:15:45.000  -74.407211427  163.437645674    79.4301   6  12   0.0427   0.0486   0.2047  -0.0142  -0.0305  -0.0501   4.00    0.0
2018/11/10 01:16:00.000  -74.407211232  163.437645180    79.3248   6  12   0.0478   0.0504   0.2270  -0.0135  -0.0312  -0.0576   4.00    0.0
2018/11/10 01:16:15.000  -74.407211431  163.437645593    79.4107   6  12   0.0476   0.0538   0.2408  -0.0099  -0.0397  -0.0465   4.00    0.0
2018/11/10 01:16:30.000  -74.407211300  163.437645954    79.4889   6  12   0.0517   0.0586   0.2896  -0.0094  -0.0563  -0.0528   0.00    0.0
2018/11/10 01:16:45.000  -74.407211198  163.437645849    79.4909   6  12   0.0562   0.0624   0.2960  -0.0090  -0.0623  -0.0580   0.00    0.0
2018/11/10 01:17:00.000  -74.407211121  163.437646317    79.4517   6  12   0.0606   0.0658   0.3149   0.0043  -0.0771  -0.0597   0.00    0.0
2018/11/10 01:17:15.000  -74.407210900  163.437644448    79.6556   6  12   0.0654   0.0735   0.3645   0.0113  -0.0982  -0.0661   0.00    0.0
2018/11/10 01:17:30.000  -74.407210831  163.437643892    79.6277   6  12   0.0707   0.0839   0.4158   0.0210  -0.1216  -0.0788   0.00    0.0
2018/11/10 01:17:45.000  -74.407210850  163.437644529    79.5488   6  12   0.0655   0.0764   0.4081   0.0117  -0.1040  -0.0616   0.00    0.0
2018/11/10 01:18:00.000  -74.407211051  163.437644917    79.7349   6  12   0.0607   0.0667   0.2601   0.0074  -0.0746  -0.0554   0.00    0.0
2018/11/10 01:18:15.000  -74.407211188  163.437645353    79.7468   6  12   0.0552   0.0588   0.2306  -0.0118  -0.0612  -0.0464   0.00    0.0
2018/11/10 01:18:30.000  -74.407211229  163.437646097    79.7872   6  12   0.0508   0.0543   0.2096  -0.0118  -0.0555  -0.0412   0.00    0.0
2018/11/10 01:18:45.000  -74.407211372  163.437646624    79.8076   6  12   0.0466   0.0504   0.1913  -0.0116  -0.0512  -0.0359   1.00    0.0
2018/11/10 01:19:00.000  -74.407211323  163.437646169    79.8551   6  12   0.0427   0.0471   0.1755  -0.0116  -0.0478  -0.0305   4.00    0.0
2018/11/10 01:19:15.000  -74.407211424  163.437645728    79.8619   6  12   0.0393   0.0445   0.1628  -0.0121  -0.0456  -0.0245   5.00    0.0
2018/11/10 01:19:30.000  -74.407211535  163.437646016    79.8560   6  12   0.0363   0.0417   0.1535  -0.0106  -0.0431  -0.0203   5.00    0.0
2018/11/10 01:19:45.000  -74.407211513  163.437645892    79.8381   6  12   0.0345   0.0402   0.1512  -0.0107  -0.0425  -0.0150   5.00    0.0
2018/11/10 01:20:00.000  -74.407211599  163.437646135    79.7924   6  12   0.0341   0.0392   0.1378  -0.0105  -0.0391  -0.0150   0.00    0.0
2018/11/10 01:20:15.000  -74.407211418  163.437645497    79.7744   6  12   0.0343   0.0399   0.1429  -0.0096  -0.0397  -0.0199   0.00    0.0
2018/11/10 01:20:30.000  -74.407211348  163.437644946    79.7573   6  12   0.0348   0.0420   0.1479  -0.0099  -0.0434  -0.0073   0.00    0.0
2018/11/10 01:20:45.000  -74.407211331  163.437645007    79.7337   6  12   0.0380   0.0451   0.1622  -0.0116  -0.0477  -0.0149   4.00    0.0
2018/11/10 01:21:00.000  -74.407211190  163.437644315    79.7323   6  12   0.0419   0.0488   0.1780  -0.0133  -0.0523  -0.0210   5.00    0.0
2018/11/10 01:21:15.000  -74.407211119  163.437644186    79.6984   6  12   0.0459   0.0523   0.1946  -0.0139  -0.0567  -0.0274   6.00    0.0
2018/11/10 01:21:30.000  -74.407211030  163.437643634    79.7124   6  12   0.0505   0.0568   0.2117  -0.0161  -0.0615  -0.0324   6.00    0.0
2018/11/10 01:21:45.000  -74.407210987  163.437643700    79.6360   6  12   0.0552   0.0626   0.2329  -0.0189  -0.0701  -0.0352   6.00    0.0
2018/11/10 01:22:00.000  -74.407210891  163.437644424    79.6124   6  12   0.0595   0.0654   0.2512  -0.0164  -0.0728  -0.0431   6.00    0.0
2018/11/10 01:22:15.000  -74.407210758  163.437644381    79.5788   6  12   0.0644   0.0700   0.2707  -0.0142  -0.0772  -0.0500   6.00    0.0
2018/11/10 01:22:30.000  -74.407210704  163.437644032    79.5737   6  12   0.0694   0.0765   0.2962  -0.0126  -0.0866  -0.0564   5.00    0.0
2018/11/10 01:22:45.000  -74.407210578  163.437643987    79.5778   6  12   0.0654   0.0733   0.2973  -0.0172  -0.0847  -0.0506   5.00    0.0
2018/11/10 01:23:00.000  -74.407210704  163.437644187    79.7043   6  12   0.0603   0.0718   0.3003  -0.0224  -0.0974  -0.0292   0.00    0.0
2018/11/10 01:23:15.000  -74.407210706  163.437644265    79.7011   6  12   0.0567   0.0699   0.2925  -0.0236  -0.0951  -0.0200   0.00    0.0
2018/11/10 01:23:30.000  -74.407210902  163.437644705    79.6784   6  12   0.0523   0.0672   0.2542  -0.0236  -0.0887  -0.0119   0.00    0.0
2018/11/10 01:23:45.000  -74.407211154  163.437644689    79.6213   6  12   0.0460   0.0558   0.2421  -0.0156  -0.0754  -0.0151   0.00    0.0
2018/11/10 01:24:00.000  -74.407211307  163.437644464    79.6561   6  12   0.0415   0.0488   0.2104  -0.0078  -0.0601  -0.0221   0.00    0.0
2018/11/10 01:24:15.000  -74.407211349  163.437644470    79.7649   6  12   0.0375   0.0439   0.1624  -0.0089  -0.0460  -0.0174   0.00    0.0
2018/11/10 01:24:30.000  -74.407211420  163.437644373    79.7625   6  12   0.0346   0.0415   0.1524  -0.0085  -0.0431  -0.0109   0.00    0.0
2018/11/10 01:24:45.000  -74.407211479  163.437644702    79.7672   6  12   0.0324   0.0393   0.1488  -0.0057  -0.0402  -0.0095   0.00    0.0
2018/11/10 01:25:00.000  -74.407211490  163.437645588    79.7644   6  12   0.0314   0.0386   0.1458  -0.0062  -0.0394  -0.0069   0.00    0.0
2018/11/10 01:25:15.000  -74.407211421  163.437645699    79.7488   6  12   0.0323   0.0396   0.1518  -0.0062  -0.0413  -0.0121   0.00    0.0
2018/11/10 01:25:30.000  -74.407211361  163.437645583    79.6936   6  12   0.0344   0.0417   0.1673  -0.0064  -0.0447  -0.0175   0.00    0.0
2018/11/10 01:25:45.000  -74.407211280  163.437645674    79.6088   6  12   0.0375   0.0443   0.1610  -0.0073  -0.0432  -0.0217   0.00    0.0
2018/11/10 01:26:00.000  -74.407211153  163.437645690    79.5492   6  12   0.0411   0.0479   0.1712  -0.0080  -0.0462  -0.0273   0.00    0.0
2018/11/10 01:26:15.000  -74.407211030  163.437646005    79.5271   6  12   0.0453   0.0528   0.1844  -0.0089  -0.0512  -0.0325   0.00    0.0
2018/11/10 01:26:30.000  -74.407210882  163.437645326    79.5304   6  12   0.0498   0.0576   0.2001  -0.0153  -0.0562  -0.0352   4.00    0.0
2018/11/10 01:26:45.000  -74.407210834  163.437646508    79.5036   6  12   0.0540   0.0621   0.2166  -0.0167  -0.0636  -0.0381   4.00    0.0
2018/11/10 01:27:00.000  -74.407210716  163.437646179    79.4990   6  12   0.0587   0.0670   0.2329  -0.0194  -0.0694  -0.0411   6.00    0.0
2018/11/10 01:27:15.000  -74.407210737  163.437646563    79.4301   6  12   0.0629   0.0702   0.2478  -0.0185  -0.0697  -0.0490   7.00    0.0
2018/11/10 01:27:30.000  -74.407210640  163.437646765    79.4172   6  12   0.0672   0.0730   0.2607  -0.0167  -0.0739  -0.0533   7.00    0.0
2018/11/10 01:27:45.000  -74.407210698  163.437646286    79.4661   6  12   0.0627   0.0691   0.2452  -0.0162  -0.0708  -0.0483   7.00    0.0
2018/11/10 01:28:00.000  -74.407210784  163.437646187    79.4832   6  12   0.0585   0.0666   0.2322  -0.0176  -0.0701  -0.0412   7.00    0.0
2018/11/10 01:28:15.000  -74.407210951  163.437646376    79.4838   6  12   0.0538   0.0629   0.2164  -0.0150  -0.0649  -0.0386   7.00    0.0
2018/11/10 01:28:30.000  -74.407211005  163.437646146    79.5156   6  12   0.0500   0.0619   0.2033  -0.0157  -0.0625  -0.0338   7.00    0.0
2018/11/10 01:28:45.000  -74.407211185  163.437646502    79.5747   6  12   0.0452   0.0536   0.1868  -0.0062  -0.0551  -0.0317   6.00    0.0
2018/11/10 01:29:00.000  -74.407211357  163.437645884    79.5953   6  12   0.0410   0.0480   0.1734  -0.0092  -0.0486  -0.0257   6.00    0.0
2018/11/10 01:29:15.000  -74.407211563  163.437645809    79.6432   6  12   0.0377   0.0460   0.1641  -0.0093  -0.0469  -0.0200   5.00    0.0
2018/11/10 01:29:30.000  -74.407211595  163.437645263    79.6591   6  12   0.0348   0.0417   0.1543  -0.0105  -0.0401  -0.0141   5.00    0.0
2018/11/10 01:29:45.000  -74.407211564  163.437645279    79.6531   6  12   0.0326   0.0390   0.1492  -0.0082  -0.0380  -0.0096   6.00    0.0
2018/11/10 01:30:00.000  -74.407211558  163.437645448    79.6626   6  12   0.0319   0.0382   0.1492  -0.0068  -0.0375  -0.0079   6.00    0.0
2018/11/10 01:30:15.000  -74.407211574  163.437645513    79.6649   6  12   0.0328   0.0394   0.1581  -0.0080  -0.0426  -0.0124   5.00    0.0
2018/11/10 01:30:30.000  -74.407211552  163.437645848    79.6700   6  12   0.0351   0.0426   0.1784  -0.0089  -0.0513  -0.0127   0.00    0.0
2018/11/10 01:30:45.000  -74.407211499  163.437645645    79.6212   6  12   0.0377   0.0434   0.1919  -0.0019  -0.0513  -0.0224   0.00    0.0
2018/11/10 01:31:00.000  -74.407211454  163.437645665    79.6511   6  12   0.0409   0.0452   0.1997  -0.0051  -0.0524  -0.0278   0.00    0.0
2018/11/10 01:31:15.000  -74.407211319  163.437645924    79.5981   6  12   0.0447   0.0482   0.2164  -0.0061  -0.0558  -0.0306   0.00    0.0
2018/11/10 01:31:30.000  -74.407211132  163.437645157    79.6473   6  12   0.0487   0.0518   0.2334  -0.0064  -0.0606  -0.0354   0.00    0.0
2018/11/10 01:31:45.000  -74.407211010  163.437644977    79.6252   6  12   0.0530   0.0555   0.2520  -0.0074  -0.0647  -0.0378   0.00    0.0
2018/11/10 01:32:00.000  -74.407210952  163.437645231    79.5982   6  12   0.0573   0.0598   0.2867  -0.0083  -0.0742  -0.0407   0.00    0.0
2018/11/10 01:32:15.000  -74.407210922  163.437645369    79.5602   6  12   0.0617   0.0637   0.2916  -0.0082  -0.0760  -0.0466   0.00    0.0
2018/11/10 01:32:30.000  -74.407210895  163.437645347    79.4933   6  12   0.0663   0.0678   0.3109  -0.0093  -0.0805  -0.0490   0.00    0.0
2018/11/10 01:32:45.000  -74.407210868  163.437645321    79.5967   6  12   0.0617   0.0634   0.2860  -0.0076  -0.0740  -0.0467   0.00    0.0
2018/11/10 01:33:00.000  -74.407210954  163.437645290    79.5337   6  12   0.0573   0.0594   0.2724  -0.0081  -0.0685  -0.0412   0.00    0.0
2018/11/10 01:33:15.000  -74.407210995  163.437644985    79.5630   6  12   0.0531   0.0558   0.2337  -0.0087  -0.0592  -0.0413   0.00    0.0
2018/11/10 01:33:30.000  -74.407211054  163.437645293    79.5287   6  12   0.0487   0.0511   0.2150  -0.0051  -0.0539  -0.0370   0.00    0.0
2018/11/10 01:33:45.000  -74.407211132  163.437645224    79.5212   6  12   0.0448   0.0476   0.2027  -0.0043  -0.0501  -0.0327   0.00    0.0
2018/11/10 01:34:00.000  -74.407211359  163.437645822    79.4948   6  12   0.0413   0.0447   0.1977  -0.0050  -0.0469  -0.0287   1.00    0.0
2018/11/10 01:34:15.000  -74.407211482  163.437645869    79.5947   6  12   0.0382   0.0419   0.1768  -0.0035  -0.0456  -0.0249   0.00    0.0
2018/11/10 01:34:30.000  -74.407211566  163.437646291    79.6090   6  12   0.0356   0.0382   0.1660   0.0081  -0.0480  -0.0136   1.00    0.0
2018/11/10 01:34:45.000  -74.407211644  163.437645977    79.6335   6  12   0.0328   0.0357   0.1494   0.0077  -0.0484  -0.0126   0.00    0.0
2018/11/10 01:35:00.000  -74.407211898  163.437646246    79.6185   6  12   0.0319   0.0348   0.1465   0.0089  -0.0481  -0.0093   0.00    0.0
2018/11/10 01:35:15.000  -74.407211941  163.437646282    79.5781   6  12   0.0334   0.0362   0.1503   0.0086  -0.0480  -0.0145   0.00    0.0
2018/11/10 01:35:30.000  -74.407211781  163.437646102    79.5174   6  12   0.0364   0.0385   0.1578   0.0089  -0.0487  -0.0177   0.00    0.0
2018/11/10 01:35:45.000  -74.407211755  163.437646028    79.4754   6  12   0.0376   0.0424   0.1701   0.0090  -0.0492  -0.0239   2.00    0.0
2018/11/10 01:36:00.000  -74.407211717  163.437646045    79.4160   6  12   0.0413   0.0461   0.1862   0.0051  -0.0529  -0.0246   3.00    0.0
2018/11/10 01:36:15.000  -74.407211630  163.437645442    79.4767   6  12   0.0455   0.0513   0.1992  -0.0067  -0.0579  -0.0297   0.00    0.0
2018/11/10 01:36:30.000  -74.407211710  163.437645476    79.4403   6  12   0.0507   0.0575   0.2116  -0.0144  -0.0604  -0.0322   0.00    0.0
2018/11/10 01:36:45.000  -74.407211607  163.437645428    79.4105   6  12   0.0563   0.0674   0.2352  -0.0222  -0.0713  -0.0312   0.00    0.0
2018/11/10 01:37:00.000  -74.407211540  163.437645247    79.3664   6  12   0.0601   0.0688   0.2423  -0.0148  -0.0578  -0.0464   1.00    0.0
2018/11/10 01:37:15.000  -74.407211462  163.437644988    79.3265   6  12   0.0653   0.0756   0.2577  -0.0103  -0.0562  -0.0520   1.00    0.0
2018/11/10 01:37:30.000  -74.407211369  163.437644942    79.3479   6  12   0.0691   0.0773   0.2750   0.0049  -0.0655  -0.0561   1.00    0.0
2018/11/10 01:37:45.000  -74.407211383  163.437644552    79.3202   6  12   0.0648   0.0726   0.2749  -0.0110  -0.0616  -0.0510   1.00    0.0
2018/11/10 01:38:00.000  -74.407211480  163.437644747    79.3806   6  12   0.0601   0.0664   0.2663  -0.0101  -0.0698  -0.0449   0.00    0.0
2018/11/10 01:38:15.000  -74.407211660  163.437645367    79.3478   6  12   0.0552   0.0609   0.2408  -0.0071  -0.0652  -0.0409   0.00    0.0
2018/11/10 01:38:30.000  -74.407211851  163.437646127    79.3949   6  12   0.0493   0.0526   0.1876   0.0141  -0.0578  -0.0401   0.00    0.0
2018/11/10 01:38:45.000  -74.407211828  163.437646155    79.3829   6  12   0.0450   0.0480   0.1711   0.0141  -0.0534  -0.0369   0.00    0.0
2018/11/10 01:39:00.000  -74.407211733  163.437645883    79.3885   6  12   0.0411   0.0443   0.1589   0.0137  -0.0496  -0.0343   0.00    0.0
2018/11/10 01:39:15.000  -74.407211746  163.437646209    79.4251   6  12   0.0371   0.0391   0.1464   0.0118  -0.0497  -0.0313   0.00    0.0
2018/11/10 01:39:30.000  -74.407211749  163.437646118    79.4464   6  12   0.0344   0.0364   0.1385   0.0124  -0.0482  -0.0290   3.00    0.0
2018/11/10 01:39:45.000  -74.407211736  163.437646486    79.4559   6  11   0.0322   0.0347   0.1331   0.0127  -0.0476  -0.0287   3.00    0.0
2018/11/10 01:40:00.000  -74.407211758  163.437646760    79.3909   6  11   0.0313   0.0340   0.1320   0.0131  -0.0478  -0.0294   3.00    0.0
2018/11/10 01:40:15.000  -74.407211753  163.437647642    79.3022   6  11   0.0326   0.0355   0.1383   0.0137  -0.0497  -0.0312   4.00    0.0
2018/11/10 01:40:30.000  -74.407211726  163.437647473    79.2688   6  11   0.0354   0.0383   0.1477   0.0144  -0.0524  -0.0330   4.00    0.0
2018/11/10 01:40:45.000  -74.407211697  163.437647293    79.2899   6  11   0.0391   0.0421   0.1586   0.0152  -0.0553  -0.0342   5.00    0.0
2018/11/10 01:41:00.000  -74.407211644  163.437647116    79.3068   6  11   0.0435   0.0465   0.1712   0.0153  -0.0595  -0.0349   4.00    0.0
2018/11/10 01:41:15.000  -74.407211537  163.437646995    79.3079   6  11   0.0488   0.0525   0.1865   0.0143  -0.0650  -0.0325   4.00    0.0
2018/11/10 01:41:30.000  -74.407211406  163.437647742    79.2919   6  10   0.0541   0.0630   0.2138   0.0134  -0.0807  -0.0288   4.00    0.0
2018/11/10 01:41:45.000  -74.407211375  163.437646770    79.3180   6  10   0.0594   0.0670   0.2336   0.0106  -0.0874  -0.0275   4.00    0.0
2018/11/10 01:42:00.000  -74.407211386  163.437646833    79.3055   6  10   0.0651   0.0682   0.2555   0.0047  -0.0934  -0.0290   4.00    0.0
2018/11/10 01:42:15.000  -74.407211256  163.437648031    79.1725   6  10   0.0719   0.0740   0.2848   0.0110  -0.1049  -0.0406   5.00    0.0
2018/11/10 01:42:30.000  -74.407211418  163.437646486    79.4162   6   9   0.0832   0.0876   0.3632   0.0345  -0.1414  -0.0866   4.00    0.0
2018/11/10 01:42:45.000  -74.407211242  163.437646866    79.3528   6   9   0.0767   0.0806   0.3345   0.0316  -0.1297  -0.0790   4.00    0.0
2018/11/10 01:43:00.000  -74.407211134  163.437647078    79.2865   6   9   0.0703   0.0739   0.3069   0.0290  -0.1183  -0.0725   5.00    0.0
2018/11/10 01:43:15.000  -74.407211203  163.437647343    79.2314   6   9   0.0641   0.0672   0.2800   0.0264  -0.1071  -0.0662   6.00    0.0
2018/11/10 01:43:30.000  -74.407211256  163.437647593    79.1594   6   9   0.0581   0.0608   0.2541   0.0239  -0.0963  -0.0602   6.00    0.0
2018/11/10 01:43:45.000  -74.407211299  163.437647559    79.1300   6   9   0.0523   0.0545   0.2296   0.0216  -0.0861  -0.0547   5.00    0.0
2018/11/10 01:44:00.000  -74.407211481  163.437647216    79.1669   6   9   0.0467   0.0487   0.2071   0.0196  -0.0766  -0.0497   5.00    0.0
2018/11/10 01:44:15.000  -74.407211470  163.437647687    79.1580   6   9   0.0417   0.0435   0.1877   0.0180  -0.0683  -0.0456   6.00    0.0
2018/11/10 01:44:30.000  -74.407211395  163.437648021    79.0955   6   9   0.0374   0.0392   0.1725   0.0168  -0.0617  -0.0424   6.00    0.0
