% program   : RTKLIB ver.2.4.3
% inp file  : _by_type/_obs/shirase/20181105.18o
% inp file  : _by_type/_sp3+clk/igs20261.clk
% inp file  : _by_type/_sp3+clk/igs20261.sp3
% inp file  : _by_type/_nav/shirase/20181105.18n
% obs start : 2018/11/05 00:00:00.0 GPST (week2026  86400.0s)
% obs end   : 2018/11/05 23:59:45.0 GPST (week2026 172785.0s)
% pos mode  : ppp-kinematic
% solution  : combined
% elev mask : 15.0 deg
% dynamics  : off
% tidecorr  : on
% tropo opt : est ztd+grad
% ephemeris : precise
% navi sys  : gps glonass
% antenna1  :                       ( 0.0000  0.0000  0.0000)
%
% (lat/lon/height=WGS84/ellipsoidal,Q=1:fix,2:float,3:sbas,4:dgps,5:single,6:ppp,ns=# of satellites)
%  GPST                  latitude(deg) longitude(deg)  height(m)   Q  ns   sdn(m)   sde(m)   sdu(m)  sdne(m)  sdeu(m)  sdun(m) age(s)  ratio
2018/11/05 00:00:00.000  -74.525909599  163.457819393    26.5671   6   8   0.0340   0.0281   0.1223   0.0011  -0.0312  -0.0461   0.00    0.0
2018/11/05 00:00:15.000  -74.525909452  163.457819097    26.5261   6   8   0.0376   0.0314   0.1377   0.0063  -0.0340  -0.0531   0.00    0.0
2018/11/05 00:00:30.000  -74.525909318  163.457819306    26.4608   6   8   0.0446   0.0374   0.1637   0.0109  -0.0389  -0.0651   0.00    0.0
2018/11/05 00:00:45.000  -74.525909178  163.457819130    26.4190   6   8   0.0535   0.0450   0.1957   0.0155  -0.0451  -0.0798   0.00    0.0
2018/11/05 00:01:00.000  -74.525909154  163.457819294    26.4048   6   8   0.0635   0.0534   0.2311   0.0200  -0.0520  -0.0957   0.00    0.0
2018/11/05 00:01:15.000  -74.525909437  163.457819264    26.4891   6   8   0.0740   0.0623   0.2683   0.0244  -0.0592  -0.1123   1.00    0.0
2018/11/05 00:01:30.000  -74.525909726  163.457819160    26.5747   6   8   0.0849   0.0713   0.3064   0.0286  -0.0665  -0.1290   1.00    0.0
2018/11/05 00:01:45.000  -74.525909837  163.457819096    26.5892   6   8   0.0957   0.0804   0.3448   0.0326  -0.0737  -0.1457   2.00    0.0
2018/11/05 00:02:00.000  -74.525910043  163.457819139    26.6011   6   8   0.1064   0.0894   0.3831   0.0364  -0.0807  -0.1621   2.00    0.0
2018/11/05 00:02:15.000  -74.525909890  163.457818749    26.5351   6   8   0.1170   0.0983   0.4209   0.0399  -0.0872  -0.1780   3.00    0.0
2018/11/05 00:02:30.000  -74.525909886  163.457818213    26.5381   6   8   0.1272   0.1069   0.4580   0.0432  -0.0933  -0.1934   3.00    0.0
2018/11/05 00:02:45.000  -74.525909782  163.457819215    26.4856   6   8   0.1162   0.0981   0.4313   0.0378  -0.0824  -0.1783   3.00    0.0
2018/11/05 00:03:00.000  -74.525909683  163.457819591    26.4903   6   8   0.1055   0.0902   0.4138   0.0325  -0.0705  -0.1649   4.00    0.0
2018/11/05 00:03:15.000  -74.525909676  163.457819931    26.4726   6   8   0.0954   0.0847   0.4255   0.0250  -0.0507  -0.1564   4.00    0.0
2018/11/05 00:03:30.000  -74.525909824  163.457819872    26.5204   6   8   0.0832   0.0710   0.3275   0.0284  -0.0811  -0.1281   0.00    0.0
2018/11/05 00:03:45.000  -74.525909790  163.457819708    26.4486   6   8   0.0721   0.0599   0.2389   0.0209  -0.0498  -0.1051   0.00    0.0
2018/11/05 00:04:00.000  -74.525909770  163.457819733    26.4441   6   8   0.0619   0.0516   0.2031   0.0170  -0.0426  -0.0891   0.00    0.0
2018/11/05 00:04:15.000  -74.525909715  163.457819712    26.4328   6   8   0.0525   0.0442   0.1697   0.0141  -0.0374  -0.0744   0.00    0.0
2018/11/05 00:04:30.000  -74.525909419  163.457820375    26.3264   6   9   0.0367   0.0362   0.1030  -0.0135   0.0120  -0.0376   2.00    0.0
2018/11/05 00:04:45.000  -74.525909286  163.457821256    26.3099   6   9   0.0315   0.0274   0.0842  -0.0160   0.0202  -0.0298   1.00    0.0
2018/11/05 00:05:00.000  -74.525909321  163.457821398    26.3569   6   9   0.0293   0.0248   0.0758  -0.0153   0.0188  -0.0270   1.00    0.0
2018/11/05 00:05:15.000  -74.525909286  163.457821090    26.3920   6   9   0.0316   0.0275   0.0848  -0.0162   0.0207  -0.0303   1.00    0.0
2018/11/05 00:05:30.000  -74.525909270  163.457821364    26.4200   6   9   0.0360   0.0328   0.1010  -0.0177   0.0243  -0.0355   1.00    0.0
2018/11/05 00:05:45.000  -74.525909209  163.457821319    26.3894   6   9   0.0416   0.0395   0.1211  -0.0198   0.0291  -0.0416   1.00    0.0
2018/11/05 00:06:00.000  -74.525909257  163.457821044    26.3891   6   9   0.0479   0.0469   0.1432  -0.0222   0.0346  -0.0481   1.00    0.0
2018/11/05 00:06:15.000  -74.525909414  163.457820672    26.4059   6   9   0.0547   0.0546   0.1665  -0.0247   0.0404  -0.0549   2.00    0.0
2018/11/05 00:06:30.000  -74.525909514  163.457819889    26.3609   6   9   0.0616   0.0624   0.1902  -0.0273   0.0462  -0.0617   2.00    0.0
2018/11/05 00:06:45.000  -74.525909527  163.457819479    26.3684   6   9   0.0686   0.0701   0.2141  -0.0299   0.0519  -0.0684   3.00    0.0
2018/11/05 00:07:00.000  -74.525909620  163.457819466    26.3514   6   9   0.0755   0.0777   0.2378  -0.0324   0.0574  -0.0751   3.00    0.0
2018/11/05 00:07:15.000  -74.525909557  163.457819236    26.3170   6   9   0.0824   0.0851   0.2613  -0.0349   0.0629  -0.0816   3.00    0.0
2018/11/05 00:07:30.000  -74.525909523  163.457819028    26.2926   6   9   0.0891   0.0923   0.2843  -0.0373   0.0682  -0.0880   4.00    0.0
2018/11/05 00:07:45.000  -74.525909355  163.457819428    26.3152   6   9   0.0821   0.0850   0.2626  -0.0348   0.0637  -0.0819   4.00    0.0
2018/11/05 00:08:00.000  -74.525909240  163.457819733    26.3265   6   9   0.0752   0.0775   0.2401  -0.0323   0.0589  -0.0755   3.00    0.0
2018/11/05 00:08:15.000  -74.525909286  163.457819732    26.3622   6   9   0.0682   0.0699   0.2172  -0.0298   0.0539  -0.0690   4.00    0.0
2018/11/05 00:08:30.000  -74.525909331  163.457820205    26.4195   6   9   0.0612   0.0622   0.1940  -0.0273   0.0486  -0.0624   4.00    0.0
2018/11/05 00:08:45.000  -74.525909231  163.457820326    26.3945   6   9   0.0543   0.0545   0.1706  -0.0248   0.0432  -0.0558   4.00    0.0
2018/11/05 00:09:00.000  -74.525909242  163.457820715    26.3835   6   9   0.0476   0.0470   0.1475  -0.0223   0.0377  -0.0491   3.00    0.0
2018/11/05 00:09:15.000  -74.525909264  163.457820804    26.3839   6   9   0.0414   0.0397   0.1252  -0.0201   0.0324  -0.0428   3.00    0.0
2018/11/05 00:09:30.000  -74.525909365  163.457821079    26.3830   6   9   0.0360   0.0333   0.1049  -0.0183   0.0277  -0.0370   4.00    0.0
2018/11/05 00:09:45.000  -74.525909340  163.457820971    26.3837   6   9   0.0320   0.0283   0.0887  -0.0171   0.0244  -0.0326   4.00    0.0
2018/11/05 00:10:00.000  -74.525909362  163.457821062    26.3501   6   9   0.0306   0.0261   0.0815  -0.0172   0.0242  -0.0315   4.00    0.0
2018/11/05 00:10:15.000  -74.525909400  163.457820855    26.3349   6   9   0.0306   0.0275   0.0881  -0.0142   0.0193  -0.0301   4.00    0.0
2018/11/05 00:10:30.000  -74.525909376  163.457820831    26.3099   6   9   0.0355   0.0328   0.1090  -0.0151   0.0223  -0.0380   4.00    0.0
2018/11/05 00:10:45.000  -74.525909435  163.457820776    26.3482   6   9   0.0415   0.0396   0.1332  -0.0164   0.0262  -0.0464   4.00    0.0
2018/11/05 00:11:00.000  -74.525909571  163.457820985    26.4117   6   9   0.0481   0.0469   0.1584  -0.0178   0.0305  -0.0545   4.00    0.0
2018/11/05 00:11:15.000  -74.525909548  163.457820723    26.4023   6   9   0.0550   0.0545   0.1841  -0.0193   0.0348  -0.0625   4.00    0.0
2018/11/05 00:11:30.000  -74.525909555  163.457820390    26.4050   6   9   0.0619   0.0621   0.2100  -0.0207   0.0388  -0.0705   4.00    0.0
2018/11/05 00:11:45.000  -74.525909521  163.457819858    26.3776   6   9   0.0691   0.0696   0.2366  -0.0217   0.0421  -0.0789   5.00    0.0
2018/11/05 00:12:00.000  -74.525909616  163.457819293    26.3826   6   9   0.0765   0.0771   0.2646  -0.0220   0.0442  -0.0886   4.00    0.0
2018/11/05 00:12:15.000  -74.525909707  163.457818179    26.3979   6   9   0.0847   0.0846   0.2964  -0.0206   0.0428  -0.1012   2.00    0.0
2018/11/05 00:12:30.000  -74.525909822  163.457817435    26.4365   6   9   0.0952   0.0927   0.3398  -0.0103   0.0257  -0.1217   2.00    0.0
2018/11/05 00:12:45.000  -74.525909382  163.457817660    26.3014   6   9   0.0942   0.0856   0.3418   0.0134  -0.0254  -0.1320   2.00    0.0
2018/11/05 00:13:00.000  -74.525909224  163.457818440    26.2215   6   9   0.0794   0.0766   0.2804  -0.0202   0.0413  -0.0998   3.00    0.0
2018/11/05 00:13:15.000  -74.525909437  163.457818936    26.2601   6   9   0.0763   0.0706   0.2754  -0.0018  -0.0075  -0.1046   3.00    0.0
2018/11/05 00:13:30.000  -74.525909405  163.457819298    26.2626   6   9   0.0582   0.0607   0.1958  -0.0257   0.0508  -0.0586   3.00    0.0
2018/11/05 00:13:45.000  -74.525909417  163.457819951    26.3027   6   9   0.0512   0.0534   0.1704  -0.0233   0.0451  -0.0506   3.00    0.0
2018/11/05 00:14:00.000  -74.525909444  163.457820187    26.3290   6   9   0.0446   0.0461   0.1461  -0.0210   0.0393  -0.0435   4.00    0.0
2018/11/05 00:14:15.000  -74.525909419  163.457820739    26.3613   6   9   0.0384   0.0391   0.1223  -0.0187   0.0335  -0.0366   4.00    0.0
2018/11/05 00:14:30.000  -74.525909402  163.457820638    26.3328   6   9   0.0329   0.0328   0.0999  -0.0168   0.0282  -0.0299   4.00    0.0
2018/11/05 00:14:45.000  -74.525909437  163.457821022    26.3248   6   9   0.0287   0.0280   0.0817  -0.0154   0.0244  -0.0240   4.00    0.0
2018/11/05 00:15:00.000  -74.525909365  163.457821258    26.3202   6   9   0.0268   0.0259   0.0727  -0.0149   0.0234  -0.0210   4.00    0.0
2018/11/05 00:15:15.000  -74.525909362  163.457820890    26.2945   6   9   0.0288   0.0287   0.0842  -0.0162   0.0272  -0.0253   4.00    0.0
2018/11/05 00:15:30.000  -74.525909372  163.457820783    26.2952   6   9   0.0330   0.0341   0.1048  -0.0181   0.0334  -0.0318   4.00    0.0
2018/11/05 00:15:45.000  -74.525909599  163.457820172    26.3088   6   9   0.0384   0.0408   0.1288  -0.0203   0.0405  -0.0387   4.00    0.0
2018/11/05 00:16:00.000  -74.525909628  163.457819509    26.2977   6   9   0.0443   0.0479   0.1538  -0.0227   0.0476  -0.0454   4.00    0.0
2018/11/05 00:16:15.000  -74.525909675  163.457819026    26.3004   6   9   0.0505   0.0552   0.1788  -0.0250   0.0548  -0.0518   4.00    0.0
2018/11/05 00:16:30.000  -74.525909601  163.457818288    26.2431   6   9   0.0567   0.0625   0.2037  -0.0274   0.0620  -0.0581   4.00    0.0
2018/11/05 00:16:45.000  -74.525909495  163.457817867    26.2006   6   9   0.0630   0.0697   0.2285  -0.0299   0.0693  -0.0643   4.00    0.0
2018/11/05 00:17:00.000  -74.525909552  163.457817521    26.2033   6   9   0.0692   0.0768   0.2532  -0.0325   0.0769  -0.0708   4.00    0.0
2018/11/05 00:17:15.000  -74.525909533  163.457816693    26.1295   6   9   0.0754   0.0838   0.2781  -0.0353   0.0848  -0.0775   4.00    0.0
2018/11/05 00:17:30.000  -74.525909591  163.457816327    26.1157   6   9   0.0816   0.0909   0.3035  -0.0383   0.0932  -0.0847   4.00    0.0
2018/11/05 00:17:45.000  -74.525909492  163.457816454    26.0725   6   9   0.0757   0.0860   0.2884  -0.0374   0.0934  -0.0809   4.00    0.0
2018/11/05 00:18:00.000  -74.525909361  163.457816432    25.9954   6   9   0.0701   0.0836   0.2827  -0.0384   0.1009  -0.0808   4.00    0.0
2018/11/05 00:18:15.000  -74.525909486  163.457818796    26.1996   6   9   0.0635   0.0684   0.2302  -0.0308   0.0685  -0.0669   4.00    0.0
2018/11/05 00:18:30.000  -74.525909342  163.457819100    26.1968   6   9   0.0568   0.0608   0.2035  -0.0274   0.0597  -0.0588   4.00    0.0
2018/11/05 00:18:45.000  -74.525909336  163.457819734    26.2378   6   9   0.0504   0.0536   0.1783  -0.0247   0.0525  -0.0519   3.00    0.0
2018/11/05 00:19:00.000  -74.525909324  163.457820188    26.2435   6   9   0.0442   0.0465   0.1533  -0.0223   0.0457  -0.0452   3.00    0.0
2018/11/05 00:19:15.000  -74.525909371  163.457822254    26.3415   1   9   0.0377   0.0420   0.1364  -0.0241   0.0430  -0.0478   3.00    1.0
2018/11/05 00:19:30.000  -74.525909329  163.457822054    26.3279   1   9   0.0309   0.0351   0.1091  -0.0216   0.0357  -0.0400   3.00    1.0
2018/11/05 00:19:45.000  -74.525909296  163.457821719    26.3117   1   9   0.0258   0.0302   0.0875  -0.0201   0.0306  -0.0342   3.00    1.0
2018/11/05 00:20:00.000  -74.525909309  163.457820674    26.2701   6   9   0.0275   0.0274   0.0771  -0.0171   0.0286  -0.0247   3.00    0.0
2018/11/05 00:20:15.000  -74.525909421  163.457822021    26.2894   1  10   0.0264   0.0322   0.0866  -0.0227   0.0365  -0.0343   3.00    1.0
2018/11/05 00:20:30.000  -74.525909431  163.457821833    26.2538   1  10   0.0329   0.0398   0.1090  -0.0277   0.0472  -0.0413   3.00    1.0
2018/11/05 00:20:45.000  -74.525909433  163.457821957    26.2678   1  10   0.0369   0.0438   0.1340  -0.0272   0.0549  -0.0454   3.00    1.0
2018/11/05 00:21:00.000  -74.525909312  163.457819735    26.1432   6  10   0.0426   0.0472   0.1471  -0.0245   0.0573  -0.0393   3.00    0.0
2018/11/05 00:21:15.000  -74.525909313  163.457818876    26.0973   6  10   0.0484   0.0540   0.1701  -0.0271   0.0658  -0.0442   3.00    0.0
2018/11/05 00:21:30.000  -74.525909222  163.457818133    26.0710   6  10   0.0542   0.0608   0.1931  -0.0298   0.0742  -0.0492   3.00    0.0
2018/11/05 00:21:45.000  -74.525909157  163.457817384    26.0600   6  10   0.0601   0.0676   0.2160  -0.0326   0.0826  -0.0543   3.00    0.0
2018/11/05 00:22:00.000  -74.525909151  163.457817057    26.0570   6  10   0.0660   0.0744   0.2389  -0.0356   0.0911  -0.0599   3.00    0.0
2018/11/05 00:22:15.000  -74.525909136  163.457816743    26.0459   6  10   0.0720   0.0811   0.2618  -0.0387   0.0998  -0.0657   3.00    0.0
2018/11/05 00:22:30.000  -74.525909157  163.457816784    26.0591   6  10   0.0779   0.0878   0.2849  -0.0420   0.1087  -0.0720   4.00    0.0
2018/11/05 00:22:45.000  -74.525909151  163.457816968    25.9915   6  10   0.0721   0.0823   0.2685  -0.0397   0.1040  -0.0685   4.00    0.0
2018/11/05 00:23:00.000  -74.525909108  163.457817040    25.9581   6  10   0.0664   0.0775   0.2551  -0.0381   0.1015  -0.0664   4.00    0.0
2018/11/05 00:23:15.000  -74.525908987  163.457817177    25.8847   6  10   0.0613   0.0753   0.2519  -0.0386   0.1056  -0.0683   4.00    0.0
2018/11/05 00:23:30.000  -74.525909093  163.457818516    26.0152   6  10   0.0571   0.0718   0.2423  -0.0398   0.1055  -0.0713   4.00    0.0
2018/11/05 00:23:45.000  -74.525909124  163.457819353    26.0966   6  10   0.0496   0.0580   0.1908  -0.0313   0.0787  -0.0545   4.00    0.0
2018/11/05 00:24:00.000  -74.525909124  163.457819209    26.0733   6  10   0.0442   0.0543   0.1814  -0.0306   0.0786  -0.0536   4.00    0.0
2018/11/05 00:24:15.000  -74.525909350  163.457822501    26.2577   1  10   0.0374   0.0440   0.1375  -0.0278   0.0564  -0.0472   3.00    1.0
2018/11/05 00:24:30.000  -74.525909364  163.457822404    26.2644   1  10   0.0311   0.0379   0.1156  -0.0253   0.0490  -0.0420   2.00    1.0
2018/11/05 00:24:45.000  -74.525909452  163.457822162    26.2966   1  10   0.0272   0.0350   0.1051  -0.0249   0.0475  -0.0409   2.00    1.0
2018/11/05 00:25:00.000  -74.525909445  163.457821680    26.2766   1  10   0.0240   0.0300   0.0826  -0.0220   0.0363  -0.0340   2.00    1.0
2018/11/05 00:25:15.000  -74.525909543  163.457821898    26.3437   1  10   0.0278   0.0358   0.1068  -0.0257   0.0489  -0.0421   2.00    1.0
2018/11/05 00:25:30.000  -74.525909585  163.457822091    26.3731   1  10   0.0310   0.0362   0.1068  -0.0244   0.0433  -0.0391   3.00    1.0
2018/11/05 00:25:45.000  -74.525909571  163.457822243    26.3648   1  10   0.0376   0.0433   0.1339  -0.0279   0.0539  -0.0464   3.00    1.0
2018/11/05 00:26:00.000  -74.525909241  163.457818986    26.2050   6  10   0.0424   0.0459   0.1475  -0.0242   0.0560  -0.0400   4.00    0.0
2018/11/05 00:26:15.000  -74.525909165  163.457818638    26.1731   6  10   0.0479   0.0524   0.1713  -0.0266   0.0644  -0.0452   4.00    0.0
2018/11/05 00:26:30.000  -74.525909118  163.457817601    26.1217   6  10   0.0537   0.0590   0.1952  -0.0292   0.0730  -0.0506   4.00    0.0
2018/11/05 00:26:45.000  -74.525909034  163.457816835    26.0620   6  10   0.0595   0.0656   0.2190  -0.0320   0.0817  -0.0564   4.00    0.0
2018/11/05 00:27:00.000  -74.525909146  163.457816646    26.0970   6  10   0.0653   0.0721   0.2429  -0.0350   0.0906  -0.0626   4.00    0.0
2018/11/05 00:27:15.000  -74.525909151  163.457816129    26.1142   6  10   0.0712   0.0787   0.2667  -0.0381   0.0996  -0.0691   4.00    0.0
2018/11/05 00:27:30.000  -74.525909255  163.457815713    26.1165   6  10   0.0771   0.0853   0.2906  -0.0415   0.1088  -0.0759   4.00    0.0
2018/11/05 00:27:45.000  -74.525909188  163.457816002    26.1164   6  10   0.0713   0.0790   0.2694  -0.0385   0.1011  -0.0697   4.00    0.0
2018/11/05 00:28:00.000  -74.525909105  163.457816439    26.1019   6  10   0.0654   0.0725   0.2467  -0.0354   0.0926  -0.0637   4.00    0.0
2018/11/05 00:28:15.000  -74.525909044  163.457817344    26.1497   6  10   0.0596   0.0659   0.2237  -0.0324   0.0841  -0.0578   4.00    0.0
2018/11/05 00:28:30.000  -74.525909069  163.457818512    26.1779   6  10   0.0537   0.0593   0.2004  -0.0296   0.0756  -0.0522   4.00    0.0
2018/11/05 00:28:45.000  -74.525909062  163.457819094    26.1152   6  10   0.0480   0.0528   0.1769  -0.0270   0.0672  -0.0467   5.00    0.0
2018/11/05 00:29:00.000  -74.525909206  163.457819590    26.2011   6  10   0.0425   0.0464   0.1531  -0.0246   0.0588  -0.0415   5.00    0.0
2018/11/05 00:29:15.000  -74.525909318  163.457819607    26.2308   6  10   0.0372   0.0403   0.1296  -0.0225   0.0507  -0.0364   5.00    0.0
2018/11/05 00:29:30.000  -74.525909599  163.457822489    26.3663   1  10   0.0324   0.0380   0.1150  -0.0265   0.0483  -0.0427   2.00    1.0
2018/11/05 00:29:45.000  -74.525909695  163.457822770    26.3696   1  10   0.0279   0.0331   0.0931  -0.0246   0.0403  -0.0377   2.00    1.0
2018/11/05 00:30:00.000  -74.525909657  163.457822271    26.3303   1  10   0.0261   0.0314   0.0822  -0.0242   0.0366  -0.0358   2.00    1.0
2018/11/05 00:30:15.000  -74.525909622  163.457821583    26.2813   1  10   0.0298   0.0358   0.0957  -0.0271   0.0425  -0.0398   2.00    1.0
2018/11/05 00:30:30.000  -74.525909627  163.457821352    26.2375   1  10   0.0345   0.0417   0.1194  -0.0299   0.0514  -0.0456   3.00    1.0
2018/11/05 00:30:45.000  -74.525909298  163.457818115    26.0651   6  10   0.0384   0.0432   0.1317  -0.0253   0.0515  -0.0375   4.00    0.0
2018/11/05 00:31:00.000  -74.525909307  163.457817634    26.0672   6  10   0.0438   0.0496   0.1554  -0.0280   0.0594  -0.0423   4.00    0.0
2018/11/05 00:31:15.000  -74.525909337  163.457816825    26.0720   6  10   0.0496   0.0562   0.1796  -0.0309   0.0679  -0.0478   4.00    0.0
2018/11/05 00:31:30.000  -74.525909232  163.457816306    26.1102   6  10   0.0559   0.0631   0.2041  -0.0346   0.0769  -0.0540   4.00    0.0
2018/11/05 00:31:45.000  -74.525909160  163.457815379    26.0874   6  10   0.0633   0.0708   0.2288  -0.0399   0.0865  -0.0612   4.00    0.0
2018/11/05 00:32:00.000  -74.525909363  163.457816021    26.2122   6  10   0.0669   0.0759   0.2549  -0.0400   0.0969  -0.0692   4.00    0.0
2018/11/05 00:32:15.000  -74.525909266  163.457815201    26.1605   6  10   0.0722   0.0819   0.2791  -0.0422   0.1055  -0.0752   4.00    0.0
2018/11/05 00:32:30.000  -74.525909250  163.457815085    26.1409   6  10   0.0779   0.0884   0.3039  -0.0453   0.1149  -0.0822   4.00    0.0
2018/11/05 00:32:45.000  -74.525909213  163.457814738    26.0878   6  10   0.0720   0.0822   0.2798  -0.0419   0.1045  -0.0747   4.00    0.0
2018/11/05 00:33:00.000  -74.525909163  163.457814819    26.0945   6  10   0.0661   0.0767   0.2561  -0.0389   0.0943  -0.0673   4.00    0.0
2018/11/05 00:33:15.000  -74.525909119  163.457814837    26.1087   6  10   0.0605   0.0729   0.2328  -0.0365   0.0828  -0.0598   3.00    0.0
2018/11/05 00:33:30.000  -74.525909119  163.457815858    26.1573   6  10   0.0556   0.0695   0.2100  -0.0365   0.0710  -0.0511   2.00    0.0
2018/11/05 00:33:45.000  -74.525909326  163.457818017    26.1128   6  11   0.0480   0.0558   0.1758  -0.0309   0.0694  -0.0539   1.00    0.0
2018/11/05 00:34:00.000  -74.525909335  163.457818349    26.1233   6  11   0.0415   0.0472   0.1526  -0.0255   0.0623  -0.0487   1.00    0.0
2018/11/05 00:34:15.000  -74.525909258  163.457818608    26.1414   6  11   0.0366   0.0411   0.1311  -0.0232   0.0543  -0.0424   1.00    0.0
2018/11/05 00:34:30.000  -74.525909564  163.457821374    26.2781   1  11   0.0337   0.0404   0.1254  -0.0292   0.0562  -0.0511   3.00    1.0
2018/11/05 00:34:45.000  -74.525909544  163.457821386    26.2765   1  11   0.0298   0.0363   0.1068  -0.0278   0.0496  -0.0461   2.00    1.0
2018/11/05 00:35:00.000  -74.525909578  163.457821750    26.2944   1  11   0.0293   0.0365   0.1016  -0.0288   0.0494  -0.0463   2.00    1.0
2018/11/05 00:35:15.000  -74.525909453  163.457821449    26.2411   1  11   0.0332   0.0432   0.1252  -0.0330   0.0610  -0.0548   1.00    1.0
2018/11/05 00:35:30.000  -74.525908984  163.457818048    26.0699   6  11   0.0347   0.0438   0.1318  -0.0272   0.0585  -0.0455   1.00    0.0
2018/11/05 00:35:45.000  -74.525908853  163.457816557    26.0158   6  11   0.0398   0.0530   0.1614  -0.0319   0.0694  -0.0534   1.00    0.0
2018/11/05 00:36:00.000  -74.525908819  163.457816366    25.9734   6  11   0.0456   0.0622   0.1970  -0.0367   0.0879  -0.0663   1.00    0.0
2018/11/05 00:36:15.000  -74.525908826  163.457816136    25.9649   6  11   0.0589   0.0789   0.2697  -0.0534   0.1287  -0.1000   1.00    0.0
2018/11/05 00:36:30.000  -74.525909226  163.457817168    26.1176   6  11   0.0657   0.0884   0.3153  -0.0594   0.1482  -0.1155   1.00    0.0
2018/11/05 00:36:45.000  -74.525909111  163.457816023    26.0489   6  11   0.0713   0.0962   0.3465  -0.0637   0.1610  -0.1247   1.00    0.0
2018/11/05 00:37:00.000  -74.525909126  163.457815389    26.0513   6  11   0.0781   0.1056   0.3840  -0.0698   0.1763  -0.1363   2.00    0.0
2018/11/05 00:37:15.000  -74.525909428  163.457816694    26.1441   6  11   0.0741   0.0884   0.3110  -0.0522   0.1322  -0.1080   2.00    0.0
2018/11/05 00:37:30.000  -74.525909381  163.457816561    26.1289   6  11   0.0785   0.0930   0.3259  -0.0532   0.1367  -0.1115   3.00    0.0
2018/11/05 00:37:44.999  -74.525909330  163.457816602    26.1163   6  11   0.0721   0.0849   0.2952  -0.0480   0.1231  -0.0999   3.00    0.0
2018/11/05 00:38:00.000  -74.525909429  163.457817406    26.1495   6  11   0.0662   0.0774   0.2670  -0.0438   0.1110  -0.0899   4.00    0.0
2018/11/05 00:38:15.000  -74.525909442  163.457817748    26.1589   6  11   0.0611   0.0710   0.2402  -0.0411   0.1000  -0.0811   4.00    0.0
2018/11/05 00:38:30.000  -74.525909541  163.457817767    26.1845   6  11   0.0543   0.0626   0.2144  -0.0355   0.0889  -0.0719   4.00    0.0
2018/11/05 00:38:45.000  -74.525909489  163.457817792    26.1930   6  11   0.0491   0.0560   0.1886  -0.0327   0.0783  -0.0633   4.00    0.0
2018/11/05 00:39:00.000  -74.525909567  163.457818411    26.2174   6  11   0.0420   0.0474   0.1636  -0.0266   0.0675  -0.0544   4.00    0.0
2018/11/05 00:39:15.000  -74.525909537  163.457818696    26.1935   6  11   0.0369   0.0407   0.1401  -0.0235   0.0582  -0.0470   4.00    0.0
2018/11/05 00:39:30.000  -74.525909620  163.457820759    26.2533   1  11   0.0336   0.0383   0.1335  -0.0281   0.0575  -0.0536   3.00    1.0
2018/11/05 00:39:45.000  -74.525909667  163.457821204    26.2748   1  11   0.0296   0.0334   0.1150  -0.0263   0.0506  -0.0487   3.00    1.0
2018/11/05 00:40:00.000  -74.525909609  163.457821251    26.2698   1  11   0.0285   0.0323   0.1104  -0.0266   0.0499  -0.0488   3.00    1.0
2018/11/05 00:40:15.000  -74.525909745  163.457821884    26.3227   1  11   0.0327   0.0379   0.1315  -0.0306   0.0604  -0.0565   3.00    1.0
2018/11/05 00:40:30.000  -74.525909445  163.457819310    26.1846   6  11   0.0345   0.0389   0.1329  -0.0250   0.0584  -0.0464   6.00    0.0
2018/11/05 00:40:45.000  -74.525909419  163.457819008    26.2166   6  11   0.0395   0.0454   0.1574  -0.0281   0.0679  -0.0517   6.00    0.0
2018/11/05 00:41:00.000  -74.525909481  163.457818869    26.2109   6  11   0.0434   0.0526   0.1815  -0.0310   0.0793  -0.0614   5.00    0.0
2018/11/05 00:41:15.000  -74.525909393  163.457817998    26.1754   6  11   0.0490   0.0608   0.2109  -0.0353   0.0923  -0.0708   5.00    0.0
2018/11/05 00:41:30.000  -74.525909351  163.457817138    26.1513   6  11   0.0555   0.0708   0.2489  -0.0415   0.1102  -0.0836   5.00    0.0
2018/11/05 00:41:45.000  -74.525909371  163.457817066    26.1887   6  11   0.0693   0.0922   0.3328  -0.0605   0.1543  -0.1207   5.00    0.0
2018/11/05 00:42:00.000  -74.525909506  163.457818149    26.3487   6  11   0.0681   0.0800   0.2817  -0.0478   0.1186  -0.0969   5.00    0.0
2018/11/05 00:42:15.000  -74.525909617  163.457818385    26.3384   6  11   0.0716   0.0842   0.2987  -0.0478   0.1245  -0.1017   5.00    0.0
2018/11/05 00:42:30.000  -74.525909515  163.457818110    26.3005   6  11   0.0763   0.0897   0.3188  -0.0497   0.1317  -0.1075   5.00    0.0
2018/11/05 00:42:45.000  -74.525909533  163.457818183    26.2999   6  11   0.0701   0.0818   0.2904  -0.0447   0.1189  -0.0970   5.00    0.0
2018/11/05 00:43:00.000  -74.525909644  163.457818673    26.3303   6  11   0.0639   0.0743   0.2633  -0.0401   0.1072  -0.0872   5.00    0.0
2018/11/05 00:43:15.000  -74.525909679  163.457819191    26.3570   6  11   0.0580   0.0669   0.2368  -0.0358   0.0958  -0.0778   5.00    0.0
2018/11/05 00:43:30.000  -74.525909665  163.457819448    26.3357   6  11   0.0521   0.0597   0.2110  -0.0317   0.0849  -0.0689   5.00    0.0
2018/11/05 00:43:45.000  -74.525909642  163.457819792    26.3089   6  11   0.0465   0.0527   0.1858  -0.0280   0.0744  -0.0605   5.00    0.0
2018/11/05 00:44:00.000  -74.525909641  163.457820404    26.3436   6  11   0.0411   0.0460   0.1616  -0.0247   0.0645  -0.0528   5.00    0.0
2018/11/05 00:44:15.000  -74.525909522  163.457820263    26.3009   6  11   0.0362   0.0398   0.1388  -0.0219   0.0553  -0.0458   5.00    0.0
2018/11/05 00:44:30.000  -74.525909417  163.457819770    26.2077   6  11   0.0320   0.0350   0.1186  -0.0197   0.0473  -0.0400   5.00    0.0
2018/11/05 00:44:45.000  -74.525909416  163.457819491    26.1515   6  11   0.0288   0.0278   0.1033  -0.0172   0.0412  -0.0360   5.00    0.0
2018/11/05 00:45:00.000  -74.525909437  163.457819697    26.1493   6  11   0.0274   0.0255   0.0964  -0.0165   0.0385  -0.0342   5.00    0.0
2018/11/05 00:45:15.000  -74.525909509  163.457819566    26.1168   6  11   0.0292   0.0280   0.1059  -0.0176   0.0421  -0.0368   5.00    0.0
2018/11/05 00:45:30.000  -74.525909546  163.457819773    26.1160   6  11   0.0327   0.0326   0.1223  -0.0194   0.0479  -0.0399   5.00    0.0
2018/11/05 00:45:45.000  -74.525909588  163.457819345    26.1320   6  11   0.0360   0.0382   0.1392  -0.0212   0.0551  -0.0462   5.00    0.0
2018/11/05 00:46:00.000  -74.525909591  163.457819008    26.1023   6  11   0.0406   0.0444   0.1594  -0.0234   0.0629  -0.0518   5.00    0.0
2018/11/05 00:46:15.000  -74.525909679  163.457818799    26.1547   6  11   0.0455   0.0508   0.1809  -0.0260   0.0713  -0.0580   5.00    0.0
2018/11/05 00:46:30.000  -74.525909652  163.457818049    26.1211   6  11   0.0507   0.0573   0.2032  -0.0289   0.0801  -0.0649   5.00    0.0
2018/11/05 00:46:45.000  -74.525909650  163.457817354    26.0946   6  11   0.0561   0.0639   0.2262  -0.0320   0.0892  -0.0722   5.00    0.0
2018/11/05 00:47:00.000  -74.525909582  163.457816865    26.0549   6  11   0.0615   0.0704   0.2496  -0.0353   0.0985  -0.0799   5.00    0.0
2018/11/05 00:47:15.000  -74.525909508  163.457816591    26.0366   6  11   0.0670   0.0770   0.2732  -0.0387   0.1080  -0.0879   5.00    0.0
2018/11/05 00:47:30.000  -74.525909434  163.457815767    26.0080   6  11   0.0725   0.0835   0.2971  -0.0422   0.1176  -0.0960   5.00    0.0
2018/11/05 00:47:45.000  -74.525909515  163.457816581    26.0780   6  11   0.0670   0.0769   0.2732  -0.0384   0.1078  -0.0878   5.00    0.0
2018/11/05 00:48:00.000  -74.525909628  163.457817092    26.1262   6  11   0.0614   0.0702   0.2491  -0.0349   0.0980  -0.0797   5.00    0.0
2018/11/05 00:48:15.000  -74.525909609  163.457817229    26.1758   6  11   0.0559   0.0635   0.2255  -0.0315   0.0885  -0.0719   5.00    0.0
2018/11/05 00:48:30.000  -74.525909513  163.457817299    26.1534   6  11   0.0505   0.0569   0.2026  -0.0283   0.0792  -0.0645   5.00    0.0
2018/11/05 00:48:45.000  -74.525909456  163.457817646    26.1422   6  11   0.0454   0.0504   0.1804  -0.0254   0.0704  -0.0578   5.00    0.0
2018/11/05 00:49:00.000  -74.525909407  163.457818001    26.1217   6  11   0.0405   0.0440   0.1595  -0.0228   0.0622  -0.0519   5.00    0.0
2018/11/05 00:49:15.000  -74.525909550  163.457819016    26.2194   6  11   0.0361   0.0379   0.1404  -0.0207   0.0547  -0.0468   5.00    0.0
2018/11/05 00:49:30.000  -74.525909563  163.457819253    26.2105   6  11   0.0323   0.0324   0.1239  -0.0191   0.0483  -0.0429   6.00    0.0
2018/11/05 00:49:45.000  -74.525909491  163.457819318    26.1815   6  11   0.0295   0.0282   0.1114  -0.0179   0.0435  -0.0400   6.00    0.0
2018/11/05 00:50:00.000  -74.525909491  163.457819458    26.1751   6  11   0.0283   0.0261   0.1052  -0.0175   0.0411  -0.0387   6.00    0.0
2018/11/05 00:50:15.000  -74.525909560  163.457819414    26.1885   6  11   0.0299   0.0281   0.1143  -0.0180   0.0444  -0.0419   6.00    0.0
2018/11/05 00:50:30.000  -74.525909583  163.457819118    26.1855   6  11   0.0333   0.0325   0.1289  -0.0195   0.0496  -0.0465   6.00    0.0
2018/11/05 00:50:45.000  -74.525909648  163.457818298    26.1534   6  11   0.0377   0.0379   0.1465  -0.0214   0.0560  -0.0520   6.00    0.0
2018/11/05 00:51:00.000  -74.525909661  163.457817449    26.1489   6  11   0.0427   0.0439   0.1664  -0.0238   0.0633  -0.0585   6.00    0.0
2018/11/05 00:51:15.000  -74.525909640  163.457817033    26.1491   6  11   0.0482   0.0501   0.1883  -0.0265   0.0714  -0.0659   6.00    0.0
2018/11/05 00:51:30.000  -74.525909675  163.457817075    26.2057   6  11   0.0540   0.0564   0.2118  -0.0297   0.0801  -0.0745   6.00    0.0
2018/11/05 00:51:45.000  -74.525909534  163.457816619    26.1736   6  11   0.0604   0.0629   0.2374  -0.0333   0.0895  -0.0844   6.00    0.0
2018/11/05 00:52:00.000  -74.525909548  163.457816691    26.1984   6  11   0.0675   0.0694   0.2661  -0.0375   0.0997  -0.0966   6.00    0.0
2018/11/05 00:52:15.000  -74.525909525  163.457816413    26.1854   6  11   0.0767   0.0762   0.3022  -0.0429   0.1118  -0.1139   6.00    0.0
2018/11/05 00:52:30.000  -74.525909407  163.457816149    26.1748   6  11   0.0811   0.0841   0.3296  -0.0489   0.1263  -0.1218   5.00    0.0
2018/11/05 00:52:45.000  -74.525909369  163.457815964    26.1481   6  11   0.0719   0.0766   0.2907  -0.0424   0.1118  -0.1036   5.00    0.0
2018/11/05 00:53:00.000  -74.525909331  163.457816305    26.1774   6  11   0.0646   0.0696   0.2598  -0.0374   0.1000  -0.0905   5.00    0.0
2018/11/05 00:53:15.000  -74.525909279  163.457817232    26.2149   6  11   0.0582   0.0629   0.2326  -0.0332   0.0895  -0.0798   5.00    0.0
2018/11/05 00:53:30.000  -74.525909330  163.457817417    26.2028   6  11   0.0522   0.0563   0.2076  -0.0295   0.0798  -0.0706   5.00    0.0
2018/11/05 00:53:45.000  -74.525909449  163.457817529    26.1850   6  11   0.0466   0.0500   0.1844  -0.0263   0.0710  -0.0626   5.00    0.0
2018/11/05 00:54:00.000  -74.525909515  163.457818019    26.1750   6  11   0.0414   0.0438   0.1633  -0.0236   0.0631  -0.0557   5.00    0.0
2018/11/05 00:54:15.000  -74.525909479  163.457818537    26.1593   6  11   0.0367   0.0382   0.1446  -0.0215   0.0564  -0.0501   5.00    0.0
2018/11/05 00:54:30.000  -74.525909415  163.457818477    26.1116   6  11   0.0329   0.0340   0.1305  -0.0205   0.0524  -0.0465   5.00    0.0
2018/11/05 00:54:45.000  -74.525909517  163.457818978    26.1542   6  11   0.0310   0.0296   0.1205  -0.0199   0.0481  -0.0456   5.00    0.0
2018/11/05 00:55:00.000  -74.525909573  163.457819616    26.1900   6  11   0.0284   0.0250   0.1047  -0.0167   0.0398  -0.0394   5.00    0.0
2018/11/05 00:55:15.000  -74.525909567  163.457819387    26.1470   6  11   0.0301   0.0271   0.1125  -0.0174   0.0424  -0.0419   5.00    0.0
2018/11/05 00:55:30.000  -74.525909489  163.457818607    26.0867   6  11   0.0335   0.0315   0.1266  -0.0191   0.0475  -0.0466   5.00    0.0
2018/11/05 00:55:45.000  -74.525909464  163.457818118    26.0789   6  11   0.0378   0.0369   0.1432  -0.0211   0.0536  -0.0519   5.00    0.0
2018/11/05 00:56:00.000  -74.525909397  163.457817299    26.0589   6  11   0.0425   0.0427   0.1614  -0.0233   0.0604  -0.0577   5.00    0.0
2018/11/05 00:56:15.000  -74.525909431  163.457816721    26.0892   6  11   0.0475   0.0488   0.1809  -0.0258   0.0678  -0.0639   5.00    0.0
2018/11/05 00:56:30.000  -74.525909492  163.457816933    26.1363   6  11   0.0527   0.0549   0.2011  -0.0285   0.0756  -0.0705   5.00    0.0
2018/11/05 00:56:45.000  -74.525909501  163.457816600    26.1615   6  11   0.0579   0.0610   0.2218  -0.0314   0.0836  -0.0774   5.00    0.0
2018/11/05 00:57:00.000  -74.525909396  163.457816291    26.1156   6  11   0.0632   0.0672   0.2428  -0.0343   0.0917  -0.0844   5.00    0.0
2018/11/05 00:57:15.000  -74.525909354  163.457815966    26.1042   6  11   0.0686   0.0734   0.2640  -0.0373   0.0999  -0.0915   5.00    0.0
2018/11/05 00:57:30.000  -74.525909278  163.457815644    26.0730   6  11   0.0740   0.0796   0.2853  -0.0403   0.1082  -0.0987   5.00    0.0
2018/11/05 00:57:45.000  -74.525909245  163.457815882    26.0279   6  11   0.0689   0.0733   0.2646  -0.0374   0.0997  -0.0924   5.00    0.0
2018/11/05 00:58:00.000  -74.525909264  163.457816630    26.0229   6  11   0.0643   0.0671   0.2457  -0.0347   0.0918  -0.0873   5.00    0.0
2018/11/05 00:58:15.000  -74.525909292  163.457816679    26.0139   6  11   0.0601   0.0610   0.2284  -0.0322   0.0841  -0.0832   6.00    0.0
2018/11/05 00:58:30.000  -74.525909347  163.457816814    26.0229   6  11   0.0567   0.0551   0.2137  -0.0297   0.0768  -0.0809   6.00    0.0
2018/11/05 00:58:45.000  -74.525909501  163.457816933    26.0519   6  10   0.0658   0.0543   0.2608  -0.0409   0.0938  -0.1125   5.00    0.0
2018/11/05 00:59:00.000  -74.525909486  163.457817274    26.0159   6  10   0.0586   0.0497   0.2348  -0.0384   0.0874  -0.1012   5.00    0.0
2018/11/05 00:59:15.000  -74.525909919  163.457819090    26.2464   6  10   0.0478   0.0376   0.1851  -0.0273   0.0631  -0.0786   5.00    0.0
2018/11/05 00:59:30.000  -74.525909674  163.457819298    26.1636   6  10   0.0376   0.0301   0.1406  -0.0195   0.0467  -0.0569   5.00    0.0
2018/11/05 00:59:45.000  -74.525909514  163.457819186    26.1146   6  10   0.0301   0.0245   0.1078  -0.0139   0.0351  -0.0406   5.00    0.0
2018/11/05 01:00:00.000  -74.525909634  163.457819520    26.2089   6  10   0.0263   0.0217   0.0893  -0.0110   0.0288  -0.0311   5.00    0.0
2018/11/05 01:00:15.000  -74.525909630  163.457819706    26.1837   6  10   0.0291   0.0240   0.1024  -0.0128   0.0325  -0.0372   5.00    0.0
2018/11/05 01:00:30.000  -74.525909529  163.457819477    26.1252   6  10   0.0351   0.0288   0.1283  -0.0164   0.0405  -0.0496   5.00    0.0
2018/11/05 01:00:45.000  -74.525909532  163.457818770    26.1014   6  10   0.0428   0.0347   0.1600  -0.0211   0.0506  -0.0644   5.00    0.0
2018/11/05 01:01:00.000  -74.525909610  163.457818843    26.1445   6  10   0.0513   0.0411   0.1946  -0.0261   0.0617  -0.0803   5.00    0.0
2018/11/05 01:01:15.000  -74.525909448  163.457818115    26.0923   6  10   0.0602   0.0476   0.2307  -0.0313   0.0732  -0.0969   5.00    0.0
2018/11/05 01:01:30.000  -74.525909428  163.457817846    26.1083   6  10   0.0694   0.0542   0.2678  -0.0367   0.0849  -0.1137   5.00    0.0
2018/11/05 01:01:45.000  -74.525909322  163.457817676    26.1073   6  10   0.0786   0.0608   0.3060  -0.0420   0.0966  -0.1308   5.00    0.0
2018/11/05 01:02:00.000  -74.525909317  163.457817171    26.1190   6  10   0.0880   0.0673   0.3463  -0.0474   0.1082  -0.1483   5.00    0.0
2018/11/05 01:02:15.000  -74.525909283  163.457816855    26.1492   6  10   0.0976   0.0739   0.3934  -0.0526   0.1195  -0.1669   5.00    0.0
2018/11/05 01:02:30.000  -74.525909193  163.457816631    26.1048   6   9   0.1090   0.0805   0.4659  -0.0583   0.1329  -0.1937   5.00    0.0
2018/11/05 01:02:45.000  -74.525909320  163.457817247    26.1405   6   9   0.0990   0.0734   0.4215  -0.0522   0.1193  -0.1744   5.00    0.0
2018/11/05 01:03:00.000  -74.525909351  163.457817261    26.1690   6   9   0.0891   0.0665   0.3779  -0.0463   0.1062  -0.1556   5.00    0.0
2018/11/05 01:03:15.000  -74.525909270  163.457817413    26.1356   6   9   0.0794   0.0597   0.3344  -0.0405   0.0933  -0.1368   5.00    0.0
2018/11/05 01:03:30.000  -74.525909263  163.457817486    26.1265   6   9   0.0698   0.0530   0.2913  -0.0348   0.0807  -0.1182   5.00    0.0
2018/11/05 01:03:45.000  -74.525909423  163.457817994    26.1823   6   9   0.0603   0.0464   0.2488  -0.0293   0.0684  -0.0998   5.00    0.0
2018/11/05 01:04:00.000  -74.525909466  163.457818058    26.1986   6   9   0.0511   0.0399   0.2071  -0.0239   0.0566  -0.0817   5.00    0.0
2018/11/05 01:04:15.000  -74.525909564  163.457818591    26.2380   6   9   0.0423   0.0336   0.1670  -0.0188   0.0455  -0.0643   5.00    0.0
2018/11/05 01:04:30.000  -74.525909676  163.457818912    26.2375   6   9   0.0344   0.0278   0.1298  -0.0142   0.0355  -0.0479   5.00    0.0
2018/11/05 01:04:45.000  -74.525909646  163.457819091    26.1887   6   9   0.0281   0.0231   0.0988  -0.0103   0.0276  -0.0337   5.00    0.0
2018/11/05 01:05:00.000  -74.525909618  163.457819262    26.1818   6   9   0.0251   0.0211   0.0813  -0.0081   0.0235  -0.0255   5.00    0.0
2018/11/05 01:05:15.000  -74.525909559  163.457818905    26.2007   6   9   0.0281   0.0233   0.0979  -0.0107   0.0277  -0.0336   5.00    0.0
2018/11/05 01:05:30.000  -74.525909289  163.457818219    26.0901   6  10   0.0310   0.0281   0.1070  -0.0140   0.0346  -0.0349   5.00    0.0
2018/11/05 01:05:45.000  -74.525909201  163.457817303    26.0564   6  10   0.0356   0.0335   0.1235  -0.0169   0.0408  -0.0399   5.00    0.0
2018/11/05 01:06:00.000  -74.525909217  163.457817218    26.0762   6  10   0.0409   0.0395   0.1438  -0.0204   0.0483  -0.0467   5.00    0.0
2018/11/05 01:06:15.000  -74.525909157  163.457816932    26.0657   6  10   0.0467   0.0456   0.1660  -0.0241   0.0565  -0.0544   5.00    0.0
2018/11/05 01:06:30.000  -74.525909104  163.457816280    26.0279   6  10   0.0527   0.0518   0.1895  -0.0280   0.0652  -0.0629   5.00    0.0
2018/11/05 01:06:45.000  -74.525909026  163.457815859    26.0468   6  10   0.0589   0.0581   0.2140  -0.0321   0.0741  -0.0718   5.00    0.0
2018/11/05 01:07:00.000  -74.525909057  163.457815334    26.0300   6  10   0.0653   0.0645   0.2392  -0.0364   0.0834  -0.0810   5.00    0.0
2018/11/05 01:07:15.000  -74.525909122  163.457815152    26.0196   6  10   0.0719   0.0711   0.2652  -0.0409   0.0931  -0.0907   5.00    0.0
2018/11/05 01:07:30.000  -74.525909049  163.457814927    25.9984   6  10   0.0787   0.0780   0.2921  -0.0458   0.1035  -0.1011   5.00    0.0
2018/11/05 01:07:45.000  -74.525909119  163.457815147    26.0116   6  10   0.0737   0.0741   0.2716  -0.0449   0.0993  -0.0959   5.00    0.0
2018/11/05 01:08:00.000  -74.525909243  163.457815527    26.0276   6  10   0.0705   0.0716   0.2597  -0.0464   0.1000  -0.0963   5.00    0.0
2018/11/05 01:08:15.000  -74.525909325  163.457816418    26.0858   6  10   0.0600   0.0586   0.2194  -0.0337   0.0765  -0.0757   5.00    0.0
2018/11/05 01:08:30.000  -74.525909304  163.457816740    26.0753   6  10   0.0528   0.0511   0.1905  -0.0278   0.0640  -0.0636   5.00    0.0
2018/11/05 01:08:45.000  -74.525909358  163.457817297    26.0904   6  10   0.0464   0.0445   0.1645  -0.0231   0.0539  -0.0536   5.00    0.0
2018/11/05 01:09:00.000  -74.525909369  163.457817785    26.1357   6  10   0.0403   0.0383   0.1399  -0.0189   0.0447  -0.0444   5.00    0.0
2018/11/05 01:09:15.000  -74.525909405  163.457818211    26.1417   6  10   0.0346   0.0323   0.1165  -0.0150   0.0363  -0.0357   5.00    0.0
2018/11/05 01:09:30.000  -74.525909469  163.457818713    26.1694   6  10   0.0296   0.0271   0.0951  -0.0115   0.0289  -0.0277   5.00    0.0
2018/11/05 01:09:45.000  -74.525909509  163.457818723    26.1516   6  10   0.0258   0.0232   0.0772  -0.0093   0.0236  -0.0209   5.00    0.0
2018/11/05 01:10:00.000  -74.525909589  163.457819197    26.1610   6  10   0.0229   0.0199   0.0649  -0.0040   0.0175  -0.0130   5.00    0.0
2018/11/05 01:10:15.000  -74.525909571  163.457819083    26.1673   6  10   0.0247   0.0218   0.0735  -0.0058   0.0198  -0.0166   5.00    0.0
2018/11/05 01:10:30.000  -74.525909591  163.457819023    26.2141   6  10   0.0286   0.0261   0.0901  -0.0090   0.0253  -0.0235   5.00    0.0
2018/11/05 01:10:45.000  -74.525909567  163.457818996    26.2291   6  10   0.0335   0.0313   0.1105  -0.0127   0.0322  -0.0313   5.00    0.0
2018/11/05 01:11:00.000  -74.525909493  163.457818417    26.2380   6  10   0.0390   0.0370   0.1332  -0.0163   0.0398  -0.0397   6.00    0.0
2018/11/05 01:11:15.000  -74.525909467  163.457818053    26.2240   6  10   0.0449   0.0427   0.1571  -0.0200   0.0477  -0.0485   6.00    0.0
2018/11/05 01:11:30.000  -74.525909439  163.457817794    26.2230   6  10   0.0509   0.0485   0.1817  -0.0237   0.0558  -0.0575   6.00    0.0
2018/11/05 01:11:45.000  -74.525909397  163.457817480    26.2273   6  10   0.0571   0.0544   0.2069  -0.0275   0.0639  -0.0667   6.00    0.0
2018/11/05 01:12:00.000  -74.525909329  163.457816965    26.1887   6  10   0.0633   0.0602   0.2324  -0.0312   0.0720  -0.0759   6.00    0.0
2018/11/05 01:12:15.000  -74.525909270  163.457816823    26.1387   6  10   0.0697   0.0661   0.2581  -0.0349   0.0800  -0.0851   6.00    0.0
2018/11/05 01:12:30.000  -74.525909238  163.457816066    26.0738   6  10   0.0761   0.0720   0.2840  -0.0386   0.0880  -0.0944   6.00    0.0
2018/11/05 01:12:45.000  -74.525909260  163.457816349    26.0766   6  10   0.0696   0.0660   0.2575  -0.0348   0.0793  -0.0848   6.00    0.0
2018/11/05 01:13:00.000  -74.525909265  163.457816295    26.0715   6  10   0.0632   0.0599   0.2317  -0.0308   0.0705  -0.0754   6.00    0.0
2018/11/05 01:13:15.000  -74.525909327  163.457816920    26.0974   6  10   0.0569   0.0539   0.2061  -0.0268   0.0618  -0.0661   6.00    0.0
2018/11/05 01:13:30.000  -74.525909427  163.457817318    26.1577   6  10   0.0507   0.0480   0.1807  -0.0229   0.0533  -0.0568   6.00    0.0
2018/11/05 01:13:45.000  -74.525909449  163.457817096    26.1791   6  10   0.0446   0.0421   0.1557  -0.0190   0.0450  -0.0476   6.00    0.0
2018/11/05 01:14:00.000  -74.525909431  163.457817350    26.1848   6  10   0.0387   0.0363   0.1314  -0.0152   0.0369  -0.0385   6.00    0.0
2018/11/05 01:14:15.000  -74.525909458  163.457817996    26.2211   6  10   0.0332   0.0308   0.1081  -0.0114   0.0293  -0.0296   6.00    0.0
2018/11/05 01:14:30.000  -74.525909817  163.457819527    26.2556   1  10   0.0339   0.0278   0.1136  -0.0140   0.0377  -0.0364   6.00    1.0
2018/11/05 01:14:45.000  -74.525909877  163.457819649    26.2106   1  10   0.0287   0.0223   0.0877  -0.0101   0.0311  -0.0265   6.00    1.0
2018/11/05 01:15:00.000  -74.525909923  163.457819889    26.1823   1  10   0.0262   0.0197   0.0735  -0.0080   0.0280  -0.0208   6.00    1.0
2018/11/05 01:15:15.000  -74.525909906  163.457820004    26.1736   1  10   0.0287   0.0222   0.0871  -0.0095   0.0310  -0.0258   6.00    1.0
2018/11/05 01:15:30.000  -74.525909858  163.457819712    26.1646   1  10   0.0341   0.0277   0.1129  -0.0131   0.0372  -0.0352   6.00    1.0
2018/11/05 01:15:45.000  -74.525909428  163.457818136    26.1324   6  10   0.0332   0.0305   0.1070  -0.0102   0.0282  -0.0280   6.00    0.0
2018/11/05 01:16:00.000  -74.525909353  163.457817659    26.1282   6  10   0.0387   0.0358   0.1300  -0.0138   0.0351  -0.0369   6.00    0.0
2018/11/05 01:16:15.000  -74.525909417  163.457817466    26.1384   6  10   0.0445   0.0413   0.1542  -0.0173   0.0422  -0.0459   6.00    0.0
2018/11/05 01:16:30.000  -74.525909357  163.457817226    26.0885   6  10   0.0505   0.0468   0.1791  -0.0208   0.0494  -0.0550   6.00    0.0
2018/11/05 01:16:45.000  -74.525909329  163.457816898    26.0330   6  10   0.0566   0.0524   0.2043  -0.0243   0.0565  -0.0642   6.00    0.0
2018/11/05 01:17:00.000  -74.525909319  163.457816770    25.9555   6  10   0.0629   0.0580   0.2298  -0.0277   0.0636  -0.0734   6.00    0.0
2018/11/05 01:17:15.000  -74.525909281  163.457816542    25.9883   6  10   0.0692   0.0636   0.2554  -0.0312   0.0705  -0.0826   6.00    0.0
2018/11/05 01:17:30.000  -74.525909262  163.457816178    26.0095   6  10   0.0755   0.0692   0.2811  -0.0345   0.0774  -0.0917   6.00    0.0
2018/11/05 01:17:45.000  -74.525909314  163.457816421    26.1060   6  10   0.0692   0.0636   0.2549  -0.0310   0.0697  -0.0820   6.00    0.0
2018/11/05 01:18:00.000  -74.525909348  163.457816270    26.0887   6  10   0.0630   0.0578   0.2291  -0.0272   0.0620  -0.0724   6.00    0.0
2018/11/05 01:18:15.000  -74.525909372  163.457816484    26.0773   6  10   0.0569   0.0522   0.2036  -0.0232   0.0544  -0.0626   6.00    0.0
2018/11/05 01:18:30.000  -74.525909411  163.457816482    26.0332   6  10   0.0512   0.0466   0.1786  -0.0189   0.0473  -0.0524   6.00    0.0
2018/11/05 01:18:45.000  -74.525909471  163.457817112    26.0561   6  10   0.0464   0.0414   0.1549  -0.0132   0.0412  -0.0404   6.00    0.0
2018/11/05 01:19:00.000  -74.525909566  163.457817583    26.0830   6  10   0.0394   0.0355   0.1298  -0.0115   0.0329  -0.0331   5.00    0.0
2018/11/05 01:19:15.000  -74.525909576  163.457818056    26.0727   6  10   0.0346   0.0304   0.1069  -0.0057   0.0269  -0.0219   5.00    0.0
2018/11/05 01:19:30.000  -74.525909579  163.457818621    26.0718   6  10   0.0277   0.0251   0.0833  -0.0060   0.0184  -0.0183   5.00    0.0
2018/11/05 01:19:45.000  -74.525909602  163.457818750    26.0892   6  10   0.0238   0.0212   0.0659   0.0015   0.0133  -0.0099   5.00    0.0
2018/11/05 01:20:00.000  -74.525909579  163.457818848    26.0996   6  10   0.0221   0.0194   0.0568   0.0042   0.0106   0.0022   5.00    0.0
2018/11/05 01:20:15.000  -74.525909559  163.457818501    26.0566   6  10   0.0238   0.0212   0.0655   0.0022   0.0129  -0.0095   5.00    0.0
2018/11/05 01:20:30.000  -74.525909966  163.457819021    26.0571   1  10   0.0334   0.0268   0.1076  -0.0120   0.0328  -0.0338   6.00    1.0
2018/11/05 01:20:45.000  -74.525910038  163.457818733    26.0138   1  10   0.0402   0.0334   0.1385  -0.0161   0.0393  -0.0448   6.00    1.0
2018/11/05 01:21:00.000  -74.525909585  163.457817156    26.0155   6  10   0.0378   0.0346   0.1261  -0.0125   0.0288  -0.0354   5.00    0.0
2018/11/05 01:21:15.000  -74.525909587  163.457816564    26.0586   6  10   0.0435   0.0398   0.1500  -0.0156   0.0348  -0.0443   5.00    0.0
2018/11/05 01:21:30.000  -74.525909569  163.457816320    26.0710   6  10   0.0495   0.0451   0.1744  -0.0188   0.0408  -0.0532   6.00    0.0
2018/11/05 01:21:45.000  -74.525909500  163.457816573    26.0756   6  10   0.0556   0.0505   0.1992  -0.0218   0.0467  -0.0621   6.00    0.0
2018/11/05 01:22:00.000  -74.525909449  163.457816656    26.0847   6  10   0.0617   0.0558   0.2241  -0.0249   0.0525  -0.0710   6.00    0.0
2018/11/05 01:22:15.000  -74.525909415  163.457816707    26.0779   6  10   0.0680   0.0612   0.2492  -0.0279   0.0581  -0.0798   6.00    0.0
2018/11/05 01:22:30.000  -74.525909422  163.457816667    26.0795   6  10   0.0743   0.0666   0.2742  -0.0309   0.0636  -0.0885   6.00    1.0
2018/11/05 01:22:45.000  -74.525909393  163.457816719    26.1164   6  10   0.0679   0.0609   0.2487  -0.0273   0.0566  -0.0799   6.00    1.0
2018/11/05 01:23:00.000  -74.525909419  163.457816786    26.1035   6  10   0.0616   0.0554   0.2231  -0.0240   0.0499  -0.0707   6.00    1.0
2018/11/05 01:23:15.000  -74.525909483  163.457816861    26.1208   6  10   0.0553   0.0499   0.1977  -0.0206   0.0433  -0.0616   6.00    1.0
2018/11/05 01:23:30.000  -74.525909479  163.457817006    26.1441   6  10   0.0492   0.0445   0.1726  -0.0174   0.0368  -0.0525   6.00    1.0
2018/11/05 01:23:45.000  -74.525909490  163.457816933    26.1300   6  10   0.0432   0.0392   0.1479  -0.0141   0.0305  -0.0435   6.00    1.0
2018/11/05 01:24:00.000  -74.525909530  163.457817142    26.1388   6  10   0.0374   0.0340   0.1239  -0.0108   0.0245  -0.0345   6.00    1.0
2018/11/05 01:24:15.000  -74.525909572  163.457817547    26.1231   6  10   0.0320   0.0290   0.1010  -0.0074   0.0187  -0.0256   6.00    1.0
2018/11/05 01:24:30.000  -74.525908705  163.457815655    26.1599   1  10   0.0518   0.0315   0.1202  -0.0167   0.0280   0.0380   6.00    1.0
2018/11/05 01:24:45.000  -74.525908640  163.457816045    26.1604   1  10   0.0485   0.0276   0.0984  -0.0146   0.0238   0.0442   6.00    1.0
2018/11/05 01:25:00.000  -74.525908577  163.457816158    26.1440   1  10   0.0469   0.0258   0.0874  -0.0138   0.0220   0.0463   6.00    1.0
2018/11/05 01:25:15.000  -74.525908538  163.457816051    26.1411   1  10   0.0480   0.0275   0.0975  -0.0145   0.0235   0.0437   6.00    1.0
2018/11/05 01:25:30.000  -74.525908515  163.457815910    26.1416   1  10   0.0510   0.0314   0.1185  -0.0161   0.0271   0.0373   6.00    1.0
2018/11/05 01:25:45.000  -74.525909458  163.457817925    26.1112   6  10   0.0318   0.0287   0.1000  -0.0065   0.0170  -0.0249   6.00    1.0
2018/11/05 01:26:00.000  -74.525909510  163.457817835    26.1324   6  10   0.0371   0.0334   0.1222  -0.0096   0.0216  -0.0335   6.00    1.0
2018/11/05 01:26:15.000  -74.525909381  163.457817193    26.1145   6  10   0.0428   0.0384   0.1453  -0.0125   0.0262  -0.0421   6.00    1.0
2018/11/05 01:26:30.000  -74.525909425  163.457817265    26.1460   6  11   0.0438   0.0424   0.1497  -0.0054   0.0134  -0.0301   6.00    1.0
2018/11/05 01:26:45.000  -74.525909381  163.457817003    26.0988   6  11   0.0478   0.0472   0.1632  -0.0035   0.0038  -0.0280   6.00    1.0
2018/11/05 01:27:00.000  -74.525909375  163.457816918    26.1043   6  11   0.0522   0.0521   0.1798  -0.0026  -0.0108  -0.0286   6.00    1.0
2018/11/05 01:27:15.000  -74.525909364  163.457817392    26.1259   6  11   0.0569   0.0570   0.1976  -0.0022  -0.0158  -0.0304   6.00    1.0
2018/11/05 01:27:30.000  -74.525909385  163.457817444    26.0971   6  11   0.0617   0.0621   0.2160  -0.0024  -0.0199  -0.0329   6.00    1.0
2018/11/05 01:27:45.000  -74.525909336  163.457817340    26.1116   6  11   0.0566   0.0570   0.1972   0.0025  -0.0191  -0.0293   6.00    1.0
2018/11/05 01:28:00.000  -74.525909291  163.457817687    26.0617   6  11   0.0517   0.0520   0.1782   0.0043  -0.0177  -0.0257   6.00    1.0
2018/11/05 01:28:15.000  -74.525909229  163.457817713    26.0473   6  11   0.0469   0.0470   0.1592   0.0052  -0.0162  -0.0218   6.00    1.0
2018/11/05 01:28:30.000  -74.525909333  163.457817708    26.0264   6  11   0.0421   0.0420   0.1404   0.0058  -0.0145  -0.0178   6.00    1.0
2018/11/05 01:28:45.000  -74.525909458  163.457818027    26.0643   6  11   0.0375   0.0372   0.1219   0.0062  -0.0128  -0.0134   6.00    1.0
2018/11/05 01:29:00.000  -74.525909968  163.457819283    26.1441   1  11   0.0406   0.0381   0.1359  -0.0005  -0.0232  -0.0277   7.00    1.0
2018/11/05 01:29:15.000  -74.525909511  163.457817981    26.1146   1  11   0.0285   0.0235   0.0818  -0.0056  -0.0071  -0.0013   6.00    1.0
2018/11/05 01:29:30.000  -74.525908536  163.457816244    26.1323   1  11   0.0487   0.0309   0.1071  -0.0120   0.0202   0.0431   6.00    1.0
2018/11/05 01:29:45.000  -74.525908477  163.457816025    26.1198   1  11   0.0461   0.0272   0.0901  -0.0111   0.0202   0.0452   6.00    1.0
2018/11/05 01:30:00.000  -74.525908513  163.457816302    26.1376   1  11   0.0447   0.0258   0.0812  -0.0106   0.0203   0.0460   6.00    1.0
2018/11/05 01:30:15.000  -74.525908485  163.457816340    26.1300   1  12   0.0455   0.0270   0.0887  -0.0107   0.0198   0.0451   6.00    1.0
2018/11/05 01:30:30.000  -74.525909534  163.457818134    26.1069   1  12   0.0242   0.0192   0.0612  -0.0058  -0.0109   0.0056   6.00    1.0
2018/11/05 01:30:45.000  -74.525908465  163.457816148    26.1375   1  12   0.0506   0.0348   0.1206  -0.0124   0.0031   0.0399   7.00    1.0
2018/11/05 01:31:00.000  -74.525909409  163.457817647    26.0954   6  12   0.0321   0.0307   0.0981   0.0020  -0.0214  -0.0123   7.00    1.0
2018/11/05 01:31:15.000  -74.525909412  163.457817390    26.0922   6  12   0.0364   0.0351   0.1149  -0.0033  -0.0260  -0.0181   7.00    1.0
2018/11/05 01:31:30.000  -74.525909363  163.457817404    26.0906   6  12   0.0408   0.0396   0.1324  -0.0055  -0.0306  -0.0235   7.00    1.0
2018/11/05 01:31:45.000  -74.525909309  163.457817356    26.0974   6  12   0.0453   0.0441   0.1504  -0.0073  -0.0354  -0.0287   7.00    1.0
2018/11/05 01:32:00.000  -74.525909274  163.457817253    26.0747   6  12   0.0500   0.0488   0.1687  -0.0090  -0.0402  -0.0338   7.00    1.0
2018/11/05 01:32:15.000  -74.525909361  163.457817404    26.0707   6  12   0.0548   0.0535   0.1873  -0.0106  -0.0450  -0.0388   7.00    1.0
2018/11/05 01:32:30.000  -74.525909409  163.457817700    26.0854   6  12   0.0596   0.0583   0.2061  -0.0122  -0.0499  -0.0438   7.00    1.0
2018/11/05 01:32:45.000  -74.525909458  163.457817814    26.0706   6  12   0.0549   0.0536   0.1879  -0.0102  -0.0452  -0.0391   7.00    1.0
2018/11/05 01:33:00.000  -74.525909430  163.457817968    26.0885   6  12   0.0501   0.0488   0.1697  -0.0083  -0.0407  -0.0342   7.00    1.0
2018/11/05 01:33:15.000  -74.525909326  163.457817971    26.0634   6  12   0.0454   0.0441   0.1517  -0.0063  -0.0362  -0.0293   7.00    1.0
2018/11/05 01:33:30.000  -74.525909261  163.457817675    26.0631   6  12   0.0408   0.0395   0.1338  -0.0041  -0.0317  -0.0242   7.00    1.0
2018/11/05 01:33:45.000  -74.525909222  163.457817621    26.0752   6  12   0.0364   0.0351   0.1162   0.0014  -0.0273  -0.0188   7.00    1.0
2018/11/05 01:34:00.000  -74.525909332  163.457818219    26.0916   6  12   0.0321   0.0307   0.0992   0.0040  -0.0230  -0.0129   7.00    1.0
2018/11/05 01:34:15.000  -74.525908427  163.457816877    26.1190   1  12   0.0500   0.0347   0.1194  -0.0106  -0.0107   0.0385   7.00    1.0
2018/11/05 01:34:30.000  -74.525908483  163.457816765    26.1334   1  12   0.0466   0.0301   0.0997  -0.0093   0.0114   0.0417   7.00    1.0
2018/11/05 01:34:45.000  -74.525908518  163.457816647    26.1447   1  12   0.0442   0.0267   0.0844  -0.0083   0.0164   0.0437   7.00    1.0
2018/11/05 01:35:00.000  -74.525908552  163.457816446    26.1220   1  12   0.0428   0.0252   0.0766  -0.0077   0.0181   0.0444   8.00    1.0
2018/11/05 01:35:15.000  -74.525910063  163.457819194    26.2072   1  12   0.0256   0.0205   0.0678   0.0104   0.0126  -0.0221   8.00    1.0
2018/11/05 01:35:30.000  -74.525910083  163.457819350    26.1752   1  12   0.0291   0.0246   0.0859   0.0098  -0.0038  -0.0257   8.00    1.0
2018/11/05 01:35:45.000  -74.525909986  163.457818870    26.2019   1  12   0.0341   0.0300   0.1082   0.0086  -0.0171  -0.0304   8.00    1.0
2018/11/05 01:36:00.000  -74.525909996  163.457818868    26.2526   1  12   0.0398   0.0362   0.1328   0.0068  -0.0260  -0.0357   8.00    1.0
2018/11/05 01:36:15.000  -74.525909375  163.457817791    26.1885   6  12   0.0362   0.0345   0.1180   0.0038  -0.0276  -0.0204   6.00    0.0
2018/11/05 01:36:30.000  -74.525909334  163.457817590    26.1788   6  12   0.0406   0.0390   0.1360   0.0011  -0.0326  -0.0257   6.00    0.0
2018/11/05 01:36:45.000  -74.525909271  163.457817437    26.1818   6  12   0.0452   0.0435   0.1545  -0.0039  -0.0376  -0.0308   6.00    0.0
2018/11/05 01:37:00.000  -74.525909259  163.457817580    26.1923   6  12   0.0499   0.0482   0.1734  -0.0060  -0.0427  -0.0360   7.00    0.0
2018/11/05 01:37:15.000  -74.525909150  163.457817759    26.2191   6  12   0.0547   0.0530   0.1924  -0.0077  -0.0478  -0.0411   7.00    0.0
2018/11/05 01:37:30.000  -74.525909181  163.457817840    26.1636   6  12   0.0596   0.0578   0.2117  -0.0092  -0.0530  -0.0462   7.00    0.0
2018/11/05 01:37:45.000  -74.525909160  163.457817949    26.1672   6  12   0.0547   0.0530   0.1926  -0.0080  -0.0482  -0.0408   6.00    0.0
2018/11/05 01:38:00.000  -74.525909143  163.457817940    26.1899   6  12   0.0499   0.0483   0.1737  -0.0060  -0.0433  -0.0358   7.00    0.0
2018/11/05 01:38:15.000  -74.525909094  163.457817912    26.1519   6  12   0.0452   0.0436   0.1550  -0.0038  -0.0384  -0.0307   7.00    0.0
2018/11/05 01:38:30.000  -74.525909164  163.457817912    26.1344   6  12   0.0406   0.0390   0.1364   0.0020  -0.0335  -0.0255   7.00    0.0
2018/11/05 01:38:45.000  -74.525909201  163.457817830    26.1075   6  12   0.0362   0.0345   0.1181   0.0042  -0.0286  -0.0202   7.00    0.0
2018/11/05 01:39:00.000  -74.525909898  163.457818684    26.1921   1  12   0.0399   0.0363   0.1335   0.0075  -0.0281  -0.0356   8.00    1.0
2018/11/05 01:39:15.000  -74.525909974  163.457818737    26.1773   1  12   0.0342   0.0302   0.1086   0.0091  -0.0197  -0.0303   8.00    1.0
2018/11/05 01:39:30.000  -74.525910055  163.457818581    26.1613   1  12   0.0293   0.0248   0.0859   0.0101  -0.0098  -0.0258   8.00    1.0
2018/11/05 01:39:45.000  -74.525910055  163.457818729    26.1757   1  12   0.0257   0.0208   0.0674   0.0109   0.0095  -0.0226   8.00    1.0
2018/11/05 01:40:00.000  -74.525909627  163.457818065    26.0540   1  12   0.0145   0.0135   0.0400  -0.0043   0.0022  -0.0110   7.00    1.0
2018/11/05 01:40:15.000  -74.525909553  163.457818208    26.0733   1  12   0.0202   0.0180   0.0482   0.0089   0.0056  -0.0040   6.00    1.0
2018/11/05 01:40:30.000  -74.525910081  163.457818721    26.1983   1  12   0.0286   0.0245   0.0858   0.0083  -0.0089  -0.0254   9.00    2.0
2018/11/05 01:40:45.000  -74.525910092  163.457818666    26.1890   1  12   0.0337   0.0299   0.1086   0.0072  -0.0197  -0.0301   8.00    2.0
2018/11/05 01:41:00.000  -74.525910059  163.457818200    26.1533   1  12   0.0395   0.0361   0.1337   0.0055  -0.0286  -0.0355   8.00    2.0
2018/11/05 01:41:15.000  -74.525909379  163.457817886    26.0495   6  12   0.0360   0.0342   0.1175   0.0050  -0.0291  -0.0204   5.00    0.0
2018/11/05 01:41:30.000  -74.525909428  163.457818468    26.0845   6  12   0.0404   0.0387   0.1360   0.0039  -0.0342  -0.0258   5.00    0.0
2018/11/05 01:41:45.000  -74.525909453  163.457818015    26.1218   6  12   0.0450   0.0433   0.1548   0.0018  -0.0395  -0.0311   4.00    0.0
2018/11/05 01:42:00.000  -74.525909331  163.457817841    26.1294   6  12   0.0497   0.0480   0.1739  -0.0034  -0.0448  -0.0364   4.00    0.0
2018/11/05 01:42:15.000  -74.525909387  163.457817749    26.1793   6  12   0.0545   0.0527   0.1932  -0.0053  -0.0501  -0.0415   4.00    0.0
2018/11/05 01:42:30.000  -74.525909349  163.457817774    26.1940   6  12   0.0594   0.0576   0.2125  -0.0068  -0.0555  -0.0466   4.00    0.0
2018/11/05 01:42:45.000  -74.525909305  163.457817691    26.2055   6  12   0.0547   0.0528   0.1934  -0.0049  -0.0505  -0.0422   4.00    0.0
2018/11/05 01:43:00.000  -74.525909328  163.457817694    26.1977   6  12   0.0499   0.0480   0.1741  -0.0022  -0.0454  -0.0370   5.00    0.0
2018/11/05 01:43:15.000  -74.525909334  163.457817963    26.2115   6  12   0.0451   0.0433   0.1550   0.0032  -0.0402  -0.0318   5.00    0.0
2018/11/05 01:43:30.000  -74.525909355  163.457818293    26.1740   6  12   0.0405   0.0387   0.1362   0.0048  -0.0351  -0.0265   5.00    0.0
2018/11/05 01:43:45.000  -74.525909442  163.457818530    26.1150   6  12   0.0361   0.0343   0.1177   0.0057  -0.0300  -0.0211   5.00    0.0
2018/11/05 01:44:00.000  -74.525910184  163.457818418    26.1786   1  12   0.0397   0.0363   0.1339   0.0066  -0.0303  -0.0363   8.00    2.0
2018/11/05 01:44:15.000  -74.525910162  163.457818418    26.2116   1  12   0.0339   0.0302   0.1089   0.0079  -0.0219  -0.0309   8.00    2.0
2018/11/05 01:44:30.000  -74.525910152  163.457818527    26.2252   1  12   0.0289   0.0249   0.0861   0.0088  -0.0125  -0.0264   8.00    2.0
