% program   : RTKLIB ver.2.4.3
% inp file  : _by_type/_obs/shirase/20181114.18o
% inp file  : _by_type/_sp3+clk/igs20273.clk
% inp file  : _by_type/_sp3+clk/igs20273.sp3
% inp file  : _by_type/_nav/shirase/20181114.18n
% obs start : 2018/11/14 00:00:00.0 GPST (week2027 259200.0s)
% obs end   : 2018/11/14 23:59:45.0 GPST (week2027 345585.0s)
% pos mode  : ppp-kinematic
% solution  : combined
% elev mask : 15.0 deg
% dynamics  : off
% tidecorr  : on
% tropo opt : est ztd+grad
% ephemeris : precise
% navi sys  : gps glonass
% antenna1  :                       ( 0.0000  0.0000  0.0000)
%
% (lat/lon/height=WGS84/ellipsoidal,Q=1:fix,2:float,3:sbas,4:dgps,5:single,6:ppp,ns=# of satellites)
%  GPST                  latitude(deg) longitude(deg)  height(m)   Q  ns   sdn(m)   sde(m)   sdu(m)  sdne(m)  sdeu(m)  sdun(m) age(s)  ratio
2018/11/14 00:00:00.000  -74.525931317  163.457855550    26.5087   6  11   0.0293   0.0289   0.1363  -0.0197   0.0492  -0.0463   0.00    0.0
2018/11/14 00:00:15.000  -74.525931322  163.457855440    26.5105   6  11   0.0320   0.0322   0.1486  -0.0218   0.0548  -0.0510   0.00    0.0
2018/11/14 00:00:30.000  -74.525931258  163.457854943    26.4544   6  11   0.0366   0.0380   0.1681  -0.0250   0.0634  -0.0582   0.00    0.0
2018/11/14 00:00:45.000  -74.525931274  163.457854889    26.4623   6  11   0.0426   0.0454   0.1920  -0.0289   0.0739  -0.0669   0.00    0.0
2018/11/14 00:01:00.000  -74.525931262  163.457855323    26.4821   6  11   0.0493   0.0537   0.2188  -0.0332   0.0855  -0.0766   0.00    0.0
2018/11/14 00:01:15.000  -74.525931114  163.457855167    26.4242   6  11   0.0565   0.0623   0.2475  -0.0378   0.0977  -0.0869   0.00    0.0
2018/11/14 00:01:30.000  -74.525931021  163.457854820    26.3716   6  11   0.0640   0.0712   0.2772  -0.0425   0.1102  -0.0975   1.00    0.0
2018/11/14 00:01:45.000  -74.525930895  163.457854260    26.2893   6  11   0.0716   0.0801   0.3075  -0.0471   0.1227  -0.1082   1.00    0.0
2018/11/14 00:02:00.000  -74.525930877  163.457854255    26.2296   6  11   0.0791   0.0889   0.3377  -0.0517   0.1351  -0.1188   1.00    0.0
2018/11/14 00:02:15.000  -74.525930781  163.457853833    26.1567   6  11   0.0867   0.0975   0.3675  -0.0561   0.1472  -0.1292   2.00    0.0
2018/11/14 00:02:30.000  -74.525930794  163.457853147    26.0741   6  11   0.0940   0.1059   0.3967  -0.0604   0.1588  -0.1393   1.00    0.0
2018/11/14 00:02:45.000  -74.525931015  163.457853974    26.2266   6  11   0.0863   0.0969   0.3659  -0.0557   0.1461  -0.1285   3.00    0.0
2018/11/14 00:03:00.000  -74.525931244  163.457854469    26.3216   6  11   0.0785   0.0879   0.3352  -0.0509   0.1334  -0.1176   3.00    0.0
2018/11/14 00:03:15.000  -74.525931217  163.457854178    26.2946   6  11   0.0708   0.0790   0.3049  -0.0462   0.1208  -0.1068   3.00    0.0
2018/11/14 00:03:30.000  -74.525931273  163.457854639    26.3468   6  11   0.0633   0.0702   0.2753  -0.0416   0.1085  -0.0962   4.00    0.0
2018/11/14 00:03:45.000  -74.525931422  163.457855411    26.4598   6  11   0.0560   0.0616   0.2469  -0.0371   0.0965  -0.0860   5.00    0.0
2018/11/14 00:04:00.000  -74.525931412  163.457855439    26.4574   6  11   0.0490   0.0533   0.2203  -0.0330   0.0852  -0.0764   6.00    0.0
2018/11/14 00:04:15.000  -74.525931350  163.457855268    26.4151   6  11   0.0427   0.0456   0.1965  -0.0292   0.0748  -0.0676   5.00    0.0
2018/11/14 00:04:30.000  -74.525931238  163.457854978    26.3567   6  11   0.0374   0.0392   0.1772  -0.0263   0.0660  -0.0600   6.00    0.0
2018/11/14 00:04:45.000  -74.525931216  163.457854518    26.3628   6  11   0.0330   0.0341   0.1635  -0.0237   0.0614  -0.0560   0.00    0.0
2018/11/14 00:05:00.000  -74.525931261  163.457854822    26.4148   6  11   0.0313   0.0326   0.1598  -0.0231   0.0603  -0.0542   0.00    0.0
2018/11/14 00:05:15.000  -74.525931270  163.457854533    26.4198   6  11   0.0338   0.0362   0.1727  -0.0252   0.0662  -0.0580   0.00    0.0
2018/11/14 00:05:30.000  -74.525931174  163.457853835    26.3469   6  11   0.0383   0.0420   0.1918  -0.0282   0.0742  -0.0635   0.00    0.0
2018/11/14 00:05:45.000  -74.525931084  163.457853569    26.2848   6  11   0.0439   0.0489   0.2137  -0.0316   0.0828  -0.0697   1.00    0.0
2018/11/14 00:06:00.000  -74.525931066  163.457853708    26.2674   6  11   0.0504   0.0566   0.2380  -0.0356   0.0909  -0.0756   2.00    0.0
2018/11/14 00:06:15.000  -74.525931202  163.457853734    26.2910   6  11   0.0563   0.0640   0.2533  -0.0385   0.1025  -0.0861   0.00    0.0
2018/11/14 00:06:30.000  -74.525931313  163.457854049    26.3353   6  11   0.0633   0.0717   0.2789  -0.0419   0.1121  -0.0927   1.00    0.0
2018/11/14 00:06:45.000  -74.525931269  163.457854011    26.2903   6  11   0.0711   0.0792   0.3063  -0.0454   0.1214  -0.0973   0.00    0.0
2018/11/14 00:07:00.000  -74.525931279  163.457854190    26.2991   6  11   0.0779   0.0867   0.3319  -0.0487   0.1308  -0.1039   0.00    0.0
2018/11/14 00:07:15.000  -74.525931211  163.457853699    26.2545   6  11   0.0814   0.0939   0.3490  -0.0514   0.1405  -0.1181   2.00    0.0
2018/11/14 00:07:30.000  -74.525931143  163.457853433    26.2136   6  11   0.0876   0.1010   0.3731  -0.0545   0.1496  -0.1257   4.00    0.0
2018/11/14 00:07:45.000  -74.525931225  163.457853959    26.2483   6  11   0.0813   0.0944   0.3523  -0.0520   0.1425  -0.1191   4.00    0.0
2018/11/14 00:08:00.000  -74.525931217  163.457853888    26.2357   6  11   0.0753   0.0886   0.3346  -0.0501   0.1372  -0.1138   4.00    0.0
2018/11/14 00:08:15.000  -74.525931170  163.457853721    26.2419   6  11   0.0700   0.0842   0.3228  -0.0495   0.1353  -0.1107   4.00    0.0
2018/11/14 00:08:30.000  -74.525931091  163.457853205    26.2075   6  11   0.0665   0.0841   0.3276  -0.0527   0.1429  -0.1142   4.00    0.0
2018/11/14 00:08:45.000  -74.525931149  163.457853142    26.2179   6  11   0.0606   0.0783   0.3175  -0.0495   0.1387  -0.1072   4.00    0.0
2018/11/14 00:09:00.000  -74.525931317  163.457854003    26.3209   6  11   0.0483   0.0498   0.2027  -0.0294   0.0765  -0.0690   3.00    0.0
2018/11/14 00:09:15.000  -74.525931289  163.457854381    26.3380   6  11   0.0415   0.0419   0.1721  -0.0264   0.0646  -0.0640   3.00    0.0
2018/11/14 00:09:30.000  -74.525931294  163.457854464    26.3548   6  11   0.0364   0.0351   0.1507  -0.0234   0.0554  -0.0574   3.00    0.0
2018/11/14 00:09:45.000  -74.525931299  163.457854914    26.4507   1  11   0.0323   0.0306   0.1360  -0.0218   0.0516  -0.0586   4.00    1.0
2018/11/14 00:10:00.000  -74.525931328  163.457854613    26.4369   1  11   0.0292   0.0231   0.1209  -0.0165   0.0406  -0.0523   4.00    2.0
2018/11/14 00:10:15.000  -74.525931474  163.457854278    26.4148   1  11   0.0331   0.0316   0.1362  -0.0220   0.0517  -0.0592   5.00    1.0
2018/11/14 00:10:30.000  -74.525931315  163.457853416    26.2568   6  11   0.0373   0.0366   0.1500  -0.0229   0.0548  -0.0571   3.00    0.0
2018/11/14 00:10:45.000  -74.525931191  163.457852458    26.1354   6  11   0.0425   0.0439   0.1700  -0.0250   0.0630  -0.0625   3.00    0.0
2018/11/14 00:11:00.000  -74.525931162  163.457851949    26.0438   6  11   0.0485   0.0519   0.1926  -0.0271   0.0719  -0.0684   3.00    0.0
2018/11/14 00:11:15.000  -74.525931160  163.457851288    26.0157   6  11   0.0553   0.0606   0.2165  -0.0282   0.0809  -0.0745   4.00    0.0
2018/11/14 00:11:30.000  -74.525931238  163.457850469    25.9789   6  11   0.0610   0.0681   0.2414  -0.0321   0.0901  -0.0801   4.00    0.0
2018/11/14 00:11:45.000  -74.525931277  163.457849973    25.9698   6  11   0.0683   0.0769   0.2686  -0.0337   0.0993  -0.0843   4.00    0.0
2018/11/14 00:12:00.000  -74.525931228  163.457849988    26.0154   6  11   0.0725   0.0871   0.2861  -0.0360   0.1057  -0.0979   4.00    0.0
2018/11/14 00:12:15.000  -74.525931219  163.457849041    26.0121   6  11   0.0797   0.1001   0.3096  -0.0368   0.1141  -0.1049   4.00    0.0
2018/11/14 00:12:30.000  -74.525931181  163.457849845    26.0250   6  11   0.0834   0.0950   0.3333  -0.0439   0.1263  -0.1116   3.00    0.0
2018/11/14 00:12:45.000  -74.525931102  163.457850297    26.0492   6  11   0.0770   0.0888   0.3073  -0.0387   0.1154  -0.1031   3.00    0.0
2018/11/14 00:13:00.000  -74.525930994  163.457850489    26.0258   6  11   0.0711   0.0817   0.2826  -0.0350   0.1061  -0.0955   3.00    0.0
2018/11/14 00:13:15.000  -74.525930943  163.457851122    26.0250   6  11   0.0647   0.0718   0.2574  -0.0340   0.0992  -0.0869   3.00    0.0
2018/11/14 00:13:30.000  -74.525930891  163.457851558    26.0798   6  11   0.0571   0.0626   0.2330  -0.0342   0.0897  -0.0801   4.00    0.0
2018/11/14 00:13:45.000  -74.525930990  163.457852123    26.1789   6  11   0.0511   0.0553   0.2090  -0.0315   0.0807  -0.0732   4.00    0.0
2018/11/14 00:14:00.000  -74.525931062  163.457852411    26.2468   6  11   0.0453   0.0481   0.1857  -0.0289   0.0719  -0.0666   4.00    0.0
2018/11/14 00:14:15.000  -74.525931154  163.457852751    26.2849   6  11   0.0399   0.0412   0.1639  -0.0265   0.0637  -0.0605   4.00    0.0
2018/11/14 00:14:30.000  -74.525931417  163.457853533    26.4062   1  11   0.0349   0.0367   0.1405  -0.0256   0.0587  -0.0529   6.00    1.0
2018/11/14 00:14:45.000  -74.525931317  163.457853544    26.3783   1  11   0.0280   0.0313   0.1193  -0.0231   0.0518  -0.0500   6.00    2.0
2018/11/14 00:15:00.000  -74.525931369  163.457854022    26.4048   1  11   0.0257   0.0287   0.1100  -0.0220   0.0484  -0.0472   6.00    2.0
2018/11/14 00:15:15.000  -74.525931338  163.457853976    26.3757   1  11   0.0287   0.0315   0.1218  -0.0236   0.0525  -0.0514   6.00    2.0
2018/11/14 00:15:30.000  -74.525931124  163.457853580    26.2201   6  11   0.0362   0.0352   0.1493  -0.0251   0.0575  -0.0574   5.00    0.0
2018/11/14 00:15:45.000  -74.525931073  163.457853213    26.1823   6  11   0.0409   0.0411   0.1677  -0.0270   0.0642  -0.0624   5.00    0.0
2018/11/14 00:16:00.000  -74.525931007  163.457852803    26.1348   6  11   0.0462   0.0475   0.1877  -0.0290   0.0713  -0.0675   5.00    0.0
2018/11/14 00:16:15.000  -74.525930983  163.457852208    26.1156   6  11   0.0518   0.0541   0.2087  -0.0311   0.0787  -0.0729   6.00    0.0
2018/11/14 00:16:30.000  -74.525930930  163.457852148    26.0886   6  11   0.0576   0.0607   0.2302  -0.0333   0.0861  -0.0784   5.00    0.0
2018/11/14 00:16:45.000  -74.525930788  163.457851689    26.0706   6  11   0.0634   0.0673   0.2520  -0.0356   0.0937  -0.0840   5.00    0.0
2018/11/14 00:17:00.000  -74.525930632  163.457851145    26.0196   6  11   0.0694   0.0738   0.2739  -0.0380   0.1012  -0.0896   5.00    0.0
2018/11/14 00:17:15.000  -74.525930474  163.457850608    25.9897   6  11   0.0756   0.0802   0.2960  -0.0406   0.1088  -0.0948   5.00    0.0
2018/11/14 00:17:30.000  -74.525930569  163.457850635    25.9656   6  11   0.0829   0.0866   0.3189  -0.0436   0.1162  -0.0986   5.00    0.0
2018/11/14 00:17:45.000  -74.525930675  163.457850821    25.9745   6  11   0.0736   0.0799   0.2935  -0.0398   0.1085  -0.0971   4.00    0.0
2018/11/14 00:18:00.000  -74.525930736  163.457851135    26.0284   6  11   0.0676   0.0732   0.2706  -0.0370   0.1001  -0.0905   4.00    0.0
2018/11/14 00:18:15.000  -74.525930769  163.457851228    26.0561   6  11   0.0618   0.0664   0.2480  -0.0344   0.0918  -0.0841   4.00    0.0
2018/11/14 00:18:30.000  -74.525930922  163.457851381    26.1096   6  11   0.0561   0.0597   0.2258  -0.0319   0.0838  -0.0780   4.00    0.0
2018/11/14 00:18:45.000  -74.525931026  163.457851891    26.1808   6  11   0.0505   0.0529   0.2042  -0.0297   0.0760  -0.0722   4.00    0.0
2018/11/14 00:19:00.000  -74.525931118  163.457852530    26.2290   6  11   0.0451   0.0463   0.1836  -0.0276   0.0685  -0.0668   4.00    0.0
2018/11/14 00:19:15.000  -74.525931128  163.457853170    26.2671   6  11   0.0401   0.0399   0.1646  -0.0258   0.0616  -0.0620   4.00    0.0
2018/11/14 00:19:30.000  -74.525931442  163.457854522    26.4411   1  11   0.0322   0.0307   0.1326  -0.0211   0.0494  -0.0538   5.00    3.0
2018/11/14 00:19:45.000  -74.525931493  163.457854696    26.4555   1  11   0.0279   0.0247   0.1153  -0.0189   0.0423  -0.0490   5.00    3.0
2018/11/14 00:20:00.000  -74.525931456  163.457854259    26.4122   1  11   0.0266   0.0223   0.1113  -0.0190   0.0409  -0.0489   5.00    3.0
2018/11/14 00:20:15.000  -74.525931501  163.457854192    26.4245   1  11   0.0336   0.0283   0.1431  -0.0246   0.0537  -0.0631   5.00    3.0
2018/11/14 00:20:30.000  -74.525931033  163.457852249    26.2156   6  11   0.0409   0.0365   0.1696  -0.0284   0.0628  -0.0703   5.00    0.0
2018/11/14 00:20:45.000  -74.525930877  163.457851971    26.1540   6  11   0.0476   0.0432   0.1962  -0.0320   0.0720  -0.0807   5.00    0.0
2018/11/14 00:21:00.000  -74.525930817  163.457851866    26.1330   6  11   0.0548   0.0512   0.2247  -0.0360   0.0825  -0.0916   5.00    0.0
2018/11/14 00:21:15.000  -74.525930864  163.457852282    26.1673   6  11   0.0619   0.0517   0.2421  -0.0329   0.0765  -0.0988   6.00    0.0
2018/11/14 00:21:30.000  -74.525931020  163.457852297    26.2060   6  10   0.0790   0.0615   0.3186  -0.0452   0.1017  -0.1352   5.00    0.0
2018/11/14 00:21:45.000  -74.525931042  163.457852388    26.1765   6  10   0.0881   0.0684   0.3625  -0.0498   0.1114  -0.1511   4.00    0.0
2018/11/14 00:22:00.000  -74.525930934  163.457852052    26.1182   6  10   0.0979   0.0753   0.3947  -0.0552   0.1250  -0.1685   4.00    0.0
2018/11/14 00:22:15.000  -74.525930837  163.457852285    26.1120   6  10   0.1069   0.0821   0.4318  -0.0601   0.1355  -0.1837   4.00    0.0
2018/11/14 00:22:30.000  -74.525930904  163.457852495    26.1551   6  10   0.1163   0.0888   0.4798  -0.0651   0.1459  -0.2012   4.00    0.0
2018/11/14 00:22:45.000  -74.525931105  163.457852797    26.2556   6  10   0.1070   0.0815   0.4487  -0.0591   0.1329  -0.1863   4.00    0.0
2018/11/14 00:23:00.000  -74.525931048  163.457852293    26.1838   6  10   0.0966   0.0739   0.3760  -0.0532   0.1215  -0.1637   4.00    0.0
2018/11/14 00:23:15.000  -74.525931317  163.457852600    26.2878   6  10   0.0861   0.0664   0.3318  -0.0470   0.1072  -0.1443   4.00    0.0
2018/11/14 00:23:30.000  -74.525931520  163.457853154    26.3568   6  10   0.0760   0.0589   0.2911  -0.0410   0.0936  -0.1262   4.00    0.0
2018/11/14 00:23:45.000  -74.525931604  163.457853376    26.3965   6  10   0.0660   0.0514   0.2518  -0.0352   0.0805  -0.1086   4.00    0.0
2018/11/14 00:24:00.000  -74.525931502  163.457853125    26.3277   6  10   0.0562   0.0440   0.2138  -0.0298   0.0678  -0.0915   4.00    0.0
2018/11/14 00:24:15.000  -74.525931426  163.457853068    26.3065   6  10   0.0467   0.0369   0.1776  -0.0247   0.0556  -0.0750   4.00    0.0
2018/11/14 00:24:30.000  -74.525931365  163.457853218    26.2958   6  10   0.0378   0.0303   0.1441  -0.0201   0.0445  -0.0595   4.00    0.0
2018/11/14 00:24:45.000  -74.525931621  163.457853675    26.4185   1  10   0.0288   0.0207   0.1160  -0.0157   0.0354  -0.0503   5.00    4.0
2018/11/14 00:25:00.000  -74.525931532  163.457853769    26.3823   1  10   0.0228   0.0166   0.0929  -0.0122   0.0273  -0.0392   4.00    4.0
2018/11/14 00:25:15.000  -74.525931295  163.457852803    26.2782   1  10   0.0300   0.0243   0.1226  -0.0188   0.0405  -0.0533   4.00    3.0
2018/11/14 00:25:30.000  -74.525931022  163.457852365    26.1415   6  10   0.0373   0.0310   0.1439  -0.0201   0.0426  -0.0579   4.00    0.0
2018/11/14 00:25:45.000  -74.525931100  163.457852833    26.1825   6  10   0.0456   0.0376   0.1808  -0.0239   0.0509  -0.0724   4.00    0.0
2018/11/14 00:26:00.000  -74.525931095  163.457852900    26.1949   6   9   0.0552   0.0447   0.2228  -0.0288   0.0620  -0.0900   4.00    0.0
2018/11/14 00:26:15.000  -74.525931045  163.457852945    26.1724   6   9   0.0647   0.0518   0.2630  -0.0336   0.0728  -0.1068   4.00    0.0
2018/11/14 00:26:30.000  -74.525930917  163.457852578    26.1431   6   9   0.0743   0.0589   0.3042  -0.0386   0.0839  -0.1240   4.00    0.0
2018/11/14 00:26:45.000  -74.525930752  163.457852119    26.0973   6   9   0.0840   0.0659   0.3460  -0.0437   0.0954  -0.1416   4.00    0.0
2018/11/14 00:27:00.000  -74.525930777  163.457852423    26.1202   6   9   0.0938   0.0730   0.3881  -0.0491   0.1070  -0.1595   4.00    0.0
2018/11/14 00:27:15.000  -74.525930683  163.457852610    26.0656   6   9   0.1036   0.0802   0.4306  -0.0547   0.1190  -0.1776   4.00    0.0
2018/11/14 00:27:30.000  -74.525930686  163.457853305    26.0670   6   9   0.1136   0.0879   0.4734  -0.0608   0.1316  -0.1961   4.00    0.0
2018/11/14 00:27:45.000  -74.525930801  163.457853772    26.0923   6   9   0.1052   0.0855   0.4318  -0.0595   0.1241  -0.1796   4.00    0.0
2018/11/14 00:28:00.000  -74.525931083  163.457854479    26.2180   6   9   0.0939   0.0714   0.3905  -0.0482   0.1068  -0.1606   3.00    0.0
2018/11/14 00:28:15.000  -74.525931073  163.457854100    26.2314   6   9   0.0830   0.0632   0.3438  -0.0408   0.0910  -0.1400   3.00    0.0
2018/11/14 00:28:30.000  -74.525931121  163.457853538    26.2613   6   9   0.0729   0.0557   0.2998  -0.0348   0.0778  -0.1211   3.00    0.0
2018/11/14 00:28:45.000  -74.525931249  163.457853319    26.3073   6  10   0.0510   0.0486   0.1901  -0.0280   0.0628  -0.0650   3.00    0.0
2018/11/14 00:29:00.000  -74.525931209  163.457853179    26.2694   6  10   0.0432   0.0414   0.1588  -0.0232   0.0516  -0.0527   4.00    0.0
2018/11/14 00:29:15.000  -74.525931267  163.457853323    26.2320   6  10   0.0363   0.0347   0.1327  -0.0193   0.0423  -0.0433   4.00    0.0
2018/11/14 00:29:30.000  -74.525931507  163.457853987    26.3173   1  10   0.0328   0.0299   0.1231  -0.0186   0.0446  -0.0448   5.00    1.0
2018/11/14 00:29:45.000  -74.525931537  163.457854087    26.3317   1  10   0.0272   0.0241   0.0999  -0.0151   0.0372  -0.0369   5.00    1.0
2018/11/14 00:30:00.000  -74.525931420  163.457853522    26.3370   1  10   0.0213   0.0159   0.0742  -0.0095   0.0219  -0.0253   5.00    3.0
2018/11/14 00:30:15.000  -74.525931496  163.457853798    26.3854   1  10   0.0275   0.0246   0.0998  -0.0157   0.0374  -0.0372   5.00    1.0
2018/11/14 00:30:30.000  -74.525931553  163.457854517    26.3978   1  10   0.0331   0.0306   0.1228  -0.0193   0.0448  -0.0450   5.00    1.0
2018/11/14 00:30:45.000  -74.525931198  163.457853925    26.2906   6  10   0.0355   0.0344   0.1247  -0.0184   0.0388  -0.0392   4.00    0.0
2018/11/14 00:31:00.000  -74.525931161  163.457853353    26.2614   6  10   0.0417   0.0405   0.1460  -0.0213   0.0457  -0.0457   4.00    0.0
2018/11/14 00:31:15.000  -74.525931060  163.457852854    26.1985   6  10   0.0480   0.0468   0.1686  -0.0244   0.0531  -0.0529   4.00    0.0
2018/11/14 00:31:30.000  -74.525931034  163.457852594    26.1476   6  10   0.0545   0.0530   0.1921  -0.0277   0.0609  -0.0607   4.00    0.0
2018/11/14 00:31:45.000  -74.525930932  163.457852334    26.0974   6  10   0.0609   0.0592   0.2162  -0.0311   0.0689  -0.0688   4.00    0.0
2018/11/14 00:32:00.000  -74.525930906  163.457852065    26.0404   6  10   0.0674   0.0653   0.2408  -0.0346   0.0771  -0.0773   4.00    0.0
2018/11/14 00:32:15.000  -74.525930856  163.457851978    25.9982   6  10   0.0738   0.0714   0.2657  -0.0382   0.0853  -0.0860   4.00    0.0
2018/11/14 00:32:30.000  -74.525930850  163.457852109    25.9640   6  10   0.0802   0.0774   0.2909  -0.0418   0.0936  -0.0949   4.00    0.0
2018/11/14 00:32:45.000  -74.525930933  163.457852247    25.9944   6  10   0.0739   0.0713   0.2662  -0.0381   0.0848  -0.0864   5.00    0.0
2018/11/14 00:33:00.000  -74.525930935  163.457852118    26.0251   6  10   0.0674   0.0650   0.2412  -0.0343   0.0759  -0.0776   5.00    0.0
2018/11/14 00:33:15.000  -74.525931026  163.457851913    26.0414   6  10   0.0609   0.0587   0.2163  -0.0306   0.0672  -0.0689   5.00    0.0
2018/11/14 00:33:30.000  -74.525931072  163.457852146    26.1289   6  10   0.0544   0.0525   0.1917  -0.0271   0.0587  -0.0605   5.00    0.0
2018/11/14 00:33:45.000  -74.525931205  163.457852669    26.2002   6  10   0.0479   0.0463   0.1675  -0.0239   0.0507  -0.0525   5.00    0.0
2018/11/14 00:34:00.000  -74.525931199  163.457852789    26.2604   6  10   0.0416   0.0403   0.1441  -0.0210   0.0432  -0.0449   5.00    0.0
2018/11/14 00:34:15.000  -74.525931207  163.457852716    26.2716   6  10   0.0355   0.0349   0.1219  -0.0187   0.0366  -0.0380   5.00    0.0
2018/11/14 00:34:30.000  -74.525931507  163.457853088    26.3736   1  10   0.0348   0.0345   0.1234  -0.0230   0.0477  -0.0475   4.00    1.0
2018/11/14 00:34:45.000  -74.525931607  163.457853383    26.3873   1  10   0.0278   0.0243   0.0965  -0.0156   0.0357  -0.0366   5.00    1.0
2018/11/14 00:35:00.000  -74.525931658  163.457853803    26.3925   1  10   0.0257   0.0222   0.0855  -0.0148   0.0335  -0.0337   5.00    1.0
2018/11/14 00:35:15.000  -74.525931633  163.457853965    26.4081   1  10   0.0292   0.0259   0.0981  -0.0176   0.0377  -0.0389   4.00    1.0
2018/11/14 00:35:30.000  -74.525931327  163.457853155    26.2690   6  10   0.0308   0.0296   0.1002  -0.0170   0.0304  -0.0319   4.00    0.0
2018/11/14 00:35:45.000  -74.525931294  163.457853046    26.2790   6  10   0.0366   0.0361   0.1197  -0.0204   0.0369  -0.0382   4.00    0.0
2018/11/14 00:36:00.000  -74.525931254  163.457852858    26.2197   6  10   0.0433   0.0445   0.1419  -0.0254   0.0452  -0.0461   5.00    0.0
2018/11/14 00:36:15.000  -74.525931177  163.457852791    26.1942   6  10   0.0492   0.0473   0.1668  -0.0262   0.0518  -0.0544   4.00    0.0
2018/11/14 00:36:30.000  -74.525931077  163.457852546    26.1817   6  10   0.0552   0.0528   0.1896  -0.0285   0.0577  -0.0615   4.00    0.0
2018/11/14 00:36:45.000  -74.525931059  163.457852721    26.1851   6  10   0.0614   0.0585   0.2138  -0.0314   0.0646  -0.0696   4.00    0.0
2018/11/14 00:37:00.000  -74.525931092  163.457852905    26.2053   6  10   0.0677   0.0642   0.2386  -0.0344   0.0718  -0.0781   4.00    0.0
2018/11/14 00:37:15.000  -74.525931119  163.457853262    26.2346   6  10   0.0740   0.0699   0.2638  -0.0375   0.0791  -0.0869   4.00    0.0
2018/11/14 00:37:30.000  -74.525931107  163.457852988    26.2477   6  10   0.0803   0.0755   0.2891  -0.0407   0.0864  -0.0957   4.00    0.0
2018/11/14 00:37:45.000  -74.525931160  163.457853173    26.2225   6  10   0.0743   0.0698   0.2637  -0.0375   0.0785  -0.0870   5.00    0.0
2018/11/14 00:38:00.000  -74.525931187  163.457853065    26.1945   6  10   0.0681   0.0642   0.2383  -0.0345   0.0706  -0.0783   5.00    0.0
2018/11/14 00:38:15.000  -74.525931120  163.457852834    26.1728   6  10   0.0621   0.0588   0.2132  -0.0319   0.0631  -0.0699   5.00    0.0
2018/11/14 00:38:30.000  -74.525931237  163.457852914    26.1880   6  10   0.0565   0.0539   0.1885  -0.0300   0.0564  -0.0622   5.00    0.0
2018/11/14 00:38:45.000  -74.525931170  163.457852794    26.1800   6  10   0.0518   0.0509   0.1650  -0.0300   0.0516  -0.0559   5.00    0.0
2018/11/14 00:39:00.000  -74.525931226  163.457853474    26.1874   6  10   0.0455   0.0386   0.1419  -0.0205   0.0400  -0.0479   4.00    0.0
2018/11/14 00:39:15.000  -74.525931440  163.457854046    26.2443   6  10   0.0368   0.0325   0.1208  -0.0169   0.0334  -0.0396   4.00    0.0
2018/11/14 00:39:30.000  -74.525931638  163.457853685    26.3565   1  10   0.0373   0.0290   0.1196  -0.0183   0.0392  -0.0482   4.00    1.0
2018/11/14 00:39:45.000  -74.525931624  163.457853252    26.3759   1  10   0.0273   0.0238   0.0908  -0.0140   0.0320  -0.0341   4.00    1.0
2018/11/14 00:40:00.000  -74.525931691  163.457853676    26.3814   1  10   0.0251   0.0218   0.0794  -0.0133   0.0299  -0.0310   4.00    1.0
2018/11/14 00:40:15.000  -74.525931455  163.457853553    26.2547   6  10   0.0260   0.0237   0.0837  -0.0127   0.0225  -0.0254   5.00    0.0
2018/11/14 00:40:30.000  -74.525931273  163.457852981    26.2081   6  10   0.0306   0.0275   0.0987  -0.0138   0.0261  -0.0304   5.00    0.0
2018/11/14 00:40:45.000  -74.525931134  163.457852930    26.1764   6  10   0.0370   0.0330   0.1178  -0.0163   0.0314  -0.0374   5.00    0.0
2018/11/14 00:41:00.000  -74.525931080  163.457853065    26.2136   6  10   0.0452   0.0388   0.1401  -0.0194   0.0375  -0.0467   5.00    0.0
2018/11/14 00:41:15.000  -74.525931083  163.457853265    26.2377   6  10   0.0515   0.0450   0.1659  -0.0229   0.0453  -0.0568   5.00    0.0
2018/11/14 00:41:30.000  -74.525930936  163.457853210    26.2426   6  10   0.0599   0.0510   0.1894  -0.0260   0.0516  -0.0663   5.00    0.0
2018/11/14 00:41:45.000  -74.525931102  163.457853249    26.2793   6  10   0.0616   0.0581   0.2143  -0.0289   0.0599  -0.0717   5.00    0.0
2018/11/14 00:42:00.000  -74.525930983  163.457852978    26.2464   6  10   0.0671   0.0647   0.2380  -0.0317   0.0674  -0.0786   5.00    0.0
2018/11/14 00:42:15.000  -74.525930879  163.457853146    26.2193   6  10   0.0731   0.0707   0.2626  -0.0347   0.0741  -0.0867   5.00    0.0
2018/11/14 00:42:30.000  -74.525930998  163.457853755    26.2869   6  10   0.0792   0.0727   0.2860  -0.0364   0.0764  -0.0946   5.00    0.0
2018/11/14 00:42:45.000  -74.525930986  163.457853458    26.2641   6  10   0.0726   0.0663   0.2602  -0.0325   0.0677  -0.0850   5.00    0.0
2018/11/14 00:43:00.000  -74.525930913  163.457853409    26.2734   6  10   0.0661   0.0603   0.2346  -0.0292   0.0600  -0.0758   5.00    0.0
2018/11/14 00:43:15.000  -74.525930988  163.457853363    26.2652   6  10   0.0597   0.0547   0.2094  -0.0263   0.0527  -0.0668   5.00    0.0
2018/11/14 00:43:30.000  -74.525930942  163.457853016    26.2229   6  10   0.0534   0.0493   0.1847  -0.0239   0.0459  -0.0582   5.00    0.0
2018/11/14 00:43:45.000  -74.525931026  163.457852735    26.2154   6  10   0.0477   0.0447   0.1608  -0.0229   0.0403  -0.0503   5.00    0.0
2018/11/14 00:44:00.000  -74.525931229  163.457853127    26.2246   6  10   0.0401   0.0367   0.1378  -0.0164   0.0318  -0.0409   5.00    0.0
2018/11/14 00:44:15.000  -74.525931326  163.457852859    26.1624   6  10   0.0337   0.0308   0.1160  -0.0134   0.0250  -0.0325   6.00    0.0
2018/11/14 00:44:30.000  -74.525931319  163.457852816    26.1607   6  10   0.0279   0.0255   0.0976  -0.0109   0.0192  -0.0252   5.00    0.0
2018/11/14 00:44:45.000  -74.525931326  163.457852760    26.2010   6  10   0.0233   0.0211   0.0859  -0.0091   0.0145  -0.0192   5.00    0.0
2018/11/14 00:45:00.000  -74.525931459  163.457853014    26.2105   6  10   0.0209   0.0193   0.0866  -0.0082   0.0107  -0.0163   5.00    0.0
2018/11/14 00:45:15.000  -74.525931464  163.457853096    26.2240   6  10   0.0234   0.0212   0.1012  -0.0095   0.0157  -0.0225   0.00    0.0
2018/11/14 00:45:30.000  -74.525931493  163.457853452    26.1805   6  10   0.0279   0.0254   0.1259  -0.0110   0.0171  -0.0258   0.00    0.0
2018/11/14 00:45:45.000  -74.525931433  163.457853082    26.2396   6  10   0.0338   0.0306   0.1215  -0.0133   0.0265  -0.0364   0.00    0.0
2018/11/14 00:46:00.000  -74.525931375  163.457853076    26.2314   6  10   0.0396   0.0360   0.1402  -0.0152   0.0302  -0.0419   1.00    0.0
2018/11/14 00:46:15.000  -74.525931330  163.457853256    26.2268   6  10   0.0456   0.0415   0.1613  -0.0173   0.0347  -0.0487   0.00    0.0
2018/11/14 00:46:30.000  -74.525931382  163.457853466    26.2386   6  10   0.0517   0.0469   0.1837  -0.0196   0.0394  -0.0561   2.00    0.0
2018/11/14 00:46:45.000  -74.525931310  163.457853897    26.2409   6  10   0.0579   0.0523   0.2068  -0.0221   0.0443  -0.0639   3.00    0.0
2018/11/14 00:47:00.000  -74.525931248  163.457853728    26.2019   6  10   0.0641   0.0577   0.2303  -0.0246   0.0491  -0.0720   3.00    0.0
2018/11/14 00:47:15.000  -74.525931288  163.457854084    26.2086   6  10   0.0703   0.0631   0.2541  -0.0271   0.0540  -0.0802   5.00    0.0
2018/11/14 00:47:30.000  -74.525931251  163.457854400    26.1701   6  10   0.0766   0.0684   0.2781  -0.0297   0.0587  -0.0885   3.00    0.0
2018/11/14 00:47:45.000  -74.525931327  163.457854131    26.1600   6  10   0.0704   0.0628   0.2536  -0.0266   0.0523  -0.0801   3.00    0.0
2018/11/14 00:48:00.000  -74.525931286  163.457854074    26.1501   6  10   0.0640   0.0573   0.2285  -0.0237   0.0462  -0.0714   3.00    0.0
2018/11/14 00:48:15.000  -74.525931275  163.457853748    26.1493   6  10   0.0577   0.0518   0.2037  -0.0209   0.0403  -0.0629   5.00    0.0
2018/11/14 00:48:30.000  -74.525931244  163.457853348    26.1112   6  10   0.0515   0.0464   0.1792  -0.0183   0.0347  -0.0545   5.00    0.0
2018/11/14 00:48:45.000  -74.525931186  163.457853037    26.1531   6  10   0.0453   0.0409   0.1551  -0.0159   0.0294  -0.0464   5.00    0.0
2018/11/14 00:49:00.000  -74.525931196  163.457853022    26.1668   6  10   0.0391   0.0354   0.1316  -0.0136   0.0244  -0.0386   5.00    0.0
2018/11/14 00:49:15.000  -74.525931246  163.457852996    26.1460   6  10   0.0332   0.0301   0.1090  -0.0116   0.0201  -0.0313   5.00    0.0
2018/11/14 00:49:30.000  -74.525931243  163.457853056    26.1623   6  11   0.0254   0.0246   0.0799  -0.0069   0.0097  -0.0137   5.00    0.0
2018/11/14 00:49:45.000  -74.525931459  163.457853171    26.2485   1  11   0.0211   0.0220   0.0699  -0.0093   0.0121  -0.0240   5.00    1.0
2018/11/14 00:50:00.000  -74.525931511  163.457852896    26.2709   1  11   0.0189   0.0205   0.0610  -0.0099   0.0132  -0.0233   4.00    1.0
2018/11/14 00:50:15.000  -74.525931518  163.457852939    26.2939   1  11   0.0230   0.0194   0.0656  -0.0059  -0.0129  -0.0147   5.00    1.0
2018/11/14 00:50:30.000  -74.525931551  163.457853230    26.3116   1  11   0.0273   0.0244   0.0848  -0.0065  -0.0134  -0.0178   5.00    1.0
2018/11/14 00:50:45.000  -74.525931596  163.457853361    26.2948   1  11   0.0300   0.0303   0.1074   0.0030  -0.0135  -0.0239   5.00    2.0
2018/11/14 00:51:00.000  -74.525931587  163.457852802    26.2790   1  11   0.0366   0.0371   0.1325   0.0022  -0.0164  -0.0270   5.00    2.0
2018/11/14 00:51:15.000  -74.525931255  163.457853063    26.1287   6  11   0.0389   0.0391   0.1242  -0.0026  -0.0113  -0.0124   4.00    0.0
2018/11/14 00:51:30.000  -74.525931220  163.457853433    26.1422   6  11   0.0438   0.0443   0.1419   0.0020  -0.0147  -0.0145   4.00    0.0
2018/11/14 00:51:45.000  -74.525931150  163.457853625    26.1231   6  11   0.0487   0.0493   0.1601   0.0038  -0.0181  -0.0173   4.00    0.0
2018/11/14 00:52:00.000  -74.525931184  163.457853768    26.1514   6  11   0.0536   0.0544   0.1787   0.0048  -0.0214  -0.0206   5.00    0.0
2018/11/14 00:52:15.000  -74.525931192  163.457853763    26.1467   6  11   0.0585   0.0594   0.1976   0.0056  -0.0247  -0.0241   5.00    0.0
2018/11/14 00:52:30.000  -74.525931188  163.457853828    26.1170   6  11   0.0634   0.0645   0.2166   0.0063  -0.0281  -0.0279   5.00    0.0
2018/11/14 00:52:45.000  -74.525931207  163.457853724    26.1320   6  11   0.0584   0.0594   0.1976   0.0056  -0.0259  -0.0251   5.00    0.0
2018/11/14 00:53:00.000  -74.525931189  163.457853283    26.1667   6  12   0.0524   0.0521   0.1723  -0.0118  -0.0360  -0.0318   5.00    0.0
2018/11/14 00:53:15.000  -74.525931141  163.457853183    26.1677   6  12   0.0475   0.0471   0.1535  -0.0111  -0.0331  -0.0285   5.00    0.0
2018/11/14 00:53:30.000  -74.525931156  163.457852942    26.1595   6  12   0.0427   0.0422   0.1359  -0.0101  -0.0293  -0.0249   5.00    0.0
2018/11/14 00:53:45.000  -74.525931169  163.457852747    26.1412   6  12   0.0380   0.0373   0.1189  -0.0093  -0.0252  -0.0215   4.00    0.0
2018/11/14 00:54:00.000  -74.525931497  163.457852748    26.2492   1  12   0.0361   0.0354   0.1267  -0.0076  -0.0298  -0.0328   5.00    2.0
2018/11/14 00:54:15.000  -74.525931549  163.457852760    26.2361   1  12   0.0298   0.0291   0.1032  -0.0051  -0.0241  -0.0279   5.00    2.0
2018/11/14 00:54:30.000  -74.525931578  163.457852761    26.2399   1  12   0.0242   0.0234   0.0815  -0.0011  -0.0190  -0.0237   5.00    2.0
2018/11/14 00:54:45.000  -74.525931576  163.457852798    26.2476   1  12   0.0196   0.0187   0.0638   0.0031  -0.0156  -0.0202   5.00    2.0
2018/11/14 00:55:00.000  -74.525931528  163.457852448    26.2667   1  12   0.0209   0.0135   0.0537   0.0056  -0.0049  -0.0197   5.00    2.0
2018/11/14 00:55:15.000  -74.525931603  163.457852506    26.2369   1  12   0.0234   0.0193   0.0641  -0.0065  -0.0170  -0.0161   5.00    1.0
2018/11/14 00:55:30.000  -74.525931658  163.457852678    26.2320   1  12   0.0279   0.0240   0.0837  -0.0079  -0.0202  -0.0226   5.00    1.0
2018/11/14 00:55:45.000  -74.525931653  163.457852816    26.2242   1  12   0.0338   0.0296   0.1074  -0.0099  -0.0247  -0.0299   5.00    1.0
2018/11/14 00:56:00.000  -74.525931665  163.457853006    26.2185   1  12   0.0405   0.0360   0.1333  -0.0119  -0.0301  -0.0378   5.00    1.0
2018/11/14 00:56:15.000  -74.525931338  163.457853478    26.1018   6  12   0.0392   0.0371   0.1218  -0.0103  -0.0254  -0.0270   4.00    0.0
2018/11/14 00:56:30.000  -74.525931411  163.457853489    26.1164   6  12   0.0444   0.0419   0.1400  -0.0115  -0.0298  -0.0325   4.00    0.0
2018/11/14 00:56:45.000  -74.525931420  163.457853789    26.1374   6  12   0.0500   0.0467   0.1595  -0.0131  -0.0340  -0.0394   4.00    0.0
2018/11/14 00:57:00.000  -74.525931362  163.457853732    26.1543   6  12   0.0570   0.0516   0.1816  -0.0160  -0.0371  -0.0500   4.00    0.0
2018/11/14 00:57:15.000  -74.525931390  163.457853741    26.1133   6  12   0.0671   0.0566   0.2155  -0.0206  -0.0369  -0.0711   5.00    0.0
2018/11/14 00:57:30.000  -74.525931415  163.457853766    26.1011   6  12   0.0666   0.0611   0.2239  -0.0174  -0.0470  -0.0624   5.00    0.0
2018/11/14 00:57:45.000  -74.525931407  163.457853400    26.0787   6  12   0.0604   0.0563   0.2012  -0.0156  -0.0435  -0.0527   5.00    0.0
2018/11/14 00:58:00.000  -74.525931387  163.457853205    26.0377   6  12   0.0557   0.0515   0.1823  -0.0147  -0.0388  -0.0480   5.00    0.0
2018/11/14 00:58:15.000  -74.525931253  163.457852948    26.0305   6  12   0.0527   0.0469   0.1665  -0.0153  -0.0327  -0.0479   5.00    0.0
2018/11/14 00:58:30.000  -74.525931396  163.457852950    26.0870   6  12   0.0438   0.0418   0.1437  -0.0105  -0.0314  -0.0336   5.00    0.0
2018/11/14 00:58:45.000  -74.525931405  163.457852822    26.0413   6  12   0.0382   0.0370   0.1232  -0.0092  -0.0275  -0.0258   5.00    0.0
2018/11/14 00:59:00.000  -74.525931673  163.457852310    26.1462   1  12   0.0386   0.0360   0.1301  -0.0103  -0.0334  -0.0315   5.00    1.0
2018/11/14 00:59:15.000  -74.525931439  163.457852869    26.0551   6  12   0.0288   0.0275   0.0884  -0.0077  -0.0186  -0.0165   5.00    0.0
2018/11/14 00:59:30.000  -74.525931448  163.457853118    26.1141   6  12   0.0249   0.0232   0.0739  -0.0072  -0.0141  -0.0138   5.00    0.0
2018/11/14 00:59:45.000  -74.525931410  163.457852768    26.1424   6  12   0.0224   0.0196   0.0633  -0.0070  -0.0098  -0.0129   5.00    0.0
2018/11/14 01:00:00.000  -74.525931427  163.457852875    26.1605   6  12   0.0202   0.0178   0.0580  -0.0066  -0.0084  -0.0103   5.00    0.0
2018/11/14 01:00:15.000  -74.525931405  163.457852741    26.1306   6  12   0.0223   0.0198   0.0644  -0.0073  -0.0106  -0.0127   5.00    0.0
2018/11/14 01:00:30.000  -74.525931358  163.457852559    26.1348   6  12   0.0263   0.0235   0.0773  -0.0089  -0.0143  -0.0177   5.00    0.0
2018/11/14 01:00:45.000  -74.525931401  163.457852153    26.1510   6  12   0.0284   0.0278   0.0897  -0.0080  -0.0205  -0.0142   5.00    0.0
2018/11/14 01:01:00.000  -74.525931417  163.457851775    26.1154   6  12   0.0327   0.0325   0.1051  -0.0088  -0.0254  -0.0169   5.00    0.0
2018/11/14 01:01:15.000  -74.525931382  163.457851949    26.0941   6  12   0.0373   0.0372   0.1220  -0.0095  -0.0303  -0.0206   5.00    0.0
2018/11/14 01:01:30.000  -74.525931397  163.457852062    26.0654   6  12   0.0420   0.0421   0.1399  -0.0103  -0.0354  -0.0249   5.00    0.0
2018/11/14 01:01:45.000  -74.525931380  163.457851865    26.0665   6  12   0.0468   0.0469   0.1583  -0.0112  -0.0406  -0.0294   5.00    0.0
2018/11/14 01:02:00.000  -74.525931361  163.457852005    26.0309   6  12   0.0517   0.0518   0.1771  -0.0123  -0.0460  -0.0340   5.00    0.0
2018/11/14 01:02:15.000  -74.525931388  163.457852392    26.0552   6  12   0.0565   0.0569   0.1963  -0.0136  -0.0517  -0.0386   5.00    0.0
2018/11/14 01:02:30.000  -74.525931347  163.457852572    26.1025   6  12   0.0615   0.0621   0.2158  -0.0155  -0.0578  -0.0429   5.00    0.0
2018/11/14 01:02:45.000  -74.525931395  163.457852555    26.1351   6  12   0.0572   0.0591   0.1991  -0.0176  -0.0563  -0.0353   5.00    0.0
2018/11/14 01:03:00.000  -74.525931333  163.457852208    26.1664   6  12   0.0517   0.0525   0.1794  -0.0127  -0.0487  -0.0328   5.00    0.0
2018/11/14 01:03:15.000  -74.525931244  163.457852060    26.1691   6  12   0.0468   0.0470   0.1598  -0.0105  -0.0423  -0.0290   5.00    0.0
2018/11/14 01:03:30.000  -74.525931191  163.457852166    26.1201   6  12   0.0419   0.0421   0.1411  -0.0095  -0.0370  -0.0243   5.00    0.0
2018/11/14 01:03:45.000  -74.525931228  163.457852189    26.0834   6  12   0.0372   0.0374   0.1232  -0.0090  -0.0324  -0.0194   5.00    0.0
2018/11/14 01:04:00.000  -74.525931272  163.457851949    26.0870   6  12   0.0326   0.0330   0.1061  -0.0089  -0.0283  -0.0139   5.00    0.0
2018/11/14 01:04:15.000  -74.525931303  163.457852051    26.0740   6  12   0.0284   0.0293   0.0909  -0.0100  -0.0259  -0.0050   6.00    0.0
2018/11/14 01:04:30.000  -74.525931271  163.457852472    26.0725   6  12   0.0240   0.0236   0.0755  -0.0070  -0.0191  -0.0041   6.00    0.0
2018/11/14 01:04:45.000  -74.525931339  163.457852653    26.0760   6  12   0.0209   0.0206   0.0657  -0.0072  -0.0169   0.0072   6.00    0.0
2018/11/14 01:05:00.000  -74.525931405  163.457852881    26.1446   6  12   0.0193   0.0183   0.0620  -0.0059  -0.0148   0.0079   6.00    0.0
2018/11/14 01:05:15.000  -74.525931426  163.457853287    26.1846   6  12   0.0207   0.0202   0.0708  -0.0066  -0.0181   0.0092   6.00    0.0
2018/11/14 01:05:30.000  -74.525931379  163.457853648    26.1864   6  12   0.0241   0.0240   0.0853  -0.0078  -0.0232   0.0102   6.00    0.0
2018/11/14 01:05:45.000  -74.525931312  163.457853474    26.2105   6  12   0.0282   0.0285   0.1030  -0.0089  -0.0288   0.0103   5.00    0.0
2018/11/14 01:06:00.000  -74.525931286  163.457853332    26.1974   6  12   0.0327   0.0335   0.1234  -0.0101  -0.0351   0.0095   5.00    0.0
2018/11/14 01:06:15.000  -74.525931329  163.457852991    26.1736   6  12   0.0374   0.0387   0.1471  -0.0117  -0.0425   0.0091   6.00    1.0
2018/11/14 01:06:30.000  -74.525931472  163.457853004    26.0994   6  12   0.0424   0.0449   0.1774  -0.0146  -0.0522   0.0130   6.00    0.0
2018/11/14 01:06:45.000  -74.525931405  163.457853139    26.1647   6  12   0.0465   0.0481   0.1865  -0.0098  -0.0531  -0.0306   0.00    0.0
2018/11/14 01:07:00.000  -74.525931338  163.457853522    26.1596   6  12   0.0512   0.0523   0.1981  -0.0098  -0.0556  -0.0346   0.00    0.0
2018/11/14 01:07:15.000  -74.525931292  163.457853368    26.1628   6  12   0.0560   0.0567   0.2128  -0.0101  -0.0592  -0.0392   1.00    0.0
2018/11/14 01:07:30.000  -74.525931247  163.457853544    26.1640   6  12   0.0608   0.0613   0.2290  -0.0106  -0.0633  -0.0441   3.00    0.0
2018/11/14 01:07:45.000  -74.525931270  163.457853164    26.2007   6  12   0.0559   0.0564   0.2080  -0.0100  -0.0577  -0.0394   6.00    0.0
2018/11/14 01:08:00.000  -74.525931286  163.457853088    26.2499   6  12   0.0511   0.0517   0.1877  -0.0094  -0.0523  -0.0344   4.00    0.0
2018/11/14 01:08:15.000  -74.525931239  163.457853160    26.2456   6  12   0.0463   0.0471   0.1678  -0.0093  -0.0472  -0.0292   4.00    0.0
2018/11/14 01:08:30.000  -74.525931214  163.457853129    26.2366   6  12   0.0417   0.0427   0.1487  -0.0097  -0.0428  -0.0234   5.00    0.0
2018/11/14 01:08:45.000  -74.525931323  163.457853185    26.2052   6  12   0.0373   0.0394   0.1316  -0.0116  -0.0408  -0.0149   4.00    0.0
2018/11/14 01:09:00.000  -74.525931355  163.457853118    26.1745   6  12   0.0327   0.0346   0.1126  -0.0109  -0.0354  -0.0095   4.00    0.0
2018/11/14 01:09:15.000  -74.525931375  163.457852820    26.1648   6  12   0.0282   0.0293   0.0930  -0.0093  -0.0283  -0.0064   5.00    0.0
2018/11/14 01:09:30.000  -74.525931394  163.457852566    26.1503   6  12   0.0239   0.0233   0.0729  -0.0060  -0.0183  -0.0086   5.00    0.0
2018/11/14 01:09:45.000  -74.525931453  163.457852660    26.1544   6  12   0.0209   0.0202   0.0598  -0.0063  -0.0146  -0.0024   4.00    0.0
2018/11/14 01:10:00.000  -74.525931380  163.457852678    26.1466   6  12   0.0191   0.0174   0.0509  -0.0041  -0.0069  -0.0064   4.00    0.0
2018/11/14 01:10:15.000  -74.525931361  163.457853092    26.1387   6  12   0.0206   0.0191   0.0571  -0.0041  -0.0105  -0.0077   5.00    0.0
2018/11/14 01:10:30.000  -74.525931322  163.457853098    26.1327   6  12   0.0237   0.0226   0.0698  -0.0045  -0.0156  -0.0101   5.00    0.0
2018/11/14 01:10:45.000  -74.525931297  163.457853202    26.1043   6  12   0.0276   0.0268   0.0852  -0.0045  -0.0208  -0.0133   4.00    0.0
2018/11/14 01:11:00.000  -74.525931276  163.457853029    26.1019   6  12   0.0319   0.0313   0.1019  -0.0045  -0.0259  -0.0170   5.00    0.0
2018/11/14 01:11:15.000  -74.525931283  163.457853089    26.1147   6  12   0.0364   0.0359   0.1193  -0.0043  -0.0309  -0.0212   5.00    0.0
2018/11/14 01:11:30.000  -74.525931324  163.457853268    26.1108   6  12   0.0410   0.0406   0.1372  -0.0042  -0.0361  -0.0258   4.00    0.0
2018/11/14 01:11:45.000  -74.525931378  163.457852971    26.1378   6  12   0.0458   0.0453   0.1554  -0.0042  -0.0413  -0.0305   4.00    0.0
2018/11/14 01:12:00.000  -74.525931366  163.457853233    26.1637   6  12   0.0506   0.0500   0.1737  -0.0043  -0.0466  -0.0353   4.00    0.0
2018/11/14 01:12:15.000  -74.525931329  163.457852894    26.1804   6  12   0.0554   0.0547   0.1922  -0.0046  -0.0519  -0.0402   4.00    0.0
2018/11/14 01:12:30.000  -74.525931313  163.457852710    26.1938   6  12   0.0603   0.0595   0.2107  -0.0050  -0.0572  -0.0450   4.00    0.0
2018/11/14 01:12:45.000  -74.525931314  163.457853195    26.1262   6  12   0.0555   0.0548   0.1922  -0.0036  -0.0521  -0.0402   4.00    0.0
2018/11/14 01:13:00.000  -74.525931289  163.457853284    26.1027   6  12   0.0507   0.0501   0.1734  -0.0030  -0.0468  -0.0352   4.00    0.0
2018/11/14 01:13:15.000  -74.525931318  163.457853061    26.1154   6  12   0.0459   0.0453   0.1549  -0.0027  -0.0417  -0.0304   4.00    0.0
2018/11/14 01:13:30.000  -74.525931211  163.457853142    26.1093   6  12   0.0411   0.0406   0.1367  -0.0027  -0.0365  -0.0256   4.00    0.0
2018/11/14 01:13:45.000  -74.525931214  163.457852771    26.0967   6  12   0.0365   0.0360   0.1188  -0.0029  -0.0315  -0.0211   4.00    0.0
2018/11/14 01:14:00.000  -74.525931215  163.457853069    26.0955   6  12   0.0320   0.0314   0.1016  -0.0032  -0.0265  -0.0169   4.00    0.0
2018/11/14 01:14:15.000  -74.525931185  163.457852856    26.1235   6  12   0.0277   0.0269   0.0852  -0.0034  -0.0216  -0.0132   4.00    0.0
2018/11/14 01:14:30.000  -74.525931294  163.457852686    26.1257   6  12   0.0238   0.0227   0.0702  -0.0035  -0.0168  -0.0102   4.00    0.0
2018/11/14 01:14:45.000  -74.525931368  163.457852513    26.1391   6  12   0.0209   0.0193   0.0579  -0.0036  -0.0123  -0.0082   4.00    0.0
2018/11/14 01:15:00.000  -74.525931391  163.457852778    26.1362   6  12   0.0193   0.0174   0.0518  -0.0034  -0.0091  -0.0074   4.00    0.0
2018/11/14 01:15:15.000  -74.525931398  163.457853173    26.1292   6  12   0.0209   0.0194   0.0581  -0.0031  -0.0122  -0.0087   4.00    0.0
2018/11/14 01:15:30.000  -74.525931337  163.457853738    26.1045   6  12   0.0239   0.0227   0.0703  -0.0034  -0.0170  -0.0106   4.00    0.0
2018/11/14 01:15:45.000  -74.525931290  163.457853864    26.0906   6  12   0.0277   0.0268   0.0850  -0.0031  -0.0218  -0.0133   4.00    0.0
2018/11/14 01:16:00.000  -74.525931339  163.457853839    26.0554   6  12   0.0319   0.0312   0.1009  -0.0023  -0.0266  -0.0168   4.00    0.0
2018/11/14 01:16:15.000  -74.525931364  163.457853568    26.0304   6  12   0.0364   0.0357   0.1175  -0.0010  -0.0315  -0.0208   4.00    0.0
2018/11/14 01:16:30.000  -74.525931317  163.457853280    26.0758   6  12   0.0410   0.0403   0.1346   0.0019  -0.0365  -0.0251   4.00    0.0
2018/11/14 01:16:45.000  -74.525931255  163.457853092    26.0687   6  12   0.0457   0.0450   0.1519   0.0027  -0.0416  -0.0296   5.00    0.0
2018/11/14 01:17:00.000  -74.525931319  163.457852930    26.0311   6  12   0.0504   0.0496   0.1694   0.0032  -0.0468  -0.0342   5.00    0.0
2018/11/14 01:17:15.000  -74.525931295  163.457852835    26.0077   6  12   0.0553   0.0543   0.1870   0.0035  -0.0520  -0.0389   5.00    0.0
2018/11/14 01:17:30.000  -74.525931244  163.457852913    26.0395   6  12   0.0601   0.0591   0.2046   0.0037  -0.0572  -0.0435   5.00    0.0
2018/11/14 01:17:45.000  -74.525931212  163.457853153    26.0600   6  12   0.0552   0.0543   0.1867   0.0039  -0.0519  -0.0385   5.00    0.0
2018/11/14 01:18:00.000  -74.525931196  163.457853272    26.0684   6  12   0.0504   0.0496   0.1687   0.0038  -0.0467  -0.0337   5.00    0.0
2018/11/14 01:18:15.000  -74.525931232  163.457853262    26.0694   6  12   0.0456   0.0449   0.1509   0.0035  -0.0416  -0.0290   5.00    0.0
2018/11/14 01:18:30.000  -74.525931320  163.457853437    26.0770   6  12   0.0409   0.0402   0.1336   0.0030  -0.0366  -0.0245   5.00    0.0
2018/11/14 01:18:45.000  -74.525931341  163.457853741    26.0892   6  12   0.0363   0.0356   0.1167   0.0021  -0.0317  -0.0201   5.00    0.0
2018/11/14 01:19:00.000  -74.525931349  163.457853653    26.0808   6  12   0.0319   0.0312   0.1005   0.0002  -0.0270  -0.0162   5.00    0.0
2018/11/14 01:19:15.000  -74.525931345  163.457853502    26.0800   6  12   0.0278   0.0268   0.0852  -0.0018  -0.0224  -0.0129   5.00    0.0
2018/11/14 01:19:30.000  -74.525931371  163.457853282    26.0732   6  12   0.0241   0.0228   0.0714  -0.0027  -0.0181  -0.0107   5.00    0.0
2018/11/14 01:19:45.000  -74.525931336  163.457852979    26.0931   6  12   0.0213   0.0195   0.0602  -0.0032  -0.0141  -0.0096   5.00    0.0
2018/11/14 01:20:00.000  -74.525931355  163.457852920    26.1084   6  12   0.0200   0.0178   0.0545  -0.0037  -0.0115  -0.0096   5.00    0.0
2018/11/14 01:20:15.000  -74.525931266  163.457853027    26.0956   6  12   0.0218   0.0196   0.0612  -0.0034  -0.0142  -0.0103   5.00    0.0
2018/11/14 01:20:30.000  -74.525931179  163.457853056    26.0769   6  12   0.0248   0.0232   0.0728  -0.0037  -0.0184  -0.0112   5.00    0.0
2018/11/14 01:20:45.000  -74.525931154  163.457852954    26.0749   6  12   0.0285   0.0271   0.0865  -0.0036  -0.0227  -0.0128   5.00    0.0
2018/11/14 01:21:00.000  -74.525931116  163.457853088    26.0308   6  12   0.0326   0.0314   0.1013  -0.0029  -0.0271  -0.0156   5.00    0.0
2018/11/14 01:21:15.000  -74.525931105  163.457852858    25.9885   6  12   0.0370   0.0358   0.1167  -0.0016  -0.0316  -0.0191   5.00    0.0
2018/11/14 01:21:30.000  -74.525931171  163.457853227    25.9399   6  12   0.0415   0.0403   0.1325   0.0017  -0.0363  -0.0230   5.00    0.0
2018/11/14 01:21:45.000  -74.525931165  163.457853223    25.9474   6  12   0.0461   0.0448   0.1487   0.0029  -0.0411  -0.0272   5.00    0.0
2018/11/14 01:22:00.000  -74.525931127  163.457853161    25.9428   6  12   0.0508   0.0494   0.1650   0.0036  -0.0460  -0.0315   5.00    0.0
2018/11/14 01:22:15.000  -74.525931092  163.457853053    25.9525   6  12   0.0556   0.0541   0.1814   0.0042  -0.0509  -0.0358   5.00    0.0
2018/11/14 01:22:30.000  -74.525931252  163.457853009    25.9528   6  12   0.0605   0.0588   0.1979   0.0046  -0.0558  -0.0401   5.00    0.0
2018/11/14 01:22:45.000  -74.525931375  163.457853040    25.9842   6  12   0.0560   0.0543   0.1816   0.0050  -0.0509  -0.0355   5.00    1.0
2018/11/14 01:23:00.000  -74.525931394  163.457852830    26.0044   6  12   0.0514   0.0497   0.1650   0.0047  -0.0456  -0.0304   5.00    0.0
2018/11/14 01:23:15.000  -74.525931418  163.457852631    25.9975   6  12   0.0471   0.0453   0.1492   0.0046  -0.0402  -0.0246   5.00    0.0
2018/11/14 01:23:30.000  -74.525931376  163.457852835    25.9825   6  12   0.0437   0.0412   0.1349   0.0057  -0.0339  -0.0154   5.00    0.0
2018/11/14 01:23:45.000  -74.525931383  163.457852970    25.9711   6  11   0.0399   0.0374   0.1204  -0.0034  -0.0278  -0.0107   5.00    0.0
2018/11/14 01:24:00.000  -74.525931346  163.457853250    26.0032   6  11   0.0346   0.0317   0.1042   0.0058  -0.0266  -0.0027   4.00    0.0
2018/11/14 01:24:15.000  -74.525931337  163.457853288    26.0129   6  11   0.0302   0.0274   0.0894   0.0046  -0.0239   0.0044   4.00    0.0
2018/11/14 01:24:30.000  -74.525931256  163.457853227    26.0278   6  11   0.0268   0.0235   0.0765  -0.0011  -0.0211   0.0020   4.00    0.0
2018/11/14 01:24:45.000  -74.525931282  163.457853099    26.0528   6  11   0.0234   0.0203   0.0663  -0.0019  -0.0186  -0.0077   3.00    0.0
2018/11/14 01:25:00.000  -74.525931217  163.457853123    26.0401   6  11   0.0214   0.0188   0.0620  -0.0023  -0.0177  -0.0091   3.00    0.0
2018/11/14 01:25:15.000  -74.525931120  163.457853306    25.9940   6  10   0.0237   0.0214   0.0726   0.0016  -0.0233  -0.0096   3.00    0.0
2018/11/14 01:25:30.000  -74.525931032  163.457853751    25.9551   6  10   0.0287   0.0261   0.0905  -0.0030  -0.0315  -0.0071   3.00    0.0
2018/11/14 01:25:45.000  -74.525931085  163.457854162    25.9116   6  10   0.0353   0.0318   0.1137  -0.0017  -0.0415  -0.0122   3.00    0.0
2018/11/14 01:26:00.000  -74.525931141  163.457854163    25.9565   6   9   0.0402   0.0396   0.1560   0.0147  -0.0596  -0.0340   2.00    0.0
2018/11/14 01:26:15.000  -74.525931143  163.457854195    25.9598   6   9   0.0459   0.0464   0.1848   0.0174  -0.0716  -0.0396   2.00    0.0
2018/11/14 01:26:30.000  -74.525931226  163.457854255    25.9838   6   9   0.0521   0.0533   0.2149   0.0203  -0.0841  -0.0464   2.00    0.0
2018/11/14 01:26:45.000  -74.525931157  163.457853889    26.0464   6   9   0.0585   0.0604   0.2455   0.0233  -0.0968  -0.0536   2.00    0.0
2018/11/14 01:27:00.000  -74.525931107  163.457853945    26.0573   6   9   0.0652   0.0677   0.2767   0.0264  -0.1097  -0.0611   3.00    0.0
2018/11/14 01:27:15.000  -74.525931093  163.457853904    26.0057   6   9   0.0719   0.0750   0.3081   0.0295  -0.1228  -0.0686   3.00    0.0
2018/11/14 01:27:30.000  -74.525931002  163.457853906    25.9160   6   9   0.0787   0.0824   0.3398   0.0326  -0.1359  -0.0762   3.00    0.0
2018/11/14 01:27:45.000  -74.525930880  163.457853889    25.8490   6   9   0.0718   0.0750   0.3077   0.0296  -0.1229  -0.0689   4.00    0.0
2018/11/14 01:28:00.000  -74.525930883  163.457853730    25.8906   6   9   0.0650   0.0679   0.2772   0.0268  -0.1105  -0.0615   4.00    0.0
2018/11/14 01:28:15.000  -74.525930972  163.457853328    25.8977   6   9   0.0583   0.0609   0.2467   0.0239  -0.0982  -0.0542   4.00    0.0
2018/11/14 01:28:30.000  -74.525931081  163.457853163    25.9357   6   9   0.0517   0.0539   0.2165   0.0211  -0.0858  -0.0469   4.00    0.0
2018/11/14 01:28:45.000  -74.525931046  163.457852873    25.9735   6   9   0.0451   0.0470   0.1867   0.0182  -0.0736  -0.0398   4.00    0.0
2018/11/14 01:29:00.000  -74.525931126  163.457852468    26.0447   6   9   0.0388   0.0402   0.1576   0.0153  -0.0616  -0.0329   4.00    0.0
2018/11/14 01:29:15.000  -74.525931299  163.457852460    26.0644   6   9   0.0327   0.0337   0.1298   0.0126  -0.0499  -0.0264   4.00    0.0
2018/11/14 01:29:30.000  -74.525931304  163.457852620    26.0373   6   9   0.0270   0.0276   0.1039   0.0101  -0.0388  -0.0206   4.00    0.0
2018/11/14 01:29:45.000  -74.525931370  163.457852810    26.0376   6   9   0.0222   0.0225   0.0822   0.0081  -0.0290  -0.0158   4.00    0.0
2018/11/14 01:30:00.000  -74.525931369  163.457853156    26.0116   6   9   0.0196   0.0197   0.0707   0.0068  -0.0234  -0.0130   4.00    0.0
2018/11/14 01:30:15.000  -74.525931256  163.457853333    25.9973   6   9   0.0222   0.0224   0.0833   0.0082  -0.0292  -0.0165   4.00    0.0
2018/11/14 01:30:30.000  -74.525931250  163.457853325    26.0196   6   9   0.0270   0.0277   0.1057   0.0103  -0.0393  -0.0219   4.00    0.0
2018/11/14 01:30:45.000  -74.525931376  163.457852979    26.0390   6   9   0.0326   0.0339   0.1321   0.0131  -0.0509  -0.0279   4.00    0.0
2018/11/14 01:31:00.000  -74.525931402  163.457853046    26.0195   6   9   0.0387   0.0407   0.1605   0.0161  -0.0632  -0.0346   4.00    0.0
2018/11/14 01:31:15.000  -74.525931341  163.457852885    25.9910   6   9   0.0450   0.0477   0.1901   0.0193  -0.0759  -0.0417   4.00    0.0
2018/11/14 01:31:30.000  -74.525931452  163.457852355    26.0088   6   9   0.0515   0.0550   0.2204   0.0225  -0.0889  -0.0491   4.00    0.0
2018/11/14 01:31:45.000  -74.525931445  163.457852111    26.0326   6   9   0.0582   0.0623   0.2513   0.0258  -0.1022  -0.0565   4.00    0.0
2018/11/14 01:32:00.000  -74.525931388  163.457852793    25.9758   6   9   0.0649   0.0698   0.2826   0.0292  -0.1155  -0.0641   4.00    0.0
2018/11/14 01:32:15.000  -74.525931542  163.457853535    25.9366   6   9   0.0718   0.0774   0.3140   0.0325  -0.1290  -0.0717   4.00    0.0
2018/11/14 01:32:30.000  -74.525931589  163.457853517    25.9356   6   9   0.0786   0.0851   0.3456   0.0359  -0.1425  -0.0794   4.00    0.0
2018/11/14 01:32:45.000  -74.525931706  163.457852503    26.0389   6   9   0.0719   0.0776   0.3143   0.0326  -0.1294  -0.0719   4.00    0.0
2018/11/14 01:33:00.000  -74.525931596  163.457852524    26.0097   6   9   0.0652   0.0702   0.2831   0.0295  -0.1163  -0.0645   4.00    0.0
2018/11/14 01:33:15.000  -74.525931482  163.457852713    26.0054   6   9   0.0585   0.0629   0.2523   0.0264  -0.1033  -0.0573   4.00    0.0
2018/11/14 01:33:30.000  -74.525931347  163.457852994    25.9366   6   9   0.0519   0.0556   0.2219   0.0232  -0.0903  -0.0502   4.00    0.0
2018/11/14 01:33:45.000  -74.525931323  163.457853002    25.9254   6   9   0.0454   0.0484   0.1923   0.0201  -0.0776  -0.0435   4.00    0.0
2018/11/14 01:34:00.000  -74.525931148  163.457853469    25.8893   6   9   0.0392   0.0414   0.1638   0.0171  -0.0651  -0.0373   4.00    0.0
2018/11/14 01:34:15.000  -74.525931151  163.457853454    25.8939   6   9   0.0333   0.0346   0.1371   0.0143  -0.0531  -0.0319   4.00    0.0
2018/11/14 01:34:30.000  -74.525931220  163.457853690    25.8955   6   9   0.0280   0.0283   0.1134   0.0118  -0.0419  -0.0279   4.00    0.0
2018/11/14 01:34:45.000  -74.525931559  163.457852763    26.0996   1   9   0.0287   0.0248   0.1237   0.0110  -0.0442  -0.0427   6.00    1.0
2018/11/14 01:35:00.000  -74.525931653  163.457852490    26.1401   1   9   0.0235   0.0204   0.0994   0.0071  -0.0355  -0.0336   6.00    1.0
2018/11/14 01:35:15.000  -74.525931717  163.457852020    26.1718   1   9   0.0262   0.0244   0.1100   0.0091  -0.0422  -0.0342   6.00    1.0
2018/11/14 01:35:30.000  -74.525931363  163.457852355    26.0066   6   9   0.0286   0.0286   0.1182   0.0131  -0.0437  -0.0317   3.00    0.0
2018/11/14 01:35:45.000  -74.525931296  163.457852493    25.9806   6   9   0.0346   0.0351   0.1454   0.0161  -0.0555  -0.0388   3.00    0.0
2018/11/14 01:36:00.000  -74.525931319  163.457852589    25.9720   6   9   0.0409   0.0420   0.1745   0.0193  -0.0680  -0.0465   3.00    0.0
2018/11/14 01:36:15.000  -74.525931415  163.457852520    26.0239   6   9   0.0475   0.0492   0.2051   0.0228  -0.0810  -0.0546   3.00    0.0
2018/11/14 01:36:30.000  -74.525931446  163.457852990    25.9899   6   9   0.0544   0.0566   0.2370   0.0263  -0.0944  -0.0635   3.00    0.0
2018/11/14 01:36:45.000  -74.525931430  163.457852894    25.9818   6   9   0.0616   0.0641   0.2704   0.0301  -0.1082  -0.0731   3.00    0.0
2018/11/14 01:37:00.000  -74.525931383  163.457853008    25.9326   6   9   0.0692   0.0718   0.3058   0.0342  -0.1225  -0.0841   3.00    0.0
2018/11/14 01:37:15.000  -74.525931228  163.457853237    25.8688   6   9   0.0775   0.0797   0.3448   0.0387  -0.1374  -0.0974   3.00    0.0
2018/11/14 01:37:30.000  -74.525931144  163.457853115    25.7948   6   9   0.0872   0.0879   0.3925   0.0444  -0.1541  -0.1162   3.00    0.0
2018/11/14 01:37:45.000  -74.525931229  163.457852898    25.9246   6   8   0.0971   0.0838   0.4625   0.0549  -0.1638  -0.1660   3.00    0.0
2018/11/14 01:38:00.000  -74.525931263  163.457852908    25.8751   6   8   0.0877   0.0758   0.4166   0.0498  -0.1476  -0.1495   3.00    0.0
2018/11/14 01:38:15.000  -74.525931278  163.457853326    25.8442   6   8   0.0783   0.0679   0.3704   0.0445  -0.1314  -0.1327   3.00    0.0
2018/11/14 01:38:30.000  -74.525931175  163.457853170    25.9541   6   8   0.0689   0.0600   0.3241   0.0392  -0.1151  -0.1158   3.00    0.0
2018/11/14 01:38:45.000  -74.525931175  163.457852689    26.0292   6   8   0.0595   0.0522   0.2778   0.0337  -0.0987  -0.0988   3.00    0.0
2018/11/14 01:39:00.000  -74.525931343  163.457852310    26.1355   6   9   0.0389   0.0415   0.1684   0.0170  -0.0651  -0.0401   3.00    0.0
2018/11/14 01:39:15.000  -74.525931356  163.457852179    26.1366   6   9   0.0324   0.0347   0.1373   0.0139  -0.0527  -0.0310   3.00    0.0
2018/11/14 01:39:30.000  -74.525931421  163.457851932    26.1564   6   9   0.0269   0.0285   0.1117   0.0116  -0.0418  -0.0253   3.00    0.0
2018/11/14 01:39:45.000  -74.525931450  163.457852020    26.1386   6   9   0.0224   0.0233   0.0915   0.0099  -0.0325  -0.0216   3.00    0.0
2018/11/14 01:40:00.000  -74.525931425  163.457852837    26.0160   6   9   0.0200   0.0205   0.0813   0.0089  -0.0274  -0.0198   3.00    0.0
2018/11/14 01:40:15.000  -74.525931425  163.457852891    25.9912   6   9   0.0230   0.0234   0.0938   0.0107  -0.0333  -0.0241   3.00    0.0
2018/11/14 01:40:30.000  -74.525931246  163.457852761    26.0023   6   9   0.0278   0.0287   0.1150   0.0128  -0.0429  -0.0296   3.00    0.0
2018/11/14 01:40:45.000  -74.525931177  163.457852922    26.0041   6   9   0.0332   0.0348   0.1392   0.0152  -0.0535  -0.0349   3.00    0.0
2018/11/14 01:41:00.000  -74.525931120  163.457853354    25.9470   6   9   0.0390   0.0415   0.1656   0.0176  -0.0648  -0.0405   3.00    0.0
2018/11/14 01:41:15.000  -74.525931106  163.457852976    25.9627   6   9   0.0450   0.0484   0.1936   0.0202  -0.0766  -0.0467   3.00    0.0
2018/11/14 01:41:30.000  -74.525931011  163.457853244    25.9440   6   9   0.0513   0.0555   0.2233   0.0230  -0.0889  -0.0535   3.00    0.0
2018/11/14 01:41:45.000  -74.525931040  163.457853439    25.9168   6   9   0.0579   0.0628   0.2544   0.0261  -0.1016  -0.0612   3.00    0.0
2018/11/14 01:42:00.000  -74.525931074  163.457853482    25.9407   6   9   0.0648   0.0703   0.2871   0.0295  -0.1148  -0.0700   3.00    0.0
2018/11/14 01:42:15.000  -74.525931121  163.457853600    25.9369   6   9   0.0721   0.0780   0.3217   0.0332  -0.1286  -0.0803   3.00    0.0
2018/11/14 01:42:30.000  -74.525931220  163.457853401    25.9591   6   9   0.0800   0.0858   0.3595   0.0377  -0.1432  -0.0929   3.00    0.0
2018/11/14 01:42:45.000  -74.525931140  163.457852585    25.9590   6   9   0.0765   0.0793   0.3446   0.0380  -0.1350  -0.0975   3.00    0.0
2018/11/14 01:43:00.000  -74.525931536  163.457851249    26.1659   6   9   0.0670   0.0716   0.3041   0.0331  -0.1203  -0.0811   3.00    0.0
2018/11/14 01:43:15.000  -74.525931476  163.457851086    26.1947   6   9   0.0586   0.0638   0.2630   0.0283  -0.1050  -0.0662   3.00    0.0
2018/11/14 01:43:30.000  -74.525931339  163.457850903    26.1900   6   9   0.0512   0.0563   0.2277   0.0246  -0.0912  -0.0552   3.00    0.0
2018/11/14 01:43:45.000  -74.525931295  163.457851328    26.1435   6   9   0.0444   0.0490   0.1951   0.0213  -0.0782  -0.0461   3.00    0.0
2018/11/14 01:44:00.000  -74.525931303  163.457851952    26.0657   6   9   0.0379   0.0420   0.1645   0.0182  -0.0657  -0.0379   3.00    0.0
2018/11/14 01:44:15.000  -74.525931361  163.457851843    26.0628   6   9   0.0318   0.0352   0.1357   0.0152  -0.0536  -0.0305   3.00    0.0
2018/11/14 01:44:30.000  -74.525931498  163.457851897    26.0913   1   9   0.0302   0.0320   0.1310   0.0125  -0.0531  -0.0269   5.00    1.0
