% program   : RTKLIB ver.2.4.3
% inp file  : _by_type/_obs/base/20181108.18o
% inp file  : _by_type/_sp3+clk/igs20264.clk
% inp file  : _by_type/_sp3+clk/igs20264.sp3
% inp file  : _by_type/_nav/base/20181108.18n
% obs start : 2018/11/08 00:00:00.0 GPST (week2026 345600.0s)
% obs end   : 2018/11/08 23:59:45.0 GPST (week2026 431985.0s)
% pos mode  : ppp-kinematic
% solution  : combined
% elev mask : 15.0 deg
% dynamics  : off
% tidecorr  : on
% tropo opt : est ztd+grad
% ephemeris : precise
% navi sys  : gps glonass
% antenna1  :                       ( 0.0000  0.0000  0.0000)
%
% (lat/lon/height=WGS84/ellipsoidal,Q=1:fix,2:float,3:sbas,4:dgps,5:single,6:ppp,ns=# of satellites)
%  GPST                  latitude(deg) longitude(deg)  height(m)   Q  ns   sdn(m)   sde(m)   sdu(m)  sdne(m)  sdeu(m)  sdun(m) age(s)  ratio
2018/11/08 00:00:00.000  -74.370506951  163.307869192  1012.6148   6   9   0.0939   0.0676   0.1324  -0.0124  -0.0695   0.0373   0.00    0.0
2018/11/08 00:00:15.000  -74.370506906  163.307869166  1012.6111   6   9   0.0981   0.0703   0.1437  -0.0065  -0.0722   0.0239   0.00    0.0
2018/11/08 00:00:30.000  -74.370507003  163.307869481  1012.6442   6   9   0.1023   0.0738   0.1604   0.0039  -0.0733  -0.0209   0.00    0.0
2018/11/08 00:00:45.000  -74.370507225  163.307869108  1012.6357   6   9   0.1062   0.0779   0.1801  -0.0023  -0.0722  -0.0381   0.00    0.0
2018/11/08 00:01:00.000  -74.370507308  163.307869172  1012.6301   6   9   0.1099   0.0826   0.2023  -0.0097  -0.0691  -0.0502   0.00    0.0
2018/11/08 00:01:15.000  -74.370507388  163.307869099  1012.6239   6   9   0.1138   0.0877   0.2263  -0.0155  -0.0640  -0.0609   0.00    0.0
2018/11/08 00:01:30.000  -74.370507422  163.307869126  1012.6179   6   9   0.1180   0.0932   0.2516  -0.0207  -0.0567  -0.0710   0.00    0.0
2018/11/08 00:01:45.000  -74.370507453  163.307869437  1012.5768   6   9   0.1223   0.0991   0.2778  -0.0256  -0.0462  -0.0808   0.00    0.0
2018/11/08 00:02:00.000  -74.370507496  163.307869449  1012.6320   6   9   0.1267   0.1051   0.3044  -0.0301  -0.0297  -0.0903   0.00    0.0
2018/11/08 00:02:15.000  -74.370507475  163.307869219  1012.6001   6   9   0.1313   0.1113   0.3312  -0.0344   0.0228  -0.0995   3.00    0.0
2018/11/08 00:02:30.000  -74.370507523  163.307868914  1012.6196   6   9   0.1360   0.1175   0.3578  -0.0385   0.0453  -0.1086   4.00    0.0
2018/11/08 00:02:45.000  -74.370507440  163.307869204  1012.5812   6   9   0.1309   0.1104   0.3313  -0.0338   0.0201  -0.0985   4.00    0.0
2018/11/08 00:03:00.000  -74.370507308  163.307869257  1012.6027   6   9   0.1264   0.1040   0.3062  -0.0296  -0.0314  -0.0892   4.00    0.0
2018/11/08 00:03:15.000  -74.370507300  163.307868766  1012.5484   6   9   0.1223   0.0980   0.2817  -0.0252  -0.0479  -0.0797   4.00    0.0
2018/11/08 00:03:30.000  -74.370507427  163.307868852  1012.5605   6   9   0.1187   0.0924   0.2579  -0.0205  -0.0591  -0.0702   4.00    0.0
2018/11/08 00:03:45.000  -74.370507463  163.307869067  1012.5820   6   9   0.1157   0.0873   0.2354  -0.0153  -0.0678  -0.0606   3.00    0.0
2018/11/08 00:04:00.000  -74.370507423  163.307869316  1012.6046   6   9   0.1131   0.0829   0.2149  -0.0089  -0.0747  -0.0511   3.00    0.0
2018/11/08 00:04:15.000  -74.370507504  163.307869551  1012.6594   6   9   0.1111   0.0792   0.1971   0.0066  -0.0802  -0.0418   4.00    0.0
2018/11/08 00:04:30.000  -74.370507568  163.307869234  1012.6712   6   9   0.1096   0.0766   0.1834   0.0115  -0.0846  -0.0332   4.00    0.0
2018/11/08 00:04:45.000  -74.370507526  163.307869445  1012.6636   6   9   0.1087   0.0750   0.1754   0.0136  -0.0883  -0.0268   4.00    0.0
2018/11/08 00:05:00.000  -74.370507472  163.307869371  1012.6601   6   9   0.1088   0.0750   0.1755   0.0155  -0.0919  -0.0280   4.00    0.0
2018/11/08 00:05:15.000  -74.370507574  163.307869857  1012.7181   6   9   0.1119   0.0778   0.1897   0.0205  -0.0958  -0.0448   4.00    0.0
2018/11/08 00:05:30.000  -74.370507666  163.307869376  1012.7860   6   9   0.1151   0.0813   0.2072   0.0241  -0.0981  -0.0574   4.00    0.0
2018/11/08 00:05:45.000  -74.370507770  163.307869583  1012.8583   6   9   0.1178   0.0852   0.2250   0.0256  -0.0980  -0.0654   4.00    0.0
2018/11/08 00:06:00.000  -74.370508004  163.307869480  1012.9155   6   9   0.1202   0.0892   0.2431   0.0256  -0.0958  -0.0710   4.00    0.0
2018/11/08 00:06:15.000  -74.370508304  163.307869014  1012.9076   6   9   0.1227   0.0936   0.2619   0.0245  -0.0918  -0.0755   4.00    0.0
2018/11/08 00:06:30.000  -74.370508429  163.307868560  1012.8874   6   9   0.1252   0.0981   0.2813   0.0226  -0.0863  -0.0798   4.00    0.0
2018/11/08 00:06:45.000  -74.370508595  163.307867891  1012.8521   6   9   0.1279   0.1029   0.3012   0.0195  -0.0793  -0.0841   4.00    0.0
2018/11/08 00:07:00.000  -74.370508590  163.307867881  1012.8270   6   9   0.1308   0.1077   0.3216   0.0149  -0.0706  -0.0887   4.00    0.0
2018/11/08 00:07:15.000  -74.370508854  163.307867361  1012.7721   6   9   0.1339   0.1126   0.3425   0.0061  -0.0596  -0.0936   4.00    0.0
2018/11/08 00:07:30.000  -74.370508932  163.307867252  1012.7405   6   9   0.1372   0.1176   0.3637  -0.0132  -0.0448  -0.0990   4.00    0.0
2018/11/08 00:07:45.000  -74.370509022  163.307867454  1012.7396   6  10   0.1339   0.1121   0.3271  -0.0104  -0.0494  -0.0870   4.00    0.0
2018/11/08 00:08:00.000  -74.370508924  163.307867087  1012.7136   6  10   0.1310   0.1072   0.3101   0.0048  -0.0645  -0.0806   4.00    0.0
2018/11/08 00:08:15.000  -74.370508909  163.307867483  1012.7356   6  10   0.1286   0.1026   0.2952   0.0126  -0.0769  -0.0757   4.00    0.0
2018/11/08 00:08:30.000  -74.370508847  163.307867834  1012.7202   6  10   0.1265   0.0983   0.2815   0.0163  -0.0872  -0.0711   4.00    0.0
2018/11/08 00:08:45.000  -74.370508802  163.307868280  1012.6903   6  10   0.1245   0.0944   0.2689   0.0183  -0.0958  -0.0666   4.00    0.0
2018/11/08 00:09:00.000  -74.370508828  163.307869150  1012.7430   6  10   0.1227   0.0908   0.2578   0.0189  -0.1030  -0.0619   4.00    0.0
2018/11/08 00:09:15.000  -74.370508659  163.307869285  1012.6811   6  10   0.1207   0.0878   0.2484   0.0178  -0.1086  -0.0563   4.00    0.0
2018/11/08 00:09:30.000  -74.370508462  163.307869727  1012.6696   6  10   0.1184   0.0854   0.2410   0.0141  -0.1127  -0.0486   4.00    0.0
2018/11/08 00:09:45.000  -74.370508412  163.307870295  1012.6661   6  10   0.1151   0.0836   0.2357  -0.0059  -0.1151  -0.0353   4.00    0.0
2018/11/08 00:10:00.000  -74.370508256  163.307871192  1012.5820   6  10   0.1112   0.0827   0.2339  -0.0188  -0.1160   0.0066   4.00    0.0
2018/11/08 00:10:15.000  -74.370508198  163.307871580  1012.5615   6  10   0.1104   0.0845   0.2429  -0.0222  -0.1160   0.0198   4.00    0.0
2018/11/08 00:10:30.000  -74.370508124  163.307871665  1012.5288   6  10   0.1113   0.0874   0.2551  -0.0230  -0.1156   0.0217   4.00    0.0
2018/11/08 00:10:45.000  -74.370508208  163.307871837  1012.4842   6  10   0.1132   0.0909   0.2680  -0.0227  -0.1142   0.0217   4.00    0.0
2018/11/08 00:11:00.000  -74.370508247  163.307871871  1012.4198   6  10   0.1158   0.0948   0.2815  -0.0219  -0.1120   0.0198   4.00    0.0
2018/11/08 00:11:15.000  -74.370508348  163.307872152  1012.3913   6  10   0.1189   0.0989   0.2958  -0.0212  -0.1090   0.0140   4.00    0.0
2018/11/08 00:11:30.000  -74.370508498  163.307872268  1012.4369   6  10   0.1226   0.1033   0.3110  -0.0209  -0.1051  -0.0117   4.00    0.0
2018/11/08 00:11:45.000  -74.370508545  163.307871420  1012.3802   6  10   0.1266   0.1078   0.3274  -0.0216  -0.1004  -0.0249   4.00    0.0
2018/11/08 00:12:00.000  -74.370508702  163.307871352  1012.4031   6  10   0.1310   0.1125   0.3447  -0.0232  -0.0947  -0.0356   4.00    0.0
2018/11/08 00:12:15.000  -74.370508868  163.307871570  1012.4297   6  10   0.1357   0.1174   0.3632  -0.0256  -0.0881  -0.0456   4.00    0.0
2018/11/08 00:12:30.000  -74.370508878  163.307871544  1012.4699   6  10   0.1407   0.1224   0.3827  -0.0288  -0.0804  -0.0552   4.00    0.0
2018/11/08 00:12:45.000  -74.370509030  163.307871704  1012.5085   6  10   0.1374   0.1182   0.3702  -0.0296  -0.0918  -0.0374   4.00    0.0
2018/11/08 00:13:00.000  -74.370508994  163.307871444  1012.4698   6  10   0.1340   0.1139   0.3584  -0.0310  -0.1016   0.0156   4.00    0.0
2018/11/08 00:13:15.000  -74.370509132  163.307871823  1012.4775   6  10   0.1307   0.1099   0.3475  -0.0332  -0.1097   0.0427   4.00    0.0
2018/11/08 00:13:30.000  -74.370509055  163.307872090  1012.4129   6  10   0.1273   0.1061   0.3376  -0.0358  -0.1166   0.0576   4.00    0.0
2018/11/08 00:13:45.000  -74.370509026  163.307872406  1012.4126   6  10   0.1241   0.1026   0.3289  -0.0388  -0.1222   0.0689   4.00    0.0
2018/11/08 00:14:00.000  -74.370509025  163.307872631  1012.3689   6  10   0.1209   0.0995   0.3213  -0.0419  -0.1265   0.0784   4.00    0.0
2018/11/08 00:14:15.000  -74.370508966  163.307872717  1012.3408   6  10   0.1177   0.0969   0.3148  -0.0449  -0.1294   0.0871   4.00    0.0
2018/11/08 00:14:30.000  -74.370508909  163.307873197  1012.2079   6  10   0.1146   0.0952   0.3091  -0.0476  -0.1300   0.0962   4.00    0.0
2018/11/08 00:14:45.000  -74.370508347  163.307873290  1012.1631   6   8   0.6651   0.4241   1.9103   0.5167  -0.8917  -1.1031   1.00    0.0
2018/11/08 00:15:00.000  -74.370507005  163.307872003  1012.4725   6  10   0.0736   0.0594   0.1174  -0.0374   0.0472   0.0191   1.00    0.0
2018/11/08 00:15:15.000  -74.370506347  163.307870809  1012.3922   6  10   0.0513   0.0467   0.0899   0.0143   0.0370   0.0167   1.00    0.0
2018/11/08 00:15:30.000  -74.370506258  163.307871242  1012.3825   6  10   0.0543   0.0499   0.1121   0.0099   0.0437  -0.0155   1.00    0.0
2018/11/08 00:15:45.000  -74.370506133  163.307870866  1012.3139   6  10   0.0583   0.0542   0.1387  -0.0061   0.0517  -0.0313   1.00    0.0
2018/11/08 00:16:00.000  -74.370506051  163.307870881  1012.2764   6  10   0.0630   0.0593   0.1673  -0.0140   0.0602  -0.0438   1.00    0.0
2018/11/08 00:16:15.000  -74.370506032  163.307870508  1012.2382   6  10   0.0683   0.0649   0.1966  -0.0194   0.0686  -0.0553   2.00    0.0
2018/11/08 00:16:30.000  -74.370506160  163.307870225  1012.2259   6  10   0.0741   0.0708   0.2265  -0.0238   0.0768  -0.0664   2.00    0.0
2018/11/08 00:16:45.000  -74.370506157  163.307870051  1012.1617   6  10   0.0802   0.0769   0.2570  -0.0276   0.0846  -0.0776   2.00    0.0
2018/11/08 00:17:00.000  -74.370506174  163.307870334  1012.0792   6  10   0.0867   0.0832   0.2895  -0.0307   0.0914  -0.0898   3.00    0.0
2018/11/08 00:17:15.000  -74.370506143  163.307870613  1012.0248   6  10   0.0941   0.0901   0.3308  -0.0319   0.0947  -0.1062   3.00    0.0
2018/11/08 00:17:30.000  -74.370506185  163.307870371  1011.9860   6  10   0.0976   0.0950   0.3290  -0.0404   0.1137  -0.1004   3.00    0.0
2018/11/08 00:17:45.000  -74.370506226  163.307870813  1012.0707   6  10   0.0911   0.0885   0.3025  -0.0367   0.1050  -0.0912   3.00    0.0
2018/11/08 00:18:00.000  -74.370506248  163.307870710  1012.1102   6  10   0.0848   0.0823   0.2761  -0.0330   0.0970  -0.0822   4.00    0.0
2018/11/08 00:18:15.000  -74.370506261  163.307870295  1012.1242   6  10   0.0787   0.0762   0.2493  -0.0291   0.0887  -0.0728   4.00    0.0
2018/11/08 00:18:30.000  -74.370506304  163.307870952  1012.2273   6  10   0.0729   0.0702   0.2219  -0.0249   0.0803  -0.0631   4.00    0.0
2018/11/08 00:18:45.000  -74.370506345  163.307870819  1012.3155   6  10   0.0673   0.0645   0.1942  -0.0202   0.0716  -0.0530   4.00    0.0
2018/11/08 00:19:00.000  -74.370506214  163.307870751  1012.3351   6  10   0.0622   0.0591   0.1662  -0.0146   0.0627  -0.0421   4.00    0.0
2018/11/08 00:19:15.000  -74.370506121  163.307870264  1012.3326   6  10   0.0578   0.0543   0.1386  -0.0068   0.0540  -0.0301   3.00    0.0
2018/11/08 00:19:30.000  -74.370506152  163.307870228  1012.3622   6  10   0.0542   0.0504   0.1128   0.0094   0.0458  -0.0152   4.00    0.0
2018/11/08 00:19:45.000  -74.370506273  163.307870712  1012.4372   6  10   0.0518   0.0476   0.0916   0.0135   0.0392   0.0152   3.00    0.0
2018/11/08 00:20:00.000  -74.370506335  163.307871079  1012.4675   6  10   0.0508   0.0465   0.0805   0.0148   0.0359   0.0210   3.00    0.0
2018/11/08 00:20:15.000  -74.370506316  163.307870756  1012.4330   6  10   0.0521   0.0482   0.0924   0.0124   0.0399   0.0139   3.00    0.0
2018/11/08 00:20:30.000  -74.370506259  163.307869977  1012.3795   6  10   0.0546   0.0514   0.1138   0.0069   0.0467  -0.0157   3.00    0.0
2018/11/08 00:20:45.000  -74.370506272  163.307869478  1012.2921   6  10   0.0579   0.0556   0.1393  -0.0095   0.0549  -0.0289   3.00    0.0
2018/11/08 00:21:00.000  -74.370506389  163.307869672  1012.2662   6  10   0.0618   0.0607   0.1661  -0.0160   0.0634  -0.0394   3.00    0.0
2018/11/08 00:21:15.000  -74.370506406  163.307870225  1012.2646   6  10   0.0662   0.0666   0.1931  -0.0211   0.0719  -0.0487   3.00    0.0
2018/11/08 00:21:30.000  -74.370506478  163.307870548  1012.2622   6  10   0.0709   0.0740   0.2202  -0.0258   0.0796  -0.0574   3.00    0.0
2018/11/08 00:21:45.000  -74.370506536  163.307870790  1012.2484   6  10   0.0760   0.0792   0.2463  -0.0303   0.0902  -0.0659   2.00    0.0
2018/11/08 00:22:00.000  -74.370506510  163.307870906  1012.2691   6  11   0.0794   0.0871   0.2615  -0.0341   0.0984  -0.0823   4.00    0.0
2018/11/08 00:22:15.000  -74.370506560  163.307870692  1012.2639   6  11   0.0844   0.0892   0.2850  -0.0382   0.1113  -0.0914   3.00    0.0
2018/11/08 00:22:30.000  -74.370506563  163.307870567  1012.2412   6  11   0.0895   0.0949   0.3094  -0.0421   0.1206  -0.1003   3.00    0.0
2018/11/08 00:22:45.000  -74.370506632  163.307870741  1012.2792   6  11   0.0842   0.0886   0.2870  -0.0383   0.1120  -0.0921   3.00    0.0
2018/11/08 00:23:00.000  -74.370506531  163.307870581  1012.2606   6  11   0.0790   0.0824   0.2630  -0.0342   0.1029  -0.0833   4.00    0.0
2018/11/08 00:23:15.000  -74.370506497  163.307870219  1012.2719   6  11   0.0739   0.0764   0.2387  -0.0300   0.0937  -0.0742   5.00    0.0
2018/11/08 00:23:30.000  -74.370506411  163.307870454  1012.2957   6  11   0.0691   0.0706   0.2141  -0.0257   0.0846  -0.0649   5.00    0.0
2018/11/08 00:23:45.000  -74.370506347  163.307870836  1012.3589   6  11   0.0646   0.0651   0.1891  -0.0210   0.0755  -0.0551   4.00    0.0
2018/11/08 00:24:00.000  -74.370506253  163.307870918  1012.3971   6  11   0.0604   0.0601   0.1639  -0.0159   0.0665  -0.0446   4.00    0.0
2018/11/08 00:24:15.000  -74.370506171  163.307870891  1012.3966   6  11   0.0568   0.0556   0.1391  -0.0095   0.0578  -0.0332   4.00    0.0
2018/11/08 00:24:30.000  -74.370506152  163.307870917  1012.4081   6  11   0.0539   0.0520   0.1156   0.0060   0.0498  -0.0201   4.00    0.0
2018/11/08 00:24:45.000  -74.370506086  163.307870680  1012.4055   6  11   0.0518   0.0495   0.0962   0.0113   0.0435   0.0091   4.00    0.0
2018/11/08 00:25:00.000  -74.370506113  163.307870710  1012.4422   6  11   0.0508   0.0484   0.0859   0.0131   0.0404   0.0178   4.00    0.0
2018/11/08 00:25:15.000  -74.370506119  163.307870458  1012.4505   6  11   0.0518   0.0501   0.0975   0.0105   0.0448   0.0089   4.00    0.0
2018/11/08 00:25:30.000  -74.370506104  163.307870537  1012.4371   6  11   0.0536   0.0529   0.1166   0.0041   0.0514  -0.0181   4.00    0.0
2018/11/08 00:25:45.000  -74.370506158  163.307870644  1012.4347   6  11   0.0562   0.0565   0.1387  -0.0102   0.0589  -0.0296   4.00    0.0
2018/11/08 00:26:00.000  -74.370506135  163.307870192  1012.3843   6  11   0.0594   0.0609   0.1619  -0.0160   0.0671  -0.0395   4.00    0.0
2018/11/08 00:26:15.000  -74.370506238  163.307870341  1012.3826   6  11   0.0631   0.0657   0.1856  -0.0209   0.0756  -0.0489   5.00    0.0
2018/11/08 00:26:30.000  -74.370506246  163.307869499  1012.3300   6  11   0.0672   0.0710   0.2096  -0.0256   0.0845  -0.0580   5.00    0.0
2018/11/08 00:26:45.000  -74.370506306  163.307869600  1012.3330   6  11   0.0718   0.0767   0.2338  -0.0304   0.0938  -0.0672   5.00    0.0
2018/11/08 00:27:00.000  -74.370506377  163.307869927  1012.3210   6  11   0.0768   0.0828   0.2583  -0.0354   0.1033  -0.0764   5.00    0.0
2018/11/08 00:27:15.000  -74.370506452  163.307869833  1012.3053   6  11   0.0826   0.0896   0.2831  -0.0417   0.1134  -0.0861   5.00    0.0
2018/11/08 00:27:30.000  -74.370506351  163.307869122  1012.2404   6  11   0.0888   0.0971   0.3092  -0.0483   0.1251  -0.0972   5.00    0.0
2018/11/08 00:27:45.000  -74.370506349  163.307869502  1012.2895   6  11   0.0810   0.0884   0.2842  -0.0387   0.1138  -0.0863   5.00    0.0
2018/11/08 00:28:00.000  -74.370506308  163.307869589  1012.3005   6  11   0.0757   0.0819   0.2594  -0.0335   0.1035  -0.0764   5.00    0.0
2018/11/08 00:28:15.000  -74.370506318  163.307869810  1012.3521   6  11   0.0708   0.0760   0.2349  -0.0287   0.0938  -0.0668   5.00    0.0
2018/11/08 00:28:30.000  -74.370506317  163.307869443  1012.4292   6  11   0.0663   0.0704   0.2107  -0.0239   0.0845  -0.0574   5.00    0.0
2018/11/08 00:28:45.000  -74.370506310  163.307869689  1012.4411   6  11   0.0621   0.0652   0.1867  -0.0190   0.0755  -0.0477   6.00    0.0
2018/11/08 00:29:00.000  -74.370506280  163.307870028  1012.4523   6  11   0.0584   0.0605   0.1632  -0.0136   0.0670  -0.0378   6.00    0.0
2018/11/08 00:29:15.000  -74.370506343  163.307870608  1012.4901   6  11   0.0553   0.0565   0.1404  -0.0064   0.0591  -0.0271   6.00    0.0
2018/11/08 00:29:30.000  -74.370506381  163.307870726  1012.4710   6  11   0.0527   0.0533   0.1195   0.0083   0.0522  -0.0141   7.00    0.0
2018/11/08 00:29:45.000  -74.370506450  163.307871471  1012.5106   6  11   0.0509   0.0511   0.1026   0.0123   0.0469   0.0130   7.00    0.0
2018/11/08 00:30:00.000  -74.370506437  163.307871464  1012.4928   6  11   0.0499   0.0502   0.0941   0.0141   0.0444   0.0192   7.00    0.0
2018/11/08 00:30:15.000  -74.370506549  163.307871851  1012.5518   6  11   0.0505   0.0515   0.1040   0.0128   0.0479   0.0150   7.00    0.0
2018/11/08 00:30:30.000  -74.370506672  163.307872125  1012.5891   6  11   0.0521   0.0538   0.1204   0.0098   0.0531  -0.0073   7.00    0.0
2018/11/08 00:30:45.000  -74.370506760  163.307872011  1012.6138   6  11   0.0544   0.0570   0.1396   0.0005   0.0595  -0.0217   6.00    0.0
2018/11/08 00:31:00.000  -74.370506725  163.307871688  1012.5866   6  11   0.0573   0.0609   0.1605  -0.0112   0.0667  -0.0323   6.00    0.0
2018/11/08 00:31:15.000  -74.370506649  163.307871595  1012.5625   6  11   0.0608   0.0653   0.1827  -0.0169   0.0747  -0.0422   6.00    0.0
2018/11/08 00:31:30.000  -74.370506708  163.307871545  1012.5318   6  11   0.0648   0.0702   0.2057  -0.0219   0.0832  -0.0519   6.00    0.0
2018/11/08 00:31:45.000  -74.370506764  163.307871420  1012.4753   6  11   0.0690   0.0754   0.2293  -0.0265   0.0922  -0.0615   6.00    0.0
2018/11/08 00:32:00.000  -74.370506908  163.307871798  1012.4832   6  11   0.0735   0.0809   0.2533  -0.0310   0.1015  -0.0710   6.00    0.0
2018/11/08 00:32:15.000  -74.370507058  163.307871945  1012.4938   6  11   0.0783   0.0866   0.2776  -0.0353   0.1110  -0.0805   6.00    0.0
2018/11/08 00:32:30.000  -74.370506975  163.307871353  1012.4168   6  11   0.0832   0.0925   0.3021  -0.0396   0.1207  -0.0899   6.00    0.0
2018/11/08 00:32:45.000  -74.370506897  163.307871756  1012.4219   6  11   0.0781   0.0868   0.2774  -0.0352   0.1108  -0.0804   5.00    0.0
2018/11/08 00:33:00.000  -74.370506927  163.307871807  1012.4358   6  11   0.0732   0.0809   0.2530  -0.0307   0.1011  -0.0707   5.00    0.0
2018/11/08 00:33:15.000  -74.370506857  163.307872223  1012.4588   6  11   0.0686   0.0753   0.2289  -0.0261   0.0917  -0.0610   5.00    0.0
2018/11/08 00:33:30.000  -74.370506777  163.307872147  1012.4163   6  11   0.0643   0.0701   0.2054  -0.0212   0.0827  -0.0512   5.00    0.0
2018/11/08 00:33:45.000  -74.370506733  163.307872246  1012.4437   6  11   0.0603   0.0652   0.1826  -0.0159   0.0741  -0.0412   5.00    0.0
2018/11/08 00:34:00.000  -74.370506737  163.307872119  1012.4790   6  11   0.0568   0.0608   0.1608  -0.0095   0.0663  -0.0308   5.00    0.0
2018/11/08 00:34:15.000  -74.370506712  163.307872072  1012.5147   6  11   0.0538   0.0571   0.1406   0.0064   0.0593  -0.0192   5.00    0.0
2018/11/08 00:34:30.000  -74.370506783  163.307872363  1012.5847   6  11   0.0514   0.0541   0.1229   0.0119   0.0534   0.0078   5.00    0.0
2018/11/08 00:34:45.000  -74.370506705  163.307872592  1012.5885   6  11   0.0495   0.0520   0.1092   0.0149   0.0490   0.0191   4.00    0.0
2018/11/08 00:35:00.000  -74.370506631  163.307872520  1012.5594   6  11   0.0484   0.0509   0.1022   0.0168   0.0466   0.0237   4.00    0.0
2018/11/08 00:35:15.000  -74.370506625  163.307873015  1012.5912   6  11   0.0491   0.0520   0.1104   0.0159   0.0490   0.0216   5.00    0.0
2018/11/08 00:35:30.000  -74.370506745  163.307872944  1012.6295   6  11   0.0508   0.0541   0.1238   0.0135   0.0532   0.0147   5.00    0.0
2018/11/08 00:35:45.000  -74.370506759  163.307872655  1012.6118   6  11   0.0532   0.0571   0.1404   0.0090   0.0587  -0.0133   4.00    0.0
2018/11/08 00:36:00.000  -74.370506819  163.307872785  1012.6248   6  11   0.0563   0.0608   0.1592  -0.0070   0.0653  -0.0268   5.00    0.0
2018/11/08 00:36:15.000  -74.370506851  163.307872785  1012.5951   6  11   0.0598   0.0650   0.1797  -0.0143   0.0726  -0.0377   6.00    0.0
2018/11/08 00:36:30.000  -74.370506933  163.307873113  1012.5961   6  11   0.0636   0.0697   0.2012  -0.0197   0.0806  -0.0477   5.00    0.0
2018/11/08 00:36:45.000  -74.370507003  163.307873171  1012.5758   6  11   0.0678   0.0748   0.2236  -0.0245   0.0891  -0.0574   5.00    0.0
2018/11/08 00:37:00.000  -74.370507170  163.307873295  1012.5648   6  11   0.0723   0.0801   0.2464  -0.0289   0.0978  -0.0668   5.00    0.0
2018/11/08 00:37:15.000  -74.370507251  163.307872958  1012.5590   6  11   0.0769   0.0857   0.2695  -0.0331   0.1067  -0.0760   5.00    0.0
2018/11/08 00:37:30.000  -74.370507411  163.307873350  1012.6028   6  11   0.0817   0.0914   0.2928  -0.0371   0.1158  -0.0851   5.00    0.0
2018/11/08 00:37:45.000  -74.370507468  163.307873758  1012.6127   6  11   0.0768   0.0856   0.2685  -0.0325   0.1058  -0.0748   5.00    0.0
2018/11/08 00:38:00.000  -74.370507369  163.307873935  1012.6041   6  11   0.0725   0.0815   0.2454  -0.0266   0.0957  -0.0647   4.00    0.0
2018/11/08 00:38:15.000  -74.370507373  163.307874416  1012.6321   6  11   0.0690   0.0743   0.2237  -0.0241   0.0876  -0.0507   3.00    0.0
2018/11/08 00:38:30.000  -74.370507270  163.307874356  1012.6826   6  11   0.0630   0.0691   0.1981  -0.0185   0.0796  -0.0462   3.00    0.0
2018/11/08 00:38:45.000  -74.370507264  163.307874344  1012.6962   6  11   0.0590   0.0644   0.1767  -0.0126   0.0716  -0.0361   3.00    0.0
2018/11/08 00:39:00.000  -74.370507244  163.307874317  1012.7132   6  11   0.0555   0.0602   0.1569  -0.0018   0.0644  -0.0250   3.00    0.0
2018/11/08 00:39:15.000  -74.370507210  163.307874325  1012.7378   6  11   0.0525   0.0567   0.1391   0.0113   0.0580  -0.0098   3.00    0.0
2018/11/08 00:39:30.000  -74.370507115  163.307874320  1012.7355   6  11   0.0500   0.0538   0.1240   0.0153   0.0527   0.0175   3.00    0.0
2018/11/08 00:39:45.000  -74.370506932  163.307874242  1012.6883   6  11   0.0481   0.0516   0.1126   0.0180   0.0485   0.0249   3.00    0.0
2018/11/08 00:40:00.000  -74.370506835  163.307874219  1012.6765   6  11   0.0469   0.0504   0.1063   0.0197   0.0455   0.0292   3.00    0.0
2018/11/08 00:40:15.000  -74.370506834  163.307874491  1012.6936   6  11   0.0478   0.0513   0.1139   0.0187   0.0476   0.0271   4.00    0.0
2018/11/08 00:40:30.000  -74.370506976  163.307874780  1012.7039   6  11   0.0496   0.0533   0.1268   0.0163   0.0519   0.0211   4.00    0.0
2018/11/08 00:40:45.000  -74.370506958  163.307874967  1012.6743   6  11   0.0521   0.0562   0.1427   0.0122   0.0575   0.0030   4.00    0.0
2018/11/08 00:41:00.000  -74.370507031  163.307875068  1012.6463   6  11   0.0551   0.0597   0.1606   0.0026   0.0639  -0.0236   4.00    0.0
2018/11/08 00:41:15.000  -74.370507115  163.307875083  1012.6455   6  11   0.0586   0.0638   0.1799  -0.0124   0.0710  -0.0353   4.00    0.0
2018/11/08 00:41:30.000  -74.370507137  163.307874803  1012.6277   6  11   0.0624   0.0683   0.2003  -0.0182   0.0784  -0.0453   4.00    0.0
2018/11/08 00:41:45.000  -74.370507136  163.307874610  1012.5737   6  11   0.0664   0.0731   0.2214  -0.0230   0.0861  -0.0545   4.00    0.0
2018/11/08 00:42:00.000  -74.370507266  163.307874943  1012.5835   6  11   0.0707   0.0781   0.2431  -0.0273   0.0940  -0.0632   4.00    0.0
2018/11/08 00:42:15.000  -74.370507495  163.307875054  1012.6047   6  11   0.0752   0.0834   0.2654  -0.0313   0.1020  -0.0716   4.00    0.0
2018/11/08 00:42:30.000  -74.370507477  163.307874959  1012.5624   6  11   0.0798   0.0888   0.2887  -0.0351   0.1100  -0.0796   4.00    0.0
2018/11/08 00:42:45.000  -74.370507452  163.307874530  1012.4719   6  11   0.0753   0.0833   0.2729  -0.0313   0.1001  -0.0687   4.00    0.0
2018/11/08 00:43:00.000  -74.370507335  163.307874266  1012.5712   6  11   0.0705   0.0778   0.2486  -0.0266   0.0939  -0.0636   0.00    0.0
2018/11/08 00:43:15.000  -74.370507378  163.307874743  1012.5957   6  11   0.0661   0.0727   0.2249  -0.0220   0.0856  -0.0540   0.00    0.0
2018/11/08 00:43:30.000  -74.370507408  163.307875363  1012.6637   6  11   0.0621   0.0679   0.2051  -0.0171   0.0776  -0.0439   0.00    0.0
2018/11/08 00:43:45.000  -74.370507285  163.307875328  1012.6462   6  11   0.0584   0.0635   0.1896  -0.0113   0.0694  -0.0314   1.00    0.0
2018/11/08 00:44:00.000  -74.370507192  163.307875387  1012.6380   6  11   0.0549   0.0595   0.1729   0.0051   0.0635  -0.0210   0.00    0.0
2018/11/08 00:44:15.000  -74.370507052  163.307875046  1012.6543   6  11   0.0516   0.0558   0.1511   0.0138   0.0598  -0.0125   0.00    0.0
2018/11/08 00:44:30.000  -74.370507002  163.307874986  1012.6412   6  11   0.0491   0.0530   0.1375   0.0174   0.0548   0.0174   0.00    0.0
2018/11/08 00:44:45.000  -74.370507102  163.307875213  1012.7030   6  11   0.0471   0.0510   0.1284   0.0196   0.0512   0.0250   0.00    0.0
2018/11/08 00:45:00.000  -74.370507056  163.307875132  1012.7035   6  11   0.0461   0.0500   0.1244   0.0207   0.0494   0.0282   1.00    0.0
2018/11/08 00:45:15.000  -74.370507047  163.307875519  1012.7217   6  11   0.0470   0.0512   0.1315   0.0193   0.0519   0.0241   4.00    0.0
2018/11/08 00:45:30.000  -74.370507141  163.307875739  1012.7041   6  11   0.0490   0.0534   0.1437   0.0165   0.0561   0.0121   6.00    0.0
2018/11/08 00:45:45.000  -74.370507193  163.307875417  1012.6534   6  11   0.0518   0.0565   0.1594   0.0120   0.0614  -0.0217   6.00    0.0
2018/11/08 00:46:00.000  -74.370507231  163.307875009  1012.6207   6  11   0.0553   0.0602   0.1783  -0.0028   0.0675  -0.0365   6.00    0.0
2018/11/08 00:46:15.000  -74.370507296  163.307874228  1012.5981   6  11   0.0599   0.0643   0.2015  -0.0133   0.0741  -0.0513   6.00    0.0
2018/11/08 00:46:30.000  -74.370506980  163.307873532  1012.4076   6  10   0.0831   0.0737   0.3038  -0.0421   0.1101  -0.1213   5.00    0.0
2018/11/08 00:46:45.000  -74.370507086  163.307873566  1012.3977   6  10   0.0915   0.0790   0.3405  -0.0483   0.1216  -0.1395   5.00    0.0
2018/11/08 00:47:00.000  -74.370507004  163.307873450  1012.3180   6  10   0.1002   0.0845   0.3778  -0.0543   0.1332  -0.1575   5.00    0.0
2018/11/08 00:47:15.000  -74.370506975  163.307873483  1012.2893   6  10   0.1091   0.0901   0.4159  -0.0601   0.1447  -0.1755   5.00    0.0
2018/11/08 00:47:30.000  -74.370507096  163.307873575  1012.2915   6  10   0.1182   0.0959   0.4553  -0.0658   0.1562  -0.1936   5.00    0.0
2018/11/08 00:47:45.000  -74.370507121  163.307873488  1012.2574   6  10   0.1092   0.0900   0.4274  -0.0596   0.1433  -0.1770   5.00    0.0
2018/11/08 00:48:00.000  -74.370507275  163.307873222  1012.4239   6  10   0.1011   0.0842   0.3915  -0.0539   0.1329  -0.1618   4.00    0.0
2018/11/08 00:48:15.000  -74.370507344  163.307873369  1012.4711   6  10   0.0919   0.0786   0.3500  -0.0474   0.1201  -0.1419   4.00    0.0
2018/11/08 00:48:30.000  -74.370507257  163.307873363  1012.4351   6  10   0.0834   0.0733   0.3177  -0.0409   0.1074  -0.1238   4.00    0.0
2018/11/08 00:48:45.000  -74.370507330  163.307873720  1012.5387   6  10   0.0756   0.0683   0.2754  -0.0350   0.0985  -0.1061   4.00    0.0
2018/11/08 00:49:00.000  -74.370507216  163.307873500  1012.4992   6  10   0.0677   0.0635   0.2372  -0.0276   0.0867  -0.0859   4.00    0.0
2018/11/08 00:49:15.000  -74.370507324  163.307874009  1012.5436   6  10   0.0605   0.0592   0.2041  -0.0192   0.0756  -0.0663   4.00    0.0
2018/11/08 00:49:30.000  -74.370507260  163.307873995  1012.5083   6  10   0.0544   0.0553   0.1746  -0.0057   0.0651  -0.0455   4.00    0.0
2018/11/08 00:49:45.000  -74.370507386  163.307874601  1012.5830   6  10   0.0495   0.0522   0.1507   0.0149   0.0558  -0.0212   4.00    0.0
2018/11/08 00:50:00.000  -74.370507433  163.307875023  1012.6266   6   9   0.0472   0.0505   0.1374   0.0188   0.0507   0.0161   5.00    0.0
2018/11/08 00:50:15.000  -74.370507452  163.307875488  1012.5970   6   9   0.0499   0.0521   0.1508   0.0144   0.0552  -0.0236   4.00    0.0
2018/11/08 00:50:30.000  -74.370507379  163.307875610  1012.5422   6   9   0.0552   0.0554   0.1781  -0.0089   0.0640  -0.0487   5.00    0.0
2018/11/08 00:50:45.000  -74.370507209  163.307875388  1012.4878   6   9   0.0621   0.0594   0.2121  -0.0211   0.0744  -0.0706   5.00    0.0
2018/11/08 00:51:00.000  -74.370507328  163.307875929  1012.5607   6   9   0.0696   0.0638   0.2494  -0.0293   0.0851  -0.0911   5.00    0.0
2018/11/08 00:51:15.000  -74.370507499  163.307875796  1012.5870   6   9   0.0776   0.0685   0.2883  -0.0360   0.0958  -0.1107   5.00    0.0
2018/11/08 00:51:30.000  -74.370507645  163.307876068  1012.5978   6   9   0.0859   0.0733   0.3280  -0.0420   0.1063  -0.1296   5.00    0.0
2018/11/08 00:51:45.000  -74.370507573  163.307875791  1012.5554   6   9   0.0943   0.0783   0.3682  -0.0476   0.1167  -0.1481   5.00    0.0
2018/11/08 00:52:00.000  -74.370507535  163.307875795  1012.5048   6   9   0.1029   0.0835   0.4085  -0.0528   0.1269  -0.1664   5.00    0.0
2018/11/08 00:52:15.000  -74.370507531  163.307875768  1012.4742   6   9   0.1116   0.0888   0.4489  -0.0578   0.1370  -0.1843   5.00    0.0
2018/11/08 00:52:30.000  -74.370507564  163.307875736  1012.4375   6   9   0.1203   0.0942   0.4893  -0.0626   0.1469  -0.2021   5.00    0.0
2018/11/08 00:52:45.000  -74.370507558  163.307875395  1012.4418   6   9   0.1113   0.0886   0.4470  -0.0570   0.1353  -0.1833   5.00    0.0
2018/11/08 00:53:00.000  -74.370507652  163.307875807  1012.4844   6  10   0.0945   0.0830   0.3491  -0.0508   0.1228  -0.1376   5.00    0.0
2018/11/08 00:53:15.000  -74.370507603  163.307875563  1012.5023   6  10   0.0840   0.0770   0.3017  -0.0426   0.1078  -0.1130   5.00    0.0
2018/11/08 00:53:30.000  -74.370507588  163.307875814  1012.5090   6  10   0.0763   0.0716   0.2672  -0.0356   0.0956  -0.0952   4.00    0.0
2018/11/08 00:53:45.000  -74.370507537  163.307875837  1012.4752   6  10   0.0696   0.0666   0.2378  -0.0286   0.0842  -0.0794   4.00    0.0
2018/11/08 00:54:00.000  -74.370507569  163.307875940  1012.4864   6  10   0.0638   0.0621   0.2114  -0.0207   0.0727  -0.0632   4.00    0.0
2018/11/08 00:54:15.000  -74.370507574  163.307875787  1012.4641   6  10   0.0589   0.0585   0.1890  -0.0099   0.0602  -0.0442   4.00    0.0
2018/11/08 00:54:30.000  -74.370507726  163.307875479  1012.5611   6   9   0.0579   0.0555   0.1783   0.0101   0.0571  -0.0408   3.00    0.0
2018/11/08 00:54:45.000  -74.370507565  163.307875547  1012.5118   6  10   0.0631   0.0533   0.1642   0.0200   0.0522  -0.0495   1.00    0.0
2018/11/08 00:55:00.000  -74.370507589  163.307875199  1012.5396   6  10   0.0510   0.0491   0.1355   0.0176   0.0425  -0.0357   1.00    0.0
2018/11/08 00:55:15.000  -74.370507634  163.307874917  1012.4970   6  10   0.0511   0.0502   0.1415   0.0155   0.0449  -0.0378   1.00    0.0
2018/11/08 00:55:30.000  -74.370507761  163.307875036  1012.5584   6  10   0.0535   0.0527   0.1556   0.0090   0.0507  -0.0457   1.00    0.0
2018/11/08 00:55:45.000  -74.370507774  163.307875486  1012.5726   6  10   0.0573   0.0563   0.1744  -0.0123   0.0584  -0.0554   1.00    0.0
2018/11/08 00:56:00.000  -74.370507833  163.307875615  1012.5411   6  10   0.0623   0.0606   0.1969  -0.0212   0.0671  -0.0657   1.00    0.0
2018/11/08 00:56:15.000  -74.370507840  163.307875893  1012.5403   6  10   0.0693   0.0658   0.2192  -0.0301   0.0770  -0.0800   1.00    0.0
2018/11/08 00:56:30.000  -74.370507995  163.307876525  1012.5571   6  10   0.0742   0.0711   0.2454  -0.0356   0.0863  -0.0914   1.00    0.0
2018/11/08 00:56:45.000  -74.370508082  163.307876776  1012.5621   6  10   0.0802   0.0768   0.2739  -0.0410   0.0953  -0.1035   2.00    0.0
2018/11/08 00:57:00.000  -74.370508186  163.307877004  1012.5539   6  10   0.0867   0.0830   0.3068  -0.0458   0.1026  -0.1170   2.00    0.0
2018/11/08 00:57:15.000  -74.370508369  163.307876904  1012.5975   6   9   0.1147   0.0905   0.4421  -0.0613   0.1326  -0.1894   2.00    0.0
2018/11/08 00:57:30.000  -74.370508281  163.307877313  1012.5675   6  10   0.1232   0.0963   0.4800  -0.0662   0.1422  -0.2057   2.00    0.0
2018/11/08 00:57:45.000  -74.370508276  163.307877030  1012.5797   6  10   0.1027   0.0893   0.3667  -0.0598   0.1313  -0.1529   3.00    0.0
2018/11/08 00:58:00.000  -74.370508300  163.307876344  1012.5201   6  10   0.0934   0.0831   0.3271  -0.0529   0.1181  -0.1342   3.00    0.0
2018/11/08 00:58:15.000  -74.370508213  163.307875930  1012.5046   6  10   0.0853   0.0771   0.2929  -0.0461   0.1059  -0.1184   3.00    0.0
2018/11/08 00:58:30.000  -74.370508121  163.307875676  1012.4932   6  10   0.0778   0.0713   0.2614  -0.0392   0.0940  -0.1036   3.00    0.0
2018/11/08 00:58:45.000  -74.370508032  163.307875400  1012.4768   6  10   0.0708   0.0659   0.2317  -0.0318   0.0821  -0.0892   3.00    0.0
2018/11/08 00:59:00.000  -74.370508010  163.307875563  1012.4842   6  10   0.0641   0.0614   0.2037  -0.0244   0.0719  -0.0748   3.00    0.0
2018/11/08 00:59:15.000  -74.370508012  163.307875361  1012.4840   6  10   0.0581   0.0562   0.1772  -0.0141   0.0599  -0.0604   4.00    0.0
2018/11/08 00:59:30.000  -74.370507927  163.307875506  1012.4740   6  10   0.0529   0.0523   0.1541   0.0101   0.0494  -0.0463   4.00    0.0
2018/11/08 00:59:45.000  -74.370507969  163.307875879  1012.4469   6  10   0.0489   0.0497   0.1361   0.0175   0.0408  -0.0331   4.00    0.0
2018/11/08 01:00:00.000  -74.370507876  163.307875381  1012.4013   6  10   0.0469   0.0485   0.1266   0.0204   0.0358  -0.0242   4.00    0.0
2018/11/08 01:00:15.000  -74.370507814  163.307875148  1012.3586   6  10   0.0482   0.0498   0.1338   0.0190   0.0387  -0.0305   4.00    0.0
2018/11/08 01:00:30.000  -74.370507816  163.307875240  1012.3743   6  10   0.0513   0.0527   0.1484   0.0153   0.0449  -0.0409   4.00    0.0
2018/11/08 01:00:45.000  -74.370507814  163.307874978  1012.3679   6  10   0.0558   0.0567   0.1681   0.0062   0.0530  -0.0528   4.00    0.0
2018/11/08 01:01:00.000  -74.370507906  163.307875031  1012.4155   6  10   0.0614   0.0617   0.1916  -0.0146   0.0622  -0.0655   4.00    0.0
2018/11/08 01:01:15.000  -74.370507912  163.307874781  1012.4160   6  10   0.0679   0.0674   0.2178  -0.0225   0.0717  -0.0787   4.00    0.0
2018/11/08 01:01:30.000  -74.370508041  163.307874685  1012.4588   6  10   0.0753   0.0741   0.2465  -0.0287   0.0809  -0.0923   5.00    0.0
2018/11/08 01:01:45.000  -74.370508326  163.307875431  1012.5739   6   8   0.0901   0.0939   0.3058  -0.0500   0.1166  -0.1236   6.00    0.0
2018/11/08 01:02:00.000  -74.370512653  163.307892026  1014.3648   6   8   0.7008   0.6116   2.4626  -0.6410   1.2121  -1.3056   2.00    0.0
2018/11/08 01:02:15.000  -74.370509389  163.307880743  1013.0511   6  10   0.3033   0.1751   0.9207  -0.1942   0.3522  -0.5079   2.00    0.0
2018/11/08 01:02:30.000  -74.370507926  163.307878629  1012.5449   6  10   0.1226   0.0961   0.3747  -0.0551   0.1198  -0.1669   2.00    0.0
2018/11/08 01:02:45.000  -74.370507963  163.307878473  1012.5471   6  10   0.1139   0.0879   0.3413  -0.0502   0.1080  -0.1531   2.00    0.0
2018/11/08 01:03:00.000  -74.370508083  163.307878843  1012.5800   6  10   0.1060   0.0806   0.3104  -0.0451   0.0965  -0.1402   2.00    0.0
2018/11/08 01:03:15.000  -74.370508163  163.307878590  1012.5574   6  10   0.0988   0.0747   0.2828  -0.0404   0.0873  -0.1284   3.00    0.0
2018/11/08 01:03:30.000  -74.370508292  163.307878842  1012.5996   6  10   0.0921   0.0648   0.2457  -0.0321   0.0657  -0.1145   2.00    0.0
2018/11/08 01:03:45.000  -74.370508409  163.307878905  1012.5818   6  10   0.0856   0.0584   0.2163  -0.0258   0.0510  -0.1026   3.00    0.0
2018/11/08 01:04:00.000  -74.370508460  163.307878283  1012.5452   6  10   0.0799   0.0525   0.1882  -0.0186   0.0342  -0.0913   4.00    0.0
2018/11/08 01:04:15.000  -74.370508498  163.307877919  1012.5353   6  10   0.0749   0.0473   0.1620  -0.0095   0.0046  -0.0808   3.00    0.0
2018/11/08 01:04:30.000  -74.370508531  163.307878066  1012.5569   6  10   0.0707   0.0431   0.1389   0.0098  -0.0287  -0.0716   4.00    0.0
2018/11/08 01:04:45.000  -74.370508732  163.307878394  1012.5929   6  10   0.0677   0.0402   0.1211   0.0146  -0.0371  -0.0644   4.00    0.0
2018/11/08 01:05:00.000  -74.370508752  163.307878609  1012.6200   6  10   0.0663   0.0390   0.1127   0.0160  -0.0399  -0.0610   4.00    0.0
2018/11/08 01:05:15.000  -74.370508832  163.307879018  1012.6398   6  10   0.0677   0.0405   0.1251   0.0130  -0.0356  -0.0657   6.00    0.0
2018/11/08 01:05:30.000  -74.370508969  163.307879378  1012.6698   6  10   0.0712   0.0436   0.1522  -0.0050  -0.0220  -0.0765   6.00    0.0
2018/11/08 01:05:45.000  -74.370509061  163.307879319  1012.7499   6  10   0.0747   0.0485   0.1724  -0.0143   0.0127  -0.0843   5.00    0.0
2018/11/08 01:06:00.000  -74.370509075  163.307879035  1012.7626   6  10   0.0794   0.0531   0.1995  -0.0231   0.0380  -0.0950   5.00    0.0
2018/11/08 01:06:15.000  -74.370509053  163.307878799  1012.7697   6  10   0.0848   0.0584   0.2288  -0.0301   0.0537  -0.1066   5.00    0.0
2018/11/08 01:06:30.000  -74.370509009  163.307878405  1012.7764   6  10   0.0911   0.0643   0.2611  -0.0368   0.0674  -0.1197   4.00    0.0
2018/11/08 01:06:45.000  -74.370508894  163.307878474  1012.7621   6  10   0.0994   0.0714   0.3034  -0.0448   0.0826  -0.1378   4.00    0.0
2018/11/08 01:07:00.000  -74.370508872  163.307878731  1012.7759   6  10   0.1061   0.0755   0.3445  -0.0395   0.0733  -0.1533   4.00    0.0
2018/11/08 01:07:15.000  -74.370508697  163.307878232  1012.7406   6  10   0.1066   0.0807   0.3333  -0.0423   0.0796  -0.1453   4.00    0.0
2018/11/08 01:07:30.000  -74.370508687  163.307878372  1012.7069   6  10   0.1109   0.0851   0.3513  -0.0477   0.0915  -0.1502   4.00    0.0
2018/11/08 01:07:45.000  -74.370508693  163.307877956  1012.7589   6  10   0.1052   0.0796   0.3243  -0.0438   0.0835  -0.1403   4.00    0.0
2018/11/08 01:08:00.000  -74.370508794  163.307878110  1012.7980   6  10   0.0999   0.0742   0.2987  -0.0394   0.0747  -0.1312   5.00    0.0
2018/11/08 01:08:15.000  -74.370508921  163.307878313  1012.8115   6  10   0.0951   0.0691   0.2752  -0.0348   0.0656  -0.1230   4.00    0.0
2018/11/08 01:08:30.000  -74.370509156  163.307879119  1012.8113   6  10   0.0912   0.0648   0.2550  -0.0303   0.0568  -0.1164   4.00    0.0
2018/11/08 01:08:45.000  -74.370509266  163.307879481  1012.8085   6  10   0.0892   0.0618   0.2431  -0.0268   0.0511  -0.1137   5.00    0.0
2018/11/08 01:09:00.000  -74.370516137  163.307875296  1013.2225   6   8   1.0076   0.1905   0.6509   0.4245  -0.3284  -0.7867   2.00    0.0
2018/11/08 01:09:15.000  -74.370508249  163.307880696  1012.5909   6  10   0.0711   0.0437   0.1440  -0.0368   0.0398  -0.0385   1.00    0.0
2018/11/08 01:09:30.000  -74.370508359  163.307881336  1012.5967   1  10   0.0330   0.0255   0.1123  -0.0122   0.0161  -0.0400   3.00    1.0
2018/11/08 01:09:45.000  -74.370508432  163.307881367  1012.5779   1  10   0.0280   0.0201   0.0893  -0.0080  -0.0085  -0.0330   3.00    1.0
2018/11/08 01:10:00.000  -74.370508271  163.307881448  1012.4245   1  10   0.0239   0.0167   0.0661  -0.0081  -0.0090  -0.0219   3.00    1.0
2018/11/08 01:10:15.000  -74.370508251  163.307881531  1012.3978   1  10   0.0268   0.0200   0.0822  -0.0091   0.0022  -0.0282   3.00    1.0
2018/11/08 01:10:30.000  -74.370508171  163.307881372  1012.3563   1  10   0.0329   0.0255   0.1112  -0.0116   0.0141  -0.0392   3.00    1.0
2018/11/08 01:10:45.000  -74.370508134  163.307880796  1012.3008   6  10   0.0405   0.0328   0.1396  -0.0126   0.0296  -0.0491   2.00    0.0
2018/11/08 01:11:00.000  -74.370508046  163.307880403  1012.2973   6  10   0.0489   0.0393   0.1686  -0.0155   0.0357  -0.0615   3.00    0.0
2018/11/08 01:11:15.000  -74.370507961  163.307879961  1012.2630   6  10   0.0579   0.0459   0.1980  -0.0179   0.0412  -0.0743   3.00    0.0
2018/11/08 01:11:30.000  -74.370507983  163.307879837  1012.2872   6  10   0.0676   0.0525   0.2288  -0.0191   0.0452  -0.0886   4.00    0.0
2018/11/08 01:11:45.000  -74.370507984  163.307879694  1012.3017   6  10   0.0799   0.0594   0.2672  -0.0158   0.0434  -0.1086   6.00    0.0
2018/11/08 01:12:00.000  -74.370507989  163.307879747  1012.3190   6  10   0.0818   0.0646   0.2745  -0.0263   0.0588  -0.1025   5.00    0.0
2018/11/08 01:12:15.000  -74.370507963  163.307879795  1012.3087   6  10   0.0901   0.0705   0.2966  -0.0281   0.0640  -0.1121   5.00    0.0
2018/11/08 01:12:30.000  -74.370507973  163.307880023  1012.2988   6  10   0.0983   0.0763   0.3203  -0.0295   0.0682  -0.1220   4.00    0.0
2018/11/08 01:12:45.000  -74.370507939  163.307880161  1012.2800   6  10   0.0916   0.0705   0.2995  -0.0247   0.0584  -0.1161   5.00    0.0
2018/11/08 01:13:00.000  -74.370507871  163.307880280  1012.2775   6  10   0.0873   0.0652   0.2871  -0.0142   0.0418  -0.1163   5.00    0.0
2018/11/08 01:13:15.000  -74.370507929  163.307880672  1012.3058   6  10   0.0713   0.0575   0.2382  -0.0236   0.0507  -0.0865   5.00    0.0
2018/11/08 01:13:30.000  -74.370507867  163.307880660  1012.3123   6  10   0.0634   0.0512   0.2110  -0.0202   0.0439  -0.0768   5.00    0.0
2018/11/08 01:13:45.000  -74.370507973  163.307881313  1012.3480   6  11   0.0459   0.0437   0.1496   0.0090   0.0084  -0.0332   5.00    0.0
2018/11/08 01:14:00.000  -74.370507946  163.307881180  1012.3343   6  11   0.0404   0.0388   0.1317   0.0113  -0.0145  -0.0315   5.00    0.0
2018/11/08 01:14:15.000  -74.370507880  163.307881455  1012.3729   1  11   0.0339   0.0312   0.1122  -0.0050  -0.0190  -0.0247   3.00    1.0
2018/11/08 01:14:30.000  -74.370507893  163.307881274  1012.3351   1  11   0.0292   0.0257   0.0922   0.0010  -0.0202  -0.0234   3.00    1.0
2018/11/08 01:14:45.000  -74.370507965  163.307881315  1012.3482   1  11   0.0250   0.0203   0.0722  -0.0044  -0.0170  -0.0190   3.00    1.0
2018/11/08 01:15:00.000  -74.370508073  163.307881284  1012.3721   1  11   0.0231   0.0172   0.0600  -0.0059  -0.0141  -0.0150   3.00    1.0
2018/11/08 01:15:15.000  -74.370508096  163.307881406  1012.3673   1  11   0.0257   0.0207   0.0739  -0.0061  -0.0142  -0.0192   3.00    1.0
2018/11/08 01:15:30.000  -74.370508075  163.307881402  1012.3882   1  11   0.0313   0.0269   0.0994  -0.0062  -0.0147  -0.0263   3.00    1.0
2018/11/08 01:15:45.000  -74.370508085  163.307880809  1012.3992   1  11   0.0389   0.0347   0.1309  -0.0064  -0.0160  -0.0352   3.00    1.0
2018/11/08 01:16:00.000  -74.370508218  163.307879732  1012.3889   6  11   0.0475   0.0421   0.1475   0.0052   0.0181  -0.0429   4.00    0.0
2018/11/08 01:16:15.000  -74.370508326  163.307879238  1012.3814   6  11   0.0618   0.0521   0.1842   0.0071   0.0237  -0.0601   4.00    0.0
2018/11/08 01:16:30.000  -74.370508262  163.307879262  1012.3081   6  11   0.0710   0.0625   0.2205   0.0116   0.0262  -0.0702   2.00    0.0
2018/11/08 01:16:45.000  -74.370508399  163.307879750  1012.3425   6  11   0.0566   0.0538   0.1827   0.0078   0.0007  -0.0367   2.00    0.0
2018/11/08 01:17:00.000  -74.370508404  163.307880005  1012.2819   6  11   0.0627   0.0594   0.2007   0.0093  -0.0041  -0.0414   2.00    0.0
2018/11/08 01:17:15.000  -74.370508449  163.307880050  1012.2304   6  11   0.0687   0.0649   0.2190   0.0108  -0.0085  -0.0460   2.00    0.0
2018/11/08 01:17:30.000  -74.370508522  163.307879773  1012.2335   6  11   0.0747   0.0703   0.2373   0.0123  -0.0129  -0.0505   3.00    0.0
2018/11/08 01:17:45.000  -74.370508623  163.307880166  1012.2361   6  11   0.0687   0.0650   0.2185   0.0109  -0.0126  -0.0459   4.00    0.0
2018/11/08 01:18:00.000  -74.370508585  163.307880709  1012.2648   6  12   0.0613   0.0562   0.1911  -0.0121  -0.0350  -0.0494   5.00    0.0
2018/11/08 01:18:15.000  -74.370508552  163.307880894  1012.2874   6  12   0.0552   0.0507   0.1721  -0.0110  -0.0320  -0.0440   6.00    0.0
2018/11/08 01:18:30.000  -74.370508538  163.307881124  1012.2805   6  12   0.0492   0.0453   0.1536  -0.0098  -0.0286  -0.0385   6.00    0.0
2018/11/08 01:18:45.000  -74.370508407  163.307881649  1012.2724   6  12   0.0432   0.0398   0.1351  -0.0083  -0.0251  -0.0327   6.00    0.0
2018/11/08 01:19:00.000  -74.370508252  163.307882293  1012.3205   1  12   0.0377   0.0352   0.1275  -0.0116  -0.0315  -0.0276   7.00    2.0
2018/11/08 01:19:15.000  -74.370508162  163.307881971  1012.2804   1  12   0.0317   0.0288   0.1038  -0.0099  -0.0258  -0.0213   7.00    2.0
2018/11/08 01:19:30.000  -74.370508083  163.307881532  1012.3075   1  12   0.0266   0.0230   0.0818  -0.0084  -0.0207  -0.0152   7.00    2.0
2018/11/08 01:19:45.000  -74.370508045  163.307881165  1012.3500   1  12   0.0226   0.0183   0.0635  -0.0072  -0.0170  -0.0091   7.00    2.0
2018/11/08 01:20:00.000  -74.370508085  163.307881367  1012.3709   1  12   0.0209   0.0158   0.0535  -0.0066  -0.0153  -0.0049   7.00    2.0
2018/11/08 01:20:15.000  -74.370508030  163.307881483  1012.3372   1  12   0.0226   0.0183   0.0635  -0.0071  -0.0171  -0.0085   7.00    2.0
2018/11/08 01:20:30.000  -74.370507957  163.307882037  1012.3271   1  12   0.0266   0.0230   0.0820  -0.0081  -0.0211  -0.0144   7.00    2.0
2018/11/08 01:20:45.000  -74.370507934  163.307882115  1012.2867   1  12   0.0318   0.0289   0.1044  -0.0094  -0.0265  -0.0208   7.00    2.0
2018/11/08 01:21:00.000  -74.370507914  163.307881993  1012.2473   1  12   0.0378   0.0353   0.1288  -0.0108  -0.0325  -0.0274   7.00    2.0
2018/11/08 01:21:15.000  -74.370508055  163.307881480  1012.2196   6  12   0.0428   0.0395   0.1338  -0.0074  -0.0268  -0.0321   7.00    0.0
2018/11/08 01:21:30.000  -74.370508172  163.307881696  1012.2231   6  12   0.0485   0.0448   0.1520  -0.0085  -0.0310  -0.0378   7.00    0.0
2018/11/08 01:21:45.000  -74.370508184  163.307881522  1012.1954   6  12   0.0542   0.0501   0.1702  -0.0094  -0.0353  -0.0432   7.00    0.0
2018/11/08 01:22:00.000  -74.370508146  163.307881232  1012.1431   6  12   0.0599   0.0552   0.1884  -0.0102  -0.0397  -0.0484   7.00    0.0
2018/11/08 01:22:15.000  -74.370508037  163.307880918  1012.1649   6  12   0.0654   0.0603   0.2067  -0.0109  -0.0443  -0.0535   7.00    0.0
2018/11/08 01:22:30.000  -74.370508059  163.307880663  1012.1683   6  12   0.0708   0.0653   0.2250  -0.0115  -0.0490  -0.0585   7.00    0.0
2018/11/08 01:22:45.000  -74.370508133  163.307880984  1012.2125   6  12   0.0652   0.0601   0.2069  -0.0099  -0.0449  -0.0537   7.00    0.0
2018/11/08 01:23:00.000  -74.370508194  163.307881197  1012.2563   6  12   0.0596   0.0550   0.1888  -0.0089  -0.0408  -0.0486   7.00    0.0
2018/11/08 01:23:15.000  -74.370508207  163.307881353  1012.2856   6  12   0.0539   0.0498   0.1705  -0.0079  -0.0367  -0.0434   7.00    0.0
2018/11/08 01:23:30.000  -74.370508177  163.307881433  1012.2953   6  12   0.0482   0.0445   0.1522  -0.0068  -0.0327  -0.0379   7.00    0.0
2018/11/08 01:23:45.000  -74.370508151  163.307881460  1012.2996   6  12   0.0424   0.0392   0.1338  -0.0055  -0.0287  -0.0322   7.00    0.0
2018/11/08 01:24:00.000  -74.370508106  163.307881504  1012.3344   1  12   0.0378   0.0352   0.1301  -0.0097  -0.0343  -0.0277   7.00    2.0
2018/11/08 01:24:15.000  -74.370508061  163.307881415  1012.3355   1  12   0.0318   0.0288   0.1052  -0.0081  -0.0282  -0.0207   7.00    2.0
2018/11/08 01:24:30.000  -74.370508134  163.307881235  1012.3192   1  12   0.0267   0.0230   0.0822  -0.0069  -0.0228  -0.0135   6.00    2.0
2018/11/08 01:24:45.000  -74.370508144  163.307881152  1012.3298   1  12   0.0229   0.0182   0.0632  -0.0061  -0.0185  -0.0055   6.00    2.0
2018/11/08 01:25:00.000  -74.370508112  163.307881166  1012.3573   1  12   0.0209   0.0160   0.0531  -0.0050  -0.0167   0.0054   6.00    2.0
2018/11/08 01:25:15.000  -74.370508145  163.307881232  1012.3624   1  12   0.0230   0.0186   0.0633  -0.0053  -0.0187  -0.0041   6.00    2.0
2018/11/08 01:25:30.000  -74.370508174  163.307881116  1012.3437   1  12   0.0269   0.0231   0.0824  -0.0061  -0.0232  -0.0126   6.00    2.0
2018/11/08 01:25:45.000  -74.370508154  163.307880875  1012.3341   1  12   0.0321   0.0290   0.1056  -0.0072  -0.0289  -0.0200   6.00    2.0
2018/11/08 01:26:00.000  -74.370508025  163.307880987  1012.3275   1  12   0.0380   0.0354   0.1308  -0.0085  -0.0352  -0.0273   6.00    2.0
2018/11/08 01:26:15.000  -74.370507967  163.307880765  1012.2094   6  12   0.0417   0.0389   0.1309  -0.0045  -0.0299  -0.0295   7.00    0.0
2018/11/08 01:26:30.000  -74.370507931  163.307880569  1012.1970   6  12   0.0471   0.0441   0.1490  -0.0054  -0.0345  -0.0346   7.00    0.0
2018/11/08 01:26:45.000  -74.370507920  163.307880128  1012.1829   6  12   0.0524   0.0492   0.1672  -0.0060  -0.0392  -0.0396   7.00    0.0
2018/11/08 01:27:00.000  -74.370507974  163.307880041  1012.1790   6  12   0.0577   0.0542   0.1855  -0.0065  -0.0440  -0.0445   6.00    0.0
2018/11/08 01:27:15.000  -74.370508013  163.307879903  1012.2144   6  12   0.0629   0.0591   0.2040  -0.0069  -0.0490  -0.0493   6.00    0.0
2018/11/08 01:27:30.000  -74.370508023  163.307879865  1012.2026   6  12   0.0680   0.0640   0.2227  -0.0073  -0.0541  -0.0540   6.00    0.0
2018/11/08 01:27:45.000  -74.370508086  163.307879683  1012.2169   6  12   0.0629   0.0592   0.2049  -0.0067  -0.0495  -0.0493   6.00    0.0
2018/11/08 01:28:00.000  -74.370507994  163.307879897  1012.1975   6  12   0.0576   0.0542   0.1864  -0.0059  -0.0448  -0.0444   7.00    0.0
2018/11/08 01:28:15.000  -74.370508024  163.307880359  1012.1860   6  12   0.0523   0.0491   0.1680  -0.0052  -0.0402  -0.0395   7.00    0.0
2018/11/08 01:28:30.000  -74.370508026  163.307880166  1012.2072   6  12   0.0469   0.0440   0.1496  -0.0043  -0.0356  -0.0344   7.00    0.0
2018/11/08 01:28:45.000  -74.370507992  163.307880348  1012.2277   6  12   0.0415   0.0389   0.1314  -0.0031  -0.0312  -0.0291   7.00    0.0
2018/11/08 01:29:00.000  -74.370507964  163.307880158  1012.3286   1  12   0.0385   0.0365   0.1328  -0.0047  -0.0362  -0.0268   5.00    1.0
2018/11/08 01:29:15.000  -74.370507898  163.307880398  1012.3329   1  12   0.0326   0.0304   0.1075  -0.0021  -0.0298  -0.0191   5.00    1.0
2018/11/08 01:29:30.000  -74.370507912  163.307880486  1012.3384   1  12   0.0275   0.0249   0.0841   0.0030  -0.0240  -0.0106   5.00    1.0
2018/11/08 01:29:45.000  -74.370507972  163.307880522  1012.3668   1  12   0.0237   0.0208   0.0648   0.0043  -0.0192   0.0063   5.00    1.0
2018/11/08 01:30:00.000  -74.370508107  163.307880811  1012.3631   1  12   0.0223   0.0187   0.0544   0.0043  -0.0167   0.0095   5.00    1.0
2018/11/08 01:30:15.000  -74.370508149  163.307880725  1012.3893   1  12   0.0240   0.0213   0.0652   0.0030  -0.0199   0.0067   5.00    1.0
2018/11/08 01:30:30.000  -74.370508142  163.307880603  1012.4014   1  12   0.0279   0.0262   0.0851  -0.0042  -0.0258  -0.0089   5.00    1.0
2018/11/08 01:30:45.000  -74.370508118  163.307880475  1012.3840   1  12   0.0332   0.0323   0.1090  -0.0076  -0.0326  -0.0172   6.00    1.0
2018/11/08 01:31:00.000  -74.370508138  163.307880293  1012.3670   1  12   0.0393   0.0391   0.1349  -0.0105  -0.0402  -0.0246   6.00    1.0
2018/11/08 01:31:15.000  -74.370508183  163.307880441  1012.2785   6  12   0.0416   0.0404   0.1299  -0.0098  -0.0339  -0.0253   6.00    0.0
2018/11/08 01:31:30.000  -74.370508193  163.307880643  1012.2487   6  12   0.0468   0.0458   0.1482  -0.0116  -0.0392  -0.0300   6.00    0.0
2018/11/08 01:31:45.000  -74.370508191  163.307880938  1012.2020   6  12   0.0521   0.0513   0.1668  -0.0137  -0.0449  -0.0343   6.00    0.0
2018/11/08 01:32:00.000  -74.370508233  163.307881272  1012.1357   6  12   0.0574   0.0571   0.1862  -0.0165  -0.0515  -0.0382   6.00    0.0
2018/11/08 01:32:15.000  -74.370508228  163.307880998  1012.1420   6  12   0.0631   0.0643   0.2074  -0.0214  -0.0606  -0.0403   6.00    0.0
2018/11/08 01:32:30.000  -74.370508174  163.307880982  1012.1829   6  12   0.0704   0.0764   0.2334  -0.0326  -0.0753  -0.0391   4.00    0.0
2018/11/08 01:32:45.000  -74.370508123  163.307881076  1012.1857   6  12   0.0614   0.0595   0.2040  -0.0094  -0.0549  -0.0453   4.00    0.0
2018/11/08 01:33:00.000  -74.370508156  163.307880984  1012.2160   6  12   0.0562   0.0540   0.1845  -0.0065  -0.0489  -0.0409   4.00    0.0
2018/11/08 01:33:15.000  -74.370508167  163.307881236  1012.2277   6  12   0.0511   0.0487   0.1655  -0.0041  -0.0434  -0.0363   4.00    0.0
2018/11/08 01:33:30.000  -74.370508179  163.307881594  1012.2535   6  12   0.0459   0.0436   0.1469  -0.0008  -0.0382  -0.0316   4.00    0.0
2018/11/08 01:33:45.000  -74.370508200  163.307881519  1012.2446   6  12   0.0408   0.0385   0.1287   0.0035  -0.0333  -0.0267   4.00    0.0
2018/11/08 01:34:00.000  -74.370508038  163.307881514  1012.3426   1  12   0.0378   0.0357   0.1320  -0.0066  -0.0384  -0.0273   7.00    2.0
2018/11/08 01:34:15.000  -74.370508058  163.307881207  1012.3519   1  12   0.0317   0.0295   0.1069  -0.0054  -0.0321  -0.0198   7.00    2.0
2018/11/08 01:34:30.000  -74.370508179  163.307880556  1012.3585   1  12   0.0278   0.0251   0.0839   0.0067  -0.0259  -0.0104   6.00    1.0
2018/11/08 01:34:45.000  -74.370508225  163.307880659  1012.3292   1  12   0.0241   0.0208   0.0652   0.0075  -0.0213   0.0062   6.00    1.0
2018/11/08 01:35:00.000  -74.370508149  163.307880687  1012.3371   1  12   0.0223   0.0188   0.0553   0.0080  -0.0190   0.0092   5.00    1.0
2018/11/08 01:35:15.000  -74.370508085  163.307880607  1012.3347   1  12   0.0244   0.0215   0.0661   0.0083  -0.0222   0.0059   5.00    1.0
2018/11/08 01:35:30.000  -74.370508022  163.307880639  1012.3236   1  12   0.0285   0.0262   0.0855   0.0092  -0.0272  -0.0104   5.00    1.0
2018/11/08 01:35:45.000  -74.370507993  163.307880471  1012.3498   1  12   0.0338   0.0322   0.1085   0.0103  -0.0332  -0.0187   5.00    1.0
2018/11/08 01:36:00.000  -74.370508091  163.307880536  1012.3664   1  12   0.0400   0.0391   0.1333   0.0119  -0.0399  -0.0263   4.00    1.0
2018/11/08 01:36:15.000  -74.370508164  163.307880721  1012.2289   6  12   0.0414   0.0404   0.1275   0.0121  -0.0337  -0.0251   5.00    0.0
2018/11/08 01:36:30.000  -74.370508203  163.307880439  1012.2268   6  12   0.0470   0.0472   0.1452   0.0163  -0.0387  -0.0299   5.00    0.0
2018/11/08 01:36:45.000  -74.370508203  163.307879979  1012.2248   6  11   0.0524   0.0534   0.1632   0.0192  -0.0444  -0.0351   4.00    0.0
2018/11/08 01:37:00.000  -74.370508221  163.307880231  1012.2200   6  12   0.0567   0.0556   0.1804   0.0162  -0.0465  -0.0381   0.00    0.0
2018/11/08 01:37:15.000  -74.370508211  163.307880246  1012.1940   6  12   0.0601   0.0575   0.1980   0.0063  -0.0533  -0.0444   0.00    0.0
2018/11/08 01:37:30.000  -74.370508157  163.307880419  1012.1971   6  12   0.0649   0.0622   0.2161   0.0060  -0.0584  -0.0491   0.00    0.0
2018/11/08 01:37:45.000  -74.370508193  163.307880515  1012.1919   6  12   0.0601   0.0573   0.1980   0.0056  -0.0534  -0.0442   2.00    0.0
2018/11/08 01:38:00.000  -74.370508239  163.307880391  1012.2299   6  12   0.0552   0.0524   0.1797   0.0054  -0.0484  -0.0393   4.00    0.0
2018/11/08 01:38:15.000  -74.370508166  163.307880677  1012.2340   6  12   0.0503   0.0475   0.1617   0.0053  -0.0435  -0.0344   5.00    0.0
2018/11/08 01:38:30.000  -74.370508200  163.307880446  1012.2167   6  12   0.0454   0.0427   0.1440   0.0054  -0.0386  -0.0294   6.00    0.0
2018/11/08 01:38:45.000  -74.370508115  163.307880671  1012.2070   6  12   0.0406   0.0378   0.1268   0.0057  -0.0340  -0.0242   6.00    0.0
2018/11/08 01:39:00.000  -74.370508097  163.307881301  1012.3271   1  12   0.0393   0.0361   0.1334  -0.0024  -0.0400  -0.0239   5.00    2.0
2018/11/08 01:39:15.000  -74.370508195  163.307881401  1012.3397   1  12   0.0341   0.0300   0.1108   0.0039  -0.0335  -0.0117   5.00    2.0
2018/11/08 01:39:30.000  -74.370508266  163.307881273  1012.3278   1  12   0.0270   0.0244   0.0863  -0.0027  -0.0293  -0.0135   6.00    2.0
2018/11/08 01:39:45.000  -74.370508313  163.307880920  1012.3702   1  12   0.0238   0.0200   0.0703   0.0021  -0.0255  -0.0110   6.00    1.0
2018/11/08 01:40:00.000  -74.370508082  163.307880825  1012.3435   1  12   0.0216   0.0182   0.0608   0.0027  -0.0238  -0.0024   6.00    2.0
2018/11/08 01:40:15.000  -74.370508025  163.307880407  1012.3335   1  12   0.0258   0.0211   0.0721   0.0092  -0.0253  -0.0166   6.00    1.0
2018/11/08 01:40:30.000  -74.370507887  163.307879981  1012.3574   1  12   0.0292   0.0254   0.0891   0.0091  -0.0298  -0.0203   6.00    1.0
2018/11/08 01:40:45.000  -74.370507876  163.307879802  1012.3579   1  12   0.0323   0.0310   0.1134   0.0106  -0.0374  -0.0362   6.00    2.0
2018/11/08 01:41:00.000  -74.370507815  163.307880110  1012.1983   6  12   0.0394   0.0334   0.1181   0.0119  -0.0347  -0.0356   6.00    0.0
2018/11/08 01:41:15.000  -74.370507783  163.307879977  1012.1635   6  12   0.0459   0.0385   0.1410   0.0148  -0.0419  -0.0459   5.00    0.0
2018/11/08 01:41:30.000  -74.370507940  163.307879793  1012.1895   6  12   0.0455   0.0425   0.1467   0.0080  -0.0413  -0.0351   5.00    0.0
2018/11/08 01:41:45.000  -74.370507946  163.307880089  1012.1430   6  12   0.0502   0.0471   0.1617   0.0075  -0.0454  -0.0379   6.00    0.0
2018/11/08 01:42:00.000  -74.370507886  163.307880400  1012.1306   6  12   0.0549   0.0518   0.1780   0.0075  -0.0500  -0.0416   6.00    0.0
2018/11/08 01:42:15.000  -74.370507953  163.307880720  1012.0884   6  12   0.0597   0.0565   0.1946   0.0076  -0.0548  -0.0457   5.00    0.0
2018/11/08 01:42:30.000  -74.370507834  163.307880243  1012.0757   6  12   0.0645   0.0612   0.2115   0.0077  -0.0597  -0.0499   6.00    0.0
2018/11/08 01:42:45.000  -74.370507996  163.307879767  1012.0655   6  12   0.0595   0.0564   0.1935   0.0073  -0.0546  -0.0449   5.00    0.0
2018/11/08 01:43:00.000  -74.370508068  163.307879930  1012.0917   6  12   0.0546   0.0517   0.1757   0.0071  -0.0496  -0.0401   6.00    0.0
2018/11/08 01:43:15.000  -74.370508177  163.307880153  1012.1358   6  12   0.0496   0.0469   0.1582   0.0068  -0.0447  -0.0353   6.00    0.0
2018/11/08 01:43:30.000  -74.370508204  163.307880443  1012.1509   6  12   0.0447   0.0422   0.1411   0.0065  -0.0399  -0.0306   7.00    0.0
2018/11/08 01:43:45.000  -74.370508204  163.307880224  1012.2051   6  12   0.0398   0.0374   0.1243   0.0064  -0.0353  -0.0257   7.00    0.0
2018/11/08 01:44:00.000  -74.370508117  163.307879890  1012.3849   1  12   0.0355   0.0366   0.1260   0.0050  -0.0403  -0.0304   6.00    2.0
2018/11/08 01:44:15.000  -74.370508190  163.307879826  1012.3922   1  12   0.0329   0.0306   0.1048   0.0069  -0.0341  -0.0178   6.00    1.0
2018/11/08 01:44:30.000  -74.370508193  163.307880116  1012.4254   1  12   0.0276   0.0247   0.0853   0.0044  -0.0295  -0.0139   6.00    1.0
