% program   : RTKLIB ver.2.4.3
% inp file  : _by_type/_obs/shirase/20181110.18o
% inp file  : _by_type/_sp3+clk/igs20266.clk
% inp file  : _by_type/_sp3+clk/igs20266.sp3
% inp file  : _by_type/_nav/shirase/20181110.18n
% obs start : 2018/11/10 00:00:00.0 GPST (week2026 518400.0s)
% obs end   : 2018/11/10 23:59:45.0 GPST (week2026 604785.0s)
% pos mode  : ppp-kinematic
% solution  : combined
% elev mask : 15.0 deg
% dynamics  : off
% tidecorr  : on
% tropo opt : est ztd+grad
% ephemeris : precise
% navi sys  : gps glonass
% antenna1  :                       ( 0.0000  0.0000  0.0000)
%
% (lat/lon/height=WGS84/ellipsoidal,Q=1:fix,2:float,3:sbas,4:dgps,5:single,6:ppp,ns=# of satellites)
%  GPST                  latitude(deg) longitude(deg)  height(m)   Q  ns   sdn(m)   sde(m)   sdu(m)  sdne(m)  sdeu(m)  sdun(m) age(s)  ratio
2018/11/10 00:00:00.000  -74.525922166  163.457838690    25.8923   6  10   0.0685   0.0653   0.1462   0.0109   0.0442  -0.0236   0.00    0.0
2018/11/10 00:00:15.000  -74.525921992  163.457837827    25.8010   6  10   0.0703   0.0667   0.1544   0.0064   0.0478  -0.0324   0.00    0.0
2018/11/10 00:00:30.000  -74.525921912  163.457837277    25.7549   6  10   0.0735   0.0697   0.1686  -0.0110   0.0545  -0.0423   0.00    0.0
2018/11/10 00:00:45.000  -74.525921836  163.457836905    25.7447   6  10   0.0781   0.0747   0.1876  -0.0213   0.0643  -0.0535   0.00    0.0
2018/11/10 00:01:00.000  -74.525921724  163.457836381    25.6751   6  10   0.0820   0.0786   0.2081  -0.0237   0.0716  -0.0610   0.00    0.0
2018/11/10 00:01:15.000  -74.525921696  163.457835956    25.6324   6  10   0.0881   0.0850   0.2329  -0.0311   0.0825  -0.0724   0.00    0.0
2018/11/10 00:01:30.000  -74.525921706  163.457836090    25.6329   6  10   0.0965   0.0936   0.2615  -0.0416   0.0963  -0.0873   0.00    0.0
2018/11/10 00:01:45.000  -74.525921775  163.457837068    25.6355   6  10   0.0995   0.0949   0.2860  -0.0341   0.0979  -0.0917   1.00    0.0
2018/11/10 00:02:00.000  -74.525921723  163.457837347    25.6437   6  10   0.1091   0.1014   0.3216  -0.0374   0.1066  -0.1103   1.00    0.0
2018/11/10 00:02:15.000  -74.525921850  163.457836736    25.6679   6  10   0.1109   0.1078   0.3292  -0.0449   0.1200  -0.1012   1.00    0.0
2018/11/10 00:02:30.000  -74.525921672  163.457836131    25.5958   6  10   0.1175   0.1144   0.3561  -0.0494   0.1300  -0.1107   2.00    0.0
2018/11/10 00:02:45.000  -74.525921789  163.457836097    25.6201   6  10   0.1063   0.1070   0.3285  -0.0451   0.1201  -0.0962   2.00    0.0
2018/11/10 00:03:00.000  -74.525921851  163.457836594    25.6432   6  10   0.1010   0.1002   0.3042  -0.0404   0.1103  -0.0898   2.00    0.0
2018/11/10 00:03:15.000  -74.525921940  163.457837118    25.7041   6  10   0.0973   0.0937   0.2815  -0.0357   0.1005  -0.0860   3.00    0.0
2018/11/10 00:03:30.000  -74.525922037  163.457837642    25.7302   6  10   0.0893   0.0875   0.2558  -0.0311   0.0910  -0.0740   2.00    0.0
2018/11/10 00:03:45.000  -74.525922129  163.457838217    25.7737   6  10   0.0859   0.0819   0.2346  -0.0262   0.0817  -0.0697   3.00    0.0
2018/11/10 00:04:00.000  -74.525922192  163.457838526    25.7612   6  10   0.0797   0.0769   0.2118  -0.0214   0.0730  -0.0589   4.00    0.0
2018/11/10 00:04:15.000  -74.525922096  163.457838510    25.7319   6  10   0.0769   0.0727   0.1944  -0.0163   0.0651  -0.0547   4.00    0.0
2018/11/10 00:04:30.000  -74.525922124  163.457838459    25.7859   6  10   0.0730   0.0695   0.1779  -0.0115   0.0586  -0.0464   4.00    0.0
2018/11/10 00:04:45.000  -74.525921989  163.457838096    25.7436   6  10   0.0715   0.0675   0.1682  -0.0066   0.0539  -0.0437   2.00    0.0
2018/11/10 00:05:00.000  -74.525921996  163.457837935    25.8090   6  10   0.0706   0.0670   0.1639  -0.0053   0.0523  -0.0419   2.00    0.0
2018/11/10 00:05:15.000  -74.525921961  163.457838133    25.8497   6  10   0.0716   0.0686   0.1716  -0.0115   0.0563  -0.0457   3.00    0.0
2018/11/10 00:05:30.000  -74.525922013  163.457838062    25.8605   6  10   0.0741   0.0717   0.1856  -0.0177   0.0630  -0.0527   3.00    0.0
2018/11/10 00:05:45.000  -74.525922123  163.457838138    25.8815   6  10   0.0780   0.0762   0.2036  -0.0249   0.0715  -0.0611   3.00    0.0
2018/11/10 00:06:00.000  -74.525922151  163.457838786    25.8896   6  10   0.0808   0.0784   0.2217  -0.0231   0.0750  -0.0652   2.00    0.0
2018/11/10 00:06:15.000  -74.525922081  163.457839055    25.9076   6  10   0.0825   0.0834   0.2409  -0.0276   0.0837  -0.0673   2.00    0.0
2018/11/10 00:06:30.000  -74.525922231  163.457839428    25.9279   6  10   0.0864   0.0888   0.2629  -0.0315   0.0921  -0.0732   2.00    0.0
2018/11/10 00:06:45.000  -74.525922241  163.457839625    25.9677   6  10   0.0907   0.0950   0.2856  -0.0352   0.1003  -0.0792   2.00    0.0
2018/11/10 00:07:00.000  -74.525922232  163.457839118    25.9224   6  10   0.0952   0.1028   0.3088  -0.0389   0.1072  -0.0853   2.00    0.0
2018/11/10 00:07:15.000  -74.525922248  163.457838593    25.8668   6  10   0.0998   0.1094   0.3317  -0.0426   0.1156  -0.0915   1.00    0.0
2018/11/10 00:07:30.000  -74.525922220  163.457838334    25.8539   6  10   0.1046   0.1158   0.3547  -0.0463   0.1240  -0.0977   1.00    0.0
2018/11/10 00:07:45.000  -74.525922141  163.457838304    25.8387   6  10   0.0996   0.1042   0.3320  -0.0431   0.1207  -0.0921   1.00    0.0
2018/11/10 00:08:00.000  -74.525922067  163.457837505    25.7181   6  10   0.0949   0.0985   0.3114  -0.0396   0.1128  -0.0869   1.00    0.0
2018/11/10 00:08:15.000  -74.525922015  163.457837226    25.7096   6  10   0.0904   0.0931   0.2913  -0.0361   0.1051  -0.0820   3.00    0.0
2018/11/10 00:08:30.000  -74.525921943  163.457837086    25.7029   6  10   0.0864   0.0882   0.2727  -0.0326   0.0977  -0.0778   3.00    0.0
2018/11/10 00:08:45.000  -74.525921902  163.457837495    25.7261   6  10   0.0831   0.0840   0.2572  -0.0291   0.0909  -0.0754   4.00    0.0
2018/11/10 00:09:00.000  -74.525921947  163.457837619    25.7311   6  10   0.0789   0.0805   0.2399  -0.0276   0.0874  -0.0687   4.00    0.0
2018/11/10 00:09:15.000  -74.525922014  163.457837451    25.7349   6  10   0.0767   0.0794   0.2368  -0.0275   0.0889  -0.0698   4.00    0.0
2018/11/10 00:09:30.000  -74.525922283  163.457838039    25.8507   6  10   0.0724   0.0713   0.1804  -0.0167   0.0592  -0.0459   4.00    0.0
2018/11/10 00:09:45.000  -74.525922239  163.457837895    25.8469   6  10   0.0709   0.0691   0.1716  -0.0144   0.0547  -0.0422   3.00    0.0
2018/11/10 00:10:00.000  -74.525922275  163.457838288    25.8718   6  10   0.0704   0.0684   0.1708  -0.0147   0.0529  -0.0404   3.00    0.0
2018/11/10 00:10:15.000  -74.525922361  163.457838102    25.8691   6  10   0.0714   0.0703   0.1830  -0.0181   0.0544  -0.0411   3.00    0.0
2018/11/10 00:10:30.000  -74.525922280  163.457837340    25.9430   6  10   0.0733   0.0736   0.2006  -0.0225   0.0574  -0.0422   0.00    0.0
2018/11/10 00:10:45.000  -74.525922288  163.457836584    25.9071   6  10   0.0758   0.0770   0.2175  -0.0269   0.0632  -0.0454   0.00    0.0
2018/11/10 00:11:00.000  -74.525922265  163.457836388    25.8949   6  10   0.0791   0.0815   0.2428  -0.0309   0.0702  -0.0458   0.00    0.0
2018/11/10 00:11:15.000  -74.525922247  163.457835610    25.8791   6  10   0.0824   0.0862   0.2584  -0.0354   0.0754  -0.0529   0.00    0.0
2018/11/10 00:11:30.000  -74.525922302  163.457835884    25.9108   6  10   0.0864   0.0914   0.2808  -0.0395   0.0830  -0.0571   0.00    0.0
2018/11/10 00:11:45.000  -74.525922263  163.457835538    25.9252   6  10   0.0909   0.0968   0.3046  -0.0437   0.0914  -0.0616   0.00    0.0
2018/11/10 00:12:00.000  -74.525922196  163.457835615    25.9321   6  10   0.0960   0.1027   0.3304  -0.0482   0.1007  -0.0662   1.00    0.0
2018/11/10 00:12:15.000  -74.525922011  163.457835395    25.9871   6  10   0.1027   0.1097   0.3624  -0.0542   0.1125  -0.0689   1.00    0.0
2018/11/10 00:12:30.000  -74.525921821  163.457834554    25.8960   6  10   0.1095   0.1170   0.3929  -0.0609   0.1238  -0.0749   0.00    0.0
2018/11/10 00:12:45.000  -74.525921894  163.457835642    25.8824   6  10   0.0974   0.1079   0.3397  -0.0469   0.1134  -0.0881   0.00    0.0
2018/11/10 00:13:00.000  -74.525921791  163.457835372    25.9646   6  10   0.0936   0.1071   0.3232  -0.0455   0.0953  -0.0814   0.00    0.0
2018/11/10 00:13:15.000  -74.525921902  163.457836646    25.8965   6  11   0.0874   0.1017   0.2818  -0.0408   0.0932  -0.0817   0.00    0.0
2018/11/10 00:13:30.000  -74.525922291  163.457837971    25.9799   6  11   0.0825   0.0871   0.2624  -0.0288   0.0913  -0.0788   1.00    0.0
2018/11/10 00:13:45.000  -74.525922271  163.457837308    25.9676   6  11   0.0792   0.0825   0.2437  -0.0260   0.0832  -0.0714   1.00    0.0
2018/11/10 00:14:00.000  -74.525922368  163.457836378    25.9959   6  11   0.0754   0.0769   0.2258  -0.0190   0.0777  -0.0656   2.00    0.0
2018/11/10 00:14:15.000  -74.525922296  163.457836452    25.9669   6  11   0.0725   0.0731   0.2081  -0.0160   0.0729  -0.0579   1.00    0.0
2018/11/10 00:14:30.000  -74.525922424  163.457837359    26.0052   6  11   0.0707   0.0706   0.1974  -0.0124   0.0676  -0.0536   3.00    0.0
2018/11/10 00:14:45.000  -74.525922305  163.457837044    25.9067   6  11   0.0692   0.0685   0.1913  -0.0062   0.0644  -0.0515   3.00    0.0
2018/11/10 00:15:00.000  -74.525922161  163.457837115    25.8616   6  11   0.0688   0.0679   0.1913  -0.0037   0.0634  -0.0516   3.00    0.0
2018/11/10 00:15:15.000  -74.525921917  163.457836077    25.8019   6  11   0.0694   0.0687   0.1996  -0.0064   0.0655  -0.0546   3.00    0.0
2018/11/10 00:15:30.000  -74.525921833  163.457836084    25.7543   6  11   0.0708   0.0709   0.2129  -0.0112   0.0689  -0.0594   3.00    0.0
2018/11/10 00:15:45.000  -74.525921939  163.457836765    25.7855   6  11   0.0728   0.0738   0.2271  -0.0157   0.0737  -0.0641   3.00    0.0
2018/11/10 00:16:00.000  -74.525921940  163.457836834    25.7007   6  11   0.0744   0.0760   0.2443  -0.0143   0.0791  -0.0701   3.00    0.0
2018/11/10 00:16:15.000  -74.525921767  163.457836547    25.5903   6  11   0.0773   0.0800   0.2608  -0.0198   0.0870  -0.0762   3.00    0.0
2018/11/10 00:16:30.000  -74.525921781  163.457836935    25.5842   6  11   0.0805   0.0848   0.2789  -0.0243   0.0943  -0.0827   3.00    0.0
2018/11/10 00:16:45.000  -74.525921733  163.457836934    25.5675   6  11   0.0843   0.0906   0.2992  -0.0280   0.1009  -0.0904   3.00    0.0
2018/11/10 00:17:00.000  -74.525921690  163.457835706    25.5828   6  11   0.0886   0.0979   0.3208  -0.0319   0.1073  -0.0989   4.00    0.0
2018/11/10 00:17:15.000  -74.525921806  163.457835929    25.6325   6  11   0.0919   0.0995   0.3352  -0.0377   0.1223  -0.1031   2.00    0.0
2018/11/10 00:17:30.000  -74.525921940  163.457835797    25.6425   6  11   0.0959   0.1043   0.3556  -0.0421   0.1315  -0.1100   4.00    0.0
2018/11/10 00:17:45.000  -74.525921921  163.457835846    25.6044   6  11   0.0914   0.0989   0.3361  -0.0381   0.1231  -0.1024   4.00    0.0
2018/11/10 00:18:00.000  -74.525921888  163.457835990    25.5414   6  11   0.0872   0.0935   0.3171  -0.0341   0.1149  -0.0954   4.00    0.0
2018/11/10 00:18:15.000  -74.525921845  163.457835805    25.5564   6  11   0.0834   0.0884   0.2992  -0.0300   0.1070  -0.0888   5.00    0.0
2018/11/10 00:18:30.000  -74.525921937  163.457836086    25.6167   6  11   0.0798   0.0837   0.2826  -0.0258   0.0996  -0.0827   5.00    0.0
2018/11/10 00:18:45.000  -74.525922020  163.457836651    25.6621   6  11   0.0767   0.0795   0.2675  -0.0216   0.0927  -0.0771   6.00    0.0
2018/11/10 00:19:00.000  -74.525922049  163.457836294    25.7073   6  11   0.0739   0.0758   0.2543  -0.0173   0.0866  -0.0722   6.00    0.0
2018/11/10 00:19:15.000  -74.525922052  163.457836373    25.7227   6  11   0.0717   0.0727   0.2434  -0.0127   0.0814  -0.0680   6.00    0.0
2018/11/10 00:19:30.000  -74.525922008  163.457836271    25.7156   6  11   0.0699   0.0703   0.2352  -0.0077   0.0774  -0.0647   6.00    0.0
2018/11/10 00:19:45.000  -74.525922002  163.457836226    25.6957   6  11   0.0688   0.0688   0.2303   0.0028   0.0749  -0.0626   6.00    0.0
2018/11/10 00:20:00.000  -74.525921998  163.457836033    25.6833   6  11   0.0683   0.0683   0.2308   0.0048   0.0748  -0.0627   6.00    0.0
2018/11/10 00:20:15.000  -74.525921907  163.457835792    25.6158   6  11   0.0694   0.0697   0.2434  -0.0089   0.0799  -0.0683   6.00    0.0
2018/11/10 00:20:30.000  -74.525921722  163.457834985    25.5233   6  11   0.0711   0.0720   0.2576  -0.0147   0.0858  -0.0743   6.00    0.0
2018/11/10 00:20:45.000  -74.525921733  163.457834718    25.4840   6  11   0.0733   0.0750   0.2715  -0.0191   0.0916  -0.0800   6.00    0.0
2018/11/10 00:21:00.000  -74.525921734  163.457834484    25.4820   6  11   0.0759   0.0784   0.2861  -0.0232   0.0977  -0.0859   6.00    0.0
2018/11/10 00:21:15.000  -74.525921681  163.457833849    25.4441   6  11   0.0790   0.0824   0.3020  -0.0273   0.1045  -0.0922   6.00    0.0
2018/11/10 00:21:30.000  -74.525921634  163.457833644    25.4384   6  11   0.0825   0.0868   0.3190  -0.0313   0.1118  -0.0989   5.00    0.0
2018/11/10 00:21:45.000  -74.525921575  163.457832745    25.3928   6  11   0.0863   0.0917   0.3373  -0.0355   0.1197  -0.1060   5.00    0.0
2018/11/10 00:22:00.000  -74.525921479  163.457832494    25.3756   6  11   0.0905   0.0970   0.3565  -0.0396   0.1280  -0.1133   5.00    0.0
2018/11/10 00:22:15.000  -74.525921540  163.457833228    25.4035   6  11   0.0950   0.1028   0.3766  -0.0439   0.1368  -0.1208   5.00    0.0
2018/11/10 00:22:30.000  -74.525921360  163.457832189    25.3141   6  11   0.1001   0.1095   0.3976  -0.0488   0.1459  -0.1281   5.00    0.0
2018/11/10 00:22:45.000  -74.525921502  163.457831759    25.3457   6  11   0.0968   0.1071   0.3806  -0.0451   0.1403  -0.1219   5.00    0.0
2018/11/10 00:23:00.000  -74.525921513  163.457832105    25.3810   6  11   0.0917   0.0982   0.3622  -0.0423   0.1299  -0.1164   5.00    0.0
2018/11/10 00:23:15.000  -74.525921632  163.457832096    25.4599   6  11   0.0880   0.0937   0.3449  -0.0398   0.1197  -0.1096   5.00    0.0
2018/11/10 00:23:30.000  -74.525921748  163.457832856    25.5203   6  11   0.0851   0.0880   0.3308  -0.0360   0.1149  -0.1056   4.00    0.0
2018/11/10 00:23:45.000  -74.525921670  163.457832795    25.4386   6  11   0.0877   0.0842   0.3467  -0.0387   0.1194  -0.1214   3.00    0.0
2018/11/10 00:24:00.000  -74.525921603  163.457833675    25.4265   6  11   0.0830   0.0799   0.3265  -0.0328   0.1101  -0.1104   3.00    0.0
2018/11/10 00:24:15.000  -74.525921685  163.457834837    25.4603   6  11   0.0783   0.0766   0.3093  -0.0281   0.1032  -0.1019   2.00    0.0
2018/11/10 00:24:30.000  -74.525921785  163.457834707    25.4546   6  11   0.0730   0.0730   0.2849  -0.0212   0.0951  -0.0868   2.00    0.0
2018/11/10 00:24:45.000  -74.525921869  163.457835348    25.5177   6  11   0.0699   0.0708   0.2686  -0.0158   0.0888  -0.0767   2.00    0.0
2018/11/10 00:25:00.000  -74.525921984  163.457835754    25.6172   6  11   0.0680   0.0699   0.2565  -0.0111   0.0842  -0.0687   2.00    0.0
2018/11/10 00:25:15.000  -74.525922125  163.457836219    25.7236   6  11   0.0684   0.0711   0.2572  -0.0126   0.0842  -0.0682   2.00    0.0
2018/11/10 00:25:30.000  -74.525922144  163.457836045    25.7307   6  11   0.0700   0.0738   0.2644  -0.0170   0.0875  -0.0714   2.00    0.0
2018/11/10 00:25:45.000  -74.525922092  163.457835424    25.7112   6  11   0.0723   0.0766   0.2756  -0.0211   0.0923  -0.0768   2.00    0.0
2018/11/10 00:26:00.000  -74.525922019  163.457834939    25.7110   6  11   0.0821   0.0826   0.3240  -0.0355   0.1105  -0.1082   2.00    0.0
2018/11/10 00:26:15.000  -74.525921975  163.457834904    25.7250   6  11   0.0830   0.0875   0.3284  -0.0373   0.1143  -0.1065   2.00    0.0
2018/11/10 00:26:30.000  -74.525922032  163.457834812    25.7476   6  11   0.0865   0.0917   0.3433  -0.0403   0.1212  -0.1120   2.00    0.0
2018/11/10 00:26:45.000  -74.525921557  163.457833293    25.5354   6  11   0.0975   0.0998   0.4032  -0.0540   0.1451  -0.1440   2.00    0.0
2018/11/10 00:27:00.000  -74.525921614  163.457832657    25.5552   6  11   0.0966   0.1047   0.4003  -0.0528   0.1447  -0.1354   1.00    0.0
2018/11/10 00:27:15.000  -74.525921705  163.457833905    25.6047   6  11   0.0991   0.1091   0.4156  -0.0543   0.1552  -0.1375   2.00    0.0
2018/11/10 00:27:30.000  -74.525921626  163.457834094    25.4287   6  11   0.1026   0.1158   0.4351  -0.0579   0.1671  -0.1466   0.00    0.0
2018/11/10 00:27:45.000  -74.525921574  163.457833917    25.4045   6  11   0.1049   0.1137   0.4652  -0.0638   0.1799  -0.1643   0.00    0.0
2018/11/10 00:28:00.000  -74.525921552  163.457834243    25.3859   6  11   0.0989   0.1056   0.4345  -0.0587   0.1664  -0.1507   0.00    0.0
2018/11/10 00:28:15.000  -74.525921643  163.457835225    25.4671   6  11   0.0972   0.0995   0.4190  -0.0565   0.1596  -0.1463   1.00    0.0
2018/11/10 00:28:30.000  -74.525921329  163.457834436    25.2932   6  11   0.1054   0.0979   0.4502  -0.0646   0.1690  -0.1744   1.00    0.0
2018/11/10 00:28:45.000  -74.525921195  163.457834555    25.2452   6  11   0.1000   0.0936   0.4311  -0.0607   0.1611  -0.1653   1.00    0.0
2018/11/10 00:29:00.000  -74.525921286  163.457834516    25.2614   6  11   0.0955   0.0896   0.4146  -0.0570   0.1546  -0.1575   1.00    0.0
2018/11/10 00:29:15.000  -74.525921229  163.457834307    25.2107   6  11   0.0886   0.0859   0.3929  -0.0524   0.1485  -0.1445   1.00    0.0
2018/11/10 00:29:30.000  -74.525921253  163.457833793    25.1848   6  11   0.0866   0.0833   0.3843  -0.0500   0.1447  -0.1409   2.00    0.0
2018/11/10 00:29:45.000  -74.525921171  163.457833691    25.2026   6  11   0.0853   0.0815   0.3800  -0.0486   0.1426  -0.1389   2.00    0.0
2018/11/10 00:30:00.000  -74.525921136  163.457833741    25.1550   6  11   0.0848   0.0808   0.3790  -0.0480   0.1417  -0.1382   3.00    0.0
2018/11/10 00:30:15.000  -74.525921149  163.457834070    25.0985   6  11   0.0852   0.0813   0.3823  -0.0481   0.1425  -0.1390   3.00    0.0
2018/11/10 00:30:30.000  -74.525921118  163.457833821    25.0514   6  11   0.0860   0.0825   0.3860  -0.0488   0.1443  -0.1398   3.00    0.0
2018/11/10 00:30:45.000  -74.525921132  163.457833636    25.0568   6  11   0.0872   0.0842   0.3920  -0.0494   0.1458  -0.1413   3.00    0.0
2018/11/10 00:31:00.000  -74.525921185  163.457833270    25.0769   6  11   0.0890   0.0866   0.3991  -0.0501   0.1478  -0.1427   3.00    0.0
2018/11/10 00:31:15.000  -74.525921291  163.457832695    25.1034   6  11   0.0911   0.0899   0.4064  -0.0505   0.1504  -0.1448   3.00    0.0
2018/11/10 00:31:30.000  -74.525921447  163.457832375    25.1865   6  11   0.0933   0.0942   0.4166  -0.0519   0.1553  -0.1469   3.00    0.0
2018/11/10 00:31:45.000  -74.525921514  163.457832031    25.2637   6  11   0.0961   0.0974   0.4264  -0.0536   0.1580  -0.1494   3.00    0.0
2018/11/10 00:32:00.000  -74.525921496  163.457831665    25.3029   6  11   0.0996   0.1018   0.4388  -0.0554   0.1616  -0.1511   3.00    0.0
2018/11/10 00:32:15.000  -74.525921566  163.457832005    25.3362   6  11   0.1026   0.1071   0.4516  -0.0552   0.1674  -0.1546   3.00    0.0
2018/11/10 00:32:30.000  -74.525921349  163.457832711    25.3812   6  11   0.1061   0.1107   0.4669  -0.0577   0.1740  -0.1584   3.00    0.0
2018/11/10 00:32:45.000  -74.525921284  163.457832890    25.3232   6  11   0.1020   0.1053   0.4506  -0.0564   0.1674  -0.1559   4.00    0.0
2018/11/10 00:33:00.000  -74.525921169  163.457832956    25.3007   6  11   0.0988   0.1018   0.4399  -0.0558   0.1641  -0.1536   4.00    0.0
2018/11/10 00:33:15.000  -74.525921153  163.457833394    25.3126   6  11   0.0966   0.1015   0.4383  -0.0568   0.1671  -0.1531   4.00    0.0
2018/11/10 00:33:30.000  -74.525921233  163.457834873    25.4301   6  11   0.0921   0.0915   0.4081  -0.0487   0.1486  -0.1418   4.00    0.0
2018/11/10 00:33:45.000  -74.525921151  163.457834626    25.3294   6  11   0.0885   0.0855   0.3876  -0.0442   0.1378  -0.1361   5.00    0.0
2018/11/10 00:34:00.000  -74.525921097  163.457834500    25.2760   6  11   0.0859   0.0814   0.3748  -0.0413   0.1311  -0.1319   5.00    0.0
2018/11/10 00:34:15.000  -74.525921104  163.457834518    25.2589   6  11   0.0839   0.0782   0.3645  -0.0389   0.1258  -0.1284   5.00    0.0
2018/11/10 00:34:30.000  -74.525921019  163.457833967    25.1691   6  11   0.0824   0.0757   0.3559  -0.0369   0.1212  -0.1253   5.00    0.0
2018/11/10 00:34:45.000  -74.525921075  163.457834340    25.1525   6  11   0.0820   0.0751   0.3525  -0.0371   0.1216  -0.1259   4.00    0.0
2018/11/10 00:35:00.000  -74.525921048  163.457833913    25.1067   6  11   0.0817   0.0746   0.3540  -0.0369   0.1214  -0.1262   4.00    0.0
2018/11/10 00:35:15.000  -74.525921003  163.457833790    25.0696   6  11   0.0823   0.0757   0.3639  -0.0377   0.1242  -0.1286   4.00    0.0
2018/11/10 00:35:30.000  -74.525920932  163.457833834    25.0554   6  11   0.0831   0.0769   0.3740  -0.0382   0.1264  -0.1309   4.00    0.0
2018/11/10 00:35:45.000  -74.525921070  163.457834208    25.1138   6  11   0.0845   0.0791   0.3844  -0.0394   0.1292  -0.1336   4.00    0.0
2018/11/10 00:36:00.000  -74.525921002  163.457833983    25.1057   6  11   0.0863   0.0820   0.3952  -0.0409   0.1323  -0.1363   5.00    0.0
2018/11/10 00:36:15.000  -74.525920980  163.457833937    25.1470   6  11   0.0885   0.0860   0.4070  -0.0430   0.1356  -0.1392   5.00    0.0
2018/11/10 00:36:30.000  -74.525921081  163.457835078    25.2184   6  11   0.0910   0.0903   0.4218  -0.0451   0.1428  -0.1437   4.00    0.0
2018/11/10 00:36:45.000  -74.525921248  163.457836219    25.3941   6  11   0.0958   0.0979   0.4541  -0.0526   0.1583  -0.1546   4.00    0.0
2018/11/10 00:37:00.000  -74.525921081  163.457835509    25.2436   6  11   0.0984   0.1002   0.4748  -0.0527   0.1601  -0.1563   0.00    0.0
2018/11/10 00:37:15.000  -74.525921041  163.457835748    25.1907   6  11   0.1026   0.1050   0.4817  -0.0559   0.1652  -0.1593   0.00    0.0
2018/11/10 00:37:30.000  -74.525921106  163.457835986    25.2390   6  11   0.1108   0.1173   0.5083  -0.0677   0.1909  -0.1759   0.00    0.0
2018/11/10 00:37:45.000  -74.525920977  163.457835589    25.1656   6  11   0.1115   0.1112   0.4972  -0.0670   0.1843  -0.1801   0.00    0.0
2018/11/10 00:38:00.000  -74.525921820  163.457838505    25.6806   6  10   0.1156   0.1037   0.5278  -0.0665   0.1832  -0.1994   0.00    0.0
2018/11/10 00:38:15.000  -74.525921829  163.457837922    25.6440   6  10   0.1045   0.0958   0.4840  -0.0553   0.1646  -0.1749   1.00    0.0
2018/11/10 00:38:30.000  -74.525921978  163.457837934    25.7114   6  10   0.0950   0.0898   0.4485  -0.0460   0.1502  -0.1540   3.00    0.0
2018/11/10 00:38:45.000  -74.525922154  163.457837996    25.8002   6  10   0.0865   0.0847   0.4207  -0.0371   0.1377  -0.1358   5.00    0.0
2018/11/10 00:39:00.000  -74.525922207  163.457837922    25.8052   6  10   0.0785   0.0803   0.3899  -0.0277   0.1264  -0.1160   5.00    0.0
2018/11/10 00:39:15.000  -74.525922397  163.457838401    25.9222   6  10   0.0709   0.0769   0.3516  -0.0169   0.1163  -0.0930   5.00    0.0
2018/11/10 00:39:30.000  -74.525922604  163.457838893    26.0579   6  10   0.0651   0.0752   0.3301   0.0053   0.1108  -0.0746   4.00    0.0
2018/11/10 00:39:45.000  -74.525922826  163.457839389    26.1264   6  10   0.0594   0.0725   0.3114   0.0197   0.1039  -0.0547   2.00    0.0
2018/11/10 00:40:00.000  -74.525922837  163.457839077    26.1024   6  10   0.0575   0.0718   0.3052   0.0226   0.1017  -0.0457   1.00    0.0
2018/11/10 00:40:15.000  -74.525922841  163.457839310    26.1396   6  10   0.0596   0.0733   0.3094   0.0214   0.1049  -0.0513   1.00    0.0
2018/11/10 00:40:30.000  -74.525922677  163.457838962    26.0418   6  10   0.0647   0.0756   0.3247   0.0166   0.1104  -0.0676   2.00    0.0
2018/11/10 00:40:45.000  -74.525922274  163.457837428    25.8322   6  10   0.0707   0.0788   0.3454  -0.0053   0.1177  -0.0858   1.00    0.0
2018/11/10 00:41:00.000  -74.525922110  163.457837122    25.7592   6  10   0.0783   0.0827   0.3692  -0.0207   0.1256  -0.1052   1.00    0.0
2018/11/10 00:41:15.000  -74.525921926  163.457836661    25.6058   6  10   0.0848   0.0868   0.3810  -0.0308   0.1372  -0.1148   2.00    0.0
2018/11/10 00:41:30.000  -74.525921769  163.457836224    25.5714   6  10   0.0928   0.0925   0.4140  -0.0379   0.1478  -0.1327   2.00    0.0
2018/11/10 00:41:45.000  -74.525921648  163.457835779    25.5851   6  10   0.1017   0.0980   0.4504  -0.0466   0.1572  -0.1534   2.00    0.0
2018/11/10 00:42:00.000  -74.525921306  163.457836145    25.6367   6  10   0.1132   0.1044   0.4975  -0.0566   0.1688  -0.1776   2.00    0.0
2018/11/10 00:42:15.000  -74.525921475  163.457838662    25.7839   6   9   0.1248   0.0982   0.5347  -0.0573   0.1585  -0.1884   1.00    0.0
2018/11/10 00:42:30.000  -74.525921407  163.457838398    25.7384   6   9   0.1353   0.1038   0.5756  -0.0585   0.1687  -0.2005   1.00    0.0
2018/11/10 00:42:45.000  -74.525921522  163.457838028    25.7238   6   9   0.1375   0.1032   0.5548  -0.0265   0.1700  -0.1587   1.00    0.0
2018/11/10 00:43:00.000  -74.525921924  163.457837301    25.6713   6   9   0.1207   0.0925   0.5016  -0.0351   0.1455  -0.1608   1.00    0.0
2018/11/10 00:43:15.000  -74.525921873  163.457837314    25.6845   6   9   0.1113   0.0893   0.4642  -0.0211   0.1361  -0.1435   1.00    0.0
2018/11/10 00:43:30.000  -74.525922109  163.457839407    25.8772   6   9   0.1020   0.0835   0.4282  -0.0037   0.1273  -0.1243   2.00    0.0
2018/11/10 00:43:45.000  -74.525922138  163.457839750    26.0779   6   9   0.0952   0.0771   0.4006   0.0175   0.1239  -0.0943   2.00    0.0
2018/11/10 00:44:00.000  -74.525922537  163.457839351    26.0133   6   9   0.0747   0.0592   0.3405  -0.0375   0.0828  -0.1172   2.00    0.0
2018/11/10 00:44:15.000  -74.525922637  163.457840096    26.1228   6   9   0.0688   0.0554   0.3417  -0.0337   0.0773  -0.1133   2.00    0.0
2018/11/10 00:44:30.000  -74.525922532  163.457840181    25.9050   6   9   0.0564   0.0505   0.2141  -0.0294   0.0540  -0.0677   0.00    0.0
2018/11/10 00:44:45.000  -74.525922570  163.457840027    25.8853   6   9   0.0519   0.0456   0.1888  -0.0287   0.0464  -0.0533   0.00    0.0
2018/11/10 00:45:00.000  -74.525922575  163.457839857    25.8578   6  10   0.0498   0.0448   0.1775  -0.0281   0.0434  -0.0450   0.00    0.0
2018/11/10 00:45:15.000  -74.525922440  163.457839943    25.8037   6  10   0.0541   0.0466   0.2024  -0.0303   0.0486  -0.0573   0.00    0.0
2018/11/10 00:45:30.000  -74.525922479  163.457839612    25.8471   6  10   0.0611   0.0505   0.2405  -0.0340   0.0582  -0.0748   1.00    0.0
2018/11/10 00:45:45.000  -74.525922436  163.457839640    25.8594   6  10   0.0695   0.0537   0.2823  -0.0371   0.0668  -0.0916   1.00    0.0
2018/11/10 00:46:00.000  -74.525922330  163.457839159    25.7897   6  10   0.0783   0.0590   0.3261  -0.0413   0.0782  -0.1096   1.00    0.0
2018/11/10 00:46:15.000  -74.525921870  163.457838337    25.6987   6  10   0.0879   0.0647   0.3713  -0.0452   0.0896  -0.1269   1.00    0.0
2018/11/10 00:46:30.000  -74.525921662  163.457838450    25.6214   6  10   0.0994   0.0713   0.4186  -0.0504   0.1014  -0.1461   3.00    0.0
2018/11/10 00:46:45.000  -74.525921140  163.457837530    25.4577   6  10   0.1129   0.0783   0.4730  -0.0555   0.1139  -0.1696   3.00    0.0
2018/11/10 00:47:00.000  -74.525921417  163.457837309    25.5062   6  10   0.1395   0.0890   0.5694  -0.0707   0.1428  -0.2207   2.00    0.0
2018/11/10 00:47:15.000  -74.525921004  163.457835928    25.2403   6  10   0.1501   0.0993   0.6249  -0.0845   0.1605  -0.2449   2.00    0.0
2018/11/10 00:47:30.000  -74.525923175  163.457840585    25.9584   6  10   0.1713   0.1046   0.7768  -0.0954   0.1920  -0.3069   1.00    0.0
2018/11/10 00:47:45.000  -74.525922323  163.457839072    25.6853   6  10   0.1369   0.0964   0.6404  -0.0796   0.1485  -0.2259   0.00    0.0
2018/11/10 00:48:00.000  -74.525922019  163.457838440    25.3649   6  10   0.1282   0.0928   0.5062  -0.0756   0.1470  -0.2183   0.00    0.0
2018/11/10 00:48:15.000  -74.525922601  163.457839996    25.7030   6  10   0.0878   0.0790   0.3084  -0.0537   0.1003  -0.1112   0.00    0.0
2018/11/10 00:48:30.000  -74.525922500  163.457839359    25.6888   6  10   0.0819   0.0762   0.2816  -0.0532   0.0954  -0.1037   0.00    0.0
2018/11/10 00:48:45.000  -74.525922620  163.457839823    25.7316   6  10   0.0705   0.0682   0.2523  -0.0451   0.0828  -0.0891   1.00    0.0
2018/11/10 00:49:00.000  -74.525922495  163.457839728    25.7368   6  10   0.0668   0.0618   0.2286  -0.0422   0.0738  -0.0823   1.00    0.0
2018/11/10 00:49:15.000  -74.525922649  163.457840179    25.8086   6  10   0.0565   0.0524   0.2022  -0.0327   0.0578  -0.0664   1.00    0.0
2018/11/10 00:49:30.000  -74.525922662  163.457839668    25.8155   6  10   0.0515   0.0492   0.1850  -0.0308   0.0525  -0.0619   2.00    0.0
2018/11/10 00:49:45.000  -74.525922549  163.457839680    25.7669   6  10   0.0501   0.0459   0.1733  -0.0294   0.0468  -0.0590   2.00    0.0
2018/11/10 00:50:00.000  -74.525922479  163.457839704    25.7477   6  10   0.0480   0.0441   0.1678  -0.0277   0.0432  -0.0565   2.00    0.0
2018/11/10 00:50:15.000  -74.525922371  163.457839636    25.7340   6  10   0.0492   0.0451   0.1796  -0.0277   0.0465  -0.0623   2.00    0.0
2018/11/10 00:50:30.000  -74.525922324  163.457839499    25.7072   6  10   0.0535   0.0489   0.1975  -0.0302   0.0542  -0.0696   2.00    0.0
2018/11/10 00:50:45.000  -74.525922250  163.457839410    25.6669   6  10   0.0568   0.0538   0.2166  -0.0331   0.0632  -0.0795   2.00    0.0
2018/11/10 00:51:00.000  -74.525922135  163.457838782    25.6069   6  10   0.0617   0.0595   0.2390  -0.0363   0.0726  -0.0873   2.00    0.0
2018/11/10 00:51:15.000  -74.525922061  163.457838867    25.5461   6  10   0.0672   0.0657   0.2625  -0.0400   0.0823  -0.0954   2.00    0.0
2018/11/10 00:51:30.000  -74.525921799  163.457838168    25.4644   6  10   0.0718   0.0680   0.2841  -0.0400   0.0869  -0.1013   2.00    0.0
2018/11/10 00:51:45.000  -74.525921689  163.457837562    25.4157   6  10   0.0774   0.0736   0.3084  -0.0428   0.0959  -0.1093   2.00    0.0
2018/11/10 00:52:00.000  -74.525921436  163.457836780    25.3130   6  10   0.0835   0.0803   0.3332  -0.0466   0.1056  -0.1177   2.00    0.0
2018/11/10 00:52:15.000  -74.525921175  163.457835644    25.2257   6  10   0.0905   0.0896   0.3595  -0.0528   0.1182  -0.1275   3.00    0.0
2018/11/10 00:52:30.000  -74.525921140  163.457836043    25.1539   6  10   0.0982   0.0996   0.3852  -0.0596   0.1301  -0.1368   3.00    0.0
2018/11/10 00:52:45.000  -74.525921354  163.457837370    25.2820   6  10   0.0918   0.0862   0.3594  -0.0468   0.1137  -0.1210   2.00    0.0
2018/11/10 00:53:00.000  -74.525921452  163.457836852    25.2584   6  10   0.0832   0.0787   0.3303  -0.0470   0.1007  -0.1184   2.00    0.0
2018/11/10 00:53:15.000  -74.525921372  163.457836366    25.2747   6  10   0.0781   0.0760   0.3081  -0.0466   0.0958  -0.1126   3.00    0.0
2018/11/10 00:53:30.000  -74.525921598  163.457837164    25.3239   6  10   0.0725   0.0704   0.2844  -0.0436   0.0866  -0.1048   3.00    0.0
2018/11/10 00:53:45.000  -74.525921721  163.457837424    25.3376   6  10   0.0669   0.0639   0.2613  -0.0395   0.0765  -0.0967   3.00    0.0
2018/11/10 00:54:00.000  -74.525921938  163.457838218    25.3790   6  10   0.0609   0.0551   0.2381  -0.0333   0.0630  -0.0877   3.00    0.0
2018/11/10 00:54:15.000  -74.525921913  163.457837490    25.3737   6  10   0.0570   0.0520   0.2206  -0.0320   0.0572  -0.0825   3.00    0.0
2018/11/10 00:54:30.000  -74.525921929  163.457837987    25.4216   6  10   0.0533   0.0475   0.2049  -0.0293   0.0490  -0.0770   3.00    0.0
2018/11/10 00:54:45.000  -74.525922072  163.457838648    25.5087   6  10   0.0508   0.0443   0.1941  -0.0273   0.0427  -0.0731   3.00    0.0
2018/11/10 00:55:00.000  -74.525922219  163.457839234    25.5770   6  10   0.0499   0.0423   0.1902  -0.0260   0.0386  -0.0717   3.00    0.0
2018/11/10 00:55:15.000  -74.525922102  163.457839099    25.5657   6  10   0.0523   0.0436   0.1989  -0.0269   0.0409  -0.0760   4.00    0.0
2018/11/10 00:55:30.000  -74.525921862  163.457838288    25.5095   6  10   0.0559   0.0467   0.2124  -0.0294   0.0468  -0.0821   3.00    0.0
2018/11/10 00:55:45.000  -74.525921591  163.457837698    25.4880   6  10   0.0620   0.0520   0.2280  -0.0341   0.0560  -0.0899   4.00    0.0
2018/11/10 00:56:00.000  -74.525921739  163.457838111    25.5558   6  10   0.0659   0.0576   0.2437  -0.0374   0.0642  -0.0954   4.00    0.0
2018/11/10 00:56:15.000  -74.525921594  163.457838263    25.5346   6  10   0.0713   0.0633   0.2606  -0.0410   0.0720  -0.1019   4.00    0.0
2018/11/10 00:56:30.000  -74.525921313  163.457837882    25.4841   6  10   0.0775   0.0672   0.2785  -0.0439   0.0779  -0.1090   4.00    0.0
2018/11/10 00:56:45.000  -74.525920996  163.457836812    25.3523   6  10   0.0869   0.0752   0.3012  -0.0510   0.0896  -0.1207   4.00    0.0
2018/11/10 00:57:00.000  -74.525921360  163.457838234    25.3979   6  10   0.0940   0.0808   0.3228  -0.0560   0.0980  -0.1301   4.00    0.0
2018/11/10 00:57:15.000  -74.525920956  163.457837267    25.3097   6  10   0.1033   0.0887   0.3466  -0.0625   0.1089  -0.1418   4.00    0.0
2018/11/10 00:57:30.000  -74.525921302  163.457838520    25.3759   6  10   0.1118   0.0928   0.3694  -0.0660   0.1147  -0.1523   4.00    0.0
2018/11/10 00:57:45.000  -74.525920978  163.457837013    25.2843   6  10   0.1061   0.0893   0.3494  -0.0646   0.1105  -0.1459   4.00    0.0
2018/11/10 00:58:00.000  -74.525921612  163.457838388    25.4069   6  10   0.0865   0.0750   0.3162  -0.0464   0.0868  -0.1213   4.00    0.0
2018/11/10 00:58:15.000  -74.525921447  163.457837812    25.3419   6  10   0.0794   0.0692   0.2952  -0.0417   0.0782  -0.1128   4.00    0.0
2018/11/10 00:58:30.000  -74.525921503  163.457838106    25.3765   6  10   0.0746   0.0664   0.2778  -0.0407   0.0740  -0.1076   4.00    0.0
2018/11/10 00:58:45.000  -74.525921657  163.457838784    25.3715   6  10   0.0684   0.0570   0.2581  -0.0335   0.0604  -0.0994   4.00    0.0
2018/11/10 00:59:00.000  -74.525921677  163.457838513    25.3390   6  10   0.0640   0.0527   0.2430  -0.0312   0.0540  -0.0947   4.00    0.0
2018/11/10 00:59:15.000  -74.525921759  163.457838756    25.3537   6  10   0.0607   0.0501   0.2305  -0.0305   0.0500  -0.0913   4.00    0.0
2018/11/10 00:59:30.000  -74.525921927  163.457838878    25.3666   6  10   0.0572   0.0444   0.2182  -0.0267   0.0408  -0.0867   4.00    0.0
2018/11/10 00:59:45.000  -74.525921958  163.457838856    25.4196   6  10   0.0551   0.0423   0.2094  -0.0257   0.0371  -0.0837   4.00    0.0
2018/11/10 01:00:00.000  -74.525922073  163.457838810    25.5093   6  10   0.0542   0.0415   0.2043  -0.0254   0.0355  -0.0816   4.00    0.0
2018/11/10 01:00:15.000  -74.525922056  163.457838832    25.5791   6  10   0.0555   0.0427   0.2077  -0.0260   0.0366  -0.0823   4.00    0.0
2018/11/10 01:00:30.000  -74.525922021  163.457838420    25.5700   6  10   0.0583   0.0459   0.2174  -0.0279   0.0406  -0.0844   4.00    0.0
2018/11/10 01:00:45.000  -74.525922009  163.457838132    25.6662   6  10   0.0626   0.0504   0.2348  -0.0310   0.0460  -0.0869   4.00    0.0
2018/11/10 01:01:00.000  -74.525921825  163.457838494    25.5389   6  10   0.0678   0.0558   0.2730  -0.0339   0.0471  -0.0963   0.00    0.0
2018/11/10 01:01:15.000  -74.525921782  163.457838915    25.6293   6  10   0.0734   0.0597   0.2920  -0.0371   0.0564  -0.0991   0.00    0.0
2018/11/10 01:01:30.000  -74.525921468  163.457838187    25.4234   6  10   0.0816   0.0668   0.2942  -0.0427   0.0666  -0.1148   0.00    0.0
2018/11/10 01:01:45.000  -74.525921779  163.457838677    25.5441   6  10   0.0964   0.0775   0.3126  -0.0565   0.0871  -0.1323   0.00    0.0
2018/11/10 01:02:00.000  -74.525921698  163.457838747    25.5357   6  10   0.0991   0.0780   0.3258  -0.0523   0.0862  -0.1350   0.00    0.0
2018/11/10 01:02:15.000  -74.525921625  163.457838622    25.5165   6  10   0.1044   0.0832   0.3444  -0.0537   0.0920  -0.1416   1.00    0.0
2018/11/10 01:02:30.000  -74.525921301  163.457837501    25.4609   6  10   0.1115   0.0876   0.3653  -0.0573   0.0975  -0.1509   3.00    0.0
2018/11/10 01:02:45.000  -74.525921738  163.457837968    25.5926   6  10   0.0988   0.0857   0.3387  -0.0535   0.0926  -0.1354   2.00    0.0
2018/11/10 01:03:00.000  -74.525921875  163.457838589    25.6140   6  10   0.0905   0.0747   0.3116  -0.0436   0.0762  -0.1229   2.00    0.0
2018/11/10 01:03:15.000  -74.525921752  163.457837893    25.5600   6  10   0.0866   0.0662   0.2904  -0.0390   0.0645  -0.1173   2.00    0.0
2018/11/10 01:03:30.000  -74.525922047  163.457837732    25.5936   6  10   0.0752   0.0610   0.2662  -0.0333   0.0550  -0.1031   2.00    0.0
2018/11/10 01:03:45.000  -74.525921893  163.457837843    25.5611   6  10   0.0701   0.0577   0.2477  -0.0310   0.0498  -0.0967   2.00    0.0
2018/11/10 01:04:00.000  -74.525921912  163.457838249    25.5602   6  10   0.0671   0.0553   0.2335  -0.0300   0.0452  -0.0935   2.00    0.0
2018/11/10 01:04:15.000  -74.525922357  163.457838378    25.7176   6  10   0.0562   0.0468   0.2069  -0.0235   0.0267  -0.0746   2.00    0.0
2018/11/10 01:04:30.000  -74.525922602  163.457838564    25.8099   6  10   0.0459   0.0439   0.1903  -0.0190   0.0155  -0.0601   2.00    0.0
2018/11/10 01:04:45.000  -74.525922677  163.457838545    25.8692   6  10   0.0429   0.0410   0.1852  -0.0164  -0.0079  -0.0548   2.00    0.0
2018/11/10 01:05:00.000  -74.525922820  163.457839200    25.8565   6  10   0.0401   0.0387   0.1844  -0.0107  -0.0214  -0.0532   0.00    0.0
2018/11/10 01:05:15.000  -74.525922732  163.457839311    25.8009   6  10   0.0393   0.0399   0.1598  -0.0137  -0.0159  -0.0422   0.00    0.0
2018/11/10 01:05:30.000  -74.525922465  163.457838900    25.7532   6  10   0.0439   0.0421   0.1701  -0.0165   0.0098  -0.0494   0.00    0.0
2018/11/10 01:05:45.000  -74.525922304  163.457838580    25.7332   6  10   0.0500   0.0455   0.1850  -0.0198   0.0226  -0.0579   0.00    0.0
2018/11/10 01:06:00.000  -74.525922097  163.457838380    25.6998   6  11   0.0536   0.0493   0.1905  -0.0193   0.0201  -0.0549   0.00    0.0
2018/11/10 01:06:15.000  -74.525922316  163.457838456    25.6369   6  11   0.0547   0.0526   0.2046  -0.0177   0.0204  -0.0582   2.00    0.0
2018/11/10 01:06:30.000  -74.525922186  163.457838054    25.6249   6  11   0.0615   0.0579   0.2209  -0.0206   0.0207  -0.0644   1.00    0.0
2018/11/10 01:06:45.000  -74.525922322  163.457837908    25.6618   6  11   0.0631   0.0628   0.2364  -0.0233   0.0254  -0.0658   1.00    0.0
2018/11/10 01:07:00.000  -74.525922158  163.457837725    25.6304   6  11   0.0696   0.0682   0.2567  -0.0271   0.0318  -0.0745   2.00    0.0
2018/11/10 01:07:15.000  -74.525921902  163.457837327    25.5754   6  11   0.0785   0.0744   0.2849  -0.0334   0.0440  -0.0901   2.00    0.0
2018/11/10 01:07:30.000  -74.525922194  163.457838349    25.8035   6  11   0.0751   0.0799   0.2743  -0.0274   0.0176  -0.0648   2.00    0.0
2018/11/10 01:07:45.000  -74.525922317  163.457839446    25.7880   6  11   0.0676   0.0722   0.2545  -0.0160  -0.0134  -0.0573   2.00    0.0
2018/11/10 01:08:00.000  -74.525922462  163.457839799    25.8298   6  11   0.0623   0.0663   0.2378  -0.0123  -0.0163  -0.0529   3.00    0.0
2018/11/10 01:08:15.000  -74.525922572  163.457839849    25.8708   6  11   0.0572   0.0599   0.2224  -0.0083  -0.0246  -0.0482   4.00    0.0
2018/11/10 01:08:30.000  -74.525922640  163.457839634    25.8779   6  11   0.0523   0.0562   0.2103  -0.0078  -0.0229  -0.0445   4.00    0.0
2018/11/10 01:08:45.000  -74.525922702  163.457839861    25.8897   6  11   0.0476   0.0504   0.1988  -0.0031  -0.0319  -0.0394   4.00    0.0
2018/11/10 01:09:00.000  -74.525922777  163.457839999    25.8998   6  11   0.0432   0.0466   0.1973  -0.0013  -0.0338  -0.0344   5.00    0.0
2018/11/10 01:09:15.000  -74.525922867  163.457840051    25.8121   6  11   0.0393   0.0436   0.1668  -0.0011  -0.0351  -0.0331   0.00    0.0
2018/11/10 01:09:30.000  -74.525922958  163.457840057    25.8310   6  12   0.0360   0.0403   0.1517  -0.0018  -0.0378  -0.0325   0.00    0.0
2018/11/10 01:09:45.000  -74.525922936  163.457839811    25.8006   6  12   0.0339   0.0387   0.1504   0.0024  -0.0365  -0.0308   1.00    0.0
2018/11/10 01:10:00.000  -74.525922933  163.457839273    25.7755   6  12   0.0331   0.0383   0.1453  -0.0009  -0.0346  -0.0310   0.00    0.0
2018/11/10 01:10:15.000  -74.525922890  163.457839184    25.7803   6  12   0.0345   0.0395   0.1531  -0.0057  -0.0330  -0.0343   0.00    0.0
2018/11/10 01:10:30.000  -74.525922842  163.457839414    25.8027   6  12   0.0376   0.0418   0.1675  -0.0097  -0.0310  -0.0399   1.00    0.0
2018/11/10 01:10:45.000  -74.525922714  163.457839415    25.7875   6  12   0.0421   0.0451   0.1905  -0.0135  -0.0289  -0.0474   1.00    0.0
2018/11/10 01:11:00.000  -74.525922543  163.457839330    25.7502   6  12   0.0487   0.0495   0.2296  -0.0181  -0.0341  -0.0597   0.00    0.0
2018/11/10 01:11:15.000  -74.525922544  163.457839120    25.8575   6  12   0.0514   0.0531   0.2472  -0.0190  -0.0475  -0.0563   0.00    0.0
2018/11/10 01:11:30.000  -74.525922418  163.457839592    25.8407   6  12   0.0560   0.0562   0.2753  -0.0181  -0.0565  -0.0622   0.00    0.0
2018/11/10 01:11:45.000  -74.525922176  163.457839294    25.7006   6  12   0.0638   0.0599   0.2507  -0.0216  -0.0482  -0.0730   0.00    0.0
2018/11/10 01:12:00.000  -74.525922453  163.457839718    25.8782   6  12   0.0613   0.0632   0.2452  -0.0167  -0.0522  -0.0594   0.00    0.0
2018/11/10 01:12:15.000  -74.525922319  163.457839813    25.8181   6  12   0.0655   0.0678   0.2579  -0.0179  -0.0519  -0.0633   0.00    0.0
2018/11/10 01:12:30.000  -74.525922175  163.457839584    25.7724   6  12   0.0701   0.0740   0.2744  -0.0203  -0.0483  -0.0679   2.00    0.0
2018/11/10 01:12:45.000  -74.525922242  163.457839441    25.8337   6  12   0.0656   0.0687   0.2558  -0.0197  -0.0505  -0.0636   3.00    0.0
2018/11/10 01:13:00.000  -74.525922263  163.457838819    25.8329   6  12   0.0614   0.0651   0.2402  -0.0206  -0.0488  -0.0592   4.00    0.0
2018/11/10 01:13:15.000  -74.525922408  163.457839449    25.8283   6  12   0.0563   0.0587   0.2249  -0.0159  -0.0536  -0.0523   4.00    0.0
2018/11/10 01:13:30.000  -74.525922453  163.457839081    25.8079   6  12   0.0521   0.0550   0.2113  -0.0159  -0.0502  -0.0485   4.00    0.0
2018/11/10 01:13:45.000  -74.525922575  163.457838864    25.8251   6  12   0.0476   0.0511   0.1997  -0.0140  -0.0486  -0.0442   4.00    0.0
2018/11/10 01:14:00.000  -74.525922624  163.457838935    25.8780   6  12   0.0431   0.0466   0.1903  -0.0096  -0.0472  -0.0398   4.00    0.0
2018/11/10 01:14:15.000  -74.525922674  163.457838537    25.8849   6  12   0.0398   0.0442   0.1865  -0.0100  -0.0461  -0.0359   3.00    0.0
2018/11/10 01:14:30.000  -74.525922751  163.457838467    25.8127   6  12   0.0365   0.0413   0.1641  -0.0069  -0.0411  -0.0350   0.00    0.0
2018/11/10 01:14:45.000  -74.525922764  163.457838334    25.8130   6  12   0.0351   0.0398   0.1569  -0.0079  -0.0366  -0.0349   0.00    0.0
2018/11/10 01:15:00.000  -74.525922828  163.457838419    25.7632   6  12   0.0336   0.0393   0.1545  -0.0072  -0.0342  -0.0330   0.00    0.0
2018/11/10 01:15:15.000  -74.525922849  163.457838490    25.7163   6  12   0.0346   0.0392   0.1630  -0.0011  -0.0299  -0.0388   1.00    0.0
2018/11/10 01:15:30.000  -74.525922772  163.457838309    25.6950   6  12   0.0362   0.0420   0.1755  -0.0037  -0.0312  -0.0397   3.00    0.0
2018/11/10 01:15:45.000  -74.525922733  163.457838147    25.6258   6  12   0.0393   0.0453   0.1938  -0.0047  -0.0339  -0.0438   5.00    0.0
2018/11/10 01:16:00.000  -74.525922600  163.457837674    25.5813   6  12   0.0433   0.0495   0.2142  -0.0081  -0.0362  -0.0479   5.00    0.0
2018/11/10 01:16:15.000  -74.525922517  163.457837791    25.5625   6  12   0.0476   0.0548   0.2421  -0.0111  -0.0428  -0.0505   4.00    0.0
2018/11/10 01:16:30.000  -74.525922446  163.457839055    25.4526   6  12   0.0513   0.0570   0.3075   0.0058  -0.0629  -0.0571   0.00    0.0
2018/11/10 01:16:45.000  -74.525922357  163.457838702    25.4595   6  12   0.0558   0.0619   0.3191   0.0094  -0.0631  -0.0620   0.00    0.0
2018/11/10 01:17:00.000  -74.525922241  163.457839107    25.4265   6  12   0.0607   0.0693   0.3477   0.0149  -0.0697  -0.0670   0.00    0.0
2018/11/10 01:17:15.000  -74.525922079  163.457836176    25.7315   6  12   0.0657   0.0842   0.4374   0.0226  -0.1092  -0.0795   0.00    0.0
2018/11/10 01:17:30.000  -74.525922016  163.457836862    25.8646   6  12   0.0696   0.0804   0.4342   0.0162  -0.0934  -0.0706   0.00    0.0
2018/11/10 01:17:45.000  -74.525922035  163.457837463    25.7770   6  12   0.0650   0.0738   0.4350   0.0126  -0.0922  -0.0629   0.00    0.0
2018/11/10 01:18:00.000  -74.525922309  163.457837642    25.8020   6  12   0.0595   0.0622   0.2623  -0.0105  -0.0599  -0.0576   0.00    0.0
2018/11/10 01:18:15.000  -74.525922377  163.457838143    25.7918   6  12   0.0553   0.0570   0.2383  -0.0107  -0.0527  -0.0548   0.00    0.0
2018/11/10 01:18:30.000  -74.525922428  163.457838780    25.8072   6  12   0.0516   0.0526   0.2190  -0.0109  -0.0465  -0.0527   0.00    0.0
2018/11/10 01:18:45.000  -74.525922446  163.457839189    25.7943   6  12   0.0494   0.0487   0.2043  -0.0120  -0.0402  -0.0536   2.00    0.0
2018/11/10 01:19:00.000  -74.525922633  163.457839030    25.8972   6  12   0.0415   0.0449   0.1823  -0.0078  -0.0381  -0.0394   4.00    0.0
2018/11/10 01:19:15.000  -74.525922652  163.457838318    25.8749   6  12   0.0378   0.0419   0.1695  -0.0073  -0.0345  -0.0355   5.00    0.0
2018/11/10 01:19:30.000  -74.525922763  163.457838592    25.8582   6  12   0.0349   0.0395   0.1606  -0.0072  -0.0315  -0.0324   5.00    0.0
2018/11/10 01:19:45.000  -74.525922754  163.457838223    25.8622   6  12   0.0330   0.0379   0.1582  -0.0073  -0.0301  -0.0302   4.00    0.0
2018/11/10 01:20:00.000  -74.525922791  163.457838458    25.8031   6  12   0.0325   0.0374   0.1538  -0.0078  -0.0277  -0.0304   0.00    0.0
2018/11/10 01:20:15.000  -74.525922630  163.457837893    25.7625   6  12   0.0332   0.0384   0.1521  -0.0091  -0.0274  -0.0301   0.00    0.0
2018/11/10 01:20:30.000  -74.525922511  163.457837324    25.7356   6  12   0.0357   0.0408   0.1608  -0.0107  -0.0314  -0.0323   0.00    0.0
2018/11/10 01:20:45.000  -74.525922498  163.457837420    25.7433   6  12   0.0389   0.0433   0.1712  -0.0111  -0.0348  -0.0360   0.00    0.0
2018/11/10 01:21:00.000  -74.525922380  163.457836995    25.7561   6  12   0.0427   0.0464   0.1831  -0.0120  -0.0387  -0.0399   1.00    0.0
2018/11/10 01:21:15.000  -74.525922338  163.457836653    25.7617   6  12   0.0469   0.0500   0.1962  -0.0128  -0.0431  -0.0440   5.00    0.0
2018/11/10 01:21:30.000  -74.525922270  163.457836547    25.7557   6  12   0.0513   0.0540   0.2102  -0.0136  -0.0478  -0.0483   5.00    0.0
2018/11/10 01:21:45.000  -74.525922211  163.457836635    25.7151   6  12   0.0560   0.0584   0.2252  -0.0142  -0.0531  -0.0529   6.00    0.0
2018/11/10 01:22:00.000  -74.525922097  163.457836992    25.7293   6  12   0.0610   0.0636   0.2411  -0.0134  -0.0595  -0.0581   6.00    0.0
2018/11/10 01:22:15.000  -74.525921983  163.457836894    25.7285   6  12   0.0660   0.0697   0.2585  -0.0126  -0.0675  -0.0636   5.00    0.0
2018/11/10 01:22:30.000  -74.525921988  163.457836796    25.7346   6  12   0.0704   0.0723   0.2731  -0.0205  -0.0686  -0.0653   5.00    0.0
2018/11/10 01:22:45.000  -74.525921816  163.457836744    25.7302   6  12   0.0674   0.0693   0.2604  -0.0241  -0.0653  -0.0617   5.00    0.0
2018/11/10 01:23:00.000  -74.525921672  163.457836890    25.6645   6  12   0.0670   0.0690   0.2526  -0.0306  -0.0648  -0.0606   5.00    1.0
2018/11/10 01:23:15.000  -74.525922334  163.457838531    25.7367   6  12   0.0562   0.0606   0.2284  -0.0210  -0.0541  -0.0486   4.00    0.0
2018/11/10 01:23:30.000  -74.525922415  163.457838398    25.7362   6  12   0.0506   0.0555   0.2178  -0.0166  -0.0505  -0.0429   4.00    0.0
2018/11/10 01:23:45.000  -74.525922520  163.457837700    25.7012   6  12   0.0460   0.0520   0.2173  -0.0131  -0.0515  -0.0370   4.00    0.0
2018/11/10 01:24:00.000  -74.525922626  163.457837344    25.6991   6  12   0.0404   0.0457   0.2092  -0.0091  -0.0460  -0.0325   0.00    0.0
2018/11/10 01:24:15.000  -74.525922649  163.457837355    25.7757   6  12   0.0367   0.0416   0.1670  -0.0075  -0.0289  -0.0313   0.00    0.0
2018/11/10 01:24:30.000  -74.525922736  163.457837311    25.7672   6  12   0.0337   0.0393   0.1579  -0.0070  -0.0238  -0.0286   0.00    0.0
2018/11/10 01:24:45.000  -74.525922778  163.457837404    25.8059   6  12   0.0317   0.0379   0.1565  -0.0070  -0.0224  -0.0264   0.00    0.0
2018/11/10 01:25:00.000  -74.525922795  163.457838268    25.8296   6  12   0.0309   0.0375   0.1541  -0.0069  -0.0204  -0.0261   0.00    0.0
2018/11/10 01:25:15.000  -74.525922729  163.457838142    25.8250   6  12   0.0317   0.0387   0.1601  -0.0069  -0.0232  -0.0275   0.00    0.0
2018/11/10 01:25:30.000  -74.525922667  163.457838013    25.7507   6  12   0.0338   0.0411   0.1754  -0.0074  -0.0310  -0.0294   0.00    0.0
2018/11/10 01:25:45.000  -74.525922616  163.457838215    25.6581   6  12   0.0368   0.0437   0.1669  -0.0071  -0.0244  -0.0324   0.00    0.0
2018/11/10 01:26:00.000  -74.525922513  163.457838615    25.5900   6  12   0.0403   0.0468   0.1767  -0.0099  -0.0286  -0.0353   0.00    0.0
2018/11/10 01:26:15.000  -74.525922397  163.457839225    25.5850   6  12   0.0442   0.0507   0.1893  -0.0117  -0.0336  -0.0390   0.00    0.0
2018/11/10 01:26:30.000  -74.525922284  163.457838846    25.6023   6  12   0.0485   0.0552   0.2030  -0.0137  -0.0404  -0.0422   2.00    0.0
2018/11/10 01:26:45.000  -74.525922206  163.457839212    25.6098   6  12   0.0528   0.0590   0.2191  -0.0144  -0.0519  -0.0432   4.00    0.0
2018/11/10 01:27:00.000  -74.525922133  163.457839775    25.5720   6  12   0.0576   0.0657   0.2387  -0.0187  -0.0655  -0.0429   5.00    0.0
2018/11/10 01:27:15.000  -74.525922150  163.457839854    25.5481   6  12   0.0616   0.0679   0.2501  -0.0160  -0.0659  -0.0501   5.00    0.0
2018/11/10 01:27:30.000  -74.525922086  163.457839631    25.5365   6  12   0.0661   0.0718   0.2651  -0.0160  -0.0706  -0.0545   5.00    0.0
2018/11/10 01:27:45.000  -74.525922103  163.457839409    25.5233   6  12   0.0620   0.0695   0.2529  -0.0180  -0.0701  -0.0483   5.00    0.0
2018/11/10 01:28:00.000  -74.525922239  163.457839562    25.5298   6  12   0.0576   0.0668   0.2398  -0.0178  -0.0681  -0.0432   5.00    0.0
2018/11/10 01:28:15.000  -74.525922310  163.457839599    25.5547   6  12   0.0527   0.0582   0.2159  -0.0046  -0.0493  -0.0465   5.00    0.0
2018/11/10 01:28:30.000  -74.525922397  163.457839619    25.5779   6  12   0.0484   0.0546   0.2010   0.0040  -0.0425  -0.0435   5.00    0.0
2018/11/10 01:28:45.000  -74.525922503  163.457839400    25.6239   6  12   0.0440   0.0500   0.1874  -0.0052  -0.0342  -0.0393   5.00    0.0
2018/11/10 01:29:00.000  -74.525922655  163.457839159    25.6277   6  12   0.0404   0.0478   0.1765   0.0025  -0.0300  -0.0366   5.00    0.0
2018/11/10 01:29:15.000  -74.525922883  163.457838932    25.6827   6  12   0.0368   0.0431   0.1644  -0.0078  -0.0119  -0.0321   5.00    0.0
2018/11/10 01:29:30.000  -74.525922888  163.457838317    25.6804   6  12   0.0339   0.0402   0.1566  -0.0085   0.0118  -0.0290   5.00    0.0
2018/11/10 01:29:45.000  -74.525922800  163.457838344    25.6855   6  12   0.0319   0.0378   0.1516  -0.0084   0.0172  -0.0264   5.00    0.0
2018/11/10 01:30:00.000  -74.525922802  163.457838550    25.6956   6  12   0.0311   0.0371   0.1505  -0.0087   0.0184  -0.0250   5.00    0.0
2018/11/10 01:30:15.000  -74.525922791  163.457838823    25.7325   6  12   0.0324   0.0383   0.1554  -0.0091   0.0117  -0.0255   6.00    0.0
2018/11/10 01:30:30.000  -74.525922735  163.457839074    25.7183   6  12   0.0353   0.0412   0.1651  -0.0103  -0.0176  -0.0271   6.00    0.0
2018/11/10 01:30:45.000  -74.525922754  163.457839143    25.6969   6  12   0.0360   0.0425   0.1759  -0.0105  -0.0261  -0.0247   5.00    0.0
2018/11/10 01:31:00.000  -74.525922684  163.457839230    25.6701   6  12   0.0395   0.0458   0.1912  -0.0115  -0.0356  -0.0268   5.00    0.0
2018/11/10 01:31:15.000  -74.525922590  163.457839562    25.6433   6  12   0.0435   0.0500   0.2136  -0.0132  -0.0471  -0.0277   6.00    0.0
2018/11/10 01:31:30.000  -74.525922354  163.457838739    25.7400   6  12   0.0479   0.0553   0.2441  -0.0161  -0.0606  -0.0261   0.00    0.0
2018/11/10 01:31:45.000  -74.525922220  163.457838705    25.6960   6  12   0.0517   0.0568   0.2595  -0.0127  -0.0610  -0.0348   0.00    0.0
2018/11/10 01:32:00.000  -74.525922194  163.457839045    25.6873   6  12   0.0561   0.0605   0.2932  -0.0127  -0.0692  -0.0382   0.00    0.0
2018/11/10 01:32:15.000  -74.525922242  163.457839192    25.6749   6  12   0.0605   0.0639   0.2958  -0.0121  -0.0682  -0.0457   0.00    0.0
2018/11/10 01:32:30.000  -74.525922171  163.457839316    25.5921   6  12   0.0651   0.0685   0.3183  -0.0134  -0.0760  -0.0480   0.00    0.0
2018/11/10 01:32:45.000  -74.525922175  163.457839020    25.6723   6  12   0.0606   0.0640   0.2882  -0.0130  -0.0629  -0.0476   0.00    0.0
2018/11/10 01:33:00.000  -74.525922253  163.457839303    25.6302   6  12   0.0561   0.0599   0.2786  -0.0124  -0.0593  -0.0422   0.00    0.0
2018/11/10 01:33:15.000  -74.525922243  163.457839039    25.6390   6  12   0.0517   0.0554   0.2254  -0.0116  -0.0413  -0.0425   0.00    0.0
2018/11/10 01:33:30.000  -74.525922319  163.457839004    25.6225   6  12   0.0471   0.0506   0.2039  -0.0084  -0.0366  -0.0372   0.00    0.0
2018/11/10 01:33:45.000  -74.525922375  163.457838932    25.6226   6  12   0.0429   0.0469   0.1888  -0.0077  -0.0304  -0.0332   0.00    0.0
2018/11/10 01:34:00.000  -74.525922572  163.457839369    25.6246   6  12   0.0391   0.0437   0.1770  -0.0075  -0.0236  -0.0297   2.00    0.0
2018/11/10 01:34:15.000  -74.525922719  163.457839373    25.6496   6  12   0.0358   0.0411   0.1683  -0.0076  -0.0160  -0.0266   6.00    0.0
2018/11/10 01:34:30.000  -74.525922741  163.457839220    25.6305   6  12   0.0330   0.0390   0.1636  -0.0078  -0.0139  -0.0228   5.00    0.0
2018/11/10 01:34:45.000  -74.525922745  163.457838832    25.6432   6  12   0.0312   0.0373   0.1532  -0.0071   0.0129  -0.0222   0.00    0.0
2018/11/10 01:35:00.000  -74.525922896  163.457838590    25.6078   6  12   0.0305   0.0367   0.1530  -0.0083   0.0112  -0.0204   0.00    0.0
2018/11/10 01:35:15.000  -74.525922896  163.457838237    25.5832   6  12   0.0319   0.0378   0.1553  -0.0083   0.0053  -0.0215   0.00    0.0
2018/11/10 01:35:30.000  -74.525922816  163.457838396    25.5536   6  12   0.0351   0.0404   0.1641  -0.0092  -0.0172  -0.0223   0.00    0.0
2018/11/10 01:35:45.000  -74.525922842  163.457838757    25.5270   6  12   0.0358   0.0440   0.1799  -0.0019  -0.0312  -0.0184   0.00    0.0
2018/11/10 01:36:00.000  -74.525922772  163.457838736    25.5125   6  12   0.0399   0.0492   0.2060  -0.0106  -0.0457  -0.0127   0.00    0.0
2018/11/10 01:36:15.000  -74.525922650  163.457838489    25.5222   6  12   0.0439   0.0492   0.2037  -0.0045  -0.0312  -0.0303   0.00    0.0
2018/11/10 01:36:30.000  -74.525922714  163.457838931    25.4965   6  12   0.0489   0.0546   0.2133  -0.0068  -0.0334  -0.0367   0.00    0.0
2018/11/10 01:36:45.000  -74.525922696  163.457838666    25.4722   6  12   0.0537   0.0604   0.2263  -0.0062  -0.0368  -0.0416   0.00    0.0
2018/11/10 01:37:00.000  -74.525922629  163.457838377    25.4325   6  12   0.0585   0.0648   0.2411  -0.0109  -0.0395  -0.0461   1.00    0.0
2018/11/10 01:37:15.000  -74.525922479  163.457838878    25.3713   6  12   0.0624   0.0694   0.2577   0.0108  -0.0468  -0.0497   3.00    0.0
2018/11/10 01:37:30.000  -74.525922404  163.457838529    25.4083   6  12   0.0668   0.0762   0.2795   0.0138  -0.0442  -0.0516   2.00    0.0
2018/11/10 01:37:45.000  -74.525922422  163.457838671    25.3839   6  12   0.0626   0.0706   0.2698   0.0133  -0.0533  -0.0453   1.00    0.0
2018/11/10 01:38:00.000  -74.525922527  163.457838575    25.4383   6  12   0.0580   0.0624   0.2548  -0.0108  -0.0475  -0.0476   0.00    0.0
2018/11/10 01:38:15.000  -74.525922646  163.457838947    25.3388   6  12   0.0540   0.0595   0.2483  -0.0119  -0.0426  -0.0449   0.00    0.0
2018/11/10 01:38:30.000  -74.525922772  163.457838789    25.3009   6  12   0.0493   0.0543   0.2454  -0.0145  -0.0210  -0.0451   0.00    0.0
2018/11/10 01:38:45.000  -74.525922904  163.457840262    25.6315   6  12   0.0432   0.0462   0.1609   0.0118  -0.0377  -0.0330   0.00    0.0
2018/11/10 01:39:00.000  -74.525922817  163.457839678    25.6401   6  12   0.0383   0.0399   0.1424   0.0083  -0.0352  -0.0281   0.00    0.0
2018/11/10 01:39:15.000  -74.525922843  163.457839763    25.6813   6  12   0.0345   0.0353   0.1262   0.0099  -0.0351  -0.0232   0.00    0.0
2018/11/10 01:39:30.000  -74.525922859  163.457839485    25.7278   6  12   0.0314   0.0322   0.1151   0.0105  -0.0329  -0.0198   1.00    0.0
2018/11/10 01:39:45.000  -74.525922907  163.457839786    25.7606   6  12   0.0293   0.0300   0.1075   0.0110  -0.0312  -0.0173   3.00    0.0
2018/11/10 01:40:00.000  -74.525922957  163.457839962    25.7272   6  11   0.0282   0.0292   0.1045   0.0115  -0.0308  -0.0174   2.00    0.0
2018/11/10 01:40:15.000  -74.525922937  163.457840639    25.6592   6  11   0.0297   0.0313   0.1117   0.0121  -0.0341  -0.0199   2.00    0.0
2018/11/10 01:40:30.000  -74.525922902  163.457840705    25.6327   6  11   0.0327   0.0350   0.1241   0.0131  -0.0391  -0.0230   3.00    0.0
2018/11/10 01:40:45.000  -74.525922874  163.457840585    25.6382   6  11   0.0368   0.0404   0.1385   0.0145  -0.0444  -0.0254   3.00    0.0
2018/11/10 01:41:00.000  -74.525922856  163.457840316    25.6494   6  11   0.0412   0.0428   0.1550   0.0124  -0.0483  -0.0255   3.00    0.0
2018/11/10 01:41:15.000  -74.525922688  163.457840370    25.6211   6  11   0.0466   0.0490   0.1769   0.0104  -0.0578  -0.0240   4.00    0.0
2018/11/10 01:41:30.000  -74.525922501  163.457841154    25.5847   6  10   0.0524   0.0576   0.2046   0.0070  -0.0718  -0.0207   5.00    0.0
2018/11/10 01:41:45.000  -74.525922471  163.457840423    25.5737   6  10   0.0583   0.0609   0.2301   0.0054  -0.0809  -0.0263   6.00    0.0
2018/11/10 01:42:00.000  -74.525922356  163.457841231    25.4638   6  10   0.0651   0.0674   0.2631   0.0120  -0.0943  -0.0404   6.00    0.0
2018/11/10 01:42:15.000  -74.525922703  163.457840192    25.6669   6   9   0.0751   0.0790   0.3260   0.0294  -0.1238  -0.0749   5.00    0.0
2018/11/10 01:42:30.000  -74.525922533  163.457840547    25.6062   6   9   0.0817   0.0859   0.3559   0.0322  -0.1362  -0.0820   5.00    0.0
2018/11/10 01:42:45.000  -74.525922315  163.457840704    25.5834   6   9   0.0751   0.0789   0.3263   0.0294  -0.1243  -0.0743   6.00    0.0
2018/11/10 01:43:00.000  -74.525922171  163.457840901    25.5051   6   9   0.0686   0.0721   0.2977   0.0268  -0.1126  -0.0676   6.00    0.0
2018/11/10 01:43:15.000  -74.525922251  163.457841236    25.4480   6   9   0.0623   0.0654   0.2693   0.0243  -0.1009  -0.0609   6.00    0.0
2018/11/10 01:43:30.000  -74.525922341  163.457841372    25.3890   6   9   0.0562   0.0588   0.2413   0.0219  -0.0893  -0.0543   6.00    0.0
2018/11/10 01:43:45.000  -74.525922432  163.457840898    25.3919   6   9   0.0502   0.0523   0.2139   0.0196  -0.0779  -0.0478   6.00    0.0
2018/11/10 01:44:00.000  -74.525922626  163.457840465    25.4381   6   9   0.0444   0.0461   0.1875   0.0174  -0.0666  -0.0415   6.00    0.0
2018/11/10 01:44:15.000  -74.525922666  163.457840522    25.4881   6   9   0.0390   0.0401   0.1625   0.0155  -0.0556  -0.0355   6.00    0.0
2018/11/10 01:44:30.000  -74.525922632  163.457840417    25.4803   6   9   0.0343   0.0349   0.1403   0.0139  -0.0452  -0.0300   6.00    0.0
