% program   : RTKLIB ver.2.4.3
% inp file  : _by_type/_obs/blake/20181109.18o
% inp file  : _by_type/_sp3+clk/igs20265.clk
% inp file  : _by_type/_sp3+clk/igs20265.sp3
% inp file  : _by_type/_nav/blake/20181109.18n
% obs start : 2018/11/09 00:00:00.0 GPST (week2026 432000.0s)
% obs end   : 2018/11/09 23:59:45.0 GPST (week2026 518385.0s)
% pos mode  : ppp-kinematic
% solution  : combined
% elev mask : 15.0 deg
% dynamics  : off
% tidecorr  : on
% tropo opt : est ztd+grad
% ephemeris : precise
% navi sys  : gps glonass
% antenna1  :                       ( 0.0000  0.0000  0.0000)
%
% (lat/lon/height=WGS84/ellipsoidal,Q=1:fix,2:float,3:sbas,4:dgps,5:single,6:ppp,ns=# of satellites)
%  GPST                  latitude(deg) longitude(deg)  height(m)   Q  ns   sdn(m)   sde(m)   sdu(m)  sdne(m)  sdeu(m)  sdun(m) age(s)  ratio
2018/11/09 00:00:00.000  -74.407206602  163.437651416    80.0346   1   9   0.0186   0.0173   0.0641   0.0038   0.0150  -0.0189   2.00    1.0
2018/11/09 00:00:15.000  -74.407206556  163.437651854    80.0295   1   9   0.0220   0.0211   0.0779  -0.0053   0.0199  -0.0237   2.00    1.0
2018/11/09 00:00:30.000  -74.407206452  163.437651754    79.9793   1   9   0.0281   0.0281   0.1016  -0.0103   0.0275  -0.0318   2.00    1.0
2018/11/09 00:00:45.000  -74.407206367  163.437651902    79.9864   1   9   0.0355   0.0364   0.1300  -0.0150   0.0364  -0.0412   2.00    1.0
2018/11/09 00:01:00.000  -74.407206354  163.437652147    79.9924   6   9   0.0444   0.0459   0.1602  -0.0214   0.0455  -0.0509   0.00    0.0
2018/11/09 00:01:15.000  -74.407206400  163.437652072    80.0218   6   9   0.0527   0.0548   0.1917  -0.0255   0.0552  -0.0612   1.00    0.0
2018/11/09 00:01:30.000  -74.407206492  163.437651621    80.0232   6   9   0.0610   0.0638   0.2238  -0.0297   0.0649  -0.0715   1.00    0.0
2018/11/09 00:01:45.000  -74.407206519  163.437651725    80.0196   6   9   0.0695   0.0728   0.2559  -0.0339   0.0746  -0.0819   2.00    0.0
2018/11/09 00:02:00.000  -74.407206579  163.437651323    79.9907   6   9   0.0779   0.0816   0.2877  -0.0379   0.0841  -0.0921   2.00    0.0
2018/11/09 00:02:15.000  -74.407206582  163.437650660    79.9963   6   9   0.0861   0.0903   0.3192  -0.0418   0.0933  -0.1021   2.00    0.0
2018/11/09 00:02:30.000  -74.407206612  163.437650176    79.9624   6   9   0.0942   0.0987   0.3499  -0.0456   0.1023  -0.1118   2.00    0.0
2018/11/09 00:02:45.000  -74.407206678  163.437649825    79.9256   6   9   0.0856   0.0897   0.3183  -0.0416   0.0936  -0.1016   2.00    0.0
2018/11/09 00:03:00.000  -74.407206754  163.437649909    79.9180   6   9   0.0771   0.0809   0.2876  -0.0377   0.0849  -0.0917   3.00    0.0
2018/11/09 00:03:15.000  -74.407206632  163.437649926    79.8870   6   9   0.0687   0.0721   0.2567  -0.0337   0.0760  -0.0818   3.00    0.0
2018/11/09 00:03:30.000  -74.407206582  163.437649923    79.8748   6  10   0.0582   0.0623   0.1996  -0.0326   0.0749  -0.0587   3.00    0.0
2018/11/09 00:03:45.000  -74.407206650  163.437649869    79.8798   6  10   0.0502   0.0536   0.1725  -0.0280   0.0643  -0.0506   3.00    0.0
2018/11/09 00:04:00.000  -74.407206749  163.437650710    79.9538   6  10   0.0425   0.0450   0.1456  -0.0235   0.0537  -0.0425   3.00    0.0
2018/11/09 00:04:15.000  -74.407206788  163.437651503    80.0353   1  10   0.0342   0.0361   0.1207  -0.0174   0.0440  -0.0355   3.00    1.0
2018/11/09 00:04:30.000  -74.407206755  163.437651514    80.0567   1  10   0.0270   0.0279   0.0955  -0.0124   0.0335  -0.0277   3.00    1.0
2018/11/09 00:04:45.000  -74.407206617  163.437651190    80.0271   1  10   0.0212   0.0210   0.0744  -0.0073   0.0244  -0.0210   3.00    1.0
2018/11/09 00:05:00.000  -74.407206640  163.437651209    80.0257   1  10   0.0180   0.0173   0.0624  -0.0033   0.0188  -0.0170   3.00    1.0
2018/11/09 00:05:15.000  -74.407206706  163.437651627    80.0732   1  10   0.0211   0.0210   0.0747  -0.0073   0.0246  -0.0210   3.00    1.0
2018/11/09 00:05:30.000  -74.407206687  163.437651634    80.0602   1  10   0.0270   0.0280   0.0966  -0.0125   0.0341  -0.0280   3.00    1.0
2018/11/09 00:05:45.000  -74.407206719  163.437651912    80.0910   1  10   0.0342   0.0363   0.1231  -0.0177   0.0453  -0.0362   3.00    1.0
2018/11/09 00:06:00.000  -74.407206789  163.437651683    80.0537   6  10   0.0419   0.0448   0.1463  -0.0232   0.0540  -0.0418   4.00    0.0
2018/11/09 00:06:15.000  -74.407206775  163.437651241    80.0045   6  10   0.0493   0.0530   0.1729  -0.0272   0.0644  -0.0491   4.00    0.0
2018/11/09 00:06:30.000  -74.407206763  163.437650969    79.9791   6  10   0.0566   0.0612   0.1993  -0.0311   0.0743  -0.0560   4.00    0.0
2018/11/09 00:06:45.000  -74.407206792  163.437650621    79.9309   6  10   0.0639   0.0692   0.2252  -0.0347   0.0839  -0.0626   4.00    0.0
2018/11/09 00:07:00.000  -74.407206821  163.437650751    79.9307   6  10   0.0709   0.0769   0.2506  -0.0382   0.0931  -0.0689   4.00    0.0
2018/11/09 00:07:15.000  -74.407206873  163.437650609    79.9334   6  10   0.0778   0.0845   0.2755  -0.0416   0.1021  -0.0751   4.00    0.0
2018/11/09 00:07:30.000  -74.407206719  163.437650328    79.9106   6  10   0.0846   0.0918   0.3000  -0.0449   0.1109  -0.0812   4.00    0.0
2018/11/09 00:07:45.000  -74.407206804  163.437650690    79.9327   6  10   0.0776   0.0843   0.2775  -0.0416   0.1027  -0.0758   4.00    0.0
2018/11/09 00:08:00.000  -74.407206843  163.437650673    79.9346   6  10   0.0706   0.0767   0.2537  -0.0382   0.0941  -0.0699   4.00    0.0
2018/11/09 00:08:15.000  -74.407206825  163.437650773    79.9485   6  10   0.0635   0.0689   0.2292  -0.0347   0.0853  -0.0638   4.00    0.0
2018/11/09 00:08:30.000  -74.407206832  163.437650636    79.9445   6  10   0.0562   0.0610   0.2039  -0.0310   0.0760  -0.0573   4.00    0.0
2018/11/09 00:08:45.000  -74.407206812  163.437650463    79.9130   6  10   0.0490   0.0529   0.1780  -0.0273   0.0664  -0.0505   4.00    0.0
2018/11/09 00:09:00.000  -74.407206737  163.437650519    79.9342   6  10   0.0417   0.0448   0.1515  -0.0233   0.0563  -0.0434   4.00    0.0
2018/11/09 00:09:15.000  -74.407206711  163.437650860    80.0130   1  10   0.0344   0.0370   0.1298  -0.0185   0.0486  -0.0387   3.00    1.0
2018/11/09 00:09:30.000  -74.407206664  163.437651099    80.0429   1  10   0.0270   0.0286   0.1021  -0.0133   0.0371  -0.0301   3.00    1.0
2018/11/09 00:09:45.000  -74.407206562  163.437650843    79.9919   1  10   0.0212   0.0216   0.0787  -0.0084   0.0273  -0.0226   3.00    1.0
2018/11/09 00:10:00.000  -74.407206681  163.437651032    80.0400   1  10   0.0179   0.0176   0.0653  -0.0045   0.0213  -0.0181   3.00    1.0
2018/11/09 00:10:15.000  -74.407206785  163.437650992    80.0400   1  10   0.0211   0.0216   0.0790  -0.0083   0.0274  -0.0228   3.00    1.0
2018/11/09 00:10:30.000  -74.407206962  163.437650765    80.0424   1  10   0.0271   0.0287   0.1032  -0.0135   0.0378  -0.0305   3.00    1.0
2018/11/09 00:10:45.000  -74.407207101  163.437650700    80.0979   1  10   0.0344   0.0372   0.1323  -0.0188   0.0498  -0.0396   3.00    1.0
2018/11/09 00:11:00.000  -74.407206963  163.437650289    80.0594   6  10   0.0407   0.0442   0.1490  -0.0222   0.0551  -0.0404   5.00    0.0
2018/11/09 00:11:15.000  -74.407206898  163.437650534    80.0554   6  10   0.0475   0.0520   0.1743  -0.0255   0.0645  -0.0462   5.00    0.0
2018/11/09 00:11:30.000  -74.407206819  163.437650378    80.0235   6  10   0.0542   0.0596   0.1995  -0.0288   0.0738  -0.0519   5.00    0.0
2018/11/09 00:11:45.000  -74.407206831  163.437650721    80.0202   6  10   0.0609   0.0672   0.2244  -0.0320   0.0829  -0.0575   5.00    0.0
2018/11/09 00:12:00.000  -74.407206733  163.437650034    79.9076   6  10   0.0675   0.0745   0.2492  -0.0352   0.0920  -0.0634   5.00    0.0
2018/11/09 00:12:15.000  -74.407206683  163.437649549    79.8266   6  10   0.0740   0.0818   0.2739  -0.0385   0.1012  -0.0695   5.00    0.0
2018/11/09 00:12:30.000  -74.407206666  163.437649757    79.8286   6  10   0.0804   0.0889   0.2987  -0.0419   0.1105  -0.0759   5.00    0.0
2018/11/09 00:12:45.000  -74.407206671  163.437649987    79.8399   6  10   0.0740   0.0817   0.2752  -0.0386   0.1018  -0.0699   5.00    0.0
2018/11/09 00:13:00.000  -74.407206647  163.437649972    79.8317   6  10   0.0674   0.0744   0.2514  -0.0353   0.0930  -0.0642   5.00    0.0
2018/11/09 00:13:15.000  -74.407206747  163.437650221    79.8485   6  10   0.0608   0.0670   0.2273  -0.0321   0.0842  -0.0585   5.00    0.0
2018/11/09 00:13:30.000  -74.407206847  163.437650375    79.9019   6  10   0.0541   0.0595   0.2027  -0.0288   0.0752  -0.0529   5.00    0.0
2018/11/09 00:13:45.000  -74.407206766  163.437650427    79.8999   6  10   0.0473   0.0519   0.1777  -0.0256   0.0661  -0.0471   5.00    0.0
2018/11/09 00:14:00.000  -74.407206720  163.437650678    79.9075   6  10   0.0406   0.0442   0.1522  -0.0222   0.0566  -0.0411   5.00    0.0
2018/11/09 00:14:15.000  -74.407206696  163.437650645    79.9352   6  10   0.0340   0.0365   0.1264  -0.0188   0.0469  -0.0348   5.00    0.0
2018/11/09 00:14:30.000  -74.407206671  163.437650978    79.9904   1  10   0.0268   0.0292   0.1074  -0.0146   0.0403  -0.0333   3.00    2.0
2018/11/09 00:14:45.000  -74.407206692  163.437650971    79.9979   1  10   0.0207   0.0228   0.0826  -0.0101   0.0306  -0.0257   1.00    1.0
2018/11/09 00:15:00.000  -74.407206684  163.437651080    80.0129   1  10   0.0174   0.0182   0.0674  -0.0063   0.0231  -0.0210   2.00    2.0
2018/11/09 00:15:15.000  -74.407206663  163.437651407    80.0140   1  10   0.0205   0.0219   0.0811  -0.0096   0.0292  -0.0251   2.00    2.0
2018/11/09 00:15:30.000  -74.407206560  163.437651401    79.9530   1  10   0.0267   0.0292   0.1075  -0.0146   0.0404  -0.0332   2.00    2.0
2018/11/09 00:15:45.000  -74.407206422  163.437651079    79.9178   1  10   0.0344   0.0378   0.1390  -0.0200   0.0533  -0.0430   2.00    2.0
2018/11/09 00:16:00.000  -74.407206373  163.437650498    79.8927   6  10   0.0396   0.0433   0.1475  -0.0208   0.0545  -0.0373   5.00    0.0
2018/11/09 00:16:15.000  -74.407206429  163.437650732    79.9419   6  10   0.0460   0.0508   0.1727  -0.0239   0.0638  -0.0428   5.00    0.0
2018/11/09 00:16:30.000  -74.407206443  163.437650942    80.0020   6  10   0.0526   0.0583   0.1982  -0.0270   0.0733  -0.0487   5.00    0.0
2018/11/09 00:16:45.000  -74.407206454  163.437650675    79.9781   6  10   0.0591   0.0656   0.2238  -0.0304   0.0830  -0.0550   5.00    0.0
2018/11/09 00:17:00.000  -74.407206560  163.437650878    80.0148   6  10   0.0656   0.0729   0.2496  -0.0339   0.0928  -0.0619   5.00    0.0
2018/11/09 00:17:15.000  -74.407206572  163.437650951    80.0502   6  10   0.0720   0.0800   0.2755  -0.0375   0.1028  -0.0691   5.00    0.0
2018/11/09 00:17:30.000  -74.407206546  163.437650594    80.0082   6  10   0.0783   0.0871   0.3015  -0.0412   0.1129  -0.0768   5.00    0.0
2018/11/09 00:17:45.000  -74.407206591  163.437650854    79.9745   6  11   0.0690   0.0801   0.2635  -0.0372   0.1037  -0.0803   5.00    0.0
2018/11/09 00:18:00.000  -74.407206638  163.437651464    80.0065   6  11   0.0627   0.0729   0.2390  -0.0336   0.0940  -0.0727   5.00    0.0
2018/11/09 00:18:15.000  -74.407206705  163.437651987    80.0333   6  11   0.0565   0.0656   0.2148  -0.0302   0.0844  -0.0651   5.00    0.0
2018/11/09 00:18:30.000  -74.407206791  163.437651865    80.0423   6  11   0.0502   0.0582   0.1908  -0.0268   0.0748  -0.0577   5.00    0.0
2018/11/09 00:18:45.000  -74.407206801  163.437651992    80.0569   6  11   0.0440   0.0508   0.1668  -0.0236   0.0652  -0.0503   4.00    0.0
2018/11/09 00:19:00.000  -74.407206814  163.437651671    80.0550   6  11   0.0379   0.0433   0.1429  -0.0205   0.0557  -0.0431   4.00    0.0
2018/11/09 00:19:15.000  -74.407206661  163.437651529    80.0174   1  11   0.0339   0.0384   0.1381  -0.0203   0.0556  -0.0471   3.00    1.0
2018/11/09 00:19:30.000  -74.407206781  163.437651628    80.0383   1  11   0.0287   0.0311   0.1072  -0.0179   0.0431  -0.0358   3.00    1.0
2018/11/09 00:19:45.000  -74.407206848  163.437651286    80.0140   1  11   0.0233   0.0242   0.0818  -0.0141   0.0320  -0.0263   3.00    1.0
2018/11/09 00:20:00.000  -74.407206748  163.437650969    79.9704   6  11   0.0198   0.0197   0.0644  -0.0103   0.0228  -0.0184   4.00    0.0
2018/11/09 00:20:15.000  -74.407206749  163.437651438    80.0149   1  11   0.0205   0.0225   0.0819  -0.0098   0.0314  -0.0253   4.00    2.0
2018/11/09 00:20:30.000  -74.407206746  163.437651937    80.0195   1  11   0.0268   0.0299   0.1090  -0.0150   0.0429  -0.0363   4.00    1.0
2018/11/09 00:20:45.000  -74.407206773  163.437651217    79.9463   6  11   0.0313   0.0354   0.1163  -0.0166   0.0447  -0.0338   4.00    0.0
2018/11/09 00:21:00.000  -74.407206882  163.437651267    79.9814   6  11   0.0371   0.0426   0.1397  -0.0194   0.0540  -0.0407   4.00    0.0
2018/11/09 00:21:15.000  -74.407206940  163.437651246    80.0014   6  11   0.0431   0.0499   0.1640  -0.0225   0.0637  -0.0481   4.00    0.0
2018/11/09 00:21:30.000  -74.407206940  163.437650706    80.0167   6  11   0.0492   0.0572   0.1888  -0.0258   0.0736  -0.0558   4.00    0.0
2018/11/09 00:21:45.000  -74.407206900  163.437649931    80.0190   6  11   0.0554   0.0645   0.2140  -0.0294   0.0838  -0.0640   4.00    0.0
2018/11/09 00:22:00.000  -74.407206874  163.437650172    80.0195   6  11   0.0616   0.0716   0.2395  -0.0331   0.0941  -0.0725   4.00    0.0
2018/11/09 00:22:15.000  -74.407206871  163.437650433    80.0261   6  11   0.0677   0.0787   0.2651  -0.0370   0.1045  -0.0812   4.00    0.0
2018/11/09 00:22:30.000  -74.407206796  163.437650089    80.0055   6  11   0.0738   0.0857   0.2909  -0.0409   0.1150  -0.0902   4.00    0.0
2018/11/09 00:22:45.000  -74.407206701  163.437650170    79.9721   6  11   0.0677   0.0786   0.2651  -0.0367   0.1041  -0.0811   4.00    0.0
2018/11/09 00:23:00.000  -74.407206640  163.437650546    79.9613   6  11   0.0614   0.0715   0.2399  -0.0329   0.0938  -0.0724   4.00    0.0
2018/11/09 00:23:15.000  -74.407206569  163.437651509    79.9904   6  11   0.0552   0.0642   0.2148  -0.0291   0.0836  -0.0640   5.00    0.0
2018/11/09 00:23:30.000  -74.407206436  163.437651592    79.9553   6  11   0.0490   0.0570   0.1897  -0.0255   0.0735  -0.0559   5.00    0.0
2018/11/09 00:23:45.000  -74.407206536  163.437651610    79.9514   6  11   0.0429   0.0497   0.1648  -0.0221   0.0635  -0.0481   5.00    0.0
2018/11/09 00:24:00.000  -74.407206617  163.437651361    79.9487   6  11   0.0368   0.0424   0.1404  -0.0190   0.0538  -0.0406   5.00    0.0
2018/11/09 00:24:15.000  -74.407206679  163.437651439    79.9736   6  11   0.0311   0.0352   0.1167  -0.0161   0.0443  -0.0336   5.00    0.0
2018/11/09 00:24:30.000  -74.407206704  163.437651351    79.9587   6  11   0.0258   0.0285   0.0944  -0.0135   0.0354  -0.0271   5.00    0.0
2018/11/09 00:24:45.000  -74.407206765  163.437651094    79.9611   6  11   0.0217   0.0230   0.0755  -0.0114   0.0276  -0.0215   5.00    0.0
2018/11/09 00:25:00.000  -74.407206770  163.437650712    79.9525   6  11   0.0196   0.0202   0.0647  -0.0098   0.0229  -0.0181   5.00    0.0
2018/11/09 00:25:15.000  -74.407206921  163.437651211    80.0161   1  11   0.0210   0.0249   0.0863  -0.0121   0.0340  -0.0306   5.00    1.0
2018/11/09 00:25:30.000  -74.407206915  163.437650981    80.0285   1  11   0.0269   0.0328   0.1118  -0.0167   0.0448  -0.0394   5.00    1.0
2018/11/09 00:25:45.000  -74.407206933  163.437650386    80.0655   6  11   0.0307   0.0382   0.1141  -0.0161   0.0421  -0.0319   5.00    0.0
2018/11/09 00:26:00.000  -74.407206852  163.437650045    80.0427   6  11   0.0364   0.0434   0.1377  -0.0187   0.0523  -0.0390   4.00    0.0
2018/11/09 00:26:15.000  -74.407206662  163.437649111    79.9500   6  11   0.0423   0.0507   0.1623  -0.0219   0.0620  -0.0466   4.00    0.0
2018/11/09 00:26:30.000  -74.407206728  163.437649093    79.9737   6  11   0.0483   0.0581   0.1874  -0.0254   0.0719  -0.0546   4.00    0.0
2018/11/09 00:26:45.000  -74.407206669  163.437648734    79.9779   6  11   0.0544   0.0657   0.2128  -0.0291   0.0821  -0.0629   4.00    0.0
2018/11/09 00:27:00.000  -74.407206703  163.437649089    80.0487   6  11   0.0605   0.0737   0.2384  -0.0332   0.0923  -0.0716   4.00    0.0
2018/11/09 00:27:15.000  -74.407206705  163.437648862    80.0698   6  11   0.0666   0.0834   0.2641  -0.0379   0.1022  -0.0804   5.00    0.0
2018/11/09 00:27:30.000  -74.407206758  163.437649367    80.0597   6  11   0.0725   0.0858   0.2898  -0.0407   0.1145  -0.0898   4.00    0.0
2018/11/09 00:27:45.000  -74.407206802  163.437649513    80.0774   6  11   0.0666   0.0778   0.2647  -0.0364   0.1039  -0.0811   4.00    0.0
2018/11/09 00:28:00.000  -74.407206797  163.437649768    80.0644   6  11   0.0604   0.0704   0.2390  -0.0323   0.0932  -0.0721   4.00    0.0
2018/11/09 00:28:15.000  -74.407206867  163.437650464    80.0762   6  11   0.0543   0.0631   0.2133  -0.0284   0.0827  -0.0633   4.00    0.0
2018/11/09 00:28:30.000  -74.407206876  163.437650549    80.0467   6  11   0.0482   0.0558   0.1879  -0.0246   0.0724  -0.0548   4.00    0.0
2018/11/09 00:28:45.000  -74.407206965  163.437651616    80.0464   6  11   0.0421   0.0486   0.1628  -0.0211   0.0623  -0.0468   4.00    0.0
2018/11/09 00:29:00.000  -74.407206920  163.437651802    80.0382   6  11   0.0362   0.0414   0.1382  -0.0179   0.0525  -0.0392   4.00    0.0
2018/11/09 00:29:15.000  -74.407206823  163.437651240    79.9776   6  11   0.0306   0.0343   0.1147  -0.0150   0.0432  -0.0322   4.00    0.0
2018/11/09 00:29:30.000  -74.407206943  163.437651742    80.0171   1  11   0.0272   0.0307   0.1138  -0.0165   0.0455  -0.0407   5.00    1.0
2018/11/09 00:29:45.000  -74.407206898  163.437651048    79.9539   1  11   0.0214   0.0238   0.0892  -0.0124   0.0352  -0.0324   5.00    1.0
2018/11/09 00:30:00.000  -74.407206849  163.437650632    79.9743   6  11   0.0193   0.0192   0.0650  -0.0094   0.0232  -0.0179   4.00    0.0
2018/11/09 00:30:15.000  -74.407206825  163.437650693    79.9884   1  11   0.0216   0.0239   0.0897  -0.0128   0.0355  -0.0329   5.00    1.0
2018/11/09 00:30:30.000  -74.407206791  163.437650405    79.9623   1  11   0.0273   0.0307   0.1145  -0.0167   0.0457  -0.0414   5.00    1.0
2018/11/09 00:30:45.000  -74.407206781  163.437649605    79.9664   6  11   0.0303   0.0338   0.1125  -0.0145   0.0422  -0.0312   4.00    0.0
2018/11/09 00:31:00.000  -74.407206654  163.437649057    79.9537   6  11   0.0358   0.0407   0.1355  -0.0172   0.0512  -0.0380   4.00    0.0
2018/11/09 00:31:15.000  -74.407206777  163.437649788    80.0079   6  11   0.0416   0.0476   0.1594  -0.0202   0.0607  -0.0454   4.00    0.0
2018/11/09 00:31:30.000  -74.407206893  163.437650345    80.0284   6  11   0.0474   0.0545   0.1839  -0.0235   0.0704  -0.0532   4.00    0.0
2018/11/09 00:31:45.000  -74.407206927  163.437649872    80.0014   6  11   0.0533   0.0614   0.2085  -0.0270   0.0802  -0.0614   5.00    0.0
2018/11/09 00:32:00.000  -74.407206951  163.437649796    79.9784   6  11   0.0592   0.0682   0.2333  -0.0306   0.0902  -0.0698   5.00    0.0
2018/11/09 00:32:15.000  -74.407206960  163.437649748    79.9785   6  11   0.0651   0.0749   0.2580  -0.0343   0.1001  -0.0783   5.00    0.0
2018/11/09 00:32:30.000  -74.407206832  163.437648952    79.9334   6  11   0.0709   0.0816   0.2827  -0.0380   0.1101  -0.0869   5.00    0.0
2018/11/09 00:32:45.000  -74.407206779  163.437649010    79.9411   6  11   0.0650   0.0749   0.2577  -0.0343   0.0999  -0.0778   5.00    0.0
2018/11/09 00:33:00.000  -74.407206719  163.437649225    79.9070   6  11   0.0590   0.0680   0.2324  -0.0304   0.0896  -0.0690   5.00    0.0
2018/11/09 00:33:15.000  -74.407206666  163.437649383    79.8992   6  11   0.0530   0.0611   0.2073  -0.0267   0.0794  -0.0604   5.00    0.0
2018/11/09 00:33:30.000  -74.407206642  163.437648996    79.8719   6  11   0.0471   0.0541   0.1824  -0.0231   0.0694  -0.0521   5.00    0.0
2018/11/09 00:33:45.000  -74.407206659  163.437649156    79.9093   6  11   0.0412   0.0472   0.1581  -0.0198   0.0596  -0.0443   5.00    0.0
2018/11/09 00:34:00.000  -74.407206741  163.437649977    79.9678   6  11   0.0355   0.0403   0.1344  -0.0167   0.0502  -0.0370   5.00    0.0
2018/11/09 00:34:15.000  -74.407206822  163.437649958    79.9383   6  11   0.0300   0.0335   0.1119  -0.0141   0.0413  -0.0306   5.00    0.0
2018/11/09 00:34:30.000  -74.407206908  163.437650292    79.9115   1  11   0.0277   0.0306   0.1154  -0.0170   0.0456  -0.0421   5.00    1.0
2018/11/09 00:34:45.000  -74.407206970  163.437650646    79.9647   1  11   0.0222   0.0241   0.0925  -0.0134   0.0361  -0.0347   5.00    1.0
2018/11/09 00:35:00.000  -74.407206952  163.437650852    79.9954   1  11   0.0192   0.0207   0.0799  -0.0113   0.0310  -0.0307   5.00    1.0
2018/11/09 00:35:15.000  -74.407206872  163.437650879    80.0149   1  11   0.0225   0.0241   0.0935  -0.0136   0.0365  -0.0355   5.00    1.0
2018/11/09 00:35:30.000  -74.407206875  163.437650908    80.0283   1  11   0.0282   0.0307   0.1169  -0.0173   0.0459  -0.0433   5.00    1.0
2018/11/09 00:35:45.000  -74.407206837  163.437650371    80.0866   6  11   0.0299   0.0330   0.1100  -0.0136   0.0401  -0.0301   5.00    0.0
2018/11/09 00:36:00.000  -74.407206788  163.437649855    80.0586   6  11   0.0352   0.0395   0.1314  -0.0161   0.0485  -0.0362   5.00    0.0
2018/11/09 00:36:15.000  -74.407206790  163.437649605    80.0558   6  11   0.0408   0.0462   0.1538  -0.0189   0.0574  -0.0430   5.00    0.0
2018/11/09 00:36:30.000  -74.407207004  163.437649875    80.1358   6  11   0.0464   0.0528   0.1767  -0.0219   0.0664  -0.0502   5.00    0.0
2018/11/09 00:36:45.000  -74.407207021  163.437650242    80.1260   6  11   0.0521   0.0594   0.1997  -0.0251   0.0756  -0.0578   5.00    0.0
2018/11/09 00:37:00.000  -74.407206912  163.437650129    80.0792   6  11   0.0577   0.0659   0.2228  -0.0285   0.0848  -0.0655   5.00    0.0
2018/11/09 00:37:15.000  -74.407206836  163.437649887    80.0508   6  11   0.0633   0.0724   0.2459  -0.0318   0.0940  -0.0734   5.00    0.0
2018/11/09 00:37:30.000  -74.407206796  163.437650280    80.0798   6  11   0.0690   0.0789   0.2689  -0.0352   0.1031  -0.0814   5.00    0.0
2018/11/09 00:37:45.000  -74.407206687  163.437650050    80.0124   6  11   0.0632   0.0721   0.2444  -0.0313   0.0931  -0.0730   5.00    0.0
2018/11/09 00:38:00.000  -74.407206613  163.437649747    79.9745   6  11   0.0574   0.0654   0.2204  -0.0277   0.0834  -0.0646   5.00    0.0
2018/11/09 00:38:15.000  -74.407206609  163.437650021    79.9838   6  11   0.0517   0.0587   0.1967  -0.0242   0.0738  -0.0566   5.00    0.0
2018/11/09 00:38:30.000  -74.407206668  163.437650487    80.0259   6  11   0.0460   0.0521   0.1733  -0.0208   0.0644  -0.0489   5.00    0.0
2018/11/09 00:38:45.000  -74.407206753  163.437650737    80.0697   6  11   0.0404   0.0454   0.1506  -0.0177   0.0552  -0.0417   5.00    0.0
2018/11/09 00:39:00.000  -74.407206828  163.437650927    80.0897   6  11   0.0349   0.0388   0.1287  -0.0149   0.0465  -0.0351   5.00    0.0
2018/11/09 00:39:15.000  -74.407206843  163.437650558    80.0432   6  11   0.0297   0.0323   0.1080  -0.0125   0.0382  -0.0294   5.00    0.0
2018/11/09 00:39:30.000  -74.407206921  163.437650522    80.0222   1  11   0.0285   0.0300   0.1168  -0.0168   0.0444  -0.0442   5.00    1.0
2018/11/09 00:39:45.000  -74.407206996  163.437650783    80.0372   1  11   0.0235   0.0238   0.0965  -0.0137   0.0361  -0.0380   5.00    1.0
2018/11/09 00:40:00.000  -74.407207068  163.437650839    80.0226   1  11   0.0206   0.0206   0.0861  -0.0122   0.0319  -0.0347   5.00    1.0
2018/11/09 00:40:15.000  -74.407207041  163.437651194    79.9812   1  11   0.0250   0.0240   0.1032  -0.0146   0.0376  -0.0420   5.00    1.0
2018/11/09 00:40:30.000  -74.407207011  163.437651067    79.9640   1  11   0.0324   0.0304   0.1320  -0.0191   0.0479  -0.0538   5.00    1.0
2018/11/09 00:40:45.000  -74.407206909  163.437651422    79.9781   6  11   0.0312   0.0318   0.1124  -0.0126   0.0376  -0.0349   5.00    0.0
2018/11/09 00:41:00.000  -74.407206817  163.437651217    79.9581   6  11   0.0370   0.0381   0.1342  -0.0152   0.0457  -0.0425   5.00    0.0
2018/11/09 00:41:15.000  -74.407206848  163.437650857    80.0031   6  11   0.0430   0.0445   0.1573  -0.0182   0.0543  -0.0509   5.00    0.0
2018/11/09 00:41:30.000  -74.407206895  163.437650814    80.0330   6  11   0.0493   0.0509   0.1815  -0.0216   0.0633  -0.0601   5.00    0.0
2018/11/09 00:41:45.000  -74.407206852  163.437650924    80.0515   6  11   0.0560   0.0573   0.2072  -0.0254   0.0727  -0.0706   5.00    0.0
2018/11/09 00:42:00.000  -74.407206765  163.437650602    80.0296   6  11   0.0633   0.0637   0.2355  -0.0296   0.0827  -0.0830   5.00    0.0
2018/11/09 00:42:15.000  -74.407206699  163.437650292    80.0277   6  11   0.0722   0.0703   0.2699  -0.0348   0.0940  -0.0997   5.00    0.0
2018/11/09 00:42:30.000  -74.407206430  163.437649702    79.8976   6  10   0.1092   0.0831   0.4233  -0.0626   0.1429  -0.1872   4.00    0.0
2018/11/09 00:42:45.000  -74.407206549  163.437649904    79.9030   6  10   0.0992   0.0759   0.3835  -0.0562   0.1287  -0.1687   4.00    0.0
2018/11/09 00:43:00.000  -74.407206680  163.437650156    79.9114   6  10   0.0892   0.0686   0.3436  -0.0498   0.1147  -0.1504   4.00    0.0
2018/11/09 00:43:15.000  -74.407206718  163.437649992    79.9026   6  10   0.0792   0.0614   0.3040  -0.0436   0.1009  -0.1321   4.00    0.0
2018/11/09 00:43:30.000  -74.407206830  163.437649690    79.9324   6  10   0.0693   0.0543   0.2648  -0.0374   0.0873  -0.1141   4.00    0.0
2018/11/09 00:43:45.000  -74.407206914  163.437649612    79.9606   6  10   0.0594   0.0471   0.2263  -0.0314   0.0739  -0.0963   4.00    0.0
2018/11/09 00:44:00.000  -74.407207110  163.437649864    80.0459   6  10   0.0498   0.0401   0.1887  -0.0256   0.0608  -0.0790   4.00    0.0
2018/11/09 00:44:15.000  -74.407207068  163.437649892    80.0436   6  10   0.0404   0.0332   0.1526  -0.0201   0.0483  -0.0622   4.00    0.0
2018/11/09 00:44:30.000  -74.407207134  163.437650404    80.0763   6  10   0.0318   0.0266   0.1191  -0.0151   0.0368  -0.0465   4.00    0.0
2018/11/09 00:44:45.000  -74.407207088  163.437650607    80.0275   1  10   0.0308   0.0233   0.1192  -0.0187   0.0370  -0.0528   5.00    1.0
2018/11/09 00:45:00.000  -74.407207169  163.437650967    80.0734   1  10   0.0251   0.0198   0.0950  -0.0157   0.0291  -0.0419   5.00    1.0
2018/11/09 00:45:15.000  -74.407207067  163.437650224    80.0255   1  10   0.0305   0.0232   0.1206  -0.0184   0.0363  -0.0527   5.00    1.0
2018/11/09 00:45:30.000  -74.407206724  163.437649340    79.8995   6  10   0.0315   0.0263   0.1209  -0.0146   0.0350  -0.0459   4.00    0.0
2018/11/09 00:45:45.000  -74.407206712  163.437649412    79.8870   6  10   0.0400   0.0326   0.1595  -0.0191   0.0449  -0.0620   4.00    0.0
2018/11/09 00:46:00.000  -74.407206726  163.437649720    79.9421   6   9   0.0501   0.0391   0.2076  -0.0245   0.0575  -0.0828   4.00    0.0
2018/11/09 00:46:15.000  -74.407206909  163.437649926    80.0307   6   9   0.0597   0.0457   0.2498  -0.0297   0.0692  -0.1010   4.00    0.0
2018/11/09 00:46:30.000  -74.407206988  163.437649716    80.0391   6   9   0.0695   0.0523   0.2925  -0.0350   0.0811  -0.1194   4.00    0.0
2018/11/09 00:46:45.000  -74.407206704  163.437648869    79.9623   6   9   0.0792   0.0588   0.3354  -0.0403   0.0928  -0.1380   4.00    0.0
2018/11/09 00:47:00.000  -74.407206723  163.437648902    79.9469   6   9   0.0890   0.0653   0.3783  -0.0455   0.1045  -0.1564   4.00    0.0
2018/11/09 00:47:15.000  -74.407206630  163.437648707    79.8652   6   9   0.0987   0.0718   0.4212  -0.0507   0.1159  -0.1749   4.00    0.0
2018/11/09 00:47:30.000  -74.407206617  163.437648456    79.8496   6   9   0.1084   0.0783   0.4639  -0.0558   0.1272  -0.1932   4.00    0.0
2018/11/09 00:47:45.000  -74.407206730  163.437648576    79.8936   6   9   0.0981   0.0712   0.4182  -0.0496   0.1136  -0.1733   4.00    0.0
2018/11/09 00:48:00.000  -74.407206810  163.437648715    79.9145   6   9   0.0881   0.0644   0.3743  -0.0438   0.1008  -0.1543   4.00    0.0
2018/11/09 00:48:15.000  -74.407206919  163.437648900    79.9498   6   9   0.0782   0.0576   0.3306  -0.0381   0.0881  -0.1354   4.00    0.0
2018/11/09 00:48:30.000  -74.407207106  163.437649417    80.0493   6   9   0.0683   0.0510   0.2872  -0.0325   0.0757  -0.1166   4.00    0.0
2018/11/09 00:48:45.000  -74.407207224  163.437649761    80.1180   6   9   0.0585   0.0444   0.2442  -0.0271   0.0635  -0.0980   4.00    0.0
2018/11/09 00:49:00.000  -74.407207228  163.437649884    80.1153   6  10   0.0489   0.0378   0.2019  -0.0219   0.0518  -0.0797   4.00    0.0
2018/11/09 00:49:15.000  -74.407207187  163.437650085    80.1005   6  10   0.0341   0.0314   0.1288  -0.0169   0.0404  -0.0436   4.00    0.0
2018/11/09 00:49:30.000  -74.407207221  163.437650663    80.0661   1  10   0.0309   0.0288   0.1243  -0.0174   0.0415  -0.0476   5.00    1.0
2018/11/09 00:49:45.000  -74.407207177  163.437650530    80.0247   1  10   0.0244   0.0226   0.1000  -0.0132   0.0328  -0.0394   5.00    1.0
2018/11/09 00:50:00.000  -74.407207247  163.437650894    80.0612   1  10   0.0210   0.0197   0.0862  -0.0111   0.0285  -0.0348   5.00    1.0
2018/11/09 00:50:15.000  -74.407207223  163.437650991    80.0344   1  10   0.0264   0.0225   0.1105  -0.0136   0.0333  -0.0450   5.00    1.0
2018/11/09 00:50:30.000  -74.407207081  163.437650403    79.9748   6  10   0.0278   0.0247   0.1029  -0.0095   0.0245  -0.0344   4.00    0.0
2018/11/09 00:50:45.000  -74.407207136  163.437650234    79.9992   6  10   0.0372   0.0309   0.1476  -0.0160   0.0386  -0.0552   4.00    0.0
2018/11/09 00:51:00.000  -74.407207148  163.437650268    79.9997   6  10   0.0442   0.0367   0.1755  -0.0179   0.0435  -0.0663   4.00    0.0
2018/11/09 00:51:15.000  -74.407207126  163.437650622    80.0307   6  10   0.0467   0.0431   0.1798  -0.0238   0.0565  -0.0629   4.00    0.0
2018/11/09 00:51:30.000  -74.407207165  163.437650510    80.0555   6  10   0.0519   0.0489   0.1972  -0.0264   0.0627  -0.0676   4.00    0.0
2018/11/09 00:51:45.000  -74.407207140  163.437650481    80.0914   6  10   0.0577   0.0549   0.2182  -0.0298   0.0702  -0.0743   4.00    0.0
2018/11/09 00:52:00.000  -74.407207024  163.437649888    80.0775   6  10   0.0638   0.0610   0.2411  -0.0334   0.0782  -0.0821   4.00    0.0
2018/11/09 00:52:15.000  -74.407207052  163.437649705    80.0578   6  10   0.0700   0.0671   0.2649  -0.0371   0.0865  -0.0904   4.00    0.0
2018/11/09 00:52:30.000  -74.407207054  163.437649540    80.0282   6  10   0.0764   0.0732   0.2895  -0.0409   0.0948  -0.0990   4.00    0.0
2018/11/09 00:52:45.000  -74.407207190  163.437649544    80.0336   6  10   0.0699   0.0673   0.2642  -0.0370   0.0860  -0.0897   4.00    0.0
2018/11/09 00:53:00.000  -74.407207211  163.437649555    80.0373   6  10   0.0633   0.0609   0.2385  -0.0328   0.0768  -0.0802   4.00    0.0
2018/11/09 00:53:15.000  -74.407207073  163.437649166    79.9906   6  10   0.0568   0.0546   0.2128  -0.0287   0.0677  -0.0708   4.00    0.0
2018/11/09 00:53:30.000  -74.407207050  163.437649228    79.9804   6  10   0.0502   0.0484   0.1872  -0.0247   0.0587  -0.0613   4.00    0.0
2018/11/09 00:53:45.000  -74.407207188  163.437649723    80.0196   6  10   0.0438   0.0422   0.1617  -0.0208   0.0498  -0.0519   4.00    0.0
2018/11/09 00:54:00.000  -74.407207280  163.437650016    80.0160   6  10   0.0374   0.0361   0.1367  -0.0171   0.0412  -0.0426   4.00    0.0
2018/11/09 00:54:15.000  -74.407207316  163.437650256    80.0112   6  10   0.0312   0.0301   0.1122  -0.0135   0.0329  -0.0336   5.00    0.0
2018/11/09 00:54:30.000  -74.407207367  163.437650335    80.0390   1  10   0.0300   0.0273   0.1130  -0.0176   0.0340  -0.0415   5.00    1.0
2018/11/09 00:54:45.000  -74.407207358  163.437650424    80.0445   1  10   0.0235   0.0210   0.0860  -0.0140   0.0245  -0.0325   5.00    1.0
2018/11/09 00:55:00.000  -74.407207234  163.437650430    80.0497   1  10   0.0201   0.0179   0.0696  -0.0122   0.0190  -0.0272   5.00    1.0
2018/11/09 00:55:15.000  -74.407207243  163.437650377    80.0699   1  10   0.0235   0.0210   0.0854  -0.0138   0.0241  -0.0321   5.00    1.0
2018/11/09 00:55:30.000  -74.407207190  163.437649709    80.0396   1  10   0.0299   0.0270   0.1122  -0.0172   0.0331  -0.0410   5.00    1.0
2018/11/09 00:55:45.000  -74.407207184  163.437649943    80.0006   6  10   0.0304   0.0296   0.1072  -0.0124   0.0307  -0.0312   5.00    0.0
2018/11/09 00:56:00.000  -74.407207211  163.437650065    80.0289   6  10   0.0364   0.0354   0.1306  -0.0157   0.0383  -0.0398   5.00    0.0
2018/11/09 00:56:15.000  -74.407207217  163.437649733    79.9824   6  10   0.0425   0.0412   0.1550  -0.0192   0.0461  -0.0488   5.00    0.0
2018/11/09 00:56:30.000  -74.407207187  163.437649606    79.9286   6  10   0.0488   0.0471   0.1801  -0.0228   0.0541  -0.0580   5.00    0.0
2018/11/09 00:56:45.000  -74.407207203  163.437649852    79.8878   6  10   0.0552   0.0529   0.2055  -0.0265   0.0620  -0.0673   5.00    0.0
2018/11/09 00:57:00.000  -74.407207267  163.437650302    79.8866   6  10   0.0617   0.0588   0.2312  -0.0301   0.0699  -0.0766   5.00    0.0
2018/11/09 00:57:15.000  -74.407207301  163.437650069    79.9036   6  10   0.0682   0.0646   0.2570  -0.0338   0.0777  -0.0859   5.00    0.0
2018/11/09 00:57:30.000  -74.407207255  163.437649954    79.8770   6  10   0.0748   0.0705   0.2830  -0.0375   0.0854  -0.0953   5.00    0.0
2018/11/09 00:57:45.000  -74.407207285  163.437650061    79.8821   6  10   0.0680   0.0642   0.2562  -0.0333   0.0764  -0.0857   5.00    0.0
2018/11/09 00:58:00.000  -74.407207267  163.437649963    79.8836   6  10   0.0615   0.0581   0.2302  -0.0293   0.0678  -0.0762   5.00    0.0
2018/11/09 00:58:15.000  -74.407207400  163.437649983    79.9247   6  10   0.0550   0.0521   0.2043  -0.0254   0.0593  -0.0668   5.00    0.0
2018/11/09 00:58:30.000  -74.407207342  163.437650088    79.9496   6  10   0.0485   0.0462   0.1786  -0.0216   0.0510  -0.0574   5.00    0.0
2018/11/09 00:58:45.000  -74.407207247  163.437649919    79.9496   6  10   0.0422   0.0403   0.1533  -0.0179   0.0429  -0.0481   5.00    0.0
2018/11/09 00:59:00.000  -74.407207224  163.437649961    79.9485   6  10   0.0360   0.0345   0.1284  -0.0144   0.0350  -0.0389   5.00    0.0
2018/11/09 00:59:15.000  -74.407207247  163.437649563    79.9672   1  10   0.0358   0.0339   0.1402  -0.0182   0.0413  -0.0492   4.00    2.0
2018/11/09 00:59:30.000  -74.407207231  163.437649558    79.9574   1  10   0.0275   0.0267   0.1077  -0.0135   0.0318  -0.0379   4.00    2.0
2018/11/09 00:59:45.000  -74.407207118  163.437649435    79.9461   1  10   0.0206   0.0210   0.0798  -0.0098   0.0242  -0.0283   4.00    2.0
2018/11/09 01:00:00.000  -74.407207207  163.437650410    80.0235   1  10   0.0168   0.0184   0.0637  -0.0077   0.0206  -0.0227   4.00    2.0
2018/11/09 01:00:15.000  -74.407207250  163.437650763    80.0621   1  10   0.0205   0.0210   0.0790  -0.0095   0.0237  -0.0279   4.00    2.0
2018/11/09 01:00:30.000  -74.407207294  163.437650968    80.0655   1  10   0.0274   0.0264   0.1065  -0.0132   0.0307  -0.0374   4.00    2.0
2018/11/09 01:00:45.000  -74.407207312  163.437650601    80.0195   1  10   0.0356   0.0334   0.1387  -0.0175   0.0394  -0.0484   4.00    2.0
2018/11/09 01:01:00.000  -74.407207252  163.437650281    79.9732   6  10   0.0355   0.0338   0.1262  -0.0133   0.0329  -0.0385   5.00    0.0
2018/11/09 01:01:15.000  -74.407207267  163.437650525    79.9661   6  10   0.0416   0.0394   0.1508  -0.0165   0.0398  -0.0476   5.00    0.0
2018/11/09 01:01:30.000  -74.407207296  163.437650771    79.9585   6  10   0.0479   0.0450   0.1759  -0.0198   0.0467  -0.0567   5.00    0.0
2018/11/09 01:01:45.000  -74.407207336  163.437651319    79.9780   6  10   0.0542   0.0506   0.2013  -0.0232   0.0535  -0.0659   5.00    0.0
2018/11/09 01:02:00.000  -74.407207240  163.437651203    79.9179   6  10   0.0607   0.0562   0.2268  -0.0265   0.0603  -0.0750   5.00    0.0
2018/11/09 01:02:15.000  -74.407207200  163.437651189    79.9554   6  10   0.0671   0.0618   0.2524  -0.0299   0.0669  -0.0842   5.00    0.0
2018/11/09 01:02:30.000  -74.407207097  163.437651081    79.9233   6  10   0.0736   0.0674   0.2781  -0.0332   0.0734  -0.0932   5.00    0.0
2018/11/09 01:02:45.000  -74.407207112  163.437650782    79.9115   6  10   0.0673   0.0616   0.2530  -0.0295   0.0657  -0.0844   5.00    0.0
2018/11/09 01:03:00.000  -74.407207115  163.437650677    79.8812   6  10   0.0607   0.0558   0.2270  -0.0258   0.0581  -0.0750   5.00    0.0
2018/11/09 01:03:15.000  -74.407207090  163.437650588    79.9199   6  10   0.0542   0.0501   0.2011  -0.0222   0.0507  -0.0656   5.00    0.0
2018/11/09 01:03:30.000  -74.407207198  163.437650858    79.9511   6  10   0.0478   0.0444   0.1754  -0.0187   0.0434  -0.0563   5.00    0.0
2018/11/09 01:03:45.000  -74.407207191  163.437650488    79.9570   6  10   0.0415   0.0388   0.1500  -0.0153   0.0362  -0.0471   5.00    0.0
2018/11/09 01:04:00.000  -74.407207199  163.437650488    79.9694   6  10   0.0354   0.0333   0.1251  -0.0121   0.0293  -0.0379   5.00    0.0
2018/11/09 01:04:15.000  -74.407207245  163.437649902    79.9820   1  10   0.0355   0.0326   0.1369  -0.0161   0.0349  -0.0473   4.00    2.0
2018/11/09 01:04:30.000  -74.407207309  163.437649968    79.9681   1  10   0.0272   0.0258   0.1041  -0.0119   0.0268  -0.0361   4.00    2.0
2018/11/09 01:04:45.000  -74.407207235  163.437650054    79.9795   1  10   0.0203   0.0205   0.0759  -0.0085   0.0205  -0.0264   4.00    2.0
2018/11/09 01:05:00.000  -74.407207160  163.437650144    79.9964   1  10   0.0164   0.0178   0.0595  -0.0069   0.0175  -0.0209   4.00    2.0
2018/11/09 01:05:15.000  -74.407207230  163.437650230    80.0293   1  10   0.0209   0.0204   0.0778  -0.0088   0.0206  -0.0282   4.00    1.0
2018/11/09 01:05:30.000  -74.407207235  163.437650203    80.0894   1  10   0.0276   0.0257   0.1047  -0.0119   0.0261  -0.0370   4.00    1.0
2018/11/09 01:05:45.000  -74.407207312  163.437650223    80.1507   1  10   0.0357   0.0323   0.1364  -0.0156   0.0330  -0.0475   4.00    1.0
2018/11/09 01:06:00.000  -74.407207162  163.437650629    80.1648   6  10   0.0349   0.0327   0.1228  -0.0108   0.0271  -0.0372   5.00    0.0
2018/11/09 01:06:15.000  -74.407207140  163.437650649    80.2165   6  10   0.0410   0.0380   0.1471  -0.0137   0.0327  -0.0461   5.00    0.0
2018/11/09 01:06:30.000  -74.407207118  163.437651215    80.2765   6  10   0.0472   0.0433   0.1717  -0.0166   0.0382  -0.0549   5.00    0.0
2018/11/09 01:06:45.000  -74.407207077  163.437651243    80.2802   6  10   0.0535   0.0487   0.1965  -0.0196   0.0437  -0.0638   5.00    0.0
2018/11/09 01:07:00.000  -74.407207016  163.437651347    80.2341   6  10   0.0598   0.0541   0.2215  -0.0226   0.0490  -0.0726   5.00    0.0
2018/11/09 01:07:15.000  -74.407207030  163.437650894    80.1509   6  10   0.0662   0.0596   0.2464  -0.0256   0.0542  -0.0813   5.00    0.0
2018/11/09 01:07:30.000  -74.407207084  163.437650751    80.0894   6  10   0.0727   0.0650   0.2714  -0.0285   0.0593  -0.0900   5.00    0.0
2018/11/09 01:07:45.000  -74.407207122  163.437651238    80.0384   6  10   0.0661   0.0594   0.2456  -0.0253   0.0529  -0.0809   5.00    0.0
2018/11/09 01:08:00.000  -74.407207113  163.437651405    80.0047   6  10   0.0596   0.0539   0.2200  -0.0220   0.0466  -0.0718   5.00    0.0
2018/11/09 01:08:15.000  -74.407207056  163.437650998    79.9722   6  10   0.0532   0.0483   0.1946  -0.0187   0.0404  -0.0627   5.00    0.0
2018/11/09 01:08:30.000  -74.407207117  163.437651122    80.0141   6  10   0.0468   0.0429   0.1694  -0.0156   0.0344  -0.0537   5.00    0.0
2018/11/09 01:08:45.000  -74.407207057  163.437650673    79.9658   6  10   0.0406   0.0375   0.1445  -0.0125   0.0285  -0.0447   5.00    0.0
2018/11/09 01:09:00.000  -74.407207059  163.437650396    79.9587   6  10   0.0345   0.0322   0.1201  -0.0096   0.0229  -0.0358   5.00    0.0
2018/11/09 01:09:15.000  -74.407207198  163.437649846    80.0129   1  10   0.0351   0.0317   0.1326  -0.0142   0.0279  -0.0456   4.00    1.0
2018/11/09 01:09:30.000  -74.407207172  163.437649466    80.0139   1  10   0.0271   0.0252   0.1010  -0.0106   0.0217  -0.0351   4.00    1.0
2018/11/09 01:09:45.000  -74.407207119  163.437649567    79.9680   1  11   0.0179   0.0196   0.0645  -0.0046   0.0119  -0.0182   4.00    1.0
2018/11/09 01:10:00.000  -74.407207131  163.437649971    79.9529   1  11   0.0156   0.0174   0.0534  -0.0041   0.0123  -0.0168   4.00    1.0
2018/11/09 01:10:15.000  -74.407207111  163.437650188    79.9374   1  11   0.0179   0.0197   0.0642  -0.0041   0.0116  -0.0180   4.00    1.0
2018/11/09 01:10:30.000  -74.407207099  163.437650344    79.9077   1  11   0.0228   0.0244   0.0833  -0.0047   0.0097  -0.0198   4.00    1.0
2018/11/09 01:10:45.000  -74.407207096  163.437650104    79.8585   1  11   0.0288   0.0304   0.1063  -0.0050   0.0054  -0.0222   4.00    1.0
2018/11/09 01:11:00.000  -74.407207092  163.437649966    79.8510   1  11   0.0355   0.0372   0.1312  -0.0052  -0.0084  -0.0251   4.00    1.0
2018/11/09 01:11:15.000  -74.407206978  163.437650175    79.8622   6  11   0.0339   0.0357   0.1142   0.0087  -0.0120  -0.0105   5.00    0.0
2018/11/09 01:11:30.000  -74.407206987  163.437650028    79.8681   6  11   0.0386   0.0407   0.1328   0.0093  -0.0151  -0.0145   5.00    0.0
2018/11/09 01:11:45.000  -74.407207043  163.437650244    79.8567   6  11   0.0435   0.0457   0.1518   0.0098  -0.0182  -0.0185   5.00    0.0
2018/11/09 01:12:00.000  -74.407207093  163.437650436    79.8635   6  11   0.0485   0.0507   0.1710   0.0102  -0.0213  -0.0224   5.00    0.0
2018/11/09 01:12:15.000  -74.407207129  163.437651267    79.8425   6  11   0.0535   0.0559   0.1905   0.0104  -0.0245  -0.0263   5.00    0.0
2018/11/09 01:12:30.000  -74.407207115  163.437651303    79.8764   6  11   0.0586   0.0610   0.2100   0.0107  -0.0278  -0.0302   5.00    0.0
2018/11/09 01:12:45.000  -74.407207120  163.437650975    79.9162   6  11   0.0535   0.0559   0.1916   0.0103  -0.0255  -0.0274   5.00    0.0
2018/11/09 01:13:00.000  -74.407207133  163.437650821    79.9033   6  11   0.0485   0.0508   0.1724   0.0102  -0.0232  -0.0240   6.00    0.0
2018/11/09 01:13:15.000  -74.407207126  163.437650442    79.9366   6  11   0.0435   0.0457   0.1533   0.0099  -0.0208  -0.0204   5.00    0.0
2018/11/09 01:13:30.000  -74.407207136  163.437649911    79.9314   6  11   0.0386   0.0406   0.1343   0.0095  -0.0183  -0.0167   6.00    0.0
2018/11/09 01:13:45.000  -74.407207127  163.437650441    79.9751   6  12   0.0332   0.0342   0.1118   0.0033  -0.0232  -0.0189   6.00    0.0
2018/11/09 01:14:00.000  -74.407207236  163.437649974    80.0142   1  12   0.0348   0.0354   0.1263  -0.0098  -0.0266  -0.0313   5.00    1.0
2018/11/09 01:14:15.000  -74.407207198  163.437649850    80.0218   1  12   0.0283   0.0291   0.1025  -0.0080  -0.0197  -0.0261   5.00    1.0
2018/11/09 01:14:30.000  -74.407207200  163.437650231    80.0306   1  12   0.0223   0.0235   0.0803  -0.0063  -0.0125  -0.0215   5.00    1.0
2018/11/09 01:14:45.000  -74.407207177  163.437650243    80.0203   1  12   0.0175   0.0192   0.0615  -0.0049  -0.0041  -0.0179   5.00    1.0
2018/11/09 01:15:00.000  -74.407207219  163.437650025    79.9794   1  12   0.0150   0.0171   0.0506  -0.0041   0.0069  -0.0161   5.00    1.0
2018/11/09 01:15:15.000  -74.407207264  163.437650257    79.9539   1  12   0.0176   0.0191   0.0613  -0.0054  -0.0048  -0.0177   5.00    1.0
2018/11/09 01:15:30.000  -74.407207324  163.437650619    79.9345   1  12   0.0222   0.0235   0.0803  -0.0061  -0.0135  -0.0213   5.00    1.0
2018/11/09 01:15:45.000  -74.407207335  163.437650733    79.9505   1  12   0.0282   0.0291   0.1029  -0.0078  -0.0209  -0.0260   5.00    1.0
2018/11/09 01:16:00.000  -74.407207395  163.437650925    79.9542   1  12   0.0347   0.0354   0.1274  -0.0094  -0.0282  -0.0314   5.00    1.0
2018/11/09 01:16:15.000  -74.407207284  163.437651500    79.9527   6  12   0.0329   0.0336   0.1105   0.0042  -0.0257  -0.0204   6.00    0.0
2018/11/09 01:16:30.000  -74.407207270  163.437651639    79.9527   6  12   0.0376   0.0383   0.1288   0.0030  -0.0306  -0.0256   6.00    0.0
2018/11/09 01:16:45.000  -74.407207309  163.437651876    79.9682   6  12   0.0424   0.0430   0.1474  -0.0023  -0.0356  -0.0307   6.00    0.0
2018/11/09 01:17:00.000  -74.407207364  163.437652083    79.9394   6  12   0.0472   0.0478   0.1663  -0.0050  -0.0406  -0.0357   6.00    0.0
2018/11/09 01:17:15.000  -74.407207351  163.437651992    79.9620   6  12   0.0522   0.0526   0.1854  -0.0070  -0.0456  -0.0407   6.00    0.0
2018/11/09 01:17:30.000  -74.407207286  163.437652142    79.9538   6  12   0.0572   0.0575   0.2047  -0.0088  -0.0507  -0.0457   6.00    0.0
2018/11/09 01:17:45.000  -74.407207270  163.437652022    79.9713   6  12   0.0523   0.0527   0.1858  -0.0073  -0.0459  -0.0409   6.00    0.0
2018/11/09 01:18:00.000  -74.407207259  163.437651732    79.9696   6  12   0.0474   0.0479   0.1671  -0.0050  -0.0412  -0.0360   7.00    0.0
2018/11/09 01:18:15.000  -74.407207240  163.437651656    79.9469   6  12   0.0425   0.0431   0.1484  -0.0020  -0.0365  -0.0312   7.00    0.0
2018/11/09 01:18:30.000  -74.407207306  163.437651977    79.9536   6  12   0.0377   0.0383   0.1299   0.0033  -0.0317  -0.0262   7.00    0.0
2018/11/09 01:18:45.000  -74.407207320  163.437651938    79.9472   6  12   0.0330   0.0337   0.1115   0.0045  -0.0270  -0.0210   7.00    0.0
2018/11/09 01:19:00.000  -74.407207539  163.437651443    79.9517   1  12   0.0349   0.0355   0.1286  -0.0092  -0.0301  -0.0317   5.00    1.0
2018/11/09 01:19:15.000  -74.407207520  163.437651319    79.9598   1  12   0.0283   0.0292   0.1035  -0.0074  -0.0231  -0.0260   5.00    1.0
2018/11/09 01:19:30.000  -74.407207396  163.437650886    79.9571   1  12   0.0223   0.0235   0.0801  -0.0060  -0.0161  -0.0209   5.00    1.0
2018/11/09 01:19:45.000  -74.407207287  163.437650350    79.9678   1  12   0.0174   0.0192   0.0603  -0.0054  -0.0096  -0.0170   5.00    1.0
2018/11/09 01:20:00.000  -74.407207180  163.437649988    79.9560   1  12   0.0152   0.0169   0.0493  -0.0043  -0.0044  -0.0151   5.00    1.0
2018/11/09 01:20:15.000  -74.407207111  163.437650415    79.9618   1  12   0.0174   0.0192   0.0602  -0.0049  -0.0099  -0.0168   5.00    1.0
2018/11/09 01:20:30.000  -74.407207054  163.437650410    79.9721   1  12   0.0222   0.0235   0.0800  -0.0060  -0.0167  -0.0208   5.00    1.0
2018/11/09 01:20:45.000  -74.407207156  163.437650288    79.9995   1  12   0.0283   0.0292   0.1037  -0.0074  -0.0240  -0.0260   5.00    1.0
2018/11/09 01:21:00.000  -74.407207090  163.437649765    80.0320   1  12   0.0349   0.0355   0.1293  -0.0087  -0.0314  -0.0319   5.00    1.0
2018/11/09 01:21:15.000  -74.407206717  163.437649995    80.0143   6  12   0.0328   0.0333   0.1122   0.0053  -0.0278  -0.0216   7.00    0.0
2018/11/09 01:21:30.000  -74.407206731  163.437650984    79.9666   6  12   0.0375   0.0379   0.1311   0.0047  -0.0329  -0.0269   7.00    0.0
2018/11/09 01:21:45.000  -74.407206658  163.437650766    79.9247   6  12   0.0424   0.0426   0.1503   0.0035  -0.0381  -0.0322   7.00    0.0
2018/11/09 01:22:00.000  -74.407206647  163.437651109    79.8866   6  12   0.0473   0.0474   0.1697  -0.0011  -0.0433  -0.0374   7.00    0.0
2018/11/09 01:22:15.000  -74.407206587  163.437650879    79.8692   6  12   0.0523   0.0523   0.1893  -0.0043  -0.0486  -0.0425   7.00    0.0
2018/11/09 01:22:30.000  -74.407206554  163.437651333    79.8662   6  12   0.0573   0.0572   0.2089  -0.0062  -0.0539  -0.0476   7.00    0.0
2018/11/09 01:22:45.000  -74.407206696  163.437651531    79.8515   6  12   0.0523   0.0523   0.1899  -0.0030  -0.0488  -0.0426   7.00    0.0
2018/11/09 01:23:00.000  -74.407206725  163.437651400    79.8739   6  12   0.0473   0.0475   0.1706   0.0031  -0.0438  -0.0375   7.00    0.0
2018/11/09 01:23:15.000  -74.407206753  163.437650934    79.9034   6  12   0.0424   0.0427   0.1513   0.0049  -0.0387  -0.0324   7.00    0.0
2018/11/09 01:23:30.000  -74.407206823  163.437650366    79.8975   6  12   0.0375   0.0379   0.1322   0.0058  -0.0337  -0.0273   7.00    0.0
2018/11/09 01:23:45.000  -74.407206817  163.437650191    79.9077   6  12   0.0328   0.0333   0.1132   0.0061  -0.0287  -0.0219   7.00    0.0
2018/11/09 01:24:00.000  -74.407206994  163.437649566    79.9400   1  12   0.0349   0.0356   0.1307  -0.0078  -0.0328  -0.0321   5.00    1.0
2018/11/09 01:24:15.000  -74.407207030  163.437649600    79.9507   1  12   0.0283   0.0293   0.1048  -0.0065  -0.0257  -0.0261   5.00    1.0
2018/11/09 01:24:30.000  -74.407207057  163.437649715    79.9779   1  12   0.0223   0.0237   0.0807  -0.0055  -0.0188  -0.0207   5.00    1.0
2018/11/09 01:24:45.000  -74.407207085  163.437649783    79.9610   1  12   0.0174   0.0192   0.0604  -0.0045  -0.0126  -0.0164   5.00    1.0
2018/11/09 01:25:00.000  -74.407207161  163.437649872    79.9559   1  12   0.0149   0.0173   0.0489  -0.0042  -0.0087  -0.0148   5.00    1.0
2018/11/09 01:25:15.000  -74.407207116  163.437650240    79.9393   1  12   0.0176   0.0192   0.0603  -0.0040  -0.0128  -0.0165   5.00    1.0
2018/11/09 01:25:30.000  -74.407206979  163.437650511    79.9362   1  12   0.0223   0.0237   0.0806  -0.0054  -0.0193  -0.0206   5.00    1.0
2018/11/09 01:25:45.000  -74.407207041  163.437650790    79.8966   1  12   0.0284   0.0293   0.1048  -0.0063  -0.0264  -0.0260   5.00    1.0
2018/11/09 01:26:00.000  -74.407207091  163.437650778    79.8868   1  12   0.0350   0.0356   0.1307  -0.0073  -0.0337  -0.0321   5.00    1.0
2018/11/09 01:26:15.000  -74.407206916  163.437651007    79.8557   6  12   0.0327   0.0329   0.1133   0.0065  -0.0293  -0.0222   7.00    0.0
2018/11/09 01:26:30.000  -74.407206935  163.437650389    79.8517   6  12   0.0374   0.0375   0.1323   0.0063  -0.0345  -0.0276   7.00    0.0
2018/11/09 01:26:45.000  -74.407206913  163.437650390    79.8718   6  12   0.0423   0.0422   0.1516   0.0059  -0.0399  -0.0329   7.00    0.0
2018/11/09 01:27:00.000  -74.407206978  163.437650433    79.8953   6  12   0.0472   0.0470   0.1710   0.0053  -0.0452  -0.0381   7.00    0.0
2018/11/09 01:27:15.000  -74.407206950  163.437650199    79.8919   6  12   0.0522   0.0519   0.1905   0.0042  -0.0506  -0.0433   7.00    0.0
2018/11/09 01:27:30.000  -74.407206918  163.437650316    79.8416   6  12   0.0573   0.0568   0.2100   0.0024  -0.0561  -0.0484   7.00    0.0
2018/11/09 01:27:45.000  -74.407206836  163.437650273    79.8147   6  12   0.0522   0.0519   0.1900   0.0044  -0.0509  -0.0435   7.00    0.0
2018/11/09 01:28:00.000  -74.407206914  163.437650371    79.8329   6  12   0.0472   0.0471   0.1704   0.0056  -0.0456  -0.0383   7.00    0.0
2018/11/09 01:28:15.000  -74.407206888  163.437649917    79.8174   6  12   0.0423   0.0423   0.1510   0.0063  -0.0404  -0.0331   7.00    0.0
2018/11/09 01:28:30.000  -74.407206866  163.437649563    79.8177   6  12   0.0374   0.0375   0.1317   0.0067  -0.0351  -0.0279   7.00    0.0
2018/11/09 01:28:45.000  -74.407206836  163.437649049    79.7845   6  12   0.0327   0.0329   0.1127   0.0067  -0.0300  -0.0225   7.00    0.0
2018/11/09 01:29:00.000  -74.407207143  163.437648838    79.8105   1  12   0.0351   0.0357   0.1299  -0.0067  -0.0349  -0.0324   5.00    1.0
2018/11/09 01:29:15.000  -74.407207138  163.437648827    79.8411   1  12   0.0285   0.0294   0.1041  -0.0058  -0.0278  -0.0263   5.00    1.0
2018/11/09 01:29:30.000  -74.407207191  163.437649009    79.8697   1  12   0.0224   0.0238   0.0801  -0.0050  -0.0211  -0.0208   5.00    1.0
2018/11/09 01:29:45.000  -74.407206858  163.437650164    79.8780   1  12   0.0134   0.0159   0.0442  -0.0056  -0.0140  -0.0099   7.00    1.0
2018/11/09 01:30:00.000  -74.407207207  163.437649683    79.9582   1  12   0.0154   0.0173   0.0492  -0.0036  -0.0114  -0.0147   5.00    1.0
2018/11/09 01:30:15.000  -74.407207188  163.437649761    79.9964   1  12   0.0177   0.0193   0.0605  -0.0044  -0.0156  -0.0168   5.00    1.0
2018/11/09 01:30:30.000  -74.407207207  163.437649927    79.9785   1  12   0.0226   0.0238   0.0804  -0.0051  -0.0215  -0.0210   5.00    1.0
2018/11/09 01:30:45.000  -74.407207001  163.437650091    79.9402   6  12   0.0238   0.0238   0.0762   0.0062  -0.0204  -0.0112   7.00    0.0
2018/11/09 01:31:00.000  -74.407206955  163.437649871    79.9601   6  12   0.0280   0.0280   0.0938   0.0067  -0.0253  -0.0171   7.00    0.0
2018/11/09 01:31:15.000  -74.407206975  163.437649712    79.9794   6  12   0.0326   0.0325   0.1120   0.0069  -0.0304  -0.0226   7.00    0.0
2018/11/09 01:31:30.000  -74.407206980  163.437649763    79.9280   6  12   0.0373   0.0371   0.1307   0.0069  -0.0357  -0.0278   7.00    0.0
2018/11/09 01:31:45.000  -74.407206991  163.437649538    79.9241   6  12   0.0422   0.0418   0.1495   0.0068  -0.0410  -0.0330   7.00    0.0
2018/11/09 01:32:00.000  -74.407207115  163.437649724    79.9221   6  12   0.0471   0.0466   0.1685   0.0066  -0.0464  -0.0381   7.00    0.0
2018/11/09 01:32:15.000  -74.407207118  163.437649862    79.9383   6  12   0.0521   0.0515   0.1875   0.0061  -0.0518  -0.0431   7.00    0.0
2018/11/09 01:32:30.000  -74.407207150  163.437649838    79.9299   6  12   0.0572   0.0564   0.2065   0.0056  -0.0572  -0.0481   7.00    0.0
2018/11/09 01:32:45.000  -74.407207176  163.437649748    79.9291   6  12   0.0523   0.0515   0.1874   0.0065  -0.0518  -0.0433   7.00    0.0
2018/11/09 01:33:00.000  -74.407207170  163.437650069    79.9343   6  12   0.0473   0.0466   0.1681   0.0070  -0.0465  -0.0382   7.00    0.0
2018/11/09 01:33:15.000  -74.407207166  163.437649253    79.9857   6  12   0.0423   0.0418   0.1489   0.0073  -0.0411  -0.0331   7.00    0.0
2018/11/09 01:33:30.000  -74.407207106  163.437649145    80.0139   6  12   0.0375   0.0371   0.1300   0.0074  -0.0359  -0.0279   7.00    0.0
2018/11/09 01:33:45.000  -74.407207026  163.437649374    80.0035   6  12   0.0327   0.0324   0.1114   0.0073  -0.0307  -0.0227   7.00    0.0
2018/11/09 01:34:00.000  -74.407207181  163.437649119    79.9960   1  12   0.0355   0.0357   0.1288  -0.0054  -0.0363  -0.0328   5.00    1.0
2018/11/09 01:34:15.000  -74.407207118  163.437649129    79.9803   1  12   0.0290   0.0295   0.1039  -0.0047  -0.0294  -0.0269   5.00    1.0
2018/11/09 01:34:30.000  -74.407207070  163.437649165    79.9606   1  12   0.0231   0.0240   0.0810  -0.0044  -0.0230  -0.0216   5.00    1.0
2018/11/09 01:34:45.000  -74.407206988  163.437649488    79.9117   1  12   0.0150   0.0140   0.0444   0.0051  -0.0095  -0.0093   7.00    1.0
2018/11/09 01:35:00.000  -74.407207062  163.437649787    79.9018   1  12   0.0131   0.0123   0.0369   0.0047  -0.0069  -0.0085   7.00    1.0
2018/11/09 01:35:15.000  -74.407207058  163.437649470    79.9409   1  12   0.0153   0.0140   0.0447   0.0053  -0.0099  -0.0100   7.00    1.0
2018/11/09 01:35:30.000  -74.407207022  163.437649475    79.9663   1  12   0.0189   0.0173   0.0587   0.0066  -0.0145  -0.0134   7.00    1.0
2018/11/09 01:35:45.000  -74.407207028  163.437649312    80.0091   1  12   0.0234   0.0214   0.0752   0.0077  -0.0196  -0.0179   7.00    1.0
2018/11/09 01:36:00.000  -74.407206951  163.437649494    80.0347   1  12   0.0282   0.0258   0.0930   0.0086  -0.0250  -0.0230   7.00    1.0
2018/11/09 01:36:15.000  -74.407206951  163.437649433    80.0331   6  12   0.0340   0.0324   0.1130   0.0095  -0.0326  -0.0272   7.00    1.0
2018/11/09 01:36:30.000  -74.407206887  163.437649762    80.0277   6  12   0.0394   0.0371   0.1325   0.0109  -0.0384  -0.0343   7.00    1.0
2018/11/09 01:36:45.000  -74.407206827  163.437650000    79.9900   6  12   0.0459   0.0420   0.1544   0.0136  -0.0455  -0.0442   7.00    1.0
2018/11/09 01:37:00.000  -74.407206992  163.437650045    80.0445   6  12   0.0515   0.0468   0.1764   0.0144  -0.0514  -0.0522   7.00    1.0
2018/11/09 01:37:15.000  -74.407206973  163.437649937    80.0700   6  12   0.0550   0.0514   0.1900   0.0129  -0.0550  -0.0521   7.00    1.0
2018/11/09 01:37:30.000  -74.407206996  163.437649795    80.1054   6  12   0.0595   0.0563   0.2063   0.0122  -0.0596  -0.0546   7.00    1.0
2018/11/09 01:37:45.000  -74.407207112  163.437650033    80.0917   6  12   0.0544   0.0514   0.1874   0.0118  -0.0544  -0.0491   7.00    1.0
2018/11/09 01:38:00.000  -74.407207099  163.437649829    80.0808   6  12   0.0493   0.0466   0.1687   0.0116  -0.0491  -0.0442   7.00    1.0
2018/11/09 01:38:15.000  -74.407207081  163.437649770    80.0537   6  12   0.0445   0.0418   0.1506   0.0116  -0.0441  -0.0398   7.00    1.0
2018/11/09 01:38:30.000  -74.407206949  163.437649737    80.0078   6  12   0.0401   0.0372   0.1335   0.0118  -0.0395  -0.0363   7.00    1.0
2018/11/09 01:38:45.000  -74.407206839  163.437649784    79.9674   6  12   0.0366   0.0329   0.1186   0.0129  -0.0361  -0.0351   7.00    1.0
2018/11/09 01:39:00.000  -74.407206934  163.437649613    79.9871   6  12   0.0331   0.0286   0.1060   0.0131  -0.0326  -0.0344   7.00    1.0
2018/11/09 01:39:15.000  -74.407206960  163.437649894    79.9575   1  12   0.0244   0.0216   0.0797   0.0088  -0.0219  -0.0222   7.00    1.0
2018/11/09 01:39:30.000  -74.407206969  163.437649783    79.9601   1  12   0.0198   0.0176   0.0620   0.0075  -0.0167  -0.0166   7.00    1.0
2018/11/09 01:39:45.000  -74.407206983  163.437649931    79.9344   1  12   0.0165   0.0144   0.0486   0.0068  -0.0129  -0.0142   7.00    1.0
2018/11/09 01:40:00.000  -74.407206662  163.437650511    79.8677   1  12   0.0314   0.0220   0.0643   0.0201   0.0150   0.0169   7.00    1.0
2018/11/09 01:40:15.000  -74.407207052  163.437649371    79.9264   6  12   0.0175   0.0169   0.0503   0.0057  -0.0149   0.0051   7.00    0.0
2018/11/09 01:40:30.000  -74.407207057  163.437649863    79.9196   6  12   0.0206   0.0199   0.0622   0.0065  -0.0184  -0.0053   7.00    0.0
2018/11/09 01:40:45.000  -74.407207150  163.437649937    79.9406   6  12   0.0244   0.0235   0.0764   0.0071  -0.0225  -0.0111   7.00    0.0
2018/11/09 01:41:00.000  -74.407207110  163.437650119    79.9266   6  12   0.0287   0.0276   0.0919   0.0077  -0.0270  -0.0162   7.00    0.0
2018/11/09 01:41:15.000  -74.407207031  163.437650229    79.9087   6  12   0.0332   0.0320   0.1081   0.0081  -0.0316  -0.0209   7.00    0.0
2018/11/09 01:41:30.000  -74.407206944  163.437650115    79.9136   6  12   0.0379   0.0366   0.1248   0.0084  -0.0364  -0.0256   7.00    0.0
2018/11/09 01:41:45.000  -74.407206842  163.437650524    79.9018   6  12   0.0427   0.0412   0.1416   0.0086  -0.0413  -0.0301   7.00    0.0
2018/11/09 01:42:00.000  -74.407206862  163.437650799    79.9215   6  12   0.0476   0.0460   0.1586   0.0088  -0.0463  -0.0346   6.00    0.0
2018/11/09 01:42:15.000  -74.407206864  163.437650664    79.9205   6  12   0.0526   0.0508   0.1757   0.0090  -0.0513  -0.0391   7.00    0.0
2018/11/09 01:42:30.000  -74.407206873  163.437650591    79.9361   6  12   0.0577   0.0557   0.1927   0.0091  -0.0564  -0.0434   6.00    0.0
2018/11/09 01:42:45.000  -74.407206862  163.437650218    79.9588   6  12   0.0529   0.0509   0.1755   0.0095  -0.0511  -0.0388   6.00    0.0
2018/11/09 01:43:00.000  -74.407206848  163.437649966    79.9646   6  12   0.0481   0.0461   0.1581   0.0096  -0.0459  -0.0336   6.00    0.0
2018/11/09 01:43:15.000  -74.407206828  163.437649920    80.0127   6  12   0.0434   0.0414   0.1411   0.0099  -0.0407  -0.0280   6.00    0.0
2018/11/09 01:43:30.000  -74.407206870  163.437650221    80.0338   6  12   0.0394   0.0368   0.1252   0.0107  -0.0351  -0.0204   6.00    0.0
2018/11/09 01:43:45.000  -74.407206888  163.437650206    80.0337   6  11   0.0354   0.0324   0.1101   0.0107  -0.0300  -0.0103   5.00    0.0
2018/11/09 01:44:00.000  -74.407206992  163.437650462    79.9971   6  11   0.0304   0.0280   0.0937   0.0095  -0.0260  -0.0062   5.00    0.0
2018/11/09 01:44:15.000  -74.407207064  163.437650326    79.9790   6  11   0.0257   0.0239   0.0783   0.0084  -0.0224   0.0036   5.00    0.0
2018/11/09 01:44:30.000  -74.407206694  163.437650945    79.8886   1  11   0.0355   0.0277   0.0891   0.0197  -0.0088   0.0186   5.00    1.0
