% program   : RTKLIB ver.2.4.3
% inp file  : _by_type/_obs/shirase/20181107.18o
% inp file  : _by_type/_sp3+clk/igs20263.clk
% inp file  : _by_type/_sp3+clk/igs20263.sp3
% inp file  : _by_type/_nav/shirase/20181107.18n
% obs start : 2018/11/07 00:00:00.0 GPST (week2026 259200.0s)
% obs end   : 2018/11/07 23:59:45.0 GPST (week2026 345585.0s)
% pos mode  : ppp-kinematic
% solution  : combined
% elev mask : 15.0 deg
% dynamics  : off
% tidecorr  : on
% tropo opt : est ztd+grad
% ephemeris : precise
% navi sys  : gps glonass
% antenna1  :                       ( 0.0000  0.0000  0.0000)
%
% (lat/lon/height=WGS84/ellipsoidal,Q=1:fix,2:float,3:sbas,4:dgps,5:single,6:ppp,ns=# of satellites)
%  GPST                  latitude(deg) longitude(deg)  height(m)   Q  ns   sdn(m)   sde(m)   sdu(m)  sdne(m)  sdeu(m)  sdun(m) age(s)  ratio
2018/11/07 00:00:00.000  -74.525914123  163.457828578    26.0780   1   9   0.0203   0.0188   0.0666   0.0093   0.0075  -0.0240   7.00    2.0
2018/11/07 00:00:15.000  -74.525914267  163.457828680    26.0914   6   9   0.0260   0.0282   0.0814  -0.0072   0.0141  -0.0262   0.00    0.0
2018/11/07 00:00:30.000  -74.525914378  163.457829012    26.0859   6   9   0.0316   0.0343   0.1024  -0.0100   0.0230  -0.0333   0.00    0.0
2018/11/07 00:00:45.000  -74.525914327  163.457829035    26.0880   1   9   0.0373   0.0399   0.1278  -0.0067   0.0342  -0.0424   6.00    1.0
2018/11/07 00:01:00.000  -74.525914387  163.457828554    26.0687   6   9   0.0465   0.0506   0.1559  -0.0173   0.0430  -0.0504   0.00    0.0
2018/11/07 00:01:15.000  -74.525914444  163.457828206    26.0788   6   9   0.0550   0.0602   0.1865  -0.0212   0.0547  -0.0601   0.00    0.0
2018/11/07 00:01:30.000  -74.525914508  163.457828064    26.0963   6   9   0.0642   0.0709   0.2209  -0.0251   0.0692  -0.0708   1.00    0.0
2018/11/07 00:01:45.000  -74.525914564  163.457828032    26.1103   6   9   0.0755   0.0857   0.2673  -0.0292   0.0939  -0.0850   3.00    0.0
2018/11/07 00:02:00.000  -74.525914610  163.457828681    26.1574   6   9   0.0839   0.0823   0.2593  -0.0252   0.0619  -0.0876   1.00    0.0
2018/11/07 00:02:15.000  -74.525914681  163.457828648    26.1546   6   9   0.0872   0.0898   0.2867  -0.0344   0.0711  -0.0934   2.00    0.0
2018/11/07 00:02:30.000  -74.525914725  163.457828545    26.1443   6   9   0.0955   0.0980   0.3145  -0.0375   0.0784  -0.1025   2.00    0.0
2018/11/07 00:02:45.000  -74.525914586  163.457828242    26.0758   6   9   0.0881   0.0894   0.2871  -0.0326   0.0711  -0.0942   2.00    0.0
2018/11/07 00:03:00.000  -74.525914556  163.457828268    26.0522   6   9   0.0833   0.0814   0.2610  -0.0252   0.0628  -0.0882   2.00    0.0
2018/11/07 00:03:15.000  -74.525914572  163.457828479    26.0823   6   9   0.0746   0.0729   0.2340  -0.0223   0.0559  -0.0795   2.00    0.0
2018/11/07 00:03:30.000  -74.525914591  163.457828785    26.0728   6   9   0.0604   0.0635   0.2055  -0.0255   0.0513  -0.0661   3.00    0.0
2018/11/07 00:03:45.000  -74.525914609  163.457829135    26.0760   6   9   0.0524   0.0551   0.1784  -0.0220   0.0440  -0.0574   2.00    0.0
2018/11/07 00:04:00.000  -74.525914510  163.457828709    26.0911   6   9   0.0446   0.0470   0.1516  -0.0185   0.0367  -0.0489   3.00    0.0
2018/11/07 00:04:15.000  -74.525914351  163.457828443    26.0733   1   9   0.0356   0.0376   0.1265  -0.0095   0.0309  -0.0416   6.00    1.0
2018/11/07 00:04:30.000  -74.525914416  163.457828444    26.1257   1   9   0.0284   0.0300   0.1022  -0.0022   0.0243  -0.0338   6.00    1.0
2018/11/07 00:04:45.000  -74.525914344  163.457828627    26.1228   1   9   0.0225   0.0239   0.0821   0.0068   0.0194  -0.0273   6.00    1.0
2018/11/07 00:05:00.000  -74.525914352  163.457828779    26.1385   1   9   0.0194   0.0209   0.0714   0.0075   0.0181  -0.0238   6.00    1.0
2018/11/07 00:05:15.000  -74.525914382  163.457828746    26.1440   1   9   0.0225   0.0245   0.0847   0.0057   0.0220  -0.0280   6.00    1.0
2018/11/07 00:05:30.000  -74.525914287  163.457828883    26.1119   1   9   0.0286   0.0310   0.1074  -0.0061   0.0292  -0.0354   6.00    1.0
2018/11/07 00:05:45.000  -74.525914255  163.457828753    26.0965   1   9   0.0359   0.0390   0.1344  -0.0122   0.0379  -0.0440   6.00    1.0
2018/11/07 00:06:00.000  -74.525914241  163.457828238    26.0590   6   9   0.0448   0.0485   0.1606  -0.0208   0.0455  -0.0520   4.00    0.0
2018/11/07 00:06:15.000  -74.525914280  163.457827927    26.0543   6   9   0.0524   0.0566   0.1891  -0.0244   0.0540  -0.0609   4.00    0.0
2018/11/07 00:06:30.000  -74.525914332  163.457827269    26.0428   6   9   0.0600   0.0646   0.2178  -0.0279   0.0624  -0.0698   4.00    0.0
2018/11/07 00:06:45.000  -74.525914375  163.457826573    26.0211   6   9   0.0676   0.0726   0.2461  -0.0313   0.0704  -0.0784   4.00    0.0
2018/11/07 00:07:00.000  -74.525914387  163.457826142    26.0087   6   9   0.0751   0.0803   0.2740  -0.0346   0.0782  -0.0869   4.00    0.0
2018/11/07 00:07:15.000  -74.525914517  163.457826079    25.9956   6   9   0.0824   0.0879   0.3013  -0.0377   0.0857  -0.0951   4.00    0.0
2018/11/07 00:07:30.000  -74.525914526  163.457825771    26.0327   6   9   0.0895   0.0952   0.3280  -0.0407   0.0930  -0.1031   4.00    0.0
2018/11/07 00:07:45.000  -74.525914459  163.457825513    26.0076   6   9   0.0825   0.0885   0.3053  -0.0388   0.0891  -0.0965   4.00    0.0
2018/11/07 00:08:00.000  -74.525914404  163.457825730    26.0130   6   9   0.0753   0.0819   0.2830  -0.0367   0.0858  -0.0899   4.00    0.0
2018/11/07 00:08:15.000  -74.525914284  163.457826021    25.9943   6   9   0.0682   0.0760   0.2639  -0.0354   0.0851  -0.0846   4.00    0.0
2018/11/07 00:08:30.000  -74.525914443  163.457825994    25.9972   6   9   0.0618   0.0732   0.2571  -0.0368   0.0933  -0.0838   4.00    0.0
2018/11/07 00:08:45.000  -74.525914484  163.457826339    26.0334   6   9   0.0519   0.0548   0.1869  -0.0236   0.0505  -0.0597   3.00    0.0
2018/11/07 00:09:00.000  -74.525914480  163.457826910    26.0974   6   9   0.0444   0.0469   0.1587  -0.0202   0.0422  -0.0509   3.00    0.0
2018/11/07 00:09:15.000  -74.525914415  163.457827451    26.1113   6   9   0.0372   0.0393   0.1311  -0.0169   0.0341  -0.0422   3.00    0.0
2018/11/07 00:09:30.000  -74.525914464  163.457827935    26.1167   6   9   0.0307   0.0323   0.1052  -0.0139   0.0261  -0.0340   3.00    0.0
2018/11/07 00:09:45.000  -74.525914408  163.457828191    26.1064   6   9   0.0256   0.0268   0.0834  -0.0117   0.0195  -0.0269   3.00    0.0
2018/11/07 00:10:00.000  -74.525914435  163.457828356    26.0927   6   9   0.0230   0.0241   0.0712  -0.0109   0.0159  -0.0228   3.00    0.0
2018/11/07 00:10:15.000  -74.525914490  163.457828848    26.1161   1   9   0.0239   0.0236   0.0846  -0.0034   0.0189  -0.0270   3.00    1.0
2018/11/07 00:10:30.000  -74.525914388  163.457828621    26.0901   1   9   0.0299   0.0306   0.1079  -0.0102   0.0274  -0.0351   3.00    1.0
2018/11/07 00:10:45.000  -74.525914453  163.457828827    26.1389   1   9   0.0374   0.0391   0.1364  -0.0159   0.0373  -0.0446   3.00    1.0
2018/11/07 00:11:00.000  -74.525914494  163.457827889    26.0742   6   9   0.0444   0.0481   0.1581  -0.0223   0.0442  -0.0498   4.00    0.0
2018/11/07 00:11:15.000  -74.525914482  163.457827350    26.0707   6   9   0.0516   0.0559   0.1854  -0.0258   0.0523  -0.0574   4.00    0.0
2018/11/07 00:11:30.000  -74.525914476  163.457826849    26.0391   6   9   0.0587   0.0638   0.2122  -0.0292   0.0603  -0.0646   4.00    0.0
2018/11/07 00:11:45.000  -74.525914548  163.457825911    25.9842   6   9   0.0658   0.0717   0.2386  -0.0328   0.0680  -0.0717   4.00    0.0
2018/11/07 00:12:00.000  -74.525914354  163.457825222    25.8770   6  10   0.0714   0.0777   0.2391  -0.0400   0.0878  -0.0675   4.00    0.0
2018/11/07 00:12:15.000  -74.525914340  163.457824626    25.8542   6  10   0.0788   0.0857   0.2623  -0.0451   0.0973  -0.0741   4.00    0.0
2018/11/07 00:12:30.000  -74.525914222  163.457823754    25.7863   6  10   0.0879   0.0955   0.2865  -0.0533   0.1089  -0.0837   4.00    0.0
2018/11/07 00:12:45.000  -74.525914380  163.457824623    25.8203   6  10   0.0759   0.0826   0.2617  -0.0394   0.0943  -0.0702   3.00    0.0
2018/11/07 00:13:00.000  -74.525914449  163.457825038    25.8577   6  10   0.0690   0.0751   0.2388  -0.0354   0.0855  -0.0638   3.00    0.0
2018/11/07 00:13:15.000  -74.525914482  163.457825359    25.8943   6  10   0.0622   0.0678   0.2159  -0.0320   0.0771  -0.0581   3.00    0.0
2018/11/07 00:13:30.000  -74.525914436  163.457825918    25.9031   6  10   0.0555   0.0604   0.1926  -0.0286   0.0686  -0.0524   3.00    0.0
2018/11/07 00:13:45.000  -74.525914463  163.457826332    25.9490   6  10   0.0487   0.0531   0.1688  -0.0253   0.0597  -0.0467   3.00    0.0
2018/11/07 00:14:00.000  -74.525914412  163.457826632    25.9435   6  10   0.0420   0.0457   0.1448  -0.0218   0.0506  -0.0408   3.00    0.0
2018/11/07 00:14:15.000  -74.525914531  163.457828162    26.0131   1  10   0.0353   0.0373   0.1264  -0.0155   0.0433  -0.0375   3.00    1.0
2018/11/07 00:14:30.000  -74.525914486  163.457828356    26.0093   1  10   0.0283   0.0294   0.1016  -0.0099   0.0323  -0.0301   3.00    1.0
2018/11/07 00:14:45.000  -74.525914368  163.457827689    25.9934   6  10   0.0249   0.0267   0.0796  -0.0128   0.0241  -0.0240   4.00    0.0
2018/11/07 00:15:00.000  -74.525914348  163.457827915    26.0261   6  10   0.0226   0.0242   0.0696  -0.0120   0.0202  -0.0214   4.00    0.0
2018/11/07 00:15:15.000  -74.525914208  163.457827612    25.9646   6  10   0.0248   0.0267   0.0787  -0.0131   0.0238  -0.0236   3.00    0.0
2018/11/07 00:15:30.000  -74.525914167  163.457827597    25.9655   6  10   0.0295   0.0321   0.0972  -0.0157   0.0319  -0.0281   3.00    0.0
2018/11/07 00:15:45.000  -74.525914190  163.457826871    25.9495   6  10   0.0351   0.0386   0.1192  -0.0186   0.0409  -0.0329   3.00    0.0
2018/11/07 00:16:00.000  -74.525914150  163.457825961    25.9058   6  10   0.0412   0.0455   0.1423  -0.0215   0.0499  -0.0376   3.00    0.0
2018/11/07 00:16:15.000  -74.525914150  163.457825382    25.8640   6  10   0.0475   0.0526   0.1657  -0.0244   0.0587  -0.0422   3.00    0.0
2018/11/07 00:16:30.000  -74.525914246  163.457824892    25.8638   6  10   0.0538   0.0597   0.1892  -0.0273   0.0674  -0.0468   2.00    0.0
2018/11/07 00:16:45.000  -74.525914285  163.457825154    25.9002   6  10   0.0600   0.0667   0.2126  -0.0302   0.0761  -0.0516   2.00    0.0
2018/11/07 00:17:00.000  -74.525914314  163.457824269    25.8637   6  10   0.0662   0.0736   0.2361  -0.0333   0.0849  -0.0568   3.00    0.0
2018/11/07 00:17:15.000  -74.525914295  163.457824013    25.8780   6  10   0.0724   0.0804   0.2596  -0.0365   0.0937  -0.0625   3.00    0.0
2018/11/07 00:17:30.000  -74.525914311  163.457823835    25.8540   6  10   0.0785   0.0871   0.2831  -0.0398   0.1026  -0.0685   4.00    0.0
2018/11/07 00:17:45.000  -74.525914273  163.457824201    25.8680   6  10   0.0724   0.0806   0.2619  -0.0367   0.0948  -0.0635   3.00    0.0
2018/11/07 00:18:00.000  -74.525914265  163.457824566    25.8973   6  10   0.0662   0.0738   0.2395  -0.0337   0.0865  -0.0583   3.00    0.0
2018/11/07 00:18:15.000  -74.525914315  163.457825659    25.9622   6  10   0.0600   0.0669   0.2168  -0.0308   0.0782  -0.0534   3.00    0.0
2018/11/07 00:18:30.000  -74.525914373  163.457826205    25.9839   6  10   0.0538   0.0600   0.1938  -0.0280   0.0698  -0.0486   4.00    0.0
2018/11/07 00:18:45.000  -74.525914372  163.457826779    26.0055   6  10   0.0477   0.0532   0.1705  -0.0255   0.0613  -0.0440   4.00    0.0
2018/11/07 00:19:00.000  -74.525914315  163.457827291    26.0061   6  10   0.0419   0.0466   0.1470  -0.0234   0.0528  -0.0395   3.00    0.0
2018/11/07 00:19:15.000  -74.525914307  163.457827470    26.0035   6  10   0.0372   0.0409   0.1236  -0.0228   0.0448  -0.0357   3.00    0.0
2018/11/07 00:19:30.000  -74.525914337  163.457827806    26.0170   6  10   0.0288   0.0318   0.1005  -0.0150   0.0340  -0.0284   3.00    0.0
2018/11/07 00:19:45.000  -74.525914506  163.457828875    26.0883   1  10   0.0224   0.0230   0.0851  -0.0040   0.0251  -0.0247   3.00    1.0
2018/11/07 00:20:00.000  -74.525914489  163.457828544    26.0682   1  10   0.0193   0.0195   0.0732   0.0053   0.0193  -0.0207   3.00    1.0
2018/11/07 00:20:15.000  -74.525914412  163.457828258    26.0258   1  10   0.0224   0.0231   0.0856  -0.0038   0.0253  -0.0248   3.00    1.0
2018/11/07 00:20:30.000  -74.525914401  163.457828450    26.0489   1  10   0.0281   0.0300   0.1088  -0.0109   0.0361  -0.0320   3.00    1.0
2018/11/07 00:20:45.000  -74.525914433  163.457828716    26.0546   1  10   0.0353   0.0384   0.1375  -0.0169   0.0487  -0.0410   3.00    1.0
2018/11/07 00:21:00.000  -74.525914429  163.457827105    25.9853   6  10   0.0396   0.0448   0.1440  -0.0199   0.0510  -0.0352   2.00    0.0
2018/11/07 00:21:15.000  -74.525914470  163.457826789    25.9739   6  10   0.0458   0.0518   0.1678  -0.0228   0.0601  -0.0399   3.00    0.0
2018/11/07 00:21:30.000  -74.525914437  163.457826549    25.9532   6  10   0.0520   0.0588   0.1921  -0.0258   0.0694  -0.0451   3.00    0.0
2018/11/07 00:21:45.000  -74.525914372  163.457825672    25.9132   6  10   0.0582   0.0658   0.2167  -0.0291   0.0788  -0.0510   3.00    0.0
2018/11/07 00:22:00.000  -74.525914339  163.457825196    25.9214   6  10   0.0644   0.0727   0.2415  -0.0326   0.0884  -0.0574   3.00    0.0
2018/11/07 00:22:15.000  -74.525914267  163.457824870    25.9183   6  10   0.0706   0.0796   0.2664  -0.0361   0.0981  -0.0643   3.00    0.0
2018/11/07 00:22:30.000  -74.525914173  163.457824699    25.8505   6  10   0.0768   0.0864   0.2916  -0.0398   0.1080  -0.0717   3.00    0.0
2018/11/07 00:22:45.000  -74.525914227  163.457825119    25.8573   6  10   0.0706   0.0794   0.2677  -0.0363   0.0986  -0.0650   3.00    0.0
2018/11/07 00:23:00.000  -74.525914215  163.457824361    25.7740   6  10   0.0644   0.0725   0.2437  -0.0328   0.0893  -0.0585   3.00    0.0
2018/11/07 00:23:15.000  -74.525914168  163.457824556    25.7631   6  10   0.0581   0.0656   0.2196  -0.0294   0.0801  -0.0524   3.00    0.0
2018/11/07 00:23:30.000  -74.525914215  163.457824948    25.8014   6  10   0.0518   0.0586   0.1954  -0.0261   0.0708  -0.0466   2.00    0.0
2018/11/07 00:23:45.000  -74.525914326  163.457825615    25.8901   6  10   0.0456   0.0516   0.1711  -0.0230   0.0617  -0.0412   3.00    0.0
2018/11/07 00:24:00.000  -74.525914415  163.457826065    25.9272   6  10   0.0395   0.0446   0.1470  -0.0200   0.0526  -0.0362   3.00    0.0
2018/11/07 00:24:15.000  -74.525914386  163.457826565    25.9725   6  10   0.0336   0.0379   0.1234  -0.0173   0.0436  -0.0316   3.00    0.0
2018/11/07 00:24:30.000  -74.525914467  163.457828206    26.0444   1  10   0.0283   0.0304   0.1134  -0.0119   0.0385  -0.0337   3.00    1.0
2018/11/07 00:24:45.000  -74.525914426  163.457828059    26.0425   1  10   0.0225   0.0236   0.0895  -0.0056   0.0275  -0.0261   3.00    1.0
2018/11/07 00:25:00.000  -74.525914517  163.457828408    26.0576   1  10   0.0193   0.0200   0.0772   0.0037   0.0215  -0.0220   3.00    1.0
2018/11/07 00:25:15.000  -74.525914460  163.457828208    25.9994   1  10   0.0225   0.0237   0.0900  -0.0058   0.0275  -0.0261   3.00    1.0
2018/11/07 00:25:30.000  -74.525914351  163.457826630    25.9086   6  11   0.0272   0.0315   0.0963  -0.0144   0.0344  -0.0285   3.00    0.0
2018/11/07 00:25:45.000  -74.525914208  163.457825843    25.8371   6  11   0.0321   0.0376   0.1163  -0.0166   0.0429  -0.0339   3.00    0.0
2018/11/07 00:26:00.000  -74.525914055  163.457825009    25.7633   6  11   0.0375   0.0442   0.1382  -0.0193   0.0520  -0.0401   3.00    0.0
2018/11/07 00:26:15.000  -74.525913986  163.457824699    25.7104   6  11   0.0433   0.0511   0.1614  -0.0222   0.0616  -0.0470   3.00    0.0
2018/11/07 00:26:30.000  -74.525914018  163.457824496    25.7391   6  11   0.0492   0.0580   0.1853  -0.0255   0.0715  -0.0544   3.00    0.0
2018/11/07 00:26:45.000  -74.525914074  163.457824331    25.7635   6  11   0.0552   0.0650   0.2098  -0.0291   0.0815  -0.0623   3.00    0.0
2018/11/07 00:27:00.000  -74.525914111  163.457824097    25.7816   6  11   0.0612   0.0719   0.2345  -0.0328   0.0917  -0.0705   2.00    0.0
2018/11/07 00:27:15.000  -74.525914251  163.457823684    25.8181   6  11   0.0672   0.0788   0.2595  -0.0366   0.1021  -0.0791   3.00    0.0
2018/11/07 00:27:30.000  -74.525914301  163.457823361    25.8184   6  11   0.0732   0.0857   0.2847  -0.0406   0.1125  -0.0879   3.00    0.0
2018/11/07 00:27:45.000  -74.525914347  163.457824020    25.8695   6  11   0.0673   0.0790   0.2606  -0.0367   0.1023  -0.0790   3.00    0.0
2018/11/07 00:28:00.000  -74.525914335  163.457823206    25.8244   6  11   0.0612   0.0721   0.2364  -0.0329   0.0923  -0.0707   3.00    0.0
2018/11/07 00:28:15.000  -74.525914359  163.457823360    25.8302   6  11   0.0552   0.0651   0.2122  -0.0292   0.0823  -0.0626   3.00    0.0
2018/11/07 00:28:30.000  -74.525914240  163.457823638    25.8238   6  11   0.0492   0.0582   0.1881  -0.0257   0.0724  -0.0548   3.00    0.0
2018/11/07 00:28:45.000  -74.525914213  163.457824287    25.7919   6  11   0.0432   0.0512   0.1642  -0.0224   0.0626  -0.0474   3.00    0.0
2018/11/07 00:29:00.000  -74.525914265  163.457824054    25.7624   6  11   0.0375   0.0443   0.1409  -0.0193   0.0530  -0.0404   3.00    0.0
2018/11/07 00:29:15.000  -74.525914272  163.457824473    25.7727   6  11   0.0320   0.0377   0.1185  -0.0166   0.0437  -0.0340   4.00    0.0
2018/11/07 00:29:30.000  -74.525914289  163.457825203    25.8192   6  11   0.0271   0.0316   0.0980  -0.0144   0.0351  -0.0284   4.00    0.0
2018/11/07 00:29:45.000  -74.525914326  163.457826240    25.8863   6  11   0.0234   0.0267   0.0814  -0.0128   0.0279  -0.0241   4.00    0.0
2018/11/07 00:30:00.000  -74.525914398  163.457827161    25.9667   6  11   0.0215   0.0242   0.0725  -0.0120   0.0239  -0.0218   4.00    0.0
2018/11/07 00:30:15.000  -74.525914371  163.457827000    25.9586   6  11   0.0232   0.0267   0.0807  -0.0129   0.0272  -0.0232   3.00    0.0
2018/11/07 00:30:30.000  -74.525914300  163.457827087    25.9685   6  11   0.0270   0.0316   0.0971  -0.0145   0.0339  -0.0269   3.00    0.0
2018/11/07 00:30:45.000  -74.525914243  163.457826481    25.9516   6  11   0.0319   0.0376   0.1176  -0.0168   0.0422  -0.0322   3.00    0.0
2018/11/07 00:31:00.000  -74.525914227  163.457825692    25.9134   6  11   0.0373   0.0442   0.1404  -0.0196   0.0515  -0.0386   3.00    0.0
2018/11/07 00:31:15.000  -74.525914355  163.457825492    25.9486   6  11   0.0432   0.0511   0.1646  -0.0229   0.0611  -0.0457   3.00    0.0
2018/11/07 00:31:30.000  -74.525914447  163.457825232    25.9539   6  11   0.0491   0.0581   0.1897  -0.0265   0.0710  -0.0533   3.00    0.0
2018/11/07 00:31:45.000  -74.525914496  163.457824273    25.9140   6  11   0.0553   0.0651   0.2155  -0.0306   0.0808  -0.0611   3.00    0.0
2018/11/07 00:32:00.000  -74.525914573  163.457823566    25.9494   6  11   0.0617   0.0727   0.2428  -0.0355   0.0897  -0.0681   3.00    0.0
2018/11/07 00:32:15.000  -74.525914477  163.457823098    25.8830   6  11   0.0669   0.0786   0.2660  -0.0376   0.1024  -0.0795   3.00    0.0
2018/11/07 00:32:30.000  -74.525914376  163.457823031    25.8794   6  11   0.0728   0.0853   0.2916  -0.0414   0.1132  -0.0888   0.00    0.0
2018/11/07 00:32:45.000  -74.525914434  163.457823523    25.8943   6  11   0.0668   0.0783   0.2665  -0.0375   0.1024  -0.0797   0.00    0.0
2018/11/07 00:33:00.000  -74.525914528  163.457824218    25.9655   6  11   0.0610   0.0716   0.2420  -0.0339   0.0914  -0.0703   2.00    0.0
2018/11/07 00:33:15.000  -74.525914462  163.457824646    25.9938   6  11   0.0554   0.0653   0.2193  -0.0312   0.0792  -0.0597   4.00    0.0
2018/11/07 00:33:30.000  -74.525914501  163.457825697    26.0133   6  11   0.0484   0.0571   0.1901  -0.0251   0.0723  -0.0552   0.00    0.0
2018/11/07 00:33:45.000  -74.525914442  163.457825927    26.0213   6  11   0.0425   0.0501   0.1655  -0.0216   0.0624  -0.0475   0.00    0.0
2018/11/07 00:34:00.000  -74.525914354  163.457825900    26.0154   6  11   0.0367   0.0433   0.1417  -0.0184   0.0527  -0.0403   0.00    0.0
2018/11/07 00:34:15.000  -74.525914327  163.457826251    26.0128   6  11   0.0313   0.0367   0.1193  -0.0156   0.0435  -0.0339   2.00    0.0
2018/11/07 00:34:30.000  -74.525914382  163.457826227    25.9602   6  11   0.0265   0.0307   0.0993  -0.0134   0.0351  -0.0287   4.00    0.0
2018/11/07 00:34:45.000  -74.525914565  163.457827656    26.0104   1  11   0.0269   0.0283   0.1016  -0.0184   0.0410  -0.0369   6.00    1.0
2018/11/07 00:35:00.000  -74.525914553  163.457827532    26.0277   1  11   0.0246   0.0255   0.0915  -0.0175   0.0373  -0.0339   6.00    1.0
2018/11/07 00:35:15.000  -74.525914454  163.457827484    26.0274   1  11   0.0273   0.0292   0.1039  -0.0191   0.0424  -0.0383   6.00    1.0
2018/11/07 00:35:30.000  -74.525914396  163.457827058    26.0093   1  11   0.0323   0.0357   0.1269  -0.0224   0.0518  -0.0464   6.00    1.0
2018/11/07 00:35:45.000  -74.525914313  163.457825354    25.9324   6  11   0.0315   0.0370   0.1209  -0.0161   0.0441  -0.0352   5.00    0.0
2018/11/07 00:36:00.000  -74.525914321  163.457824848    25.9116   6  11   0.0369   0.0435   0.1431  -0.0188   0.0533  -0.0415   5.00    0.0
2018/11/07 00:36:15.000  -74.525914329  163.457824557    25.9005   6  11   0.0425   0.0501   0.1667  -0.0219   0.0629  -0.0486   5.00    0.0
2018/11/07 00:36:30.000  -74.525914315  163.457824544    25.8605   6  11   0.0482   0.0567   0.1910  -0.0253   0.0728  -0.0563   5.00    0.0
2018/11/07 00:36:45.000  -74.525914342  163.457824385    25.8732   6  11   0.0540   0.0634   0.2157  -0.0289   0.0829  -0.0644   5.00    0.0
2018/11/07 00:37:00.000  -74.525914351  163.457824215    25.8717   6  11   0.0598   0.0701   0.2406  -0.0325   0.0931  -0.0728   5.00    0.0
2018/11/07 00:37:15.000  -74.525914331  163.457823936    25.8504   6  11   0.0656   0.0768   0.2656  -0.0363   0.1033  -0.0815   5.00    0.0
2018/11/07 00:37:30.000  -74.525914311  163.457823977    25.7986   6  11   0.0715   0.0835   0.2907  -0.0401   0.1136  -0.0902   5.00    0.0
2018/11/07 00:37:45.000  -74.525914314  163.457824378    25.8482   6  11   0.0655   0.0766   0.2651  -0.0359   0.1029  -0.0812   5.00    0.0
2018/11/07 00:38:00.000  -74.525914370  163.457824155    25.8186   6  11   0.0596   0.0699   0.2399  -0.0321   0.0926  -0.0725   5.00    0.0
2018/11/07 00:38:15.000  -74.525914413  163.457824147    25.8050   6  11   0.0537   0.0632   0.2150  -0.0284   0.0823  -0.0641   5.00    0.0
2018/11/07 00:38:30.000  -74.525914430  163.457824259    25.8058   6  11   0.0479   0.0566   0.1905  -0.0249   0.0722  -0.0560   5.00    0.0
2018/11/07 00:38:45.000  -74.525914360  163.457824520    25.8015   6  11   0.0423   0.0501   0.1666  -0.0216   0.0623  -0.0486   5.00    0.0
2018/11/07 00:39:00.000  -74.525914386  163.457824903    25.8230   6  11   0.0368   0.0441   0.1437  -0.0188   0.0528  -0.0419   5.00    0.0
2018/11/07 00:39:15.000  -74.525914402  163.457825204    25.8537   6  11   0.0317   0.0393   0.1224  -0.0166   0.0438  -0.0361   5.00    0.0
2018/11/07 00:39:30.000  -74.525914624  163.457827137    25.9845   1  11   0.0337   0.0366   0.1332  -0.0236   0.0540  -0.0502   3.00    1.0
2018/11/07 00:39:45.000  -74.525914667  163.457827359    26.0130   1  11   0.0296   0.0320   0.1151  -0.0216   0.0469  -0.0448   3.00    1.0
2018/11/07 00:40:00.000  -74.525914644  163.457827590    26.0292   1  11   0.0287   0.0281   0.1117  -0.0208   0.0444  -0.0452   4.00    1.0
2018/11/07 00:40:15.000  -74.525914458  163.457826912    25.9801   1  11   0.0287   0.0308   0.1126  -0.0207   0.0469  -0.0431   5.00    1.0
2018/11/07 00:40:30.000  -74.525914396  163.457827599    25.9728   1  11   0.0339   0.0370   0.1352  -0.0238   0.0555  -0.0513   4.00    1.0
2018/11/07 00:40:45.000  -74.525914201  163.457826042    25.8732   6  11   0.0324   0.0374   0.1275  -0.0172   0.0466  -0.0401   3.00    0.0
2018/11/07 00:41:00.000  -74.525914281  163.457826159    25.9012   6  11   0.0375   0.0437   0.1479  -0.0195   0.0548  -0.0455   4.00    0.0
2018/11/07 00:41:15.000  -74.525914331  163.457825836    25.8995   6  11   0.0428   0.0501   0.1696  -0.0223   0.0636  -0.0517   4.00    0.0
2018/11/07 00:41:30.000  -74.525914468  163.457825791    25.9359   6  11   0.0482   0.0567   0.1922  -0.0254   0.0728  -0.0585   4.00    0.0
2018/11/07 00:41:45.000  -74.525914594  163.457825891    25.9700   6  11   0.0538   0.0633   0.2153  -0.0287   0.0821  -0.0658   4.00    0.0
2018/11/07 00:42:00.000  -74.525914700  163.457825578    26.0019   6  11   0.0593   0.0699   0.2386  -0.0321   0.0915  -0.0734   4.00    0.0
2018/11/07 00:42:15.000  -74.525914732  163.457825517    25.9857   6  11   0.0649   0.0766   0.2620  -0.0356   0.1010  -0.0812   4.00    0.0
2018/11/07 00:42:30.000  -74.525914748  163.457825613    26.0136   6  11   0.0705   0.0833   0.2854  -0.0391   0.1105  -0.0892   4.00    0.0
2018/11/07 00:42:45.000  -74.525914714  163.457825586    26.0189   6  11   0.0649   0.0778   0.2618  -0.0361   0.1011  -0.0812   4.00    0.0
2018/11/07 00:43:00.000  -74.525914595  163.457825579    25.9927   6  11   0.0594   0.0737   0.2378  -0.0336   0.0913  -0.0732   4.00    0.0
2018/11/07 00:43:15.000  -74.525914529  163.457825959    25.9247   6  11   0.0536   0.0631   0.2148  -0.0286   0.0823  -0.0659   3.00    0.0
2018/11/07 00:43:30.000  -74.525914443  163.457825929    25.9160   6  11   0.0481   0.0557   0.1919  -0.0249   0.0724  -0.0588   4.00    0.0
2018/11/07 00:43:45.000  -74.525914424  163.457826391    25.9387   6  11   0.0428   0.0489   0.1699  -0.0217   0.0631  -0.0524   4.00    0.0
2018/11/07 00:44:00.000  -74.525914357  163.457826257    25.8599   6  11   0.0378   0.0423   0.1493  -0.0189   0.0544  -0.0471   4.00    0.0
2018/11/07 00:44:15.000  -74.525914457  163.457826114    25.8761   6  11   0.0332   0.0361   0.1309  -0.0166   0.0463  -0.0431   4.00    0.0
2018/11/07 00:44:30.000  -74.525914490  163.457826315    25.9069   6  11   0.0297   0.0304   0.1163  -0.0149   0.0394  -0.0410   5.00    0.0
2018/11/07 00:44:45.000  -74.525914722  163.457827414    26.0212   1  11   0.0280   0.0301   0.1111  -0.0202   0.0466  -0.0417   5.00    1.0
2018/11/07 00:45:00.000  -74.525914740  163.457827501    26.0311   1  11   0.0258   0.0274   0.1019  -0.0192   0.0433  -0.0389   5.00    1.0
2018/11/07 00:45:15.000  -74.525914744  163.457827683    26.0403   1  11   0.0285   0.0302   0.1134  -0.0205   0.0472  -0.0432   5.00    1.0
2018/11/07 00:45:30.000  -74.525914814  163.457827590    26.0231   1  11   0.0332   0.0358   0.1337  -0.0230   0.0547  -0.0501   5.00    1.0
2018/11/07 00:45:45.000  -74.525914725  163.457825973    25.9698   6  11   0.0312   0.0356   0.1231  -0.0156   0.0445  -0.0373   4.00    0.0
2018/11/07 00:46:00.000  -74.525914736  163.457826125    26.0104   6  11   0.0361   0.0415   0.1418  -0.0177   0.0520  -0.0422   4.00    0.0
2018/11/07 00:46:15.000  -74.525914645  163.457825503    25.9633   6  11   0.0412   0.0477   0.1619  -0.0201   0.0601  -0.0478   4.00    0.0
2018/11/07 00:46:30.000  -74.525914591  163.457824959    25.9543   6  11   0.0465   0.0539   0.1827  -0.0228   0.0685  -0.0541   4.00    0.0
2018/11/07 00:46:45.000  -74.525914502  163.457824558    25.9034   6  11   0.0518   0.0602   0.2040  -0.0257   0.0770  -0.0608   4.00    0.0
2018/11/07 00:47:00.000  -74.525914511  163.457824683    25.9076   6  11   0.0572   0.0665   0.2255  -0.0288   0.0856  -0.0677   4.00    0.0
2018/11/07 00:47:15.000  -74.525914634  163.457825171    25.9762   6  11   0.0626   0.0728   0.2471  -0.0319   0.0942  -0.0749   4.00    0.0
2018/11/07 00:47:30.000  -74.525914746  163.457825091    26.0010   6  11   0.0681   0.0791   0.2688  -0.0350   0.1028  -0.0822   4.00    0.0
2018/11/07 00:47:45.000  -74.525914686  163.457825017    25.9859   6  11   0.0626   0.0725   0.2462  -0.0318   0.0936  -0.0748   4.00    0.0
2018/11/07 00:48:00.000  -74.525914769  163.457825436    25.9931   6  11   0.0570   0.0660   0.2235  -0.0284   0.0844  -0.0672   4.00    0.0
2018/11/07 00:48:15.000  -74.525914649  163.457825214    25.9119   6  11   0.0515   0.0596   0.2013  -0.0252   0.0754  -0.0599   4.00    0.0
2018/11/07 00:48:30.000  -74.525914575  163.457825024    25.8727   6  11   0.0461   0.0532   0.1797  -0.0222   0.0666  -0.0531   4.00    0.0
2018/11/07 00:48:45.000  -74.525914498  163.457825137    25.8459   6  11   0.0408   0.0470   0.1589  -0.0194   0.0581  -0.0468   4.00    0.0
2018/11/07 00:49:00.000  -74.525914488  163.457825466    25.8618   6  11   0.0358   0.0408   0.1392  -0.0170   0.0501  -0.0413   4.00    0.0
2018/11/07 00:49:15.000  -74.525914456  163.457825551    25.8464   6  11   0.0310   0.0349   0.1210  -0.0149   0.0426  -0.0367   4.00    0.0
2018/11/07 00:49:30.000  -74.525914708  163.457827425    25.9709   1  11   0.0339   0.0353   0.1349  -0.0231   0.0539  -0.0517   4.00    1.0
2018/11/07 00:49:45.000  -74.525914738  163.457827374    25.9969   1  11   0.0300   0.0302   0.1189  -0.0214   0.0480  -0.0471   4.00    1.0
2018/11/07 00:50:00.000  -74.525914822  163.457827565    26.0429   1  11   0.0288   0.0281   0.1140  -0.0212   0.0464  -0.0466   4.00    1.0
2018/11/07 00:50:15.000  -74.525914637  163.457826080    25.9183   6  11   0.0245   0.0255   0.0948  -0.0128   0.0314  -0.0325   4.00    0.0
2018/11/07 00:50:30.000  -74.525914760  163.457825504    25.9248   6  10   0.0340   0.0318   0.1362  -0.0200   0.0470  -0.0540   4.00    0.0
2018/11/07 00:50:45.000  -74.525914696  163.457824634    25.8616   6  10   0.0428   0.0383   0.1711  -0.0254   0.0596  -0.0702   4.00    0.0
2018/11/07 00:51:00.000  -74.525914608  163.457824403    25.8288   6  10   0.0522   0.0453   0.2086  -0.0312   0.0729  -0.0876   4.00    0.0
2018/11/07 00:51:15.000  -74.525914658  163.457824625    25.8686   6  10   0.0621   0.0524   0.2475  -0.0374   0.0867  -0.1057   4.00    0.0
2018/11/07 00:51:30.000  -74.525914658  163.457824680    25.8700   6  10   0.0722   0.0597   0.2875  -0.0438   0.1009  -0.1243   4.00    0.0
2018/11/07 00:51:45.000  -74.525914677  163.457824994    25.8947   6  10   0.0826   0.0672   0.3288  -0.0506   0.1157  -0.1437   4.00    0.0
2018/11/07 00:52:00.000  -74.525914506  163.457824869    25.8446   6  10   0.0934   0.0751   0.3723  -0.0580   0.1316  -0.1640   4.00    0.0
2018/11/07 00:52:15.000  -74.525914428  163.457824384    25.8061   6  10   0.1051   0.0839   0.4200  -0.0666   0.1499  -0.1866   4.00    0.0
2018/11/07 00:52:30.000  -74.525914262  163.457824162    25.7771   6  10   0.1193   0.0950   0.4801  -0.0784   0.1747  -0.2152   4.00    0.0
2018/11/07 00:52:45.000  -74.525914763  163.457825948    26.0520   6  10   0.1092   0.0839   0.4339  -0.0691   0.1533  -0.1951   4.00    0.0
2018/11/07 00:53:00.000  -74.525914872  163.457826453    26.1260   6  10   0.0947   0.0733   0.3722  -0.0574   0.1285  -0.1657   4.00    0.0
2018/11/07 00:53:15.000  -74.525914893  163.457826199    26.1371   6  10   0.0828   0.0647   0.3234  -0.0487   0.1099  -0.1425   4.00    0.0
2018/11/07 00:53:30.000  -74.525915089  163.457826884    26.2480   6  10   0.0719   0.0569   0.2799  -0.0412   0.0937  -0.1219   4.00    0.0
2018/11/07 00:53:45.000  -74.525915040  163.457827024    26.2532   6  10   0.0615   0.0495   0.2397  -0.0344   0.0787  -0.1027   4.00    0.0
2018/11/07 00:54:00.000  -74.525914982  163.457827140    26.2383   6  10   0.0516   0.0424   0.2027  -0.0281   0.0647  -0.0847   4.00    0.0
2018/11/07 00:54:15.000  -74.525914992  163.457827051    26.1930   6  10   0.0422   0.0358   0.1707  -0.0223   0.0512  -0.0679   4.00    0.0
2018/11/07 00:54:30.000  -74.525914887  163.457826723    26.1119   6   9   0.0339   0.0297   0.1371  -0.0175   0.0400  -0.0530   4.00    0.0
2018/11/07 00:54:45.000  -74.525914811  163.457827153    26.0299   1   9   0.0320   0.0281   0.1294  -0.0197   0.0433  -0.0519   4.00    1.0
2018/11/07 00:55:00.000  -74.525914798  163.457827274    25.9866   1   9   0.0273   0.0252   0.1052  -0.0174   0.0378  -0.0413   4.00    1.0
2018/11/07 00:55:15.000  -74.525914875  163.457827363    25.9623   1   9   0.0335   0.0292   0.1348  -0.0215   0.0466  -0.0553   4.00    1.0
2018/11/07 00:55:30.000  -74.525914758  163.457826411    25.9447   6   9   0.0336   0.0302   0.1334  -0.0178   0.0398  -0.0516   4.00    0.0
2018/11/07 00:55:45.000  -74.525914747  163.457826677    26.0128   6   9   0.0423   0.0364   0.1720  -0.0227   0.0512  -0.0685   4.00    0.0
2018/11/07 00:56:00.000  -74.525914626  163.457826994    26.0261   6   9   0.0518   0.0431   0.2141  -0.0283   0.0637  -0.0869   4.00    0.0
2018/11/07 00:56:15.000  -74.525914567  163.457826807    26.0309   6   9   0.0620   0.0503   0.2593  -0.0346   0.0778  -0.1068   4.00    0.0
2018/11/07 00:56:30.000  -74.525914500  163.457826069    25.9750   6   9   0.0737   0.0591   0.3111  -0.0432   0.0960  -0.1302   4.00    0.0
2018/11/07 00:56:45.000  -74.525914703  163.457826203    26.0490   6   9   0.0935   0.0729   0.4000  -0.0608   0.1324  -0.1730   4.00    0.0
2018/11/07 00:57:00.000  -74.525914852  163.457826550    26.0752   6   9   0.0936   0.0698   0.4002  -0.0522   0.1167  -0.1684   4.00    0.0
2018/11/07 00:57:15.000  -74.525914598  163.457826055    25.9602   6  10   0.0777   0.0733   0.3064  -0.0458   0.1044  -0.1143   4.00    0.0
2018/11/07 00:57:30.000  -74.525914655  163.457826161    25.9781   6  10   0.0823   0.0788   0.3202  -0.0483   0.1104  -0.1171   4.00    0.0
2018/11/07 00:57:45.000  -74.525914688  163.457825966    25.9777   6  10   0.0744   0.0719   0.2872  -0.0430   0.0988  -0.1035   4.00    0.0
2018/11/07 00:58:00.000  -74.525914688  163.457826174    25.9595   6  10   0.0670   0.0651   0.2565  -0.0381   0.0879  -0.0911   4.00    0.0
2018/11/07 00:58:15.000  -74.525914651  163.457825790    25.9409   6  10   0.0598   0.0585   0.2272  -0.0334   0.0773  -0.0795   4.00    0.0
2018/11/07 00:58:30.000  -74.525914657  163.457825977    25.9358   6  10   0.0528   0.0519   0.1990  -0.0288   0.0669  -0.0685   4.00    0.0
2018/11/07 00:58:45.000  -74.525914678  163.457826267    25.9668   6  10   0.0460   0.0455   0.1717  -0.0244   0.0568  -0.0579   4.00    0.0
2018/11/07 00:59:00.000  -74.525914696  163.457826468    25.9899   6  10   0.0394   0.0392   0.1452  -0.0202   0.0470  -0.0478   4.00    0.0
2018/11/07 00:59:15.000  -74.525914648  163.457826132    25.9558   6  10   0.0330   0.0331   0.1200  -0.0162   0.0374  -0.0381   4.00    0.0
2018/11/07 00:59:30.000  -74.525914674  163.457826734    25.9335   1  10   0.0305   0.0287   0.1149  -0.0153   0.0396  -0.0387   5.00    2.0
2018/11/07 00:59:45.000  -74.525914700  163.457826957    25.9546   1  10   0.0244   0.0223   0.0891  -0.0108   0.0308  -0.0290   5.00    2.0
2018/11/07 01:00:00.000  -74.525914696  163.457826593    25.9312   1  10   0.0212   0.0190   0.0744  -0.0080   0.0263  -0.0228   5.00    2.0
2018/11/07 01:00:15.000  -74.525914758  163.457827122    25.9388   1  10   0.0255   0.0230   0.0918  -0.0128   0.0329  -0.0319   5.00    1.0
2018/11/07 01:00:30.000  -74.525914797  163.457827634    25.9312   1  10   0.0314   0.0291   0.1165  -0.0164   0.0407  -0.0407   5.00    1.0
2018/11/07 01:00:45.000  -74.525914550  163.457826766    25.8933   6  10   0.0316   0.0323   0.1106  -0.0143   0.0332  -0.0322   4.00    0.0
2018/11/07 01:01:00.000  -74.525914505  163.457826793    25.9097   6  10   0.0374   0.0379   0.1329  -0.0176   0.0413  -0.0402   4.00    0.0
2018/11/07 01:01:15.000  -74.525914434  163.457826399    25.8961   6  10   0.0435   0.0438   0.1566  -0.0212   0.0496  -0.0487   4.00    0.0
2018/11/07 01:01:30.000  -74.525914346  163.457825647    25.8461   6  10   0.0497   0.0497   0.1811  -0.0248   0.0581  -0.0575   4.00    0.0
2018/11/07 01:01:45.000  -74.525914274  163.457825370    25.8640   6  10   0.0560   0.0556   0.2061  -0.0286   0.0665  -0.0666   5.00    0.0
2018/11/07 01:02:00.000  -74.525914316  163.457825701    25.9065   6  10   0.0624   0.0616   0.2315  -0.0324   0.0750  -0.0758   5.00    0.0
2018/11/07 01:02:15.000  -74.525914308  163.457825645    25.9303   6  10   0.0689   0.0675   0.2571  -0.0362   0.0834  -0.0850   5.00    0.0
2018/11/07 01:02:30.000  -74.525914375  163.457825985    25.9630   6  10   0.0753   0.0735   0.2829  -0.0400   0.0917  -0.0943   5.00    0.0
2018/11/07 01:02:45.000  -74.525914426  163.457826163    25.9716   6  10   0.0688   0.0674   0.2574  -0.0359   0.0827  -0.0849   5.00    0.0
2018/11/07 01:03:00.000  -74.525914365  163.457826102    25.9678   6  10   0.0623   0.0612   0.2318  -0.0319   0.0736  -0.0756   5.00    0.0
2018/11/07 01:03:15.000  -74.525914433  163.457826174    25.9727   6  10   0.0559   0.0551   0.2064  -0.0280   0.0647  -0.0664   5.00    0.0
2018/11/07 01:03:30.000  -74.525914523  163.457826294    25.9595   6  10   0.0496   0.0491   0.1812  -0.0241   0.0558  -0.0572   5.00    0.0
2018/11/07 01:03:45.000  -74.525914612  163.457826196    25.9435   6  10   0.0433   0.0431   0.1563  -0.0203   0.0472  -0.0482   5.00    0.0
2018/11/07 01:04:00.000  -74.525914680  163.457826028    25.9300   6  10   0.0371   0.0373   0.1321  -0.0167   0.0387  -0.0394   5.00    0.0
2018/11/07 01:04:15.000  -74.525914727  163.457825716    25.8963   6  10   0.0312   0.0316   0.1089  -0.0133   0.0306  -0.0309   5.00    0.0
2018/11/07 01:04:30.000  -74.525914697  163.457825887    25.8976   6  10   0.0258   0.0264   0.0876  -0.0103   0.0230  -0.0229   5.00    0.0
2018/11/07 01:04:45.000  -74.525914832  163.457826557    25.8931   1  10   0.0246   0.0245   0.0855  -0.0124   0.0273  -0.0258   5.00    1.0
2018/11/07 01:05:00.000  -74.525914726  163.457826405    25.9380   6  10   0.0190   0.0201   0.0597  -0.0064   0.0129  -0.0106   5.00    0.0
2018/11/07 01:05:15.000  -74.525914691  163.457826379    25.9204   6  10   0.0212   0.0224   0.0690  -0.0074   0.0165  -0.0150   5.00    0.0
2018/11/07 01:05:30.000  -74.525914718  163.457826204    25.9254   6  10   0.0256   0.0265   0.0863  -0.0097   0.0228  -0.0219   5.00    0.0
2018/11/07 01:05:45.000  -74.525914685  163.457825927    25.9053   6  10   0.0309   0.0316   0.1075  -0.0125   0.0300  -0.0298   5.00    0.0
2018/11/07 01:06:00.000  -74.525914571  163.457825675    25.8973   6  10   0.0368   0.0371   0.1307  -0.0157   0.0376  -0.0383   5.00    0.0
2018/11/07 01:06:15.000  -74.525914597  163.457825817    25.9171   6  10   0.0429   0.0428   0.1551  -0.0190   0.0453  -0.0471   5.00    0.0
2018/11/07 01:06:30.000  -74.525914463  163.457825483    25.8938   6  10   0.0491   0.0485   0.1801  -0.0224   0.0532  -0.0562   5.00    0.0
2018/11/07 01:06:45.000  -74.525914516  163.457825713    25.9293   6  10   0.0554   0.0542   0.2057  -0.0258   0.0610  -0.0653   5.00    0.0
2018/11/07 01:07:00.000  -74.525914472  163.457826133    25.9535   6  10   0.0618   0.0601   0.2316  -0.0293   0.0690  -0.0745   5.00    0.0
2018/11/07 01:07:15.000  -74.525914553  163.457826365    25.9901   6  10   0.0682   0.0662   0.2579  -0.0326   0.0772  -0.0836   5.00    0.0
2018/11/07 01:07:30.000  -74.525914581  163.457826563    25.9760   6  10   0.0747   0.0731   0.2855  -0.0358   0.0870  -0.0925   5.00    0.0
2018/11/07 01:07:45.000  -74.525914583  163.457826616    25.9693   6  10   0.0683   0.0660   0.2588  -0.0330   0.0769  -0.0840   5.00    0.0
2018/11/07 01:08:00.000  -74.525914651  163.457827059    25.9746   6  10   0.0618   0.0594   0.2314  -0.0292   0.0671  -0.0746   5.00    0.0
2018/11/07 01:08:15.000  -74.525914652  163.457827071    25.9199   6  10   0.0554   0.0534   0.2051  -0.0255   0.0584  -0.0653   5.00    0.0
2018/11/07 01:08:30.000  -74.525914730  163.457827031    25.9244   6  10   0.0490   0.0475   0.1793  -0.0219   0.0500  -0.0560   5.00    0.0
2018/11/07 01:08:45.000  -74.525914732  163.457826766    25.8760   6  10   0.0428   0.0418   0.1540  -0.0184   0.0420  -0.0468   6.00    0.0
2018/11/07 01:09:00.000  -74.525914690  163.457826876    25.8421   6  10   0.0367   0.0362   0.1293  -0.0151   0.0342  -0.0377   6.00    0.0
2018/11/07 01:09:15.000  -74.525914698  163.457826932    25.8350   6  10   0.0308   0.0308   0.1058  -0.0120   0.0268  -0.0289   6.00    0.0
2018/11/07 01:09:30.000  -74.525914693  163.457826878    25.8301   6  10   0.0254   0.0259   0.0841  -0.0092   0.0199  -0.0205   6.00    0.0
2018/11/07 01:09:45.000  -74.525914708  163.457826627    25.8594   6  10   0.0211   0.0220   0.0662  -0.0066   0.0142  -0.0125   6.00    0.0
2018/11/07 01:10:00.000  -74.525914670  163.457826379    25.9201   6  10   0.0188   0.0203   0.0564  -0.0053   0.0110  -0.0063   6.00    0.0
2018/11/07 01:10:15.000  -74.525914567  163.457826213    25.9669   6  10   0.0209   0.0216   0.0658  -0.0072   0.0134  -0.0125   5.00    0.0
2018/11/07 01:10:30.000  -74.525914572  163.457826206    26.0115   6  10   0.0252   0.0257   0.0831  -0.0091   0.0190  -0.0201   5.00    0.0
2018/11/07 01:10:45.000  -74.525914479  163.457825882    25.9536   6  10   0.0305   0.0307   0.1043  -0.0117   0.0254  -0.0284   5.00    0.0
2018/11/07 01:11:00.000  -74.525914416  163.457825841    25.9104   6  10   0.0363   0.0360   0.1275  -0.0144   0.0322  -0.0370   5.00    0.0
2018/11/07 01:11:15.000  -74.525914427  163.457826124    25.9251   6  10   0.0424   0.0416   0.1517  -0.0174   0.0390  -0.0459   6.00    0.0
2018/11/07 01:11:30.000  -74.525914345  163.457825747    25.9165   6  10   0.0485   0.0474   0.1766  -0.0206   0.0460  -0.0550   6.00    0.0
2018/11/07 01:11:45.000  -74.525914279  163.457825186    25.8842   6  10   0.0548   0.0539   0.2021  -0.0240   0.0539  -0.0641   6.00    0.0
2018/11/07 01:12:00.000  -74.525914310  163.457824862    25.8766   6  10   0.0613   0.0610   0.2287  -0.0282   0.0630  -0.0738   6.00    0.0
2018/11/07 01:12:15.000  -74.525914320  163.457824853    25.8522   6  10   0.0677   0.0657   0.2537  -0.0311   0.0683  -0.0827   6.00    0.0
2018/11/07 01:12:30.000  -74.525914337  163.457824471    25.8192   6  10   0.0740   0.0719   0.2792  -0.0342   0.0750  -0.0915   6.00    0.0
2018/11/07 01:12:45.000  -74.525914269  163.457824427    25.7760   6  10   0.0677   0.0645   0.2533  -0.0305   0.0659  -0.0824   6.00    0.0
2018/11/07 01:13:00.000  -74.525914322  163.457824254    25.8069   6  10   0.0612   0.0585   0.2271  -0.0267   0.0579  -0.0729   6.00    0.0
2018/11/07 01:13:15.000  -74.525914305  163.457824342    25.7629   6  10   0.0548   0.0538   0.2017  -0.0236   0.0520  -0.0638   6.00    0.0
2018/11/07 01:13:30.000  -74.525914327  163.457824780    25.7976   6  10   0.0485   0.0461   0.1758  -0.0199   0.0426  -0.0545   6.00    0.0
2018/11/07 01:13:45.000  -74.525914355  163.457824868    25.8559   6  10   0.0422   0.0402   0.1505  -0.0164   0.0349  -0.0452   6.00    0.0
2018/11/07 01:14:00.000  -74.525914455  163.457825071    25.8416   6  10   0.0362   0.0347   0.1260  -0.0133   0.0279  -0.0361   6.00    0.0
2018/11/07 01:14:15.000  -74.525914834  163.457826321    25.8433   1  10   0.0362   0.0342   0.1383  -0.0171   0.0315  -0.0487   5.00    1.0
2018/11/07 01:14:30.000  -74.525914599  163.457825519    25.8344   1  10   0.0230   0.0213   0.0769  -0.0103   0.0196  -0.0227   6.00    1.0
2018/11/07 01:14:45.000  -74.525914685  163.457825776    25.8704   1  10   0.0179   0.0178   0.0575  -0.0085   0.0150  -0.0172   7.00    1.0
2018/11/07 01:15:00.000  -74.525914718  163.457825747    25.8774   1  10   0.0151   0.0161   0.0464  -0.0077   0.0126  -0.0143   7.00    1.0
2018/11/07 01:15:15.000  -74.525914814  163.457826328    25.9262   1  10   0.0219   0.0227   0.0804  -0.0104   0.0159  -0.0300   5.00    1.0
2018/11/07 01:15:30.000  -74.525914827  163.457826531    25.9735   1  10   0.0281   0.0276   0.1059  -0.0131   0.0220  -0.0379   5.00    1.0
2018/11/07 01:15:45.000  -74.525914838  163.457826659    25.9439   1  10   0.0359   0.0339   0.1365  -0.0164   0.0290  -0.0478   5.00    1.0
2018/11/07 01:16:00.000  -74.525914462  163.457825972    25.8908   6  10   0.0358   0.0341   0.1238  -0.0123   0.0245  -0.0348   7.00    1.0
2018/11/07 01:16:15.000  -74.525914393  163.457825947    25.8818   6  10   0.0417   0.0392   0.1474  -0.0148   0.0298  -0.0435   7.00    1.0
2018/11/07 01:16:30.000  -74.525914351  163.457825962    25.8749   6  10   0.0478   0.0444   0.1714  -0.0174   0.0350  -0.0522   7.00    1.0
2018/11/07 01:16:45.000  -74.525914367  163.457825523    25.8946   6  10   0.0540   0.0497   0.1958  -0.0201   0.0400  -0.0608   7.00    1.0
2018/11/07 01:17:00.000  -74.525914385  163.457825135    25.8428   6  10   0.0602   0.0550   0.2202  -0.0228   0.0449  -0.0694   7.00    1.0
2018/11/07 01:17:15.000  -74.525914398  163.457824825    25.8180   6  10   0.0665   0.0603   0.2447  -0.0255   0.0495  -0.0780   7.00    1.0
2018/11/07 01:17:30.000  -74.525914411  163.457824683    25.8298   6  10   0.0728   0.0656   0.2692  -0.0281   0.0540  -0.0865   7.00    1.0
2018/11/07 01:17:45.000  -74.525914491  163.457824994    25.8805   6  10   0.0664   0.0602   0.2440  -0.0251   0.0481  -0.0775   7.00    1.0
2018/11/07 01:18:00.000  -74.525914623  163.457825342    25.9140   6  10   0.0600   0.0548   0.2188  -0.0220   0.0422  -0.0686   7.00    1.0
2018/11/07 01:18:15.000  -74.525914624  163.457825404    25.9222   6  11   0.0474   0.0479   0.1683  -0.0077   0.0131  -0.0337   7.00    1.0
2018/11/07 01:18:30.000  -74.525914567  163.457825340    25.9145   6  11   0.0414   0.0427   0.1439  -0.0031  -0.0043  -0.0229   7.00    1.0
2018/11/07 01:18:45.000  -74.525914545  163.457825431    25.9024   6  11   0.0362   0.0377   0.1232   0.0025  -0.0085  -0.0155   7.00    1.0
2018/11/07 01:19:00.000  -74.525914566  163.457825729    25.9074   6  11   0.0312   0.0328   0.1041   0.0030  -0.0092  -0.0087   7.00    1.0
2018/11/07 01:19:15.000  -74.525913901  163.457825433    25.9929   1  11   0.0507   0.0371   0.1329  -0.0083   0.0279   0.0380   7.00    1.0
2018/11/07 01:19:30.000  -74.525913883  163.457825602    26.0025   1  11   0.0467   0.0319   0.1107  -0.0059   0.0267   0.0424   7.00    1.0
2018/11/07 01:19:45.000  -74.525914633  163.457825980    25.8954   1  11   0.0162   0.0171   0.0502  -0.0063   0.0087  -0.0096   7.00    1.0
2018/11/07 01:20:00.000  -74.525914687  163.457825788    25.8566   1  11   0.0140   0.0155   0.0416  -0.0061   0.0083  -0.0089   7.00    1.0
2018/11/07 01:20:15.000  -74.525913892  163.457824770    25.9511   1  11   0.0434   0.0280   0.0916   0.0016   0.0252   0.0454   7.00    1.0
2018/11/07 01:20:30.000  -74.525913925  163.457825180    25.9617   1  11   0.0455   0.0317   0.1061   0.0010   0.0243   0.0443   7.00    1.0
2018/11/07 01:20:45.000  -74.525913947  163.457825403    25.9938   1  11   0.0488   0.0366   0.1252   0.0010   0.0225   0.0428   7.00    1.0
2018/11/07 01:21:00.000  -74.525914625  163.457826114    25.9418   6  11   0.0305   0.0324   0.1001   0.0052  -0.0145   0.0086   7.00    1.0
2018/11/07 01:21:15.000  -74.525914615  163.457825825    25.9331   6  11   0.0351   0.0372   0.1179   0.0062  -0.0172   0.0031   7.00    1.0
2018/11/07 01:21:30.000  -74.525914630  163.457825849    25.9126   6  11   0.0398   0.0421   0.1364   0.0070  -0.0200  -0.0093   7.00    1.0
2018/11/07 01:21:45.000  -74.525914676  163.457825767    25.9011   6  11   0.0447   0.0470   0.1553   0.0076  -0.0231  -0.0147   7.00    1.0
2018/11/07 01:22:00.000  -74.525914767  163.457825882    25.9490   6  12   0.0486   0.0499   0.1685  -0.0087  -0.0365  -0.0286   7.00    1.0
2018/11/07 01:22:15.000  -74.525914764  163.457825728    25.9796   6  12   0.0534   0.0545   0.1853  -0.0107  -0.0426  -0.0345   8.00    1.0
2018/11/07 01:22:30.000  -74.525914715  163.457825558    25.9079   6  12   0.0583   0.0592   0.2032  -0.0124  -0.0479  -0.0398   8.00    1.0
2018/11/07 01:22:45.000  -74.525914758  163.457825204    25.8509   6  12   0.0534   0.0544   0.1854  -0.0111  -0.0439  -0.0354   8.00    1.0
2018/11/07 01:23:00.000  -74.525914649  163.457825209    25.8295   6  12   0.0485   0.0496   0.1673  -0.0096  -0.0398  -0.0308   8.00    1.0
2018/11/07 01:23:15.000  -74.525914616  163.457825637    25.8246   6  12   0.0437   0.0448   0.1493  -0.0083  -0.0356  -0.0261   8.00    1.0
2018/11/07 01:23:30.000  -74.525914651  163.457825694    25.8412   6  12   0.0390   0.0401   0.1314  -0.0070  -0.0315  -0.0212   8.00    1.0
2018/11/07 01:23:45.000  -74.525914683  163.457826038    25.8509   6  12   0.0344   0.0355   0.1139  -0.0060  -0.0274  -0.0160   8.00    1.0
2018/11/07 01:24:00.000  -74.525914921  163.457826704    25.8609   1  12   0.0353   0.0352   0.1275  -0.0121  -0.0262  -0.0317   7.00    2.0
2018/11/07 01:24:15.000  -74.525914646  163.457825947    25.8385   1  12   0.0240   0.0223   0.0758  -0.0078  -0.0109  -0.0111   8.00    1.0
2018/11/07 01:24:30.000  -74.525914695  163.457826011    25.8378   1  12   0.0195   0.0183   0.0596  -0.0072  -0.0035  -0.0088   8.00    1.0
2018/11/07 01:24:45.000  -74.525914740  163.457825702    25.8658   1  12   0.0158   0.0151   0.0457  -0.0068   0.0073  -0.0076   8.00    1.0
2018/11/07 01:25:00.000  -74.525914695  163.457825839    25.8636   1  12   0.0138   0.0132   0.0379  -0.0064   0.0088  -0.0073   8.00    1.0
2018/11/07 01:25:15.000  -74.525914647  163.457825768    25.8693   1  12   0.0181   0.0157   0.0475  -0.0025   0.0104   0.0084   8.00    1.0
2018/11/07 01:25:30.000  -74.525914771  163.457826010    25.8562   1  12   0.0212   0.0187   0.0606  -0.0040   0.0049   0.0064   8.00    1.0
2018/11/07 01:25:45.000  -74.525914817  163.457826194    25.8601   1  12   0.0238   0.0222   0.0757  -0.0075  -0.0123  -0.0108   8.00    1.0
2018/11/07 01:26:00.000  -74.525915042  163.457826280    25.8730   1  12   0.0353   0.0351   0.1284  -0.0117  -0.0276  -0.0317   7.00    2.0
2018/11/07 01:26:15.000  -74.525914737  163.457825789    25.8733   6  12   0.0341   0.0351   0.1144  -0.0052  -0.0288  -0.0168   9.00    1.0
2018/11/07 01:26:30.000  -74.525914703  163.457826019    25.8537   6  12   0.0388   0.0397   0.1326  -0.0061  -0.0334  -0.0224   9.00    1.0
2018/11/07 01:26:45.000  -74.525914640  163.457826231    25.8810   6  12   0.0435   0.0443   0.1512  -0.0072  -0.0382  -0.0278   9.00    1.0
2018/11/07 01:27:00.000  -74.525914576  163.457826125    25.8942   6  12   0.0483   0.0490   0.1700  -0.0084  -0.0431  -0.0331   9.00    1.0
2018/11/07 01:27:15.000  -74.525914584  163.457826042    25.9254   6  12   0.0532   0.0538   0.1891  -0.0097  -0.0481  -0.0383   9.00    1.0
2018/11/07 01:27:30.000  -74.525914574  163.457826343    25.9078   6  12   0.0582   0.0586   0.2083  -0.0110  -0.0531  -0.0435   9.00    1.0
2018/11/07 01:27:45.000  -74.525914587  163.457826509    25.9281   6  12   0.0534   0.0538   0.1903  -0.0099  -0.0482  -0.0387   9.00    1.0
2018/11/07 01:28:00.000  -74.525914497  163.457826419    25.9489   6  12   0.0485   0.0490   0.1716  -0.0084  -0.0435  -0.0336   9.00    1.0
2018/11/07 01:28:15.000  -74.525914518  163.457826105    25.8902   6  12   0.0437   0.0443   0.1529  -0.0071  -0.0389  -0.0285   9.00    1.0
2018/11/07 01:28:30.000  -74.525914514  163.457825886    25.8592   6  12   0.0389   0.0396   0.1343  -0.0059  -0.0342  -0.0232   9.00    1.0
2018/11/07 01:28:45.000  -74.525914461  163.457826413    25.8672   6  12   0.0343   0.0350   0.1161  -0.0049  -0.0297  -0.0176   9.00    1.0
2018/11/07 01:29:00.000  -74.525914801  163.457826528    25.8438   1  12   0.0355   0.0351   0.1306  -0.0114  -0.0293  -0.0322   7.00    2.0
2018/11/07 01:29:15.000  -74.525914874  163.457825988    25.8359   1  12   0.0290   0.0286   0.1052  -0.0101  -0.0217  -0.0266   7.00    2.0
2018/11/07 01:29:30.000  -74.525914803  163.457825963    25.8467   1  12   0.0254   0.0235   0.0826  -0.0045  -0.0102  -0.0182   7.00    1.0
2018/11/07 01:29:45.000  -74.525914855  163.457825979    25.8709   1  12   0.0187   0.0178   0.0615  -0.0087  -0.0037  -0.0179   7.00    2.0
2018/11/07 01:30:00.000  -74.525914793  163.457826485    25.8576   1  12   0.0167   0.0196   0.0563  -0.0068  -0.0158  -0.0177   7.00    1.0
2018/11/07 01:30:15.000  -74.525914584  163.457826135    25.8347   6  12   0.0185   0.0193   0.0536  -0.0035  -0.0145   0.0116   9.00    0.0
2018/11/07 01:30:30.000  -74.525914813  163.457826233    25.8482   1  12   0.0253   0.0236   0.0824  -0.0042  -0.0112  -0.0181   7.00    1.0
2018/11/07 01:30:45.000  -74.525914762  163.457826095    25.8661   1  12   0.0308   0.0293   0.1060  -0.0057  -0.0206  -0.0239   7.00    1.0
2018/11/07 01:31:00.000  -74.525914692  163.457825912    25.8383   1  12   0.0370   0.0356   0.1316  -0.0074  -0.0290  -0.0301   7.00    1.0
2018/11/07 01:31:15.000  -74.525914323  163.457826046    25.7937   6  12   0.0340   0.0346   0.1165  -0.0040  -0.0305  -0.0182   9.00    0.0
2018/11/07 01:31:30.000  -74.525914286  163.457826063    25.8349   6  12   0.0387   0.0391   0.1351  -0.0048  -0.0354  -0.0239   9.00    0.0
2018/11/07 01:31:45.000  -74.525914275  163.457826165    25.8716   6  12   0.0435   0.0438   0.1541  -0.0058  -0.0404  -0.0295   9.00    0.0
2018/11/07 01:32:00.000  -74.525914208  163.457826154    25.8688   6  12   0.0483   0.0485   0.1733  -0.0068  -0.0455  -0.0348   9.00    0.0
2018/11/07 01:32:15.000  -74.525914180  163.457826021    25.8248   6  12   0.0532   0.0533   0.1927  -0.0080  -0.0507  -0.0401   8.00    0.0
2018/11/07 01:32:30.000  -74.525914168  163.457826245    25.8046   6  12   0.0582   0.0581   0.2121  -0.0091  -0.0559  -0.0453   8.00    0.0
2018/11/07 01:32:45.000  -74.525914166  163.457826279    25.8070   6  12   0.0532   0.0533   0.1923  -0.0076  -0.0510  -0.0402   8.00    1.0
2018/11/07 01:33:00.000  -74.525914150  163.457826024    25.8206   6  12   0.0483   0.0485   0.1731  -0.0062  -0.0461  -0.0349   8.00    0.0
2018/11/07 01:33:15.000  -74.525914253  163.457825693    25.7813   6  12   0.0434   0.0438   0.1539  -0.0050  -0.0411  -0.0296   8.00    0.0
2018/11/07 01:33:30.000  -74.525914299  163.457825572    25.7725   6  12   0.0387   0.0392   0.1350  -0.0038  -0.0362  -0.0241   8.00    0.0
2018/11/07 01:33:45.000  -74.525914338  163.457825627    25.7768   6  12   0.0340   0.0346   0.1164  -0.0029  -0.0315  -0.0184   8.00    0.0
2018/11/07 01:34:00.000  -74.525914692  163.457825485    25.7788   1  12   0.0370   0.0357   0.1312  -0.0064  -0.0305  -0.0302   8.00    1.0
2018/11/07 01:34:15.000  -74.525914798  163.457825838    25.7937   1  12   0.0308   0.0294   0.1055  -0.0046  -0.0224  -0.0239   8.00    1.0
2018/11/07 01:34:30.000  -74.525914807  163.457825793    25.8343   1  12   0.0253   0.0238   0.0817  -0.0025  -0.0136  -0.0181   8.00    1.0
2018/11/07 01:34:45.000  -74.525914787  163.457825847    25.8468   1  12   0.0212   0.0191   0.0620   0.0016   0.0041  -0.0133   8.00    1.0
2018/11/07 01:35:00.000  -74.525914784  163.457826160    25.8569   1  12   0.0195   0.0171   0.0514   0.0024   0.0102  -0.0110   8.00    1.0
2018/11/07 01:35:15.000  -74.525914816  163.457826191    25.8556   1  12   0.0212   0.0194   0.0619   0.0020   0.0031  -0.0132   8.00    1.0
2018/11/07 01:35:30.000  -74.525914803  163.457825842    25.8398   1  12   0.0247   0.0235   0.0808   0.0042  -0.0156  -0.0161   8.00    2.0
2018/11/07 01:35:45.000  -74.525914776  163.457825752    25.8337   1  12   0.0302   0.0293   0.1047   0.0025  -0.0239  -0.0224   8.00    2.0
2018/11/07 01:36:00.000  -74.525914784  163.457825477    25.8311   1  12   0.0365   0.0356   0.1304  -0.0033  -0.0319  -0.0290   8.00    2.0
2018/11/07 01:36:15.000  -74.525914440  163.457825458    25.8390   6  12   0.0338   0.0342   0.1162  -0.0016  -0.0320  -0.0187   8.00    0.0
2018/11/07 01:36:30.000  -74.525914431  163.457825102    25.8568   6  12   0.0385   0.0387   0.1347  -0.0025  -0.0369  -0.0245   8.00    0.0
2018/11/07 01:36:45.000  -74.525914452  163.457825082    25.8421   6  12   0.0432   0.0433   0.1536  -0.0035  -0.0420  -0.0300   8.00    0.0
2018/11/07 01:37:00.000  -74.525914461  163.457825439    25.8307   6  12   0.0481   0.0480   0.1726  -0.0045  -0.0472  -0.0353   8.00    0.0
2018/11/07 01:37:15.000  -74.525914477  163.457825297    25.8502   6  12   0.0530   0.0528   0.1918  -0.0056  -0.0525  -0.0405   8.00    0.0
2018/11/07 01:37:30.000  -74.525914520  163.457825616    25.8079   6  12   0.0580   0.0577   0.2110  -0.0066  -0.0578  -0.0457   8.00    0.0
2018/11/07 01:37:45.000  -74.525914503  163.457825355    25.8079   6  12   0.0530   0.0528   0.1916  -0.0051  -0.0524  -0.0404   8.00    0.0
2018/11/07 01:38:00.000  -74.525914489  163.457825011    25.8082   6  12   0.0480   0.0480   0.1723  -0.0037  -0.0473  -0.0352   8.00    0.0
2018/11/07 01:38:15.000  -74.525914479  163.457824847    25.8192   6  12   0.0432   0.0433   0.1532  -0.0022  -0.0422  -0.0298   8.00    0.0
2018/11/07 01:38:30.000  -74.525914529  163.457824665    25.8290   6  12   0.0384   0.0386   0.1343   0.0011  -0.0372  -0.0243   8.00    0.0
2018/11/07 01:38:45.000  -74.525914606  163.457825039    25.8233   6  12   0.0337   0.0341   0.1159   0.0020  -0.0323  -0.0185   8.00    0.0
2018/11/07 01:39:00.000  -74.525914994  163.457824899    25.8301   1  12   0.0370   0.0358   0.1303  -0.0043  -0.0318  -0.0300   8.00    1.0
2018/11/07 01:39:15.000  -74.525914950  163.457825167    25.8359   1  12   0.0309   0.0296   0.1049  -0.0026  -0.0238  -0.0237   8.00    1.0
2018/11/07 01:39:30.000  -74.525914806  163.457825702    25.8294   1  12   0.0242   0.0221   0.0797  -0.0086  -0.0200  -0.0214   8.00    2.0
2018/11/07 01:39:45.000  -74.525914772  163.457826026    25.8415   1  12   0.0200   0.0173   0.0597  -0.0082  -0.0137  -0.0177   8.00    2.0
2018/11/07 01:40:00.000  -74.525914813  163.457826452    25.8687   1  12   0.0153   0.0137   0.0473  -0.0045  -0.0126  -0.0126   8.00    3.0
2018/11/07 01:40:15.000  -74.525914835  163.457826400    25.8769   1  12   0.0176   0.0165   0.0586  -0.0048  -0.0160  -0.0143   8.00    3.0
2018/11/07 01:40:30.000  -74.525914860  163.457826117    25.8788   1  12   0.0225   0.0217   0.0787  -0.0052  -0.0217  -0.0187   8.00    3.0
2018/11/07 01:40:45.000  -74.525914838  163.457825756    25.8664   1  12   0.0285   0.0277   0.1025  -0.0061  -0.0284  -0.0243   8.00    3.0
2018/11/07 01:41:00.000  -74.525914757  163.457826099    25.8732   1  12   0.0350   0.0343   0.1278  -0.0067  -0.0355  -0.0304   8.00    3.0
2018/11/07 01:41:15.000  -74.525914233  163.457825872    25.8631   6  12   0.0336   0.0337   0.1151   0.0028  -0.0326  -0.0186   8.00    0.0
2018/11/07 01:41:30.000  -74.525914196  163.457826212    25.8328   6  12   0.0382   0.0382   0.1330   0.0025  -0.0376  -0.0242   8.00    0.0
2018/11/07 01:41:45.000  -74.525914169  163.457826332    25.8579   6  12   0.0430   0.0428   0.1513   0.0019  -0.0426  -0.0296   8.00    0.0
2018/11/07 01:42:00.000  -74.525914099  163.457826481    25.8339   6  12   0.0479   0.0475   0.1697  -0.0009  -0.0477  -0.0348   8.00    0.0
2018/11/07 01:42:15.000  -74.525914115  163.457826098    25.8511   6  12   0.0528   0.0523   0.1882  -0.0025  -0.0529  -0.0399   8.00    0.0
2018/11/07 01:42:30.000  -74.525914128  163.457826224    25.8362   6  12   0.0578   0.0571   0.2067  -0.0036  -0.0582  -0.0448   8.00    0.0
2018/11/07 01:42:45.000  -74.525914211  163.457826335    25.8413   6  12   0.0528   0.0523   0.1874  -0.0019  -0.0530  -0.0395   8.00    0.0
2018/11/07 01:43:00.000  -74.525914200  163.457826351    25.8353   6  12   0.0479   0.0475   0.1685   0.0018  -0.0479  -0.0343   8.00    0.0
2018/11/07 01:43:15.000  -74.525914313  163.457826840    25.8551   6  12   0.0430   0.0427   0.1499   0.0029  -0.0427  -0.0290   8.00    0.0
2018/11/07 01:43:30.000  -74.525914329  163.457826737    25.8425   6  12   0.0382   0.0381   0.1317   0.0033  -0.0378  -0.0236   8.00    0.0
2018/11/07 01:43:45.000  -74.525914398  163.457826412    25.8747   6  12   0.0336   0.0336   0.1139   0.0034  -0.0330  -0.0179   8.00    0.0
2018/11/07 01:44:00.000  -74.525914731  163.457825889    25.9161   1  12   0.0354   0.0372   0.1290  -0.0089  -0.0411  -0.0283   8.00    2.0
2018/11/07 01:44:15.000  -74.525914884  163.457826239    25.9240   1  12   0.0289   0.0313   0.1050  -0.0084  -0.0353  -0.0220   8.00    2.0
2018/11/07 01:44:30.000  -74.525914899  163.457826322    25.9219   1  12   0.0230   0.0260   0.0833  -0.0081  -0.0303  -0.0162   8.00    2.0
